$FW : RTK35X,V1.1X0314AS,Lib20210517,1*54
$Tool : LOCOSYS , GNSS Firebird , v1.0.0.19*39
$---------------------------------------------------*2D
.9*1B
$PAIRSAT,1,30,2,0,201,3,0,200,4,0,221,5,0,200,6,0,200,7,0,201,8,0,221,9,0,21,14,0,200,15,0,200,16,0,201,17,0,200,18,0,200,19,0,200,20,0,200,21,0,201,22,0,200,23,0,200,24,0,200,25,0,200,26,0,221,27,0,221,28,0,200,29,0,200,30,0,200,31,0,1,194,0,621,195,0,621,196,0,220,199,0,600*45
$PAIRSAT,2,17,70,0,200,71,0,200,72,0,200,73,0,200,74,0,200,75,0,200,76,0,200,77,0,201,78,0,201,79,0,201,82,0,200,83,0,200,84,0,200,85,0,200,86,0,200,87,0,201,88,0,201*57
$PAIRSAT,3,20,2,0,1200,3,0,1200,4,0,1200,5,0,200,7,0,1200,8,0,1200,9,0,1200,10,0,200,13,0,21,15,0,21,19,0,21,21,0,221,25,0,1200,26,0,1221,27,0,1221,30,0,1200,31,0,1200,33,0,1200,34,0,1200,36,0,1200*70
$PAIRSAT,4,46,1,0,200,2,0,200,3,0,400,4,0,200,5,0,200,6,0,201,7,0,201,8,0,200,9,0,201,10,0,201,11,0,201,12,0,200,13,0,200,14,0,200,16,0,201,19,0,400,20,0,400,21,0,400,22,0,400,23,0,421,24,0,600,25,0,621,26,0,600,27,0,400,28,0,621,29,0,600,30,0,600,32,0,600,33,0,600,34,0,621,35,0,600,36,0,600,37,0,600,38,0,600,39,0,421,40,0,421,41,0,400,42,0,400,43,0,421,44,0,400,45,0,400,46,0,400,59,0,400,60,0,400,61,0,400,62,0,400*48
$PAIRDGP,8,2,4,7,8,9,16,21,27*7C
$GNGGA,032115.100,2500.7868342,N,12132.4710038,E,2,55,0.47,16.605,M,15.25,M,1,3335*4E
$GNRMC,032115.100,A,2500.7868342,N,12132.4710038,E,0.06,46.08,090324,,,D,V*33
$GPHDT,,T*1B
$GNACCURACY,4.9*1B
$GNGGA,032115.200,2500.7868342,N,12132.4710038,E,2,55,0.47,16.605,M,15.25,M,1,3335*4D
$GNRMC,032115.200,A,2500.7868342,N,12132.4710038,E,0.22,46.08,090324,,,D,V*36
$GPHDT,,T*1B
$GNACCURACY,4.9*1B
$GNGGA,032115.300,2500.7868342,N,12132.4709978,E,2,55,0.47,16.606,M,15.25,M,1,3335*4A
$GNRMC,032115.300,A,2500.7868342,N,12132.4709978,E,0.12,46.08,090324,,,D,V*31
$GPHDT,,T*1B
$GNACCURACY,4.9*1B
$GNGGA,032115.400,2500.7868342,N,12132.4710038,E,2,55,0.47,16.607,M,15.25,M,1,3335*49
$GNRMC,032115.400,A,2500.7868342,N,12132.4710038,E,0.03,46.08,090324,,,D,V*33
$GPHDT,,T*1B
$GNACCURACY,4.9*1B
$GNGGA,032115.500,2500.7868342,N,12132.4710038,E,2,54,0.47,16.607,M,15.25,M,1,3335*49
$GNRMC,032115.500,A,2500.7868342,N,12132.4710038,E,0.15,46.08,090324,,,D,V*35
$GPHDT,,T*1B
$GNACCURACY,4.9*1B
$GNGGA,032115.600,2500.7868342,N,12132.4710038,E,2,54,0.47,16.606,M,15.25,M,0,3335*4A
$GNRMC,032115.600,A,2500.7868342,N,12132.4710038,E,0.08,46.08,090324,,,D,V*3A
$GPHDT,,T*1B
$GNACCURACY,4.9*1B
$GNGGA,032115.700,2500.7868342,N,12132.4710038,E,2,54,0.47,16.604,M,15.25,M,0,3335*49
$GNRMC,032115.700,A,2500.7868342,N,12132.4710038,E,0.19,46.08,090324,,,D,V*3B
$GPHDT,,T*1B
$GNACCURACY,4.9*1B
$GNGGA,032115.800,2500.7868342,N,12132.4710038,E,2,54,0.47,16.603,M,15.25,M,0,3335*41
$GNRMC,032115.800,A,2500.7868342,N,12132.4710038,E,0.05,46.08,090324,,,D,V*39
$GPHDT,,T*1B
$GNACCURACY,4.9*1B
$GNGGA,032115.900,2500.7868342,N,12132.4710038,E,2,54,0.47,16.604,M,15.25,M,0,3335*47
$GNRMC,032115.900,A,2500.7868342,N,12132.4710038,E,0.14,46.08,090324,,,D,V*38
$GPHDT,,T*1B
$GNACCURACY,4.9*1B
$GNGGA,032116.000,2500.7868342,N,12132.4710038,E,2,55,0.47,16.603,M,15.25,M,1,3335*4A
$GNRMC,032116.000,A,2500.7868342,N,12132.4710038,E,0.03,46.08,090324,,,D,V*34
$GPHDT,,T*1B
$GNGSA,A,3,08,194,195,27,16,21,04,09,02,07,196,26,0.75,0.47,0.58,1*37
$GNGSA,A,3,31,,,,,,,,,,,,0.75,0.47,0.58,1*0F
$GNGSA,A,3,88,78,77,87,79,,,,,,,,0.75,0.47,0.58,2*00
$GNGSA,A,3,21,13,19,27,26,15,,,,,,,0.75,0.47,0.58,3*03
$GNGSA,A,3,06,16,43,09,39,40,07,23,10,11,25,28,0.75,0.47,0.58,4*03
$GNGSA,A,3,34,,,,,,,,,,,,0.75,0.47,0.58,4*0F
$GPGSV,4,1,15,08,72,294,28,199,66,164,,194,63,045,32,195,57,124,17,1*58
$GPGSV,4,2,15,27,53,026,28,45,47,231,39,16,36,052,35,21,36,171,41,1*64
$GPGSV,4,3,15,04,34,219,34,09,31,270,26,02,25,182,36,07,23,320,17,1*69
$GPGSV,4,4,15,196,21,174,34,26,18,081,31,31,17,135,26,1*69
$GPGSV,2,1,08,08,72,294,30,194,63,045,23,195,57,124,35,27,53,026,22,8*67
$GPGSV,2,2,08,04,34,219,34,09,31,270,22,196,21,174,28,26,18,081,30,8*57
$GLGSV,2,1,05,88,72,088,35,78,44,001,18,77,33,082,21,87,24,031,19,1*70
$GLGSV,2,2,05,79,10,317,17,1*41
$GAGSV,2,1,07,21,50,345,18,13,48,112,26,19,37,260,14,27,34,059,35,7*77
$GAGSV,2,2,07,26,25,175,29,15,24,051,33,04,09,314,,7*42
$GAGSV,2,1,05,13,48,112,28,19,37,260,19,27,34,059,32,26,25,175,31,1*78
$GAGSV,2,2,05,15,24,051,30,1*45
$GBGSV,4,1,13,06,83,231,32,16,80,188,30,43,76,071,26,09,74,306,27,1*7E
$GBGSV,4,2,13,39,69,174,24,40,67,313,18,07,63,291,23,23,59,353,20,1*7D
$GBGSV,4,3,13,10,52,274,32,11,51,048,18,25,48,092,41,28,36,206,41,1*7F
$GBGSV,4,4,13,34,28,041,28,1*46
$GBGSV,1,1,04,39,69,174,18,25,48,092,25,28,36,206,31,34,28,041,32,4*7E
$GNACCURACY,5.0*13
$PAIRSAT,1,30,2,0,201,3,0,200,4,0,221,5,0,200,6,0,200,7,0,201,8,0,221,9,0,21,14,0,200,15,0,200,16,0,201,17,0,200,18,0,200,19,0,200,20,0,200,21,0,201,22,0,200,23,0,200,24,0,200,25,0,200,26,0,221,27,0,221,28,0,200,29,0,200,30,0,200,31,0,1,194,0,621,195,0,621,196,0,220,199,0,600*45
$PAIRSAT,2,17,70,0,200,71,0,200,72,0,200,73,0,200,74,0,200,75,0,200,76,0,200,77,0,201,78,0,201,79,0,201,82,0,200,83,0,200,84,0,200,85,0,200,86,0,200,87,0,201,88,0,201*57
$PAIRSAT,3,20,2,0,1200,3,0,1200,4,0,1200,5,0,200,7,0,1200,8,0,1200,9,0,1200,10,0,200,13,0,21,15,0,21,19,0,21,21,0,221,25,0,1200,26,0,1221,27,0,1221,30,0,1200,31,0,1200,33,0,1200,34,0,1200,36,0,1200*70
$PAIRSAT,4,46,1,0,200,2,0,200,3,0,400,4,0,200,5,0,200,6,0,201,7,0,201,8,0,200,9,0,201,10,0,201,11,0,201,12,0,200,13,0,200,14,0,200,16,0,201,19,0,400,20,0,400,21,0,400,22,0,400,23,0,421,24,0,600,25,0,621,26,0,600,27,0,400,28,0,621,29,0,600,30,0,600,32,0,600,33,0,600,34,0,621,35,0,600,36,0,600,37,0,600,38,0,600,39,0,421,40,0,421,41,0,400,42,0,400,43,0,421,44,0,400,45,0,400,46,0,400,59,0,400,60,0,400,61,0,400,62,0,400*48
$PAIRDGP,8,2,4,7,8,9,16,21,27*7C
$GNGGA,032116.100,2500.7868342,N,12132.4710038,E,2,54,0.47,16.601,M,15.25,M,1,3335*48
$GNRMC,032116.100,A,2500.7868342,N,12132.4710038,E,0.03,46.08,090324,,,D,V*35
$GPHDT,,T*1B
$GNACCURACY,5.0*13
$GNGGA,032116.200,2500.7868342,N,12132.4710038,E,2,54,0.47,16.600,M,15.25,M,1,3335*4A
$GNRMC,032116.200,A,2500.7868342,N,12132.4710038,E,0.12,46.08,090324,,,D,V*36
$GPHDT,,T*1B
$GNACCURACY,5.0*13
$GNGGA,032116.300,2500.7868282,N,12132.4710038,E,2,54,0.47,16.600,M,15.25,M,1,3335*46
$GNRMC,032116.300,A,2500.7868282,N,12132.4710038,E,0.06,46.08,090324,,,D,V*3F
$GPHDT,,T*1B
$GNACCURACY,5.0*13
$GNGGA,032116.400,2500.7868282,N,12132.4710038,E,2,54,0.47,16.601,M,15.25,M,1,3335*40
$GNRMC,032116.400,A,2500.7868282,N,12132.4710038,E,0.11,46.08,090324,,,D,V*3E
$GPHDT,,T*1B
$GNACCURACY,5.0*13
$GNGGA,032116.500,2500.7868282,N,12132.4709978,E,2,54,0.47,16.603,M,15.25,M,0,3335*47
$GNRMC,032116.500,A,2500.7868282,N,12132.4709978,E,0.09,46.08,090324,,,D,V*33
$GPHDT,,T*1B
$GNACCURACY,5.0*13
$GNGGA,032116.600,2500.7868342,N,12132.4709978,E,2,54,0.47,16.604,M,15.25,M,0,3335*4E
$GNRMC,032116.600,A,2500.7868342,N,12132.4709978,E,0.03,46.08,090324,,,D,V*37
$GPHDT,,T*1B
$GNACCURACY,5.0*13
$GNGGA,032116.700,2500.7868342,N,12132.4709978,E,2,54,0.47,16.604,M,15.25,M,0,3335*4F
$GNRMC,032116.700,A,2500.7868342,N,12132.4709978,E,0.04,46.08,090324,,,D,V*31
$GPHDT,,T*1B
$GNACCURACY,5.0*13
$GNGGA,032116.800,2500.7868342,N,12132.4709978,E,2,54,0.47,16.603,M,15.25,M,0,3335*47
$GNRMC,032116.800,A,2500.7868342,N,12132.4709978,E,0.09,46.08,090324,,,D,V*33
$GPHDT,,T*1B
$GNACCURACY,5.0*13
$GNGGA,032116.900,2500.7868342,N,12132.4710038,E,2,54,0.47,16.602,M,15.25,M,0,3335*42
$GNRMC,032116.900,A,2500.7868342,N,12132.4710038,E,0.18,46.08,090324,,,D,V*37
$GPHDT,,T*1B
$GNACCURACY,5.1*12
$GNGGA,032117.000,2500.7868342,N,12132.4710038,E,2,54,0.47,16.601,M,15.25,M,1,3335*48
$GNRMC,032117.000,A,2500.7868342,N,12132.4710038,E,0.23,46.08,090324,,,D,V*37
$GPHDT,,T*1B
$GNGSA,A,3,08,194,195,27,16,21,04,09,02,07,196,26,0.75,0.47,0.58,1*37
$GNGSA,A,3,31,,,,,,,,,,,,0.75,0.47,0.58,1*0F
$GNGSA,A,3,88,78,77,87,79,,,,,,,,0.75,0.47,0.58,2*00
$GNGSA,A,3,21,13,19,27,26,15,,,,,,,0.75,0.47,0.58,3*03
$GNGSA,A,3,06,16,43,09,39,40,07,23,10,11,25,28,0.75,0.47,0.58,4*03
$GNGSA,A,3,34,,,,,,,,,,,,0.75,0.47,0.58,4*0F
$GPGSV,4,1,15,08,72,294,28,199,66,164,,194,63,045,33,195,57,124,19,1*57
$GPGSV,4,2,15,27,53,026,27,45,47,231,40,16,36,052,32,21,36,171,41,1*62
$GPGSV,4,3,15,04,34,219,35,09,31,270,26,02,25,182,39,07,23,320,17,1*67
$GPGSV,4,4,15,196,21,174,37,26,18,081,28,31,17,135,25,1*61
$GPGSV,2,1,08,08,72,294,30,194,63,045,24,195,57,124,36,27,53,026,22,8*63
$GPGSV,2,2,08,04,34,219,34,09,31,270,22,196,21,174,25,26,18,081,29,8*52
$GLGSV,2,1,05,88,72,088,31,78,44,001,15,77,33,082,21,87,24,031,20,1*73
$GLGSV,2,2,05,79,10,317,19,1*4F
$GAGSV,2,1,07,21,50,345,12,13,48,112,24,19,37,260,14,27,34,059,35,7*7F
$GAGSV,2,2,07,26,25,175,28,15,24,051,28,04,09,314,,7*49
$GAGSV,2,1,05,13,48,112,25,19,37,260,21,27,34,059,33,26,25,175,32,1*7C
$GAGSV,2,2,05,15,24,051,27,1*43
$GBGSV,4,1,13,06,83,231,32,16,80,188,28,43,76,071,29,09,74,306,27,1*78
$GBGSV,4,2,13,39,69,174,23,40,67,313,18,07,63,291,20,23,59,353,18,1*72
$GBGSV,4,3,13,10,52,274,31,11,51,048,22,25,48,092,36,28,36,206,41,1*75
$GBGSV,4,4,13,34,28,041,23,1*4D
$GBGSV,1,1,04,39,69,174,25,25,48,092,27,28,36,206,32,34,28,041,27,4*75
$GNACCURACY,5.1*12
$PAIRSAT,1,30,2,0,201,3,0,200,4,0,221,5,0,200,6,0,200,7,0,201,8,0,221,9,0,21,14,0,200,15,0,200,16,0,201,17,0,200,18,0,200,19,0,200,20,0,200,21,0,201,22,0,200,23,0,200,24,0,200,25,0,200,26,0,221,27,0,221,28,0,200,29,0,200,30,0,200,31,0,1,194,0,621,195,0,621,196,0,220,199,0,600*45
$PAIRSAT,2,17,70,0,200,71,0,200,72,0,200,73,0,200,74,0,200,75,0,200,76,0,200,77,0,201,78,0,201,79,0,201,82,0,200,83,0,200,84,0,200,85,0,200,86,0,200,87,0,201,88,0,201*57
$PAIRSAT,3,20,2,0,1200,3,0,1200,4,0,1200,5,0,200,7,0,1200,8,0,1200,9,0,1200,10,0,200,13,0,21,15,0,21,19,0,21,21,0,221,25,0,1200,26,0,1221,27,0,1221,30,0,1200,31,0,1200,33,0,1200,34,0,1200,36,0,1200*70
$PAIRSAT,4,46,1,0,200,2,0,200,3,0,400,4,0,200,5,0,200,6,0,201,7,0,201,8,0,200,9,0,201,10,0,201,11,0,201,12,0,200,13,0,200,14,0,200,16,0,201,19,0,400,20,0,400,21,0,400,22,0,400,23,0,421,24,0,600,25,0,621,26,0,600,27,0,400,28,0,621,29,0,600,30,0,600,32,0,600,33,0,600,34,0,621,35,0,600,36,0,600,37,0,600,38,0,600,39,0,421,40,0,421,41,0,400,42,0,400,43,0,421,44,0,400,45,0,400,46,0,400,59,0,400,60,0,400,61,0,400,62,0,400*48
$PAIRDGP,8,2,4,7,8,9,16,21,27*7C
$GNGGA,032117.100,2500.7868402,N,12132.4709978,E,2,54,0.47,16.599,M,15.25,M,1,3335*4D
$GNRMC,032117.100,A,2500.7868402,N,12132.4709978,E,0.05,46.08,090324,,,D,V*34
$GPHDT,,T*1B
$GNACCURACY,5.1*12
$GNGGA,032117.200,2500.7868402,N,12132.4709978,E,2,55,0.47,16.600,M,15.25,M,1,3335*4C
$GNRMC,032117.200,A,2500.7868402,N,12132.4709978,E,0.12,46.08,090324,,,D,V*31
$GPHDT,,T*1B
$GNACCURACY,5.1*12
$GNGGA,032117.300,2500.7868342,N,12132.4709978,E,2,54,0.47,16.599,M,15.25,M,1,3335*4C
$GNRMC,032117.300,A,2500.7868342,N,12132.4709978,E,0.07,46.08,090324,,,D,V*37
$GPHDT,,T*1B
$GNACCURACY,5.1*12
$GNGGA,032117.400,2500.7868342,N,12132.4710038,E,2,54,0.47,16.601,M,15.25,M,1,3335*4C
$GNRMC,032117.400,A,2500.7868342,N,12132.4710038,E,0.11,46.08,090324,,,D,V*32
$GPHDT,,T*1B
$GNACCURACY,5.1*12
$GNGGA,032117.500,2500.7868342,N,12132.4710038,E,2,54,0.50,16.603,M,15.25,M,0,3335*48
$GNRMC,032117.500,A,2500.7868342,N,12132.4710038,E,0.13,46.08,090324,,,D,V*31
$GPHDT,,T*1B
$GNACCURACY,5.1*12
$GNGGA,032117.600,2500.7868342,N,12132.4709978,E,2,54,0.50,16.606,M,15.25,M,0,3335*4B
$GNRMC,032117.600,A,2500.7868342,N,12132.4709978,E,0.04,46.08,090324,,,D,V*31
$GPHDT,,T*1B
$GNACCURACY,5.1*12
$GNGGA,032117.700,2500.7868342,N,12132.4709978,E,2,54,0.50,16.606,M,15.25,M,0,3335*4A
$GNRMC,032117.700,A,2500.7868342,N,12132.4709978,E,0.09,46.08,090324,,,D,V*3D
$GPHDT,,T*1B
$GNACCURACY,5.2*11
$GNGGA,032117.800,2500.7868282,N,12132.4709978,E,2,54,0.50,16.608,M,15.25,M,0,3335*46
$GNRMC,032117.800,A,2500.7868282,N,12132.4709978,E,0.27,46.08,090324,,,D,V*33
$GPHDT,,T*1B
$GNACCURACY,5.2*11
$GNGGA,032117.900,2500.7868222,N,12132.4710038,E,2,54,0.50,16.611,M,15.25,M,0,3335*40
$GNRMC,032117.900,A,2500.7868222,N,12132.4710038,E,0.20,46.08,090324,,,D,V*3A
$GPHDT,,T*1B
$GNACCURACY,5.2*11
$GNGGA,032118.000,2500.7868222,N,12132.4710038,E,2,54,0.50,16.612,M,15.25,M,1,3335*44
$GNRMC,032118.000,A,2500.7868222,N,12132.4710038,E,0.09,46.08,090324,,,D,V*37
$GPHDT,,T*1B
$GNGSA,A,3,08,194,195,27,16,21,04,09,02,196,26,31,0.78,0.50,0.60,1*32
$GNGSA,A,3,88,78,77,87,79,,,,,,,,0.78,0.50,0.60,2*00
$GNGSA,A,3,21,13,19,27,26,15,,,,,,,0.78,0.50,0.60,3*03
$GNGSA,A,3,06,16,43,09,39,40,07,23,10,11,25,28,0.78,0.50,0.60,4*03
$GNGSA,A,3,34,,,,,,,,,,,,0.78,0.50,0.60,4*0F
$GPGSV,4,1,15,08,72,294,29,199,66,164,,194,63,045,34,195,57,124,21,1*5A
$GPGSV,4,2,15,27,53,026,26,45,47,231,39,16,36,052,31,21,36,171,41,1*6E
$GPGSV,4,3,15,04,34,219,34,09,31,270,28,02,25,182,39,07,23,320,15,1*6A
$GPGSV,4,4,15,196,21,174,36,26,18,081,29,31,17,135,24,1*60
$GPGSV,2,1,08,08,72,294,30,194,63,045,24,195,57,124,36,27,53,026,25,8*64
$GPGSV,2,2,08,04,34,219,34,09,31,270,20,196,21,174,27,26,18,081,29,8*52
$GLGSV,2,1,05,88,72,088,34,78,44,001,20,77,33,082,23,87,24,031,21,1*73
$GLGSV,2,2,05,79,10,317,20,1*45
$GAGSV,2,1,07,21,50,345,12,13,48,112,23,19,37,260,14,27,34,060,33,7*74
$GAGSV,2,2,07,26,25,175,25,15,24,051,30,04,09,314,,7*4D
$GAGSV,2,1,05,13,48,112,25,19,37,260,20,27,34,060,33,26,25,175,30,1*75
$GAGSV,2,2,05,15,24,051,31,1*44
$GBGSV,4,1,13,06,83,231,32,16,80,188,29,43,76,071,26,09,74,306,27,1*76
$GBGSV,4,2,13,39,69,174,23,40,67,313,19,07,63,291,21,23,59,353,18,1*72
$GBGSV,4,3,13,10,52,274,32,11,51,048,25,25,48,092,38,28,36,206,41,1*7F
$GBGSV,4,4,13,34,28,041,18,1*45
$GBGSV,2,1,06,43,76,071,28,39,69,174,24,40,67,313,22,25,48,092,26,4*7D
$GBGSV,2,2,06,28,36,206,32,34,28,041,27,4*72
$GNACCURACY,5.2*11
$PAIRSAT,1,30,2,0,201,3,0,200,4,0,221,5,0,200,6,0,200,7,0,201,8,0,221,9,0,21,14,0,200,15,0,200,16,0,201,17,0,200,18,0,200,19,0,200,20,0,200,21,0,201,22,0,200,23,0,200,24,0,200,25,0,200,26,0,221,27,0,221,28,0,200,29,0,200,30,0,200,31,0,1,194,0,621,195,0,621,196,0,220,199,0,600*45
$PAIRSAT,2,17,70,0,200,71,0,200,72,0,200,73,0,200,74,0,200,75,0,200,76,0,200,77,0,201,78,0,201,79,0,201,82,0,200,83,0,200,84,0,200,85,0,200,86,0,200,87,0,201,88,0,201*57
$PAIRSAT,3,20,2,0,1200,3,0,1200,4,0,1200,5,0,200,7,0,1200,8,0,1200,9,0,1200,10,0,200,13,0,21,15,0,21,19,0,21,21,0,221,25,0,1200,26,0,1221,27,0,1221,30,0,1200,31,0,1200,33,0,1200,34,0,1200,36,0,1200*70
$PAIRSAT,4,46,1,0,200,2,0,200,3,0,400,4,0,200,5,0,200,6,0,201,7,0,201,8,0,200,9,0,201,10,0,201,11,0,201,12,0,200,13,0,200,14,0,200,16,0,201,19,0,400,20,0,400,21,0,400,22,0,400,23,0,421,24,0,600,25,0,621,26,0,600,27,0,400,28,0,621,29,0,600,30,0,600,32,0,600,33,0,600,34,0,621,35,0,600,36,0,600,37,0,600,38,0,600,39,0,421,40,0,421,41,0,400,42,0,400,43,0,421,44,0,400,45,0,400,46,0,400,59,0,400,60,0,400,61,0,400,62,0,400*48
$PAIRDGP,8,2,4,7,8,9,16,21,27*7C
$GNGGA,032118.100,2500.7868222,N,12132.4710098,E,2,54,0.50,16.610,M,15.25,M,1,3335*4D
$GNRMC,032118.100,A,2500.7868222,N,12132.4710098,E,0.13,46.08,090324,,,D,V*37
$GPHDT,,T*1B
$GNACCURACY,5.2*11
$GNGGA,032118.200,2500.7868162,N,12132.4710098,E,2,54,0.50,16.615,M,15.25,M,1,3335*4C
$GNRMC,032118.200,A,2500.7868162,N,12132.4710098,E,0.07,46.08,090324,,,D,V*36
$GPHDT,,T*1B
$GNACCURACY,5.2*11
$GNGGA,032118.300,2500.7868162,N,12132.4710098,E,2,54,0.50,16.615,M,15.25,M,1,3335*4D
$GNRMC,032118.300,A,2500.7868162,N,12132.4710098,E,0.04,46.08,090324,,,D,V*34
$GPHDT,,T*1B
$GNACCURACY,5.2*11
$GNGGA,032118.400,2500.7868162,N,12132.4710098,E,2,54,0.50,16.618,M,15.25,M,1,3335*47
$GNRMC,032118.400,A,2500.7868162,N,12132.4710098,E,0.08,46.08,090324,,,D,V*3F
$GPHDT,,T*1B
$GNACCURACY,5.2*11
$GNGGA,032118.500,2500.7868162,N,12132.4710098,E,2,54,0.50,16.618,M,15.25,M,1,3335*46
$GNRMC,032118.500,A,2500.7868162,N,12132.4710098,E,0.07,46.08,090324,,,D,V*31
$GPHDT,,T*1B
$GNACCURACY,5.2*11
$GNGGA,032118.600,2500.7868222,N,12132.4710098,E,2,55,0.50,16.617,M,15.25,M,0,3335*4D
$GNRMC,032118.600,A,2500.7868222,N,12132.4710098,E,0.08,46.08,090324,,,D,V*3A
$GPHDT,,T*1B
$GNACCURACY,5.2*11
$GNGGA,032118.700,2500.7868162,N,12132.4710098,E,2,56,0.50,16.615,M,15.25,M,0,3335*4A
$GNRMC,032118.700,A,2500.7868162,N,12132.4710098,E,0.16,46.08,090324,,,D,V*33
$GPHDT,,T*1B
$GNACCURACY,5.2*11
$GNGGA,032118.800,2500.7868222,N,12132.4710098,E,2,56,0.50,16.611,M,15.25,M,0,3335*46
$GNRMC,032118.800,A,2500.7868222,N,12132.4710098,E,0.15,46.08,090324,,,D,V*38
$GPHDT,,T*1B
$GNACCURACY,5.2*11
$GNGGA,032118.900,2500.7868222,N,12132.4710038,E,2,55,0.50,16.608,M,15.25,M,0,3335*46
$GNRMC,032118.900,A,2500.7868222,N,12132.4710038,E,0.14,46.08,090324,,,D,V*32
$GPHDT,,T*1B
$GNACCURACY,5.2*11
$GNGGA,032119.000,2500.7868282,N,12132.4710038,E,2,55,0.50,16.608,M,15.25,M,1,3335*45
$GNRMC,032119.000,A,2500.7868282,N,12132.4710038,E,0.04,46.08,090324,,,D,V*31
$GPHDT,,T*1B
$GNGSA,A,3,08,194,195,16,21,04,09,02,196,26,31,27,0.78,0.50,0.60,1*32
$GNGSA,A,3,88,78,77,87,79,,,,,,,,0.78,0.50,0.60,2*00
$GNGSA,A,3,21,13,19,27,26,15,,,,,,,0.78,0.50,0.60,3*03
$GNGSA,A,3,06,16,43,09,39,40,07,23,10,11,25,28,0.78,0.50,0.60,4*03
$GNGSA,A,3,34,,,,,,,,,,,,0.78,0.50,0.60,4*0F
$GPGSV,4,1,15,08,72,294,29,199,66,164,,194,63,045,34,195,57,124,19,1*51
$GPGSV,4,2,15,27,53,026,25,45,47,231,39,16,36,052,32,21,36,171,41,1*6E
$GPGSV,4,3,15,04,34,219,33,09,31,270,27,02,25,182,38,07,23,320,13,1*65
$GPGSV,4,4,15,196,21,174,37,26,18,081,31,31,17,135,24,1*68
$GPGSV,2,1,08,08,72,294,30,194,63,045,24,195,57,124,36,27,53,026,24,8*65
$GPGSV,2,2,08,04,34,219,34,09,31,270,20,196,21,174,28,26,18,081,30,8*55
$GLGSV,2,1,05,88,72,088,35,78,44,001,22,77,33,082,22,87,24,031,21,1*71
$GLGSV,2,2,05,79,10,317,22,1*47
$GAGSV,2,1,07,21,50,345,12,13,48,112,24,19,37,260,14,27,34,060,33,7*73
$GAGSV,2,2,07,26,25,175,28,15,24,051,32,04,09,314,,7*42
$GAGSV,2,1,05,13,48,112,23,19,37,260,20,27,34,060,29,26,25,175,30,1*78
$GAGSV,2,2,05,15,24,051,28,1*4C
$GBGSV,4,1,13,06,83,231,32,16,80,188,31,43,76,071,24,09,74,306,26,1*7C
$GBGSV,4,2,13,39,69,174,24,40,67,313,19,07,63,291,19,23,59,353,17,1*71
$GBGSV,4,3,13,10,52,274,31,11,51,048,23,25,48,092,37,28,36,206,41,1*75
$GBGSV,4,4,13,34,28,041,35,1*4A
$GBGSV,2,1,06,43,76,071,25,39,69,174,24,40,67,313,22,25,48,092,27,4*71
$GBGSV,2,2,06,28,36,206,32,34,28,041,28,4*7D
$GNACCURACY,5.2*11
$PAIRSAT,1,30,2,0,201,3,0,200,4,0,221,5,0,200,6,0,200,7,0,201,8,0,221,9,0,21,14,0,200,15,0,200,16,0,201,17,0,200,18,0,200,19,0,200,20,0,200,21,0,201,22,0,200,23,0,200,24,0,200,25,0,200,26,0,221,27,0,221,28,0,200,29,0,200,30,0,200,31,0,1,194,0,621,195,0,621,196,0,220,199,0,600*45
$PAIRSAT,2,17,70,0,200,71,0,200,72,0,200,73,0,200,74,0,200,75,0,200,76,0,200,77,0,201,78,0,201,79,0,201,82,0,200,83,0,200,84,0,200,85,0,200,86,0,200,87,0,201,88,0,201*57
$PAIRSAT,3,20,2,0,1200,3,0,1200,4,0,1200,5,0,200,7,0,1200,8,0,1200,9,0,1200,10,0,200,13,0,21,15,0,21,19,0,21,21,0,221,25,0,1200,26,0,1221,27,0,1221,30,0,1200,31,0,1200,33,0,1200,34,0,1200,36,0,1200*70
$PAIRSAT,4,46,1,0,200,2,0,200,3,0,400,4,0,200,5,0,200,6,0,201,7,0,201,8,0,200,9,0,201,10,0,201,11,0,201,12,0,200,13,0,200,14,0,200,16,0,201,19,0,400,20,0,400,21,0,400,22,0,400,23,0,421,24,0,600,25,0,621,26,0,600,27,0,400,28,0,621,29,0,600,30,0,600,32,0,600,33,0,600,34,0,621,35,0,600,36,0,600,37,0,600,38,0,600,39,0,421,40,0,421,41,0,400,42,0,400,43,0,421,44,0,400,45,0,400,46,0,400,59,0,400,60,0,400,61,0,400,62,0,400*48
$PAIRDGP,8,2,4,7,8,9,16,21,27*7C
$GNGGA,032119.100,2500.7868282,N,12132.4710038,E,2,54,0.50,16.604,M,15.25,M,1,3335*49
$GNRMC,032119.100,A,2500.7868282,N,12132.4710038,E,0.03,46.08,090324,,,D,V*37
$GPHDT,,T*1B
$GNACCURACY,5.2*11
$GNGGA,032119.200,2500.7868282,N,12132.4710038,E,2,55,0.50,16.600,M,15.25,M,1,3335*4F
$GNRMC,032119.200,A,2500.7868282,N,12132.4710038,E,0.05,46.08,090324,,,D,V*32
$GPHDT,,T*1B
$GNACCURACY,5.2*11
$GNGGA,032119.300,2500.7868282,N,12132.4710038,E,2,55,0.50,16.595,M,15.25,M,1,3335*41
$GNRMC,032119.300,A,2500.7868282,N,12132.4710038,E,0.06,46.08,090324,,,D,V*30
$GPHDT,,T*1B
$GNACCURACY,5.2*11
$GNGGA,032119.400,2500.7868282,N,12132.4710038,E,2,55,0.50,16.597,M,15.25,M,1,3335*44
$GNRMC,032119.400,A,2500.7868282,N,12132.4710038,E,0.07,46.08,090324,,,D,V*36
$GPHDT,,T*1B
$GNACCURACY,5.2*11
$GNGGA,032119.500,2500.7868282,N,12132.4710038,E,2,55,0.50,16.594,M,15.25,M,1,3335*46
$GNRMC,032119.500,A,2500.7868282,N,12132.4710038,E,0.07,46.08,090324,,,D,V*37
$GPHDT,,T*1B
$GNACCURACY,5.2*11
$GNGGA,032119.600,2500.7868282,N,12132.4710038,E,2,56,0.50,16.594,M,15.25,M,1,3335*46
$GNRMC,032119.600,A,2500.7868282,N,12132.4710038,E,0.01,46.08,090324,,,D,V*32
$GPHDT,,T*1B
$GNACCURACY,5.2*11
$GNGGA,032119.700,2500.7868282,N,12132.4710038,E,2,56,0.50,16.594,M,15.25,M,1,3335*47
$GNRMC,032119.700,A,2500.7868282,N,12132.4710038,E,0.18,46.08,090324,,,D,V*3B
$GPHDT,,T*1B
$GNACCURACY,5.2*11
$GNGGA,032119.800,2500.7868282,N,12132.4710098,E,2,56,0.50,16.595,M,15.25,M,0,3335*42
$GNRMC,032119.800,A,2500.7868282,N,12132.4710098,E,0.10,46.08,090324,,,D,V*36
$GPHDT,,T*1B
$GNACCURACY,5.2*11
$GNGGA,032119.900,2500.7868282,N,12132.4710098,E,2,56,0.50,16.596,M,15.25,M,0,3335*40
$GNRMC,032119.900,A,2500.7868282,N,12132.4710098,E,0.12,46.08,090324,,,D,V*35
$GPHDT,,T*1B
$GNACCURACY,5.2*11
$GNGGA,032120.000,2500.7868282,N,12132.4710098,E,2,56,0.50,16.598,M,15.25,M,1,3335*4C
$GNRMC,032120.000,A,2500.7868282,N,12132.4710098,E,0.15,46.08,090324,,,D,V*31
$GPHDT,,T*1B
$GNGSA,A,3,08,194,195,27,16,21,04,09,02,196,26,31,0.78,0.50,0.60,1*32
$GNGSA,A,3,88,78,77,87,79,,,,,,,,0.78,0.50,0.60,2*00
$GNGSA,A,3,21,13,19,27,26,15,,,,,,,0.78,0.50,0.60,3*03
$GNGSA,A,3,06,16,43,09,39,40,07,23,10,11,25,28,0.78,0.50,0.60,4*03
$GNGSA,A,3,34,,,,,,,,,,,,0.78,0.50,0.60,4*0F
$GPGSV,4,1,15,08,72,294,27,199,66,164,,194,63,045,33,195,57,124,18,1*59
$GPGSV,4,2,15,27,53,026,25,45,47,231,39,16,36,052,32,21,36,171,41,1*6E
$GPGSV,4,3,15,04,34,219,33,09,31,270,26,02,25,182,37,07,23,320,13,1*6B
$GPGSV,4,4,15,196,21,174,37,26,18,081,31,31,17,135,24,1*68
$GPGSV,2,1,08,08,72,294,30,194,63,045,26,195,57,124,36,27,53,026,24,8*67
$GPGSV,2,2,08,04,34,219,35,09,31,270,20,196,21,174,26,26,18,081,31,8*5B
$GLGSV,2,1,05,88,72,088,35,78,44,001,25,77,33,082,20,87,24,031,22,1*77
$GLGSV,2,2,05,79,10,317,21,1*44
$GAGSV,2,1,06,21,50,345,14,13,48,112,24,19,37,260,13,27,34,060,34,7*74
$GAGSV,2,2,06,26,25,175,28,15,24,051,32,7*78
$GAGSV,2,1,05,13,48,112,26,19,37,260,20,27,34,060,28,26,25,175,31,1*7D
$GAGSV,2,2,05,15,24,051,26,1*42
$GBGSV,4,1,13,06,83,231,32,16,80,188,31,43,76,071,25,09,74,306,26,1*7D
$GBGSV,4,2,13,39,69,174,24,40,67,313,18,07,63,291,19,23,59,353,18,1*7F
$GBGSV,4,3,13,10,52,274,32,11,51,048,21,25,48,092,37,28,36,206,41,1*74
$GBGSV,4,4,13,34,28,041,34,1*4B
$GBGSV,2,1,07,43,76,071,25,39,69,174,26,40,67,313,23,23,59,353,17,4*78
$GBGSV,2,2,07,25,48,092,27,28,36,206,32,34,28,041,30,4*40
$GNACCURACY,5.3*10
$PAIRSAT,1,30,2,0,201,3,0,200,4,0,221,5,0,200,6,0,200,7,0,201,8,0,221,9,0,21,14,0,200,15,0,200,16,0,201,17,0,200,18,0,200,19,0,200,20,0,200,21,0,201,22,0,200,23,0,200,24,0,200,25,0,200,26,0,221,27,0,221,28,0,200,29,0,200,30,0,200,31,0,1,194,0,621,195,0,621,196,0,220,199,0,600*45
$PAIRSAT,2,17,70,0,200,71,0,200,72,0,200,73,0,200,74,0,200,75,0,200,76,0,200,77,0,201,78,0,201,79,0,201,82,0,200,83,0,200,84,0,200,85,0,200,86,0,200,87,0,201,88,0,201*57
$PAIRSAT,3,20,2,0,1200,3,0,1200,4,0,1200,5,0,200,7,0,1200,8,0,1200,9,0,1200,10,0,200,13,0,21,15,0,21,19,0,21,21,0,221,25,0,1200,26,0,1221,27,0,1221,30,0,1200,31,0,1200,33,0,1200,34,0,1200,36,0,1200*70
$PAIRSAT,4,46,1,0,200,2,0,200,3,0,400,4,0,200,5,0,200,6,0,201,7,0,201,8,0,200,9,0,201,10,0,201,11,0,201,12,0,200,13,0,200,14,0,200,16,0,201,19,0,400,20,0,400,21,0,400,22,0,400,23,0,421,24,0,600,25,0,621,26,0,600,27,0,400,28,0,621,29,0,600,30,0,600,32,0,600,33,0,600,34,0,621,35,0,600,36,0,600,37,0,600,38,0,600,39,0,421,40,0,421,41,0,400,42,0,400,43,0,421,44,0,400,45,0,400,46,0,400,59,0,400,60,0,400,61,0,400,62,0,400*48
$PAIRDGP,8,2,4,7,8,9,16,21,27*7C
$GNGGA,032120.100,2500.7868282,N,12132.4710158,E,2,56,0.50,16.602,M,15.25,M,1,3335*40
$GNRMC,032120.100,A,2500.7868282,N,12132.4710158,E,0.08,46.08,090324,,,D,V*31
$GPHDT,,T*1B
$GNACCURACY,5.3*10
$GNGGA,032120.200,2500.7868282,N,12132.4710158,E,2,56,0.50,16.602,M,15.25,M,1,3335*43
$GNRMC,032120.200,A,2500.7868282,N,12132.4710158,E,0.14,46.08,090324,,,D,V*3F
$GPHDT,,T*1B
$GNACCURACY,5.2*11
$GNGGA,032120.300,2500.7868222,N,12132.4710158,E,2,56,0.50,16.607,M,15.25,M,1,3335*4D
$GNRMC,032120.300,A,2500.7868222,N,12132.4710158,E,0.11,46.08,090324,,,D,V*31
$GPHDT,,T*1B
$GNACCURACY,5.2*11
$GNGGA,032120.400,2500.7868222,N,12132.4710158,E,2,56,0.50,16.610,M,15.25,M,1,3335*4C
$GNRMC,032120.400,A,2500.7868222,N,12132.4710158,E,0.09,46.08,090324,,,D,V*3F
$GPHDT,,T*1B
$GNACCURACY,5.2*11
$GNGGA,032120.500,2500.7868222,N,12132.4710158,E,2,56,0.50,16.614,M,15.25,M,1,3335*49
$GNRMC,032120.500,A,2500.7868222,N,12132.4710158,E,0.09,46.08,090324,,,D,V*3E
$GPHDT,,T*1B
$GNACCURACY,5.3*10
$GNGGA,032120.600,2500.7868222,N,12132.4710158,E,2,56,0.50,16.618,M,15.25,M,0,3335*47
$GNRMC,032120.600,A,2500.7868222,N,12132.4710158,E,0.10,46.08,090324,,,D,V*35
$GPHDT,,T*1B
$GNACCURACY,5.3*10
$GNGGA,032120.700,2500.7868222,N,12132.4710158,E,2,56,0.50,16.621,M,15.25,M,0,3335*4C
$GNRMC,032120.700,A,2500.7868222,N,12132.4710158,E,0.08,46.08,090324,,,D,V*3D
$GPHDT,,T*1B
$GNACCURACY,5.3*10
$GNGGA,032120.800,2500.7868222,N,12132.4710158,E,2,56,0.50,16.624,M,15.25,M,0,3335*46
$GNRMC,032120.800,A,2500.7868222,N,12132.4710158,E,0.06,46.08,090324,,,D,V*3C
$GPHDT,,T*1B
$GNACCURACY,5.2*11
$GNGGA,032120.900,2500.7868222,N,12132.4710158,E,2,56,0.50,16.627,M,15.25,M,0,3335*44
$GNRMC,032120.900,A,2500.7868222,N,12132.4710158,E,0.07,46.08,090324,,,D,V*3C
$GPHDT,,T*1B
$GNACCURACY,5.2*11
$GNGGA,032121.000,2500.7868222,N,12132.4710098,E,2,56,0.50,16.630,M,15.25,M,1,3335*46
$GNRMC,032121.000,A,2500.7868222,N,12132.4710098,E,0.18,46.08,090324,,,D,V*37
$GPHDT,,T*1B
$GNGSA,A,3,08,194,195,27,16,21,04,09,02,196,26,31,0.78,0.50,0.60,1*32
$GNGSA,A,3,88,78,77,87,79,,,,,,,,0.78,0.50,0.60,2*00
$GNGSA,A,3,21,13,19,27,26,15,,,,,,,0.78,0.50,0.60,3*03
$GNGSA,A,3,06,16,43,09,39,40,07,23,10,11,25,28,0.78,0.50,0.60,4*03
$GNGSA,A,3,34,,,,,,,,,,,,0.78,0.50,0.60,4*0F
$GPGSV,4,1,15,08,72,294,26,199,66,164,,194,63,045,34,195,57,124,18,1*5F
$GPGSV,4,2,15,27,53,026,25,45,47,231,39,16,36,052,32,21,36,171,41,1*6E
$GPGSV,4,3,15,04,34,219,34,09,31,270,26,02,25,182,37,07,23,320,13,1*6C
$GPGSV,4,4,15,196,21,174,37,26,18,081,32,31,17,135,24,1*6B
$GPGSV,2,1,08,08,72,294,30,194,63,045,26,195,57,124,36,27,53,026,25,8*66
$GPGSV,2,2,08,04,34,219,35,09,31,270,20,196,21,174,27,26,18,081,31,8*5A
$GLGSV,2,1,05,88,72,087,35,78,44,001,25,77,33,082,22,87,24,031,22,1*7A
$GLGSV,2,2,05,79,10,317,21,1*44
$GAGSV,2,1,06,21,50,345,14,13,48,112,22,19,37,260,14,27,34,060,35,7*74
$GAGSV,2,2,06,26,25,175,30,15,24,051,33,7*70
$GAGSV,2,1,05,13,48,112,26,19,37,260,20,27,34,060,29,26,25,175,31,1*7C
$GAGSV,2,2,05,15,24,051,26,1*42
$GBGSV,4,1,13,06,83,231,32,16,80,188,31,43,76,071,25,09,74,306,26,1*7D
$GBGSV,4,2,13,39,69,174,25,40,67,313,19,07,63,291,22,23,59,353,18,1*77
$GBGSV,4,3,13,10,52,274,32,11,51,048,19,25,48,092,37,28,36,206,41,1*7F
$GBGSV,4,4,13,34,28,041,31,1*4E
$GBGSV,2,1,07,43,76,071,25,39,69,174,26,40,67,313,23,23,59,353,19,4*76
$GBGSV,2,2,07,25,48,092,29,28,36,206,31,34,28,041,29,4*45
$GNACCURACY,5.2*11
$PAIRSAT,1,30,2,0,201,3,0,200,4,0,221,5,0,200,6,0,200,7,0,201,8,0,221,9,0,21,14,0,200,15,0,200,16,0,201,17,0,200,18,0,200,19,0,200,20,0,200,21,0,201,22,0,200,23,0,200,24,0,200,25,0,200,26,0,221,27,0,221,28,0,200,29,0,200,30,0,200,31,0,1,194,0,621,195,0,621,196,0,220,199,0,600*45
$PAIRSAT,2,17,70,0,200,71,0,200,72,0,200,73,0,200,74,0,200,75,0,200,76,0,200,77,0,201,78,0,201,79,0,201,82,0,200,83,0,200,84,0,200,85,0,200,86,0,200,87,0,201,88,0,201*57
$PAIRSAT,3,21,2,0,1200,3,0,1200,4,0,1200,5,0,200,7,0,1200,8,0,1200,9,0,1200,10,0,200,11,0,200,13,0,21,15,0,21,19,0,21,21,0,221,25,0,1200,26,0,1221,27,0,1221,30,0,1200,31,0,1200,33,0,1200,34,0,1200,36,0,1200*5F
$PAIRSAT,4,46,1,0,200,2,0,200,3,0,400,4,0,200,5,0,200,6,0,201,7,0,201,8,0,200,9,0,201,10,0,201,11,0,201,12,0,200,13,0,200,14,0,200,16,0,201,19,0,600,20,0,400,21,0,400,22,0,400,23,0,421,24,0,600,25,0,621,26,0,600,27,0,400,28,0,621,29,0,600,30,0,600,32,0,600,33,0,600,34,0,621,35,0,600,36,0,600,37,0,600,38,0,600,39,0,421,40,0,421,41,0,400,42,0,400,43,0,421,44,0,400,45,0,400,46,0,400,59,0,400,60,0,400,61,0,400,62,0,400*4A
$PAIRDGP,8,2,4,7,8,9,16,21,27*7C
$GNGGA,032121.100,2500.7868162,N,12132.4710158,E,2,56,0.50,16.635,M,15.25,M,1,3335*48
$GNRMC,032121.100,A,2500.7868162,N,12132.4710158,E,0.08,46.08,090324,,,D,V*3D
$GPHDT,,T*1B
$GNACCURACY,5.2*11
$GNGGA,032121.200,2500.7868162,N,12132.4710158,E,2,56,0.50,16.635,M,15.25,M,1,3335*4B
$GNRMC,032121.200,A,2500.7868162,N,12132.4710158,E,0.14,46.08,090324,,,D,V*33
$GPHDT,,T*1B
$GNACCURACY,5.2*11
$GNGGA,032121.300,2500.7868162,N,12132.4710218,E,2,56,0.50,16.637,M,15.25,M,1,3335*4F
$GNRMC,032121.300,A,2500.7868162,N,12132.4710218,E,0.03,46.08,090324,,,D,V*33
$GPHDT,,T*1B
$GNACCURACY,5.2*11
$GNGGA,032121.400,2500.7868162,N,12132.4710218,E,2,55,0.50,16.637,M,15.25,M,1,3335*4B
$GNRMC,032121.400,A,2500.7868162,N,12132.4710218,E,0.04,46.08,090324,,,D,V*33
$GPHDT,,T*1B
$GNACCURACY,5.2*11
$GNGGA,032121.500,2500.7868162,N,12132.4710218,E,2,55,0.50,16.636,M,15.25,M,1,3335*4B
$GNRMC,032121.500,A,2500.7868162,N,12132.4710218,E,0.18,46.08,090324,,,D,V*3F
$GPHDT,,T*1B
$GNACCURACY,5.2*11
$GNGGA,032121.600,2500.7868222,N,12132.4710158,E,2,55,0.50,16.639,M,15.25,M,0,3335*46
$GNRMC,032121.600,A,2500.7868222,N,12132.4710158,E,0.06,46.08,090324,,,D,V*33
$GPHDT,,T*1B
$GNACCURACY,5.2*11
$GNGGA,032121.700,2500.7868222,N,12132.4710158,E,2,55,0.50,16.637,M,15.25,M,0,3335*49
$GNRMC,032121.700,A,2500.7868222,N,12132.4710158,E,0.04,46.08,090324,,,D,V*30
$GPHDT,,T*1B
$GNACCURACY,5.2*11
$GNGGA,032121.800,2500.7868222,N,12132.4710158,E,2,55,0.50,16.639,M,15.25,M,0,3335*48
$GNRMC,032121.800,A,2500.7868222,N,12132.4710158,E,0.06,46.08,090324,,,D,V*3D
$GPHDT,,T*1B
$GNACCURACY,5.2*11
$GNGGA,032121.900,2500.7868222,N,12132.4710158,E,2,56,0.50,16.639,M,15.25,M,0,3335*4A
$GNRMC,032121.900,A,2500.7868222,N,12132.4710158,E,0.04,46.08,090324,,,D,V*3E
$GPHDT,,T*1B
$GNACCURACY,5.2*11
$GNGGA,032122.000,2500.7868222,N,12132.4710158,E,2,56,0.50,16.638,M,15.25,M,1,3335*40
$GNRMC,032122.000,A,2500.7868222,N,12132.4710158,E,0.05,46.08,090324,,,D,V*35
$GPHDT,,T*1B
$GNGSA,A,3,08,194,195,27,16,21,04,09,02,196,26,31,0.78,0.50,0.60,1*32
$GNGSA,A,3,88,78,77,87,79,,,,,,,,0.78,0.50,0.60,2*00
$GNGSA,A,3,21,13,19,27,26,15,,,,,,,0.78,0.50,0.60,3*03
$GNGSA,A,3,06,16,43,09,39,40,07,23,10,11,25,28,0.78,0.50,0.60,4*03
$GNGSA,A,3,34,,,,,,,,,,,,0.78,0.50,0.60,4*0F
$GPGSV,4,1,15,08,72,294,27,199,66,164,,194,63,045,34,195,57,124,20,1*55
$GPGSV,4,2,15,27,53,026,25,45,47,231,39,16,36,052,32,21,36,171,41,1*6E
$GPGSV,4,3,15,04,34,219,34,09,31,270,26,02,25,182,38,07,23,320,13,1*63
$GPGSV,4,4,15,196,21,174,37,26,18,081,32,31,17,135,22,1*6D
$GPGSV,2,1,08,08,72,294,31,194,63,045,27,195,57,124,36,27,53,026,26,8*65
$GPGSV,2,2,08,04,34,219,35,09,31,270,20,196,21,174,28,26,18,081,31,8*55
$GLGSV,2,1,05,88,72,087,36,78,44,001,25,77,33,082,19,87,24,031,24,1*77
$GLGSV,2,2,05,79,10,317,20,1*45
$GAGSV,2,1,06,21,50,345,12,13,48,112,25,19,37,260,14,27,34,060,32,7*72
$GAGSV,2,2,06,26,25,175,31,15,24,051,33,7*71
$GAGSV,2,1,05,13,48,112,24,19,37,260,22,27,34,060,29,26,25,175,32,1*7F
$GAGSV,2,2,05,15,24,051,27,1*43
$GBGSV,4,1,13,06,83,230,32,16,80,188,31,43,76,071,27,09,74,306,26,1*7E
$GBGSV,4,2,13,39,69,174,24,40,67,313,21,07,63,292,21,23,59,353,20,1*76
$GBGSV,4,3,13,10,52,275,32,11,51,048,19,25,48,092,38,28,36,206,41,1*71
$GBGSV,4,4,13,34,28,041,36,1*49
$GBGSV,2,1,07,43,76,071,25,39,69,174,26,40,67,313,22,23,59,353,18,4*76
$GBGSV,2,2,07,25,48,092,30,28,36,206,32,34,28,041,31,4*47
$GNACCURACY,5.2*11
$PAIRSAT,1,30,2,0,201,3,0,200,4,0,221,5,0,200,6,0,200,7,0,201,8,0,221,9,0,21,14,0,200,15,0,200,16,0,201,17,0,200,18,0,200,19,0,200,20,0,200,21,0,201,22,0,200,23,0,200,24,0,200,25,0,200,26,0,221,27,0,221,28,0,200,29,0,200,30,0,200,31,0,1,194,0,621,195,0,621,196,0,220,199,0,600*45
$PAIRSAT,2,17,70,0,200,71,0,200,72,0,200,73,0,200,74,0,200,75,0,200,76,0,200,77,0,201,78,0,201,79,0,201,82,0,200,83,0,200,84,0,200,85,0,200,86,0,200,87,0,201,88,0,201*57
$PAIRSAT,3,21,2,0,1200,3,0,1200,4,0,1200,5,0,200,7,0,1200,8,0,1200,9,0,1200,10,0,200,11,0,200,13,0,21,15,0,21,19,0,21,21,0,221,25,0,1200,26,0,1221,27,0,1221,30,0,1200,31,0,1200,33,0,1200,34,0,1200,36,0,1200*5F
$PAIRSAT,4,46,1,0,200,2,0,200,3,0,400,4,0,200,5,0,200,6,0,201,7,0,201,8,0,200,9,0,201,10,0,201,11,0,201,12,0,200,13,0,200,14,0,200,16,0,201,19,0,600,20,0,400,21,0,400,22,0,400,23,0,421,24,0,600,25,0,621,26,0,600,27,0,400,28,0,621,29,0,600,30,0,600,32,0,600,33,0,600,34,0,621,35,0,600,36,0,600,37,0,600,38,0,600,39,0,421,40,0,421,41,0,400,42,0,400,43,0,421,44,0,400,45,0,400,46,0,400,59,0,400,60,0,400,61,0,400,62,0,400*4A
$PAIRDGP,8,2,4,7,8,9,16,21,27*7C
$GNGGA,032122.100,2500.7868282,N,12132.4710158,E,2,56,0.50,16.638,M,15.25,M,1,3335*4B
$GNRMC,032122.100,A,2500.7868282,N,12132.4710158,E,0.16,46.08,090324,,,D,V*3C
$GPHDT,,T*1B
$GNACCURACY,5.2*11
$GNGGA,032122.200,2500.7868282,N,12132.4710158,E,2,56,0.50,16.637,M,15.25,M,1,3335*47
$GNRMC,032122.200,A,2500.7868282,N,12132.4710158,E,0.02,46.08,090324,,,D,V*3A
$GPHDT,,T*1B
$GNACCURACY,5.3*10
$GNGGA,032122.300,2500.7868282,N,12132.4710158,E,2,56,0.50,16.638,M,15.25,M,1,3335*49
$GNRMC,032122.300,A,2500.7868282,N,12132.4710158,E,0.03,46.08,090324,,,D,V*3A
$GPHDT,,T*1B
$GNACCURACY,5.3*10
$GNGGA,032122.400,2500.7868282,N,12132.4710158,E,2,56,0.50,16.640,M,15.25,M,1,3335*41
$GNRMC,032122.400,A,2500.7868282,N,12132.4710158,E,0.04,46.08,090324,,,D,V*3A
$GPHDT,,T*1B
$GNACCURACY,5.3*10
$GNGGA,032122.500,2500.7868282,N,12132.4710158,E,2,56,0.50,16.640,M,15.25,M,1,3335*40
$GNRMC,032122.500,A,2500.7868282,N,12132.4710158,E,0.03,46.08,090324,,,D,V*3C
$GPHDT,,T*1B
$GNACCURACY,5.3*10
$GNGGA,032122.600,2500.7868342,N,12132.4710098,E,2,56,0.50,16.641,M,15.25,M,1,3335*42
$GNRMC,032122.600,A,2500.7868342,N,12132.4710098,E,0.13,46.08,090324,,,D,V*3E
$GPHDT,,T*1B
$GNACCURACY,5.3*10
$GNGGA,032122.700,2500.7868342,N,12132.4710158,E,2,56,0.50,16.643,M,15.25,M,0,3335*4D
$GNRMC,032122.700,A,2500.7868342,N,12132.4710158,E,0.04,46.08,090324,,,D,V*34
$GPHDT,,T*1B
$GNACCURACY,5.2*11
$GNGGA,032122.800,2500.7868342,N,12132.4710158,E,2,56,0.50,16.647,M,15.25,M,0,3335*46
$GNRMC,032122.800,A,2500.7868342,N,12132.4710158,E,0.05,46.08,090324,,,D,V*3A
$GPHDT,,T*1B
$GNACCURACY,5.2*11
$GNGGA,032122.900,2500.7868342,N,12132.4710158,E,2,56,0.50,16.650,M,15.25,M,0,3335*41
$GNRMC,032122.900,A,2500.7868342,N,12132.4710158,E,0.05,46.08,090324,,,D,V*3B
$GPHDT,,T*1B
$GNACCURACY,5.2*11
$GNGGA,032123.000,2500.7868342,N,12132.4710158,E,2,56,0.50,16.653,M,15.25,M,1,3335*4B
$GNRMC,032123.000,A,2500.7868342,N,12132.4710158,E,0.06,46.08,090324,,,D,V*30
$GPHDT,,T*1B
$GNGSA,A,3,08,194,195,27,16,21,04,09,02,196,26,31,0.78,0.50,0.60,1*32
$GNGSA,A,3,88,78,77,87,79,,,,,,,,0.78,0.50,0.60,2*00
$GNGSA,A,3,21,13,19,27,26,15,,,,,,,0.78,0.50,0.60,3*03
$GNGSA,A,3,06,16,43,09,39,40,07,23,10,11,25,28,0.78,0.50,0.60,4*03
$GNGSA,A,3,34,,,,,,,,,,,,0.78,0.50,0.60,4*0F
$GPGSV,4,1,15,08,72,294,27,199,66,164,,194,63,045,33,195,57,124,19,1*58
$GPGSV,4,2,15,27,53,026,25,45,47,231,39,16,36,052,33,21,36,171,41,1*6F
$GPGSV,4,3,15,04,34,219,34,09,31,270,26,02,25,182,38,07,23,320,14,1*64
$GPGSV,4,4,15,196,21,174,37,26,18,081,30,31,17,135,23,1*6E
$GPGSV,2,1,08,08,72,294,31,194,63,045,27,195,57,124,36,27,53,026,28,8*6B
$GPGSV,2,2,08,04,34,219,35,09,31,270,20,196,21,174,27,26,18,081,30,8*5B
$GLGSV,2,1,05,88,72,087,36,78,44,001,27,77,33,082,20,87,24,031,25,1*7E
$GLGSV,2,2,05,79,10,317,19,1*4F
$GAGSV,2,1,06,21,50,345,15,13,48,112,25,19,37,260,16,27,34,060,33,7*76
$GAGSV,2,2,06,26,25,175,29,15,24,051,33,7*78
$GAGSV,2,1,05,13,48,112,23,19,37,260,21,27,34,060,30,26,25,175,31,1*70
$GAGSV,2,2,05,15,24,051,27,1*43
$GBGSV,4,1,13,06,83,230,32,16,80,188,31,43,76,071,26,09,74,306,26,1*7F
$GBGSV,4,2,13,39,69,174,22,40,67,313,20,07,63,292,20,23,59,353,20,1*70
$GBGSV,4,3,13,10,52,275,32,11,51,048,18,25,48,092,38,28,36,206,41,1*70
$GBGSV,4,4,13,34,28,041,35,1*4A
$GBGSV,2,1,07,43,76,071,28,39,69,174,25,40,67,313,24,23,59,353,19,4*7F
$GBGSV,2,2,07,25,48,092,29,28,36,206,32,34,28,041,30,4*4E
$GNACCURACY,5.2*11
$PAIRSAT,1,30,2,0,201,3,0,200,4,0,221,5,0,200,6,0,200,7,0,201,8,0,221,9,0,21,14,0,200,15,0,200,16,0,201,17,0,200,18,0,200,19,0,200,20,0,200,21,0,201,22,0,200,23,0,200,24,0,200,25,0,200,26,0,221,27,0,221,28,0,200,29,0,200,30,0,200,31,0,1,194,0,621,195,0,621,196,0,220,199,0,600*45
$PAIRSAT,2,17,70,0,200,71,0,200,72,0,200,73,0,200,74,0,200,75,0,200,76,0,200,77,0,201,78,0,201,79,0,201,82,0,200,83,0,200,84,0,200,85,0,200,86,0,200,87,0,201,88,0,201*57
$PAIRSAT,3,22,2,0,1200,3,0,1200,4,0,1200,5,0,200,7,0,1200,8,0,1200,9,0,1200,10,0,200,11,0,200,12,0,200,13,0,21,15,0,21,19,0,21,21,0,221,25,0,1200,26,0,1221,27,0,1221,30,0,1200,31,0,1200,33,0,1200,34,0,1200,36,0,1200*71
$PAIRSAT,4,46,1,0,200,2,0,200,3,0,400,4,0,200,5,0,200,6,0,201,7,0,201,8,0,200,9,0,201,10,0,201,11,0,201,12,0,200,13,0,200,14,0,200,16,0,201,19,0,600,20,0,400,21,0,400,22,0,400,23,0,421,24,0,600,25,0,621,26,0,600,27,0,400,28,0,621,29,0,600,30,0,600,32,0,600,33,0,600,34,0,621,35,0,600,36,0,600,37,0,600,38,0,600,39,0,421,40,0,421,41,0,400,42,0,400,43,0,421,44,0,400,45,0,400,46,0,400,59,0,400,60,0,400,61,0,400,62,0,400*4A
$PAIRDGP,8,2,4,7,8,9,16,21,27*7C
$GNGGA,032123.100,2500.7868342,N,12132.4710158,E,2,56,0.50,16.651,M,15.25,M,1,3335*48
$GNRMC,032123.100,A,2500.7868342,N,12132.4710158,E,0.09,46.08,090324,,,D,V*3E
$GPHDT,,T*1B
$GNACCURACY,5.2*11
$GNGGA,032123.200,2500.7868342,N,12132.4710218,E,2,56,0.50,16.651,M,15.25,M,1,3335*4C
$GNRMC,032123.200,A,2500.7868342,N,12132.4710218,E,0.10,46.08,090324,,,D,V*32
$GPHDT,,T*1B
$GNACCURACY,5.2*11
$GNGGA,032123.300,2500.7868342,N,12132.4710218,E,2,56,0.50,16.654,M,15.25,M,1,3335*48
$GNRMC,032123.300,A,2500.7868342,N,12132.4710218,E,0.05,46.08,090324,,,D,V*37
$GPHDT,,T*1B
$GNACCURACY,5.2*11
$GNGGA,032123.400,2500.7868342,N,12132.4710218,E,2,56,0.50,16.654,M,15.25,M,1,3335*4F
$GNRMC,032123.400,A,2500.7868342,N,12132.4710218,E,0.11,46.08,090324,,,D,V*35
$GPHDT,,T*1B
$GNACCURACY,5.2*11
$GNGGA,032123.500,2500.7868402,N,12132.4710218,E,2,56,0.50,16.652,M,15.25,M,0,3335*4A
$GNRMC,032123.500,A,2500.7868402,N,12132.4710218,E,0.03,46.08,090324,,,D,V*34
$GPHDT,,T*1B
$GNACCURACY,5.2*11
$GNGGA,032123.600,2500.7868402,N,12132.4710218,E,2,56,0.50,16.651,M,15.25,M,0,3335*4A
$GNRMC,032123.600,A,2500.7868402,N,12132.4710218,E,0.14,46.08,090324,,,D,V*31
$GPHDT,,T*1B
$GNACCURACY,5.2*11
$GNGGA,032123.700,2500.7868402,N,12132.4710218,E,2,55,0.50,16.652,M,15.25,M,0,3335*4B
$GNRMC,032123.700,A,2500.7868402,N,12132.4710218,E,0.08,46.08,090324,,,D,V*3D
$GPHDT,,T*1B
$GNACCURACY,5.2*11
$GNGGA,032123.800,2500.7868462,N,12132.4710218,E,2,55,0.50,16.649,M,15.25,M,0,3335*48
$GNRMC,032123.800,A,2500.7868462,N,12132.4710218,E,0.04,46.08,090324,,,D,V*38
$GPHDT,,T*1B
$GNACCURACY,5.2*11
$GNGGA,032123.900,2500.7868462,N,12132.4710218,E,2,55,0.50,16.648,M,15.25,M,0,3335*48
$GNRMC,032123.900,A,2500.7868462,N,12132.4710218,E,0.07,46.08,090324,,,D,V*3A
$GPHDT,,T*1B
$GNACCURACY,5.2*11
$GNGGA,032124.000,2500.7868462,N,12132.4710218,E,2,56,0.50,16.646,M,15.25,M,1,3335*4A
$GNRMC,032124.000,A,2500.7868462,N,12132.4710218,E,0.09,46.08,090324,,,D,V*3A
$GPHDT,,T*1B
$GNGSA,A,3,08,194,195,27,16,21,04,09,02,196,26,31,0.78,0.50,0.60,1*32
$GNGSA,A,3,88,78,77,87,79,,,,,,,,0.78,0.50,0.60,2*00
$GNGSA,A,3,21,13,19,27,26,15,,,,,,,0.78,0.50,0.60,3*03
$GNGSA,A,3,06,16,43,09,39,40,07,23,10,11,25,28,0.78,0.50,0.60,4*03
$GNGSA,A,3,34,,,,,,,,,,,,0.78,0.50,0.60,4*0F
$GPGSV,4,1,15,08,72,294,24,199,66,164,,194,63,045,33,195,57,124,21,1*50
$GPGSV,4,2,15,27,53,026,24,45,47,231,39,16,36,052,33,21,36,171,41,1*6E
$GPGSV,4,3,15,04,34,219,33,09,31,270,25,02,25,182,39,07,23,320,13,1*66
$GPGSV,4,4,15,196,21,174,37,26,18,081,30,31,17,135,23,1*6E
$GPGSV,2,1,08,08,72,294,31,194,63,045,27,195,57,124,36,27,53,026,29,8*6A
$GPGSV,2,2,08,04,34,219,34,09,31,270,19,196,21,174,28,26,18,081,30,8*5F
$GLGSV,2,1,05,88,72,087,36,78,44,001,27,77,33,082,18,87,24,031,25,1*75
$GLGSV,2,2,05,79,10,317,17,1*41
$GAGSV,2,1,06,21,50,345,17,13,48,112,26,19,37,260,17,27,34,060,32,7*77
$GAGSV,2,2,06,26,25,175,29,15,24,051,30,7*7B
$GAGSV,2,1,05,13,48,112,20,19,37,260,22,27,34,060,31,26,25,175,31,1*71
$GAGSV,2,2,05,15,24,051,27,1*43
$GBGSV,4,1,13,06,83,230,32,16,80,188,31,43,76,071,27,09,74,306,24,1*7C
$GBGSV,4,2,13,39,69,174,22,40,67,313,18,07,63,292,19,23,59,353,21,1*70
$GBGSV,4,3,13,10,52,275,33,11,51,048,20,25,48,092,38,28,36,207,41,1*7B
$GBGSV,4,4,13,34,28,041,35,1*4A
$GBGSV,2,1,07,43,76,071,26,39,69,174,24,40,67,313,24,23,59,353,20,4*7A
$GBGSV,2,2,07,25,48,092,30,28,36,207,32,34,28,041,30,4*47
$GNACCURACY,5.2*11
$PAIRSAT,1,30,2,0,201,3,0,200,4,0,221,5,0,200,6,0,200,7,0,201,8,0,221,9,0,21,14,0,200,15,0,200,16,0,201,17,0,200,18,0,200,19,0,200,20,0,200,21,0,201,22,0,200,23,0,200,24,0,200,25,0,200,26,0,221,27,0,221,28,0,200,29,0,200,30,0,200,31,0,1,194,0,621,195,0,621,196,0,220,199,0,600*45
$PAIRSAT,2,17,70,0,200,71,0,200,72,0,200,73,0,200,74,0,200,75,0,200,76,0,200,77,0,201,78,0,201,79,0,201,82,0,200,83,0,200,84,0,200,85,0,200,86,0,200,87,0,201,88,0,201*57
$PAIRSAT,3,22,2,0,1200,3,0,1200,4,0,1200,5,0,200,7,0,1200,8,0,1200,9,0,1200,10,0,200,11,0,200,12,0,200,13,0,21,15,0,21,19,0,21,21,0,221,25,0,1200,26,0,1221,27,0,1221,30,0,1200,31,0,1200,33,0,1200,34,0,1200,36,0,1200*71
$PAIRSAT,4,46,1,0,200,2,0,200,3,0,400,4,0,200,5,0,200,6,0,201,7,0,201,8,0,200,9,0,201,10,0,201,11,0,201,12,0,200,13,0,200,14,0,200,16,0,201,19,0,600,20,0,400,21,0,400,22,0,400,23,0,421,24,0,600,25,0,621,26,0,600,27,0,400,28,0,621,29,0,600,30,0,600,32,0,600,33,0,600,34,0,621,35,0,600,36,0,600,37,0,600,38,0,600,39,0,421,40,0,421,41,0,400,42,0,400,43,0,421,44,0,400,45,0,400,46,0,400,59,0,400,60,0,400,61,0,400,62,0,400*4A
$PAIRDGP,8,2,4,7,8,9,16,21,27*7C
$GNGGA,032124.100,2500.7868462,N,12132.4710218,E,2,56,0.50,16.647,M,15.25,M,1,3335*4A
$GNRMC,032124.100,A,2500.7868462,N,12132.4710218,E,0.12,46.08,090324,,,D,V*31
$GPHDT,,T*1B
$GNACCURACY,5.2*11
$GNGGA,032124.200,2500.7868462,N,12132.4710158,E,2,56,0.50,16.648,M,15.25,M,1,3335*41
$GNRMC,032124.200,A,2500.7868462,N,12132.4710158,E,0.06,46.08,090324,,,D,V*30
$GPHDT,,T*1B
$GNACCURACY,5.2*11
$GNGGA,032124.300,2500.7868522,N,12132.4710158,E,2,56,0.50,16.646,M,15.25,M,1,3335*4B
$GNRMC,032124.300,A,2500.7868522,N,12132.4710158,E,0.05,46.08,090324,,,D,V*37
$GPHDT,,T*1B
$GNACCURACY,5.2*11
$GNGGA,032124.400,2500.7868522,N,12132.4710158,E,2,56,0.50,16.644,M,15.25,M,1,3335*4E
$GNRMC,032124.400,A,2500.7868522,N,12132.4710158,E,0.11,46.08,090324,,,D,V*35
$GPHDT,,T*1B
$GNACCURACY,5.3*10
$GNGGA,032124.500,2500.7868522,N,12132.4710098,E,2,56,0.50,16.646,M,15.25,M,1,3335*40
$GNRMC,032124.500,A,2500.7868522,N,12132.4710098,E,0.07,46.08,090324,,,D,V*3E
$GPHDT,,T*1B
$GNACCURACY,5.3*10
$GNGGA,032124.600,2500.7868522,N,12132.4710098,E,2,56,0.50,16.647,M,15.25,M,0,3335*43
$GNRMC,032124.600,A,2500.7868522,N,12132.4710098,E,0.06,46.08,090324,,,D,V*3C
$GPHDT,,T*1B
$GNACCURACY,5.3*10
$GNGGA,032124.700,2500.7868522,N,12132.4710098,E,2,56,0.50,16.645,M,15.25,M,0,3335*40
$GNRMC,032124.700,A,2500.7868522,N,12132.4710098,E,0.15,46.08,090324,,,D,V*3F
$GPHDT,,T*1B
$GNACCURACY,5.3*10
$GNGGA,032124.800,2500.7868522,N,12132.4710098,E,2,56,0.50,16.643,M,15.25,M,0,3335*49
$GNRMC,032124.800,A,2500.7868522,N,12132.4710098,E,0.04,46.08,090324,,,D,V*30
$GPHDT,,T*1B
$GNACCURACY,5.3*10
$GNGGA,032124.900,2500.7868582,N,12132.4710098,E,2,56,0.50,16.642,M,15.25,M,0,3335*43
$GNRMC,032124.900,A,2500.7868582,N,12132.4710098,E,0.08,46.08,090324,,,D,V*37
$GPHDT,,T*1B
$GNACCURACY,5.3*10
$GNGGA,032125.000,2500.7868582,N,12132.4710038,E,2,56,0.50,16.643,M,15.25,M,1,3335*41
$GNRMC,032125.000,A,2500.7868582,N,12132.4710038,E,0.15,46.08,090324,,,D,V*39
$GPHDT,,T*1B
$GNGSA,A,3,08,194,195,27,16,21,04,09,02,196,26,31,0.78,0.50,0.60,1*32
$GNGSA,A,3,88,78,77,87,79,,,,,,,,0.78,0.50,0.60,2*00
$GNGSA,A,3,21,13,19,27,26,15,,,,,,,0.78,0.50,0.60,3*03
$GNGSA,A,3,06,16,43,09,39,40,07,23,10,11,25,28,0.78,0.50,0.60,4*03
$GNGSA,A,3,34,,,,,,,,,,,,0.78,0.50,0.60,4*0F
$GPGSV,4,1,15,08,72,294,22,199,66,164,,194,63,045,33,195,57,124,22,1*55
$GPGSV,4,2,15,27,53,026,27,45,47,231,40,16,36,052,32,21,36,171,41,1*62
$GPGSV,4,3,15,04,34,219,33,09,31,270,25,02,25,182,40,07,23,320,13,1*68
$GPGSV,4,4,15,196,21,174,37,26,18,081,29,31,17,135,23,1*66
$GPGSV,2,1,08,08,72,294,31,194,63,045,27,195,57,124,36,27,53,026,28,8*6B
$GPGSV,2,2,08,04,34,219,34,09,31,270,19,196,21,174,27,26,18,081,29,8*58
$GLGSV,2,1,05,88,72,087,36,78,44,001,27,77,33,082,18,87,24,031,26,1*76
$GLGSV,2,2,05,79,10,317,16,1*40
$GAGSV,2,1,06,21,50,345,17,13,48,112,25,19,37,260,17,27,34,060,33,7*75
$GAGSV,2,2,06,26,25,175,28,15,24,051,32,7*78
$GAGSV,2,1,05,13,48,112,24,19,37,260,21,27,34,060,31,26,25,175,31,1*76
$GAGSV,2,2,05,15,24,051,27,1*43
$GBGSV,4,1,13,06,83,230,32,16,80,188,31,43,76,071,26,09,74,306,24,1*7D
$GBGSV,4,2,13,39,69,174,21,40,66,313,19,07,63,292,19,23,59,353,20,1*72
$GBGSV,4,3,13,10,52,275,32,11,51,048,23,25,48,092,38,28,36,207,41,1*79
$GBGSV,4,4,13,34,28,041,35,1*4A
$GBGSV,2,1,07,43,76,071,26,39,69,174,23,40,66,313,23,23,59,353,19,4*71
$GBGSV,2,2,07,25,48,092,30,28,36,207,32,34,28,041,29,4*4F
$GNACCURACY,5.3*10
$PAIRSAT,1,30,2,0,201,3,0,200,4,0,221,5,0,200,6,0,200,7,0,201,8,0,221,9,0,21,14,0,200,15,0,200,16,0,201,17,0,200,18,0,200,19,0,200,20,0,200,21,0,201,22,0,200,23,0,200,24,0,200,25,0,200,26,0,221,27,0,221,28,0,200,29,0,200,30,0,200,31,0,1,194,0,621,195,0,621,196,0,220,199,0,600*45
$PAIRSAT,2,17,70,0,200,71,0,200,72,0,200,73,0,200,74,0,200,75,0,200,76,0,200,77,0,201,78,0,201,79,0,201,82,0,200,83,0,200,84,0,200,85,0,200,86,0,200,87,0,201,88,0,201*57
$PAIRSAT,3,22,2,0,1200,3,0,1200,4,0,1200,5,0,200,7,0,1200,8,0,1200,9,0,1200,10,0,200,11,0,200,12,0,200,13,0,21,15,0,21,19,0,21,21,0,221,25,0,1200,26,0,1221,27,0,1221,30,0,1200,31,0,1200,33,0,1200,34,0,1200,36,0,1200*71
$PAIRSAT,4,46,1,0,200,2,0,200,3,0,400,4,0,200,5,0,200,6,0,201,7,0,201,8,0,200,9,0,201,10,0,201,11,0,201,12,0,200,13,0,200,14,0,200,16,0,201,19,0,600,20,0,400,21,0,400,22,0,400,23,0,421,24,0,600,25,0,621,26,0,600,27,0,400,28,0,621,29,0,600,30,0,600,32,0,600,33,0,600,34,0,621,35,0,600,36,0,600,37,0,600,38,0,600,39,0,421,40,0,421,41,0,400,42,0,400,43,0,421,44,0,400,45,0,400,46,0,400,59,0,400,60,0,400,61,0,400,62,0,400*4A
$PAIRDGP,8,2,4,7,8,9,16,21,27*7C
$GNGGA,032125.100,2500.7868582,N,12132.4710038,E,2,56,0.50,16.641,M,15.25,M,1,3335*42
$GNRMC,032125.100,A,2500.7868582,N,12132.4710038,E,0.12,46.08,090324,,,D,V*3F
$GPHDT,,T*1B
$GNACCURACY,5.3*10
$GNGGA,032125.200,2500.7868582,N,12132.4710098,E,2,56,0.50,16.639,M,15.25,M,1,3335*44
$GNRMC,032125.200,A,2500.7868582,N,12132.4710098,E,0.05,46.08,090324,,,D,V*30
$GPHDT,,T*1B
$GNACCURACY,5.3*10
$GNGGA,032125.300,2500.7868582,N,12132.4710038,E,2,56,0.50,16.638,M,15.25,M,1,3335*4E
$GNRMC,032125.300,A,2500.7868582,N,12132.4710038,E,0.19,46.08,090324,,,D,V*36
$GPHDT,,T*1B
$GNACCURACY,5.3*10
$GNGGA,032125.400,2500.7868642,N,12132.4710038,E,2,56,0.50,16.640,M,15.25,M,1,3335*49
$GNRMC,032125.400,A,2500.7868642,N,12132.4710038,E,0.04,46.08,090324,,,D,V*32
$GPHDT,,T*1B
$GNACCURACY,5.3*10
$GNGGA,032125.500,2500.7868642,N,12132.4710038,E,2,56,0.50,16.641,M,15.25,M,1,3335*49
$GNRMC,032125.500,A,2500.7868642,N,12132.4710038,E,0.05,46.08,090324,,,D,V*32
$GPHDT,,T*1B
$GNACCURACY,5.3*10
$GNGGA,032125.600,2500.7868642,N,12132.4710038,E,2,56,0.50,16.640,M,15.25,M,1,3335*4B
$GNRMC,032125.600,A,2500.7868642,N,12132.4710038,E,0.06,46.08,090324,,,D,V*32
$GPHDT,,T*1B
$GNACCURACY,5.3*10
$GNGGA,032125.700,2500.7868702,N,12132.4710038,E,2,56,0.50,16.639,M,15.25,M,0,3335*40
$GNRMC,032125.700,A,2500.7868702,N,12132.4710038,E,0.15,46.08,090324,,,D,V*34
$GPHDT,,T*1B
$GNACCURACY,5.3*10
$GNGGA,032125.800,2500.7868702,N,12132.4710038,E,2,56,0.50,16.639,M,15.25,M,0,3335*4F
$GNRMC,032125.800,A,2500.7868702,N,12132.4710038,E,0.03,46.08,090324,,,D,V*3C
$GPHDT,,T*1B
$GNACCURACY,5.3*10
$GNGGA,032125.900,2500.7868702,N,12132.4710038,E,2,56,0.50,16.640,M,15.25,M,0,3335*40
$GNRMC,032125.900,A,2500.7868702,N,12132.4710038,E,0.07,46.08,090324,,,D,V*39
$GPHDT,,T*1B
$GNACCURACY,5.4*17
$GNGGA,032126.000,2500.7868702,N,12132.4710038,E,2,56,0.50,16.634,M,15.25,M,1,3335*48
$GNRMC,032126.000,A,2500.7868702,N,12132.4710038,E,0.03,46.08,090324,,,D,V*37
$GPHDT,,T*1B
$GNGSA,A,3,08,194,195,27,16,21,04,09,02,196,26,31,0.78,0.50,0.60,1*32
$GNGSA,A,3,88,78,77,87,79,,,,,,,,0.78,0.50,0.60,2*00
$GNGSA,A,3,21,13,19,27,26,15,,,,,,,0.78,0.50,0.60,3*03
$GNGSA,A,3,06,16,43,09,39,40,07,23,10,11,25,28,0.78,0.50,0.60,4*03
$GNGSA,A,3,34,,,,,,,,,,,,0.78,0.50,0.60,4*0F
$GPGSV,4,1,15,08,72,294,24,199,66,164,,194,63,045,33,195,57,124,23,1*52
$GPGSV,4,2,15,27,53,026,28,45,47,231,39,16,36,052,32,21,36,171,41,1*63
$GPGSV,4,3,15,04,34,219,34,09,31,270,23,02,25,182,39,07,23,320,,1*65
$GPGSV,4,4,15,196,21,174,37,26,18,081,29,31,17,135,23,1*66
$GPGSV,2,1,08,08,72,294,31,194,63,045,27,195,57,124,36,27,53,026,30,8*62
$GPGSV,2,2,08,04,34,219,34,09,31,270,18,196,21,174,27,26,18,081,29,8*59
$GLGSV,2,1,05,88,72,087,36,78,44,001,27,77,33,082,18,87,24,031,28,1*78
$GLGSV,2,2,05,79,10,317,16,1*40
$GAGSV,2,1,06,21,50,345,18,13,48,112,29,19,37,260,18,27,34,060,34,7*7E
$GAGSV,2,2,06,26,25,175,28,15,24,051,33,7*79
$GAGSV,2,1,05,13,48,112,20,19,37,260,21,27,34,060,30,26,25,175,31,1*73
$GAGSV,2,2,05,15,24,051,28,1*4C
$GBGSV,4,1,13,06,83,230,32,16,80,188,32,43,76,071,27,09,74,306,26,1*7D
$GBGSV,4,2,13,39,69,174,19,40,66,313,18,07,63,292,19,23,59,353,23,1*7B
$GBGSV,4,3,13,10,52,275,33,11,51,048,22,25,48,092,38,28,36,207,41,1*79
$GBGSV,4,4,13,34,28,041,33,1*4C
$GBGSV,2,1,07,43,76,071,26,39,69,174,26,40,66,313,24,23,59,353,19,4*73
$GBGSV,2,2,07,25,48,092,30,28,36,207,32,34,28,041,31,4*46
$GNACCURACY,5.4*17
$PAIRSAT,1,30,2,0,201,3,0,200,4,0,221,5,0,200,6,0,200,7,0,201,8,0,221,9,0,21,14,0,200,15,0,200,16,0,201,17,0,200,18,0,200,19,0,200,20,0,200,21,0,201,22,0,200,23,0,200,24,0,200,25,0,200,26,0,221,27,0,221,28,0,200,29,0,200,30,0,200,31,0,1,194,0,621,195,0,621,196,0,220,199,0,600*45
$PAIRSAT,2,17,70,0,200,71,0,200,72,0,200,73,0,200,74,0,200,75,0,200,76,0,200,77,0,201,78,0,201,79,0,201,82,0,200,83,0,200,84,0,200,85,0,200,86,0,200,87,0,201,88,0,201*57
$PAIRSAT,3,22,2,0,1200,3,0,1200,4,0,1200,5,0,200,7,0,1200,8,0,1200,9,0,1200,10,0,200,11,0,200,12,0,200,13,0,21,15,0,21,19,0,21,21,0,221,25,0,1200,26,0,1221,27,0,1221,30,0,1200,31,0,1200,33,0,1200,34,0,1200,36,0,1200*71
$PAIRSAT,4,46,1,0,200,2,0,200,3,0,400,4,0,200,5,0,200,6,0,201,7,0,201,8,0,200,9,0,201,10,0,201,11,0,201,12,0,200,13,0,200,14,0,200,16,0,201,19,0,600,20,0,400,21,0,400,22,0,400,23,0,421,24,0,600,25,0,621,26,0,600,27,0,400,28,0,621,29,0,600,30,0,600,32,0,600,33,0,600,34,0,621,35,0,600,36,0,600,37,0,600,38,0,600,39,0,421,40,0,421,41,0,400,42,0,400,43,0,421,44,0,400,45,0,400,46,0,400,59,0,400,60,0,400,61,0,400,62,0,400*4A
$PAIRDGP,8,2,4,7,8,9,16,21,27*7C
$GNGGA,032126.100,2500.7868702,N,12132.4710038,E,2,56,0.50,16.636,M,15.25,M,1,3335*4B
$GNRMC,032126.100,A,2500.7868702,N,12132.4710038,E,0.12,46.08,090324,,,D,V*36
$GPHDT,,T*1B
$GNACCURACY,5.4*17
$GNGGA,032126.200,2500.7868762,N,12132.4709978,E,2,56,0.50,16.633,M,15.25,M,1,3335*4E
$GNRMC,032126.200,A,2500.7868762,N,12132.4709978,E,0.08,46.08,090324,,,D,V*3D
$GPHDT,,T*1B
$GNACCURACY,5.4*17
$GNGGA,032126.300,2500.7868762,N,12132.4709978,E,2,56,0.50,16.634,M,15.25,M,1,3335*48
$GNRMC,032126.300,A,2500.7868762,N,12132.4709978,E,0.13,46.08,090324,,,D,V*36
$GPHDT,,T*1B
$GNACCURACY,5.4*17
$GNGGA,032126.400,2500.7868762,N,12132.4709978,E,2,56,0.50,16.634,M,15.25,M,1,3335*4F
$GNRMC,032126.400,A,2500.7868762,N,12132.4709978,E,0.07,46.08,090324,,,D,V*34
$GPHDT,,T*1B
$GNACCURACY,5.4*17
$GNGGA,032126.500,2500.7868762,N,12132.4709918,E,2,56,0.50,16.630,M,15.25,M,0,3335*4D
$GNRMC,032126.500,A,2500.7868762,N,12132.4709918,E,0.01,46.08,090324,,,D,V*35
$GPHDT,,T*1B
$GNACCURACY,5.4*17
$GNGGA,032126.600,2500.7868762,N,12132.4709918,E,2,56,0.50,16.632,M,15.25,M,0,3335*4C
$GNRMC,032126.600,A,2500.7868762,N,12132.4709918,E,0.13,46.08,090324,,,D,V*35
$GPHDT,,T*1B
$GNACCURACY,5.4*17
$GNGGA,032126.700,2500.7868762,N,12132.4709978,E,2,56,0.50,16.635,M,15.25,M,0,3335*4C
$GNRMC,032126.700,A,2500.7868762,N,12132.4709978,E,0.09,46.08,090324,,,D,V*39
$GPHDT,,T*1B
$GNACCURACY,5.4*17
$GNGGA,032126.800,2500.7868822,N,12132.4709978,E,2,56,0.50,16.636,M,15.25,M,0,3335*4B
$GNRMC,032126.800,A,2500.7868822,N,12132.4709978,E,0.06,46.08,090324,,,D,V*32
$GPHDT,,T*1B
$GNACCURACY,5.4*17
$GNGGA,032126.900,2500.7868822,N,12132.4709978,E,2,56,0.50,16.640,M,15.25,M,0,3335*4B
$GNRMC,032126.900,A,2500.7868822,N,12132.4709978,E,0.05,46.08,090324,,,D,V*30
$GPHDT,,T*1B
$GNACCURACY,5.3*10
$GNGGA,032127.000,2500.7868822,N,12132.4709918,E,2,56,0.50,16.637,M,15.25,M,1,3335*44
$GNRMC,032127.000,A,2500.7868822,N,12132.4709918,E,0.04,46.08,090324,,,D,V*3F
$GPHDT,,T*1B
$GNGSA,A,3,08,194,195,27,16,21,04,09,02,196,26,31,0.78,0.50,0.60,1*32
$GNGSA,A,3,88,78,77,87,79,,,,,,,,0.78,0.50,0.60,2*00
$GNGSA,A,3,21,13,19,27,26,15,,,,,,,0.78,0.50,0.60,3*03
$GNGSA,A,3,06,16,43,09,39,40,07,23,10,11,25,28,0.78,0.50,0.60,4*03
$GNGSA,A,3,34,,,,,,,,,,,,0.78,0.50,0.60,4*0F
$GPGSV,4,1,15,08,72,294,21,199,66,164,,194,63,045,33,195,57,124,24,1*50
$GPGSV,4,2,15,27,53,026,27,45,47,231,38,16,36,052,30,21,36,171,41,1*6F
$GPGSV,4,3,15,04,34,219,34,09,31,270,24,02,25,182,39,07,23,320,,1*62
$GPGSV,4,4,15,196,21,174,37,26,18,081,30,31,17,135,24,1*69
$GPGSV,2,1,08,08,72,294,31,194,63,045,25,195,57,124,36,27,53,026,30,8*60
$GPGSV,2,2,08,04,34,219,33,09,31,270,17,196,21,174,28,26,18,081,30,8*56
$GLGSV,2,1,05,88,72,087,36,78,44,001,26,77,33,082,19,87,24,031,26,1*76
$GLGSV,2,2,05,79,10,317,18,1*4E
$GAGSV,2,1,06,21,50,345,19,13,48,112,24,19,37,260,18,27,34,060,30,7*76
$GAGSV,2,2,06,26,25,175,28,15,24,051,29,7*72
$GAGSV,2,1,05,13,48,112,22,19,37,260,23,27,34,060,32,26,25,175,31,1*71
$GAGSV,2,2,05,15,24,051,28,1*4C
$GBGSV,4,1,13,06,83,230,32,16,80,188,32,43,76,071,26,09,74,306,28,1*72
$GBGSV,4,2,13,39,69,174,23,40,66,313,19,07,63,292,21,23,59,353,18,1*70
$GBGSV,4,3,13,10,52,275,33,11,51,048,24,25,48,092,38,28,36,207,41,1*7F
$GBGSV,4,4,13,34,28,041,38,1*47
$GBGSV,2,1,07,43,76,071,27,39,69,174,26,40,66,313,23,23,59,353,20,4*7F
$GBGSV,2,2,07,25,48,092,30,28,36,207,33,34,28,041,29,4*4E
$GNACCURACY,5.4*17
$PAIRSAT,1,30,2,0,201,3,0,200,4,0,221,5,0,200,6,0,200,7,0,201,8,0,221,9,0,21,14,0,200,15,0,200,16,0,201,17,0,200,18,0,200,19,0,200,20,0,200,21,0,201,22,0,200,23,0,200,24,0,200,25,0,200,26,0,221,27,0,221,28,0,200,29,0,200,30,0,200,31,0,1,194,0,621,195,0,621,196,0,220,199,0,600*45
$PAIRSAT,2,17,70,0,200,71,0,200,72,0,200,73,0,200,74