$FW : RTK35X,V1.1X0314AS,Lib20210517,1*54
$Tool : LOCOSYS , GNSS Firebird , v1.0.0.19*39
$---------------------------------------------------*2D
$GPHDT,,T*1B
$GNGGA,041604.800,2500.7955437,N,12132.4376885,E,2,57,0.47,13.118,M,15.25,M,0,3335*49
$GNRMC,041604.800,A,2500.7955437,N,12132.4376885,E,0.02,341.24,270623,,,D,V*09
$GPHDT,,T*1B
$GNGSA,A,3,19,195,196,199,17,06,20,09,194,11,12,04,0.93,0.49,0.79,1*02
$GNGSA,A,3,68,83,67,82,69,,,,,,,,0.93,0.49,0.79,2*0A
$GNGSA,A,3,10,12,24,04,19,25,33,,,,,,0.93,0.49,0.79,3*05
$GNGSA,A,3,40,07,33,10,08,14,43,28,42,11,34,41,0.93,0.49,0.79,4*0B
$GPGSV,4,1,15,19,72,061,42,195,68,048,43,196,68,121,40,50,60,167,38,1*6F
$GPGSV,4,2,15,199,60,167,36,17,58,106,40,06,49,001,40,20,39,242,17,1*58
$GPGSV,4,3,15,09,37,089,39,194,36,173,44,11,33,300,27,12,21,308,24,1*56
$GPGSV,4,4,15,04,19,059,17,05,14,228,18,14,13,173,,1*55
$GPGSV,2,1,08,196,68,121,45,195,68,048,45,199,60,167,47,06,49,001,46,8*57
$GPGSV,2,2,08,09,37,089,43,194,36,173,44,11,33,300,27,04,19,059,31,8*56
$GLGSV,2,1,08,68,64,128,40,83,39,359,31,67,38,042,35,82,36,057,30,1*78
$GLGSV,2,2,08,69,25,184,42,73,19,273,20,80,13,219,14,74,07,315,,1*7D
$GAGSV,3,1,09,10,49,350,40,12,45,030,34,24,43,229,30,04,38,147,40,7*72
$GAGSV,3,2,09,19,32,073,32,25,29,296,20,33,10,074,29,09,07,189,,7*73
$GAGSV,3,3,09,36,02,279,,7*41
$GAGSV,2,1,06,10,49,350,44,12,45,030,34,24,43,229,34,04,38,147,42,1*78
$GAGSV,2,2,06,19,32,073,33,33,10,074,29,1*77
$GBGSV,4,1,15,40,78,170,42,07,75,228,40,33,74,120,44,10,71,270,36,1*72
$GBGSV,4,2,15,08,56,284,25,14,56,059,43,43,51,076,46,28,46,335,44,1*76
$GBGSV,4,3,15,41,34,199,14,42,31,044,32,11,28,094,39,37,12,261,,1*79
$GBGSV,4,4,15,23,11,212,,34,11,108,19,58,,,42,1*7F
$GBGSV,2,1,07,40,78,170,46,33,74,120,44,43,51,076,43,28,46,335,43,4*77
$GBGSV,2,2,07,41,34,199,27,42,31,044,38,34,11,108,17,4*45
$GNGGA,041605.000,2500.7955497,N,12132.4376825,E,2,56,0.49,13.078,M,15.25,M,1,3335*49
$GNRMC,041605.000,A,2500.7955497,N,12132.4376825,E,0.02,341.24,270623,,,D,V*00
$GPHDT,,T*1B
$GNGGA,041605.200,2500.7955557,N,12132.4376825,E,2,56,0.49,13.053,M,15.25,M,1,3335*4F
$GNRMC,041605.200,A,2500.7955557,N,12132.4376825,E,0.02,341.24,270623,,,D,V*0F
$GPHDT,,T*1B
$GNGGA,041605.400,2500.7955617,N,12132.4376825,E,2,56,0.49,13.022,M,15.25,M,1,3335*48
$GNRMC,041605.400,A,2500.7955617,N,12132.4376825,E,0.02,341.24,270623,,,D,V*0E
$GPHDT,,T*1B
$GNGGA,041605.600,2500.7955737,N,12132.4376765,E,2,55,0.52,12.980,M,15.25,M,0,3335*4A
$GNRMC,041605.600,A,2500.7955737,N,12132.4376765,E,0.02,341.24,270623,,,D,V*04
$GPHDT,,T*1B
$GNGGA,041605.800,2500.7955797,N,12132.4376705,E,2,55,0.52,12.942,M,15.25,M,0,3335*46
$GNRMC,041605.800,A,2500.7955797,N,12132.4376705,E,0.02,341.24,270623,,,D,V*06
$GPHDT,,T*1B
$GNGSA,A,3,19,195,196,199,17,06,20,09,194,11,04,,0.98,0.52,0.83,1*05
$GNGSA,A,3,68,83,67,82,69,,,,,,,,0.98,0.52,0.83,2*0E
$GNGSA,A,3,10,12,24,04,19,25,33,,,,,,0.98,0.52,0.83,3*01
$GNGSA,A,3,40,07,33,10,08,14,43,28,42,11,34,41,0.98,0.52,0.83,4*0F
$GPGSV,4,1,15,19,72,061,42,195,68,048,43,196,68,121,40,50,60,167,38,1*6F
$GPGSV,4,2,15,199,60,167,36,17,58,106,40,06,49,001,40,20,39,242,17,1*58
$GPGSV,4,3,15,09,37,089,39,194,35,173,44,11,33,300,28,12,21,308,22,1*5C
$GPGSV,4,4,15,04,19,059,15,05,14,228,18,14,13,173,,1*57
$GPGSV,2,1,08,196,68,121,45,195,68,048,45,199,60,167,47,06,49,001,46,8*57
$GPGSV,2,2,08,09,37,089,43,194,35,173,44,11,33,300,27,04,19,059,32,8*56
$GLGSV,2,1,08,68,64,128,40,83,39,359,31,67,38,042,35,82,36,057,31,1*79
$GLGSV,2,2,08,69,25,184,42,73,19,273,20,80,13,219,13,74,07,315,,1*7A
$GAGSV,3,1,09,10,49,350,40,12,45,030,35,24,43,229,30,04,38,147,40,7*73
$GAGSV,3,2,09,19,32,073,31,25,29,296,20,33,10,074,29,09,07,189,,7*70
$GAGSV,3,3,09,36,02,279,,7*41
$GAGSV,2,1,06,10,49,350,44,12,45,030,34,24,43,229,34,04,38,147,42,1*78
$GAGSV,2,2,06,19,32,073,33,33,10,074,28,1*76
$GBGSV,4,1,15,40,78,170,42,07,75,228,40,33,74,120,44,10,71,270,37,1*73
$GBGSV,4,2,15,08,56,284,24,14,56,059,43,43,51,076,46,28,46,335,44,1*77
$GBGSV,4,3,15,41,34,199,16,42,31,044,32,11,28,094,39,37,12,261,,1*7B
$GBGSV,4,4,15,23,11,212,,34,11,108,18,58,,,42,1*7E
$GBGSV,2,1,07,40,78,170,46,33,74,120,44,43,51,076,43,28,46,335,43,4*77
$GBGSV,2,2,07,41,34,199,26,42,31,044,38,34,11,108,17,4*44
$GNGGA,041606.000,2500.7955857,N,12132.4376705,E,2,55,0.52,12.908,M,15.25,M,1,3335*41
$GNRMC,041606.000,A,2500.7955857,N,12132.4376705,E,0.02,341.24,270623,,,D,V*0E
$GPHDT,,T*1B
$GNGGA,041606.200,2500.7955977,N,12132.4376645,E,2,56,0.49,12.866,M,15.25,M,1,3335*45
$GNRMC,041606.200,A,2500.7955977,N,12132.4376645,E,0.02,341.24,270623,,,D,V*0A
$GPHDT,,T*1B
$GNGGA,041606.400,2500.7956037,N,12132.4376705,E,2,56,0.49,12.822,M,15.25,M,1,3335*48
$GNRMC,041606.400,A,2500.7956037,N,12132.4376705,E,0.02,341.24,270623,,,D,V*07
$GPHDT,,T*1B
$GNGGA,041606.600,2500.7956097,N,12132.4376765,E,2,54,0.52,12.766,M,15.25,M,1,3335*41
$GNRMC,041606.600,A,2500.7956097,N,12132.4376765,E,0.02,341.24,270623,,,D,V*09
$GPHDT,,T*1B
$GNGGA,041606.800,2500.7956157,N,12132.4376765,E,2,54,0.52,12.703,M,15.25,M,0,3335*40
$GNRMC,041606.800,A,2500.7956157,N,12132.4376765,E,0.02,341.24,270623,,,D,V*0A
$GPHDT,,T*1B
$GNGSA,A,3,19,195,196,199,17,06,20,09,194,11,04,,0.98,0.52,0.83,1*05
$GNGSA,A,3,68,83,67,82,69,,,,,,,,0.98,0.52,0.83,2*0E
$GNGSA,A,3,10,12,24,04,19,25,33,,,,,,0.98,0.52,0.83,3*01
$GNGSA,A,3,40,07,33,10,08,14,43,28,42,11,34,41,0.98,0.52,0.83,4*0F
$GPGSV,4,1,15,19,72,061,42,195,68,048,43,196,68,121,40,50,60,167,38,1*6F
$GPGSV,4,2,15,199,60,167,36,17,58,106,41,06,49,001,40,20,39,242,18,1*56
$GPGSV,4,3,15,09,37,089,39,194,35,173,44,11,33,300,29,12,21,308,19,1*55
$GPGSV,4,4,15,04,19,059,17,05,14,228,20,14,13,173,,1*5E
$GPGSV,2,1,08,196,68,121,45,195,68,048,45,199,60,167,47,06,49,001,46,8*57
$GPGSV,2,2,08,09,37,089,43,194,35,173,44,11,33,300,32,04,19,059,33,8*53
$GLGSV,2,1,07,68,64,128,40,83,39,359,31,67,38,042,36,82,36,057,32,1*76
$GLGSV,2,2,07,69,25,184,42,73,19,273,19,80,13,219,13,1*4C
$GAGSV,2,1,08,10,49,350,40,12,45,030,35,24,43,229,31,04,38,147,40,7*72
$GAGSV,2,2,08,19,32,073,31,25,29,296,23,33,10,074,29,09,07,189,,7*73
$GAGSV,2,1,06,10,49,350,44,12,45,030,34,24,43,229,34,04,38,147,42,1*78
$GAGSV,2,2,06,19,32,073,33,33,10,074,27,1*79
$GBGSV,5,1,17,40,78,170,42,07,75,228,40,33,74,120,44,10,71,270,37,1*70
$GBGSV,5,2,17,08,56,284,25,14,56,059,43,43,51,076,46,13,48,270,,1*73
$GBGSV,5,3,17,28,46,335,45,41,34,199,18,42,31,044,34,11,28,094,39,1*7E
$GBGSV,5,4,17,37,12,261,,23,11,212,,34,11,108,18,27,06,306,,1*72
$GBGSV,5,5,17,58,,,37,1*79
$GBGSV,2,1,07,40,78,170,46,33,74,120,44,43,51,076,43,28,46,335,43,4*77
$GBGSV,2,2,07,41,34,199,25,42,31,044,38,34,11,108,17,4*47
$GNGGA,041607.000,2500.7956217,N,12132.4376765,E,2,54,0.52,12.660,M,15.25,M,1,3335*4B
$GNRMC,041607.000,A,2500.7956217,N,12132.4376765,E,0.02,341.24,270623,,,D,V*04
$GPHDT,,T*1B
$GNGGA,041607.200,2500.7953408,N,12132.4377447,E,4,54,0.52,15.989,M,15.25,M,1,3335*4F
$GNRMC,041607.200,A,2500.7953408,N,12132.4377447,E,0.02,341.24,270623,,,R,V*1F
$GPHDT,,T*1B
$GNGGA,041607.400,2500.7953381,N,12132.4377433,E,4,54,0.52,15.998,M,15.25,M,1,3335*4C
$GNRMC,041607.400,A,2500.7953381,N,12132.4377433,E,0.02,341.24,270623,,,R,V*1C
$GPHDT,,T*1B
$GNGGA,041607.600,2500.7953379,N,12132.4377403,E,4,55,0.52,15.999,M,15.25,M,0,3335*4B
$GNRMC,041607.600,A,2500.7953379,N,12132.4377403,E,0.02,341.24,270623,,,R,V*1A
$GPHDT,,T*1B
$GNGGA,041607.800,2500.7953381,N,12132.4377387,E,4,56,0.50,15.996,M,15.25,M,0,3335*47
$GNRMC,041607.800,A,2500.7953381,N,12132.4377387,E,0.02,341.24,270623,,,R,V*18
$GPHDT,,T*1B
$GNGSA,A,3,19,196,195,199,17,06,20,09,194,11,14,04,0.94,0.50,0.79,1*0B
$GNGSA,A,3,68,83,67,82,69,,,,,,,,0.94,0.50,0.79,2*05
$GNGSA,A,3,10,12,24,04,19,25,33,,,,,,0.94,0.50,0.79,3*0A
$GNGSA,A,3,40,07,33,10,08,14,43,28,41,42,11,34,0.94,0.50,0.79,4*04
$GPGSV,4,1,15,19,72,061,42,196,68,121,40,195,68,048,43,199,60,167,36,1*55
$GPGSV,4,2,15,50,60,167,38,17,58,106,41,06,49,001,41,20,39,242,16,1*63
$GPGSV,4,3,15,09,37,089,38,194,35,173,44,11,33,300,28,12,21,308,17,1*5B
$GPGSV,4,4,15,04,19,059,16,05,14,228,19,14,13,173,17,1*53
$GPGSV,2,1,08,196,68,121,45,195,68,048,45,199,60,167,47,06,49,001,47,8*56
$GPGSV,2,2,08,09,37,089,43,194,35,173,44,11,33,300,32,04,19,059,31,8*51
$GLGSV,2,1,07,68,64,128,40,83,39,359,31,67,38,042,36,82,36,057,33,1*77
$GLGSV,2,2,07,69,25,184,42,73,19,273,18,80,13,219,13,1*4D
$GAGSV,2,1,07,10,49,350,40,12,45,030,35,24,43,229,31,04,38,146,40,7*7C
$GAGSV,2,2,07,19,32,073,31,25,29,296,21,33,10,074,27,7*4E
$GAGSV,2,1,06,10,49,350,44,12,45,030,34,24,43,229,34,04,38,146,42,1*79
$GAGSV,2,2,06,19,32,073,33,33,10,074,27,1*79
$GBGSV,5,1,17,40,78,170,42,07,75,228,40,33,74,120,44,10,71,270,37,1*70
$GBGSV,5,2,17,08,56,284,23,14,56,059,43,43,51,076,46,13,48,270,,1*75
$GBGSV,5,3,17,28,46,335,44,41,34,199,18,42,31,044,34,11,28,094,38,1*7E
$GBGSV,5,4,17,37,12,261,,23,11,212,,34,11,108,19,39,05,175,,1*79
$GBGSV,5,5,17,58,,,32,1*7C
$GBGSV,2,1,07,40,78,170,46,33,74,120,44,43,51,076,43,28,46,335,39,4*7A
$GBGSV,2,2,07,41,34,199,26,42,31,044,38,34,11,108,17,4*44
$GNGGA,041608.000,2500.7953353,N,12132.4377387,E,4,56,0.50,16.005,M,15.25,M,1,3335*4E
$GNRMC,041608.000,A,2500.7953353,N,12132.4377387,E,0.02,341.24,270623,,,R,V*10
$GPHDT,,T*1B
$GNGGA,041608.200,2500.7953386,N,12132.4377405,E,4,56,0.50,15.998,M,15.25,M,1,3335*47
$GNRMC,041608.200,A,2500.7953386,N,12132.4377405,E,0.02,341.24,270623,,,R,V*17
$GPHDT,,T*1B
$GNGGA,041608.400,2500.7953386,N,12132.4377438,E,4,56,0.50,16.009,M,15.25,M,1,3335*4D
$GNRMC,041608.400,A,2500.7953386,N,12132.4377438,E,0.02,341.24,270623,,,R,V*1F
$GPHDT,,T*1B
$GNGGA,041608.600,2500.7953384,N,12132.4377412,E,4,56,0.50,16.005,M,15.25,M,1,3335*49
$GNRMC,041608.600,A,2500.7953384,N,12132.4377412,E,0.02,341.24,270623,,,R,V*17
$GPHDT,,T*1B
$GNGGA,041608.800,2500.7953400,N,12132.4377440,E,4,56,0.50,16.005,M,15.25,M,0,3335*4A
$GNRMC,041608.800,A,2500.7953400,N,12132.4377440,E,0.02,341.24,270623,,,R,V*15
$GPHDT,,T*1B
$GNGSA,A,3,19,196,195,199,17,06,20,09,194,11,14,04,0.94,0.50,0.79,1*0B
$GNGSA,A,3,68,83,67,82,69,,,,,,,,0.94,0.50,0.79,2*05
$GNGSA,A,3,10,12,24,04,19,25,33,,,,,,0.94,0.50,0.79,3*0A
$GNGSA,A,3,40,07,33,10,14,08,43,28,41,42,11,34,0.94,0.50,0.79,4*04
$GPGSV,4,1,15,19,72,061,42,196,68,121,40,195,68,048,43,199,60,167,36,1*55
$GPGSV,4,2,15,50,60,167,38,17,58,106,41,06,49,001,43,20,39,242,16,1*61
$GPGSV,4,3,15,09,37,089,38,194,35,173,44,11,33,300,25,12,21,308,20,1*52
$GPGSV,4,4,15,04,19,059,15,05,14,228,19,14,13,173,17,1*50
$GPGSV,2,1,08,196,68,121,45,195,68,048,45,199,60,167,47,06,49,001,48,8*59
$GPGSV,2,2,08,09,37,089,42,194,35,173,44,11,33,300,32,04,19,059,31,8*50
$GLGSV,2,1,07,68,64,128,40,83,39,359,32,67,38,042,36,82,36,057,33,1*74
$GLGSV,2,2,07,69,25,184,42,73,19,273,17,80,13,219,15,1*44
$GAGSV,2,1,07,10,49,350,40,12,45,030,34,24,43,229,31,04,38,146,40,7*7D
$GAGSV,2,2,07,19,32,073,31,25,29,296,21,33,10,074,27,7*4E
$GAGSV,2,1,06,10,49,350,44,12,45,030,34,24,43,229,34,04,38,146,42,1*79
$GAGSV,2,2,06,19,32,073,34,33,10,074,27,1*7E
$GBGSV,4,1,16,40,78,170,42,07,75,228,40,33,74,120,44,10,71,270,38,1*7F
$GBGSV,4,2,16,14,56,059,43,08,56,284,23,43,51,076,46,13,48,270,,1*75
$GBGSV,4,3,16,28,46,335,42,41,34,199,20,42,31,044,36,11,28,094,38,1*71
$GBGSV,4,4,16,37,12,261,,34,11,108,22,23,11,212,,58,,,31,1*42
$GBGSV,2,1,07,40,78,170,46,33,74,120,44,43,51,076,43,28,46,335,38,4*7B
$GBGSV,2,2,07,41,34,199,27,42,31,044,38,34,11,108,17,4*45
$GNGGA,041609.000,2500.7953414,N,12132.4377489,E,4,56,0.50,16.012,M,15.25,M,1,3335*44
$GNRMC,041609.000,A,2500.7953414,N,12132.4377489,E,0.02,341.24,270623,,,R,V*1C
$GPHDT,,T*1B
$GNGGA,041609.200,2500.7953388,N,12132.4377474,E,4,56,0.50,16.006,M,15.25,M,1,3335*43
$GNRMC,041609.200,A,2500.7953388,N,12132.4377474,E,0.02,341.24,270623,,,R,V*1E
$GPHDT,,T*1B
$GNGGA,041609.400,2500.7953307,N,12132.4377374,E,4,56,0.50,15.990,M,15.25,M,1,3335*40
$GNRMC,041609.400,A,2500.7953307,N,12132.4377374,E,0.02,341.24,270623,,,R,V*18
$GPHDT,,T*1B
$GNGGA,041609.600,2500.7953298,N,12132.4377382,E,4,56,0.50,15.985,M,15.25,M,0,3335*49
$GNRMC,041609.600,A,2500.7953298,N,12132.4377382,E,0.02,341.24,270623,,,R,V*14
$GPHDT,,T*1B
$GNGGA,041609.800,2500.7953305,N,12132.4377401,E,4,56,0.50,15.998,M,15.25,M,0,3335*42
$GNRMC,041609.800,A,2500.7953305,N,12132.4377401,E,0.02,341.24,270623,,,R,V*13
$GPHDT,,T*1B
$GNGSA,A,3,19,196,195,199,17,06,20,09,194,11,12,14,0.89,0.47,0.75,1*0A
$GNGSA,A,3,04,,,,,,,,,,,,0.89,0.47,0.75,1*05
$GNGSA,A,3,68,83,67,82,69,,,,,,,,0.89,0.47,0.75,2*03
$GNGSA,A,3,10,12,24,04,19,25,33,,,,,,0.89,0.47,0.75,3*0C
$GNGSA,A,3,40,07,33,10,14,08,43,28,41,42,11,34,0.89,0.47,0.75,4*02
$GPGSV,4,1,15,19,72,061,41,196,68,121,40,195,68,048,41,199,60,167,35,1*57
$GPGSV,4,2,15,50,60,167,38,17,58,106,43,06,49,001,43,20,39,242,16,1*63
$GPGSV,4,3,15,09,37,089,39,194,35,173,44,11,33,300,24,12,21,308,21,1*53
$GPGSV,4,4,15,04,19,059,17,05,14,228,18,14,13,173,18,1*5C
$GPGSV,2,1,08,196,68,121,45,195,68,048,44,199,60,167,47,06,49,001,48,8*58
$GPGSV,2,2,08,09,37,089,43,194,35,173,44,11,33,300,32,04,19,059,31,8*51
$GLGSV,2,1,07,68,64,128,40,83,39,359,32,67,38,042,37,82,36,057,34,1*72
$GLGSV,2,2,07,69,25,184,42,73,19,273,15,80,13,219,14,1*47
$GAGSV,2,1,07,10,49,350,40,12,45,030,35,24,43,229,30,04,38,146,40,7*7D
$GAGSV,2,2,07,19,32,073,31,25,29,296,21,33,10,074,27,7*4E
$GAGSV,2,1,06,10,49,350,44,12,45,030,35,24,43,229,34,04,38,146,42,1*78
$GAGSV,2,2,06,19,32,073,34,33,10,074,26,1*7F
$GBGSV,4,1,16,40,78,170,42,07,75,228,40,33,74,120,44,10,71,270,39,1*7E
$GBGSV,4,2,16,14,56,059,43,08,56,284,24,43,51,076,46,13,48,270,,1*72
$GBGSV,4,3,16,28,46,335,42,41,34,199,23,42,31,044,36,11,28,094,39,1*73
$GBGSV,4,4,16,37,12,261,,34,11,108,22,23,11,212,,58,,,32,1*41
$GBGSV,2,1,07,40,78,170,46,33,74,120,44,43,51,076,43,28,46,335,37,4*74
$GBGSV,2,2,07,41,34,199,25,42,31,044,39,34,11,108,17,4*46
$GNGGA,041610.000,2500.7953308,N,12132.4377376,E,4,57,0.47,15.995,M,15.25,M,1,3335*43
$GNRMC,041610.000,A,2500.7953308,N,12132.4377376,E,0.02,341.24,270623,,,R,V*19
$GPHDT,,T*1B
$GNGGA,041610.200,2500.7953370,N,12132.4377398,E,4,57,0.47,15.990,M,15.25,M,1,3335*4B
$GNRMC,041610.200,A,2500.7953370,N,12132.4377398,E,0.02,341.24,270623,,,R,V*14
$GPHDT,,T*1B
$GNGGA,041610.400,2500.7953365,N,12132.4377416,E,4,57,0.47,15.996,M,15.25,M,1,3335*4E
$GNRMC,041610.400,A,2500.7953365,N,12132.4377416,E,0.02,341.24,270623,,,R,V*17
$GPHDT,,T*1B
$GNGGA,041610.600,2500.7953364,N,12132.4377420,E,4,57,0.47,15.988,M,15.25,M,1,3335*47
$GNRMC,041610.600,A,2500.7953364,N,12132.4377420,E,0.02,341.24,270623,,,R,V*11
$GPHDT,,T*1B
$GNGGA,041610.800,2500.7953358,N,12132.4377448,E,4,57,0.47,16.007,M,15.25,M,0,3335*44
$GNRMC,041610.800,A,2500.7953358,N,12132.4377448,E,0.02,341.24,270623,,,R,V*1E
$GPHDT,,T*1B
$GNGSA,A,3,19,195,196,199,17,06,20,09,194,11,12,14,0.89,0.47,0.75,1*0A
$GNGSA,A,3,04,,,,,,,,,,,,0.89,0.47,0.75,1*05
$GNGSA,A,3,68,83,67,82,69,,,,,,,,0.89,0.47,0.75,2*03
$GNGSA,A,3,10,12,24,04,19,25,33,,,,,,0.89,0.47,0.75,3*0C
$GNGSA,A,3,40,07,33,10,14,08,43,28,41,42,11,34,0.89,0.47,0.75,4*02
$GPGSV,4,1,15,19,72,061,41,195,68,048,41,196,68,121,40,50,60,167,38,1*6E
$GPGSV,4,2,15,199,60,167,35,17,58,106,43,06,49,001,43,20,39,242,16,1*5A
$GPGSV,4,3,15,09,37,089,39,194,35,173,44,11,33,300,23,12,21,308,20,1*55
$GPGSV,4,4,15,04,19,059,19,05,14,228,18,14,13,173,17,1*5D
$GPGSV,2,1,08,196,68,121,45,195,68,048,44,199,60,167,47,06,49,001,48,8*58
$GPGSV,2,2,08,09,37,089,43,194,35,173,44,11,33,300,32,04,19,059,31,8*51
$GLGSV,2,1,08,68,64,128,40,83,39,359,32,67,38,042,38,82,36,057,31,1*77
$GLGSV,2,2,08,69,25,184,42,73,19,273,13,80,13,219,13,74,07,315,,1*7A
$GAGSV,2,1,08,10,49,350,40,12,45,030,36,24,43,229,29,04,38,146,40,7*79
$GAGSV,2,2,08,19,32,072,31,25,29,296,21,33,10,074,27,09,07,189,,7*7E
$GAGSV,2,1,06,10,49,350,44,12,45,030,35,24,43,229,33,04,38,146,43,1*7E
$GAGSV,2,2,06,19,32,072,35,33,10,074,26,1*7F
$GBGSV,4,1,16,40,78,170,42,07,75,228,40,33,74,120,44,10,71,270,39,1*7E
$GBGSV,4,2,16,14,56,059,43,08,56,284,24,43,51,076,46,13,48,270,,1*72
$GBGSV,4,3,16,28,46,335,42,41,34,199,21,42,31,044,36,11,28,094,39,1*71
$GBGSV,4,4,16,37,12,261,,23,11,212,,34,11,108,21,58,,,32,1*42
$GBGSV,2,1,07,40,78,170,46,33,74,120,44,43,51,076,43,28,46,335,37,4*74
$GBGSV,2,2,07,41,34,199,25,42,31,044,39,34,11,108,17,4*46
$GNGGA,041611.000,2500.7953362,N,12132.4377459,E,4,57,0.47,16.004,M,15.25,M,1,3335*46
$GNRMC,041611.000,A,2500.7953362,N,12132.4377459,E,0.02,341.24,270623,,,R,V*1E
$GPHDT,,T*1B
$GNGGA,041611.200,2500.7953358,N,12132.4377430,E,4,56,0.47,15.994,M,15.25,M,1,3335*40
$GNRMC,041611.200,A,2500.7953358,N,12132.4377430,E,0.02,341.24,270623,,,R,V*1A
$GPHDT,,T*1B
$GNGGA,041611.400,2500.7953359,N,12132.4377434,E,4,57,0.47,16.001,M,15.25,M,1,3335*44
$GNRMC,041611.400,A,2500.7953359,N,12132.4377434,E,0.02,341.24,270623,,,R,V*19
$GPHDT,,T*1B
$GNGGA,041611.600,2500.7953365,N,12132.4377426,E,4,57,0.47,15.998,M,15.25,M,1,3335*40
$GNRMC,041611.600,A,2500.7953365,N,12132.4377426,E,0.02,341.24,270623,,,R,V*17
$GPHDT,,T*1B
$GNGGA,041611.800,2500.7953383,N,12132.4377446,E,4,58,0.47,16.012,M,15.25,M,0,3335*46
$GNRMC,041611.800,A,2500.7953383,N,12132.4377446,E,0.02,341.24,270623,,,R,V*17
$GPHDT,,T*1B
$GNGSA,A,3,19,196,195,199,17,06,20,09,194,11,12,04,0.89,0.47,0.75,1*0B
$GNGSA,A,3,14,,,,,,,,,,,,0.89,0.47,0.75,1*04
$GNGSA,A,3,68,83,67,82,69,,,,,,,,0.89,0.47,0.75,2*03
$GNGSA,A,3,10,12,24,04,19,25,33,,,,,,0.89,0.47,0.75,3*0C
$GNGSA,A,3,40,07,33,10,14,08,43,28,41,42,11,34,0.89,0.47,0.75,4*02
$GPGSV,4,1,15,19,72,061,41,196,68,121,40,195,68,048,41,199,60,167,35,1*57
$GPGSV,4,2,15,50,60,167,38,17,58,106,43,06,49,001,42,20,39,242,16,1*62
$GPGSV,4,3,15,09,37,089,39,194,35,173,44,11,33,300,23,12,21,308,21,1*54
$GPGSV,4,4,15,04,19,059,20,05,14,228,18,14,13,173,17,1*57
$GPGSV,2,1,08,196,68,121,45,195,68,048,44,199,60,167,47,06,49,001,48,8*58
$GPGSV,2,2,08,09,37,089,43,194,35,173,44,11,33,300,31,04,19,059,31,8*52
$GLGSV,2,1,07,68,64,128,40,83,39,359,31,67,38,042,38,82,36,057,32,1*78
$GLGSV,2,2,07,69,25,184,42,73,19,273,13,80,13,219,13,1*46
$GAGSV,2,1,08,10,49,350,40,12,45,030,36,24,43,229,28,04,38,146,40,7*78
$GAGSV,2,2,08,19,32,072,31,25,29,296,22,33,10,074,25,09,07,189,,7*7F
$GAGSV,2,1,06,10,49,350,44,12,45,030,34,24,43,229,33,04,38,146,43,1*7F
$GAGSV,2,2,06,19,32,072,34,33,10,074,25,1*7D
$GBGSV,4,1,16,40,78,170,42,07,75,228,40,33,74,120,44,10,71,270,38,1*7F
$GBGSV,4,2,16,14,56,059,43,08,56,284,24,43,51,076,46,13,48,270,,1*72
$GBGSV,4,3,16,28,46,335,42,41,34,199,20,42,31,044,36,11,28,094,39,1*70
$GBGSV,4,4,16,37,12,261,,34,11,108,23,23,11,212,,58,,,33,1*41
$GBGSV,2,1,07,40,78,170,46,33,74,120,44,43,51,076,42,28,46,335,37,4*75
$GBGSV,2,2,07,41,34,199,23,42,31,044,39,34,11,108,17,4*40
$GNGGA,041612.000,2500.7953403,N,12132.4377472,E,4,58,0.47,16.006,M,15.25,M,1,3335*41
$GNRMC,041612.000,A,2500.7953403,N,12132.4377472,E,0.02,341.24,270623,,,R,V*14
$GPHDT,,T*1B
$GNGGA,041612.200,2500.7953376,N,12132.4377431,E,4,58,0.47,16.000,M,15.25,M,1,3335*47
$GNRMC,041612.200,A,2500.7953376,N,12132.4377431,E,0.02,341.24,270623,,,R,V*14
$GPHDT,,T*1B
$GNGGA,041612.400,2500.7953359,N,12132.4377416,E,4,59,0.47,16.006,M,15.25,M,0,3335*4F
$GNRMC,041612.400,A,2500.7953359,N,12132.4377416,E,0.03,341.24,270623,,,R,V*1B
$GPHDT,,T*1B
$GNGGA,041612.600,2500.7953363,N,12132.4377399,E,4,59,0.47,15.993,M,15.25,M,0,3335*42
$GNRMC,041612.600,A,2500.7953363,N,12132.4377399,E,0.02,341.24,270623,,,R,V*11
$GPHDT,,T*1B
$GNGGA,041612.800,2500.7953361,N,12132.4377405,E,4,58,0.50,16.004,M,15.25,M,0,3335*4F
$GNRMC,041612.800,A,2500.7953361,N,12132.4377405,E,0.02,341.24,270623,,,R,V*1F
$GPHDT,,T*1B
$GNGSA,A,3,19,196,195,199,17,06,20,09,194,11,04,14,0.94,0.50,0.79,1*0B
$GNGSA,A,3,68,83,67,82,69,,,,,,,,0.94,0.50,0.79,2*05
$GNGSA,A,3,10,12,24,04,19,25,33,,,,,,0.94,0.50,0.79,3*0A
$GNGSA,A,3,40,07,33,10,14,08,43,28,41,42,11,34,0.94,0.50,0.79,4*04
$GPGSV,4,1,15,19,72,061,41,196,68,121,39,195,68,048,41,199,60,167,35,1*59
$GPGSV,4,2,15,50,60,167,38,17,58,106,43,06,49,001,42,20,39,242,20,1*67
$GPGSV,4,3,15,09,37,089,39,194,35,173,44,11,33,300,24,12,21,308,19,1*58
$GPGSV,4,4,15,04,19,059,21,05,14,228,17,14,13,173,17,1*59
$GPGSV,2,1,08,196,68,121,45,195,68,048,44,199,60,167,48,06,49,001,48,8*57
$GPGSV,2,2,08,09,37,089,44,194,35,173,44,11,33,300,31,04,19,059,32,8*56
$GLGSV,2,1,07,68,64,128,41,83,39,359,31,67,38,042,37,82,36,057,32,1*76
$GLGSV,2,2,07,69,25,184,42,73,19,273,13,80,13,219,12,1*47
$GAGSV,2,1,08,10,49,350,40,12,45,030,36,24,43,229,29,04,38,146,40,7*79
$GAGSV,2,2,08,19,32,072,32,25,29,296,22,33,10,074,24,09,07,189,,7*7D
$GAGSV,2,1,07,10,49,350,44,12,45,030,34,24,43,229,34,04,38,146,43,1*79
$GAGSV,2,2,07,19,32,072,34,25,29,296,20,33,10,074,25,1*4F
$GBGSV,4,1,16,40,78,170,42,07,75,228,40,33,74,120,44,10,71,270,38,1*7F
$GBGSV,4,2,16,14,56,059,43,08,56,284,23,43,51,076,46,13,48,270,,1*75
$GBGSV,4,3,16,28,46,335,42,41,34,199,21,42,31,044,36,11,28,094,39,1*71
$GBGSV,4,4,16,37,12,261,,34,11,108,23,23,11,212,,58,,,33,1*41
$GBGSV,2,1,07,40,78,170,46,33,74,120,44,43,51,076,43,28,46,335,38,4*7B
$GBGSV,2,2,07,41,34,199,24,42,31,044,40,34,11,108,17,4*49
$GNGGA,041613.000,2500.7953363,N,12132.4377423,E,4,58,0.50,16.010,M,15.25,M,1,3335*44
$GNRMC,041613.000,A,2500.7953363,N,12132.4377423,E,0.02,341.24,270623,,,R,V*10
$GPHDT,,T*1B
$GNGGA,041613.200,2500.7953348,N,12132.4377414,E,4,58,0.50,16.003,M,15.25,M,1,3335*49
$GNRMC,041613.200,A,2500.7953348,N,12132.4377414,E,0.02,341.24,270623,,,R,V*1F
$GPHDT,,T*1B
$GNGGA,041613.400,2500.7953372,N,12132.4377408,E,4,58,0.50,16.004,M,15.25,M,1,3335*4C
$GNRMC,041613.400,A,2500.7953372,N,12132.4377408,E,0.02,341.24,270623,,,R,V*1D
$GPHDT,,T*1B
$GNGGA,041613.600,2500.7953379,N,12132.4377377,E,4,58,0.50,15.980,M,15.25,M,0,3335*4D
$GNRMC,041613.600,A,2500.7953379,N,12132.4377377,E,0.03,341.24,270623,,,R,V*1A
$GPHDT,,T*1B
$GNGGA,041613.800,2500.7953382,N,12132.4377376,E,4,58,0.50,15.980,M,15.25,M,0,3335*46
$GNRMC,041613.800,A,2500.7953382,N,12132.4377376,E,0.03,341.24,270623,,,R,V*11
$GPHDT,,T*1B
$GNGSA,A,3,19,196,195,199,17,06,20,09,194,11,04,14,0.94,0.50,0.79,1*0B
$GNGSA,A,3,68,83,67,82,69,,,,,,,,0.94,0.50,0.79,2*05
$GNGSA,A,3,10,12,24,04,19,25,33,,,,,,0.94,0.50,0.79,3*0A
$GNGSA,A,3,40,07,33,10,14,08,43,28,41,42,11,34,0.94,0.50,0.79,4*04
$GPGSV,4,1,15,19,72,061,41,196,68,121,39,195,68,048,41,199,60,167,35,1*59
$GPGSV,4,2,15,50,60,167,38,17,58,106,43,06,49,001,42,20,39,242,21,1*66
$GPGSV,4,3,15,09,37,089,39,194,35,173,44,11,33,300,24,12,21,308,19,1*58
$GPGSV,4,4,15,04,19,059,21,05,14,228,17,14,13,173,17,1*59
$GPGSV,2,1,08,196,68,121,45,195,68,048,44,199,60,167,48,06,49,001,48,8*57
$GPGSV,2,2,08,09,37,089,44,194,35,173,44,11,33,300,31,04,19,059,31,8*55
$GLGSV,2,1,07,68,64,128,41,83,39,359,31,67,38,042,37,82,36,057,31,1*75
$GLGSV,2,2,07,69,25,184,42,73,19,273,15,80,13,219,12,1*41
$GAGSV,2,1,08,10,49,350,40,12,45,030,36,24,43,229,29,04,38,146,40,7*79
$GAGSV,2,2,08,19,32,072,32,25,29,296,22,33,10,074,23,09,07,189,,7*7A
$GAGSV,2,1,07,10,49,350,44,12,45,030,34,24,43,229,34,04,38,146,43,1*79
$GAGSV,2,2,07,19,32,072,34,25,29,296,20,33,10,074,25,1*4F
$GBGSV,4,1,16,40,78,170,42,07,75,228,40,33,74,120,44,10,71,270,38,1*7F
$GBGSV,4,2,16,14,56,059,43,08,56,284,23,43,51,076,46,13,48,270,,1*75
$GBGSV,4,3,16,28,46,335,42,41,34,199,22,42,31,044,36,11,28,094,39,1*72
$GBGSV,4,4,16,37,12,261,,34,11,108,24,23,11,212,,58,,,34,1*41
$GBGSV,2,1,07,40,78,170,46,33,74,120,44,43,51,076,43,28,46,335,38,4*7B
$GBGSV,2,2,07,41,34,199,23,42,31,044,40,34,11,108,17,4*4E
$GNGGA,041614.000,2500.7953370,N,12132.4377377,E,4,58,0.50,15.987,M,15.25,M,1,3335*43
$GNRMC,041614.000,A,2500.7953370,N,12132.4377377,E,0.03,341.24,270623,,,R,V*12
$GPHDT,,T*1B
$GNGGA,041614.200,2500.7953371,N,12132.4377387,E,4,58,0.50,15.986,M,15.25,M,1,3335*4E
$GNRMC,041614.200,A,2500.7953371,N,12132.4377387,E,0.03,341.24,270623,,,R,V*1E
$GPHDT,,T*1B
$GNGGA,041614.400,2500.7953370,N,12132.4377383,E,4,58,0.50,15.972,M,15.25,M,1,3335*46
$GNRMC,041614.400,A,2500.7953370,N,12132.4377383,E,0.03,341.24,270623,,,R,V*1D
$GPHDT,,T*1B
$GNGGA,041614.600,2500.7953398,N,12132.4377433,E,4,58,0.50,15.979,M,15.25,M,0,3335*44
$GNRMC,041614.600,A,2500.7953398,N,12132.4377433,E,0.03,341.24,270623,,,R,V*15
$GPHDT,,T*1B
$GNGGA,041614.800,2500.7953364,N,12132.4377378,E,4,58,0.50,15.977,M,15.25,M,0,3335*4F
$GNRMC,041614.800,A,2500.7953364,N,12132.4377378,E,0.03,341.24,270623,,,R,V*10
$GPHDT,,T*1B
$GNGSA,A,3,19,196,195,199,17,06,20,09,194,11,04,14,0.94,0.50,0.79,1*0B
$GNGSA,A,3,68,83,67,82,69,,,,,,,,0.94,0.50,0.79,2*05
$GNGSA,A,3,10,12,24,04,19,25,33,,,,,,0.94,0.50,0.79,3*0A
$GNGSA,A,3,40,07,33,10,14,08,43,28,41,42,11,34,0.94,0.50,0.79,4*04
$GPGSV,4,1,15,19,72,061,40,196,68,121,39,195,68,048,41,199,60,167,35,1*58
$GPGSV,4,2,15,50,60,167,38,17,58,106,44,06,49,001,42,20,39,242,21,1*61
$GPGSV,4,3,15,09,37,089,40,194,35,173,44,11,33,300,24,12,21,308,17,1*58
$GPGSV,4,4,15,04,19,059,21,05,14,228,17,14,13,173,16,1*58
$GPGSV,2,1,08,196,68,121,45,195,68,048,44,199,60,167,48,06,49,001,48,8*57
$GPGSV,2,2,08,09,37,089,44,194,35,173,44,11,33,300,31,04,19,059,31,8*55
$GLGSV,2,1,07,68,65,128,41,83,39,359,31,67,38,042,37,82,36,057,32,1*77
$GLGSV,2,2,07,69,25,184,42,73,19,273,16,80,13,219,12,1*42
$GAGSV,2,1,08,10,49,350,40,12,45,030,36,24,43,229,29,04,38,146,40,7*79
$GAGSV,2,2,08,19,32,072,32,25,29,296,20,33,10,074,21,09,07,189,,7*7A
$GAGSV,2,1,07,10,49,350,43,12,45,030,34,24,43,229,34,04,38,146,43,1*7E
$GAGSV,2,2,07,19,32,072,34,25,29,296,20,33,10,074,25,1*4F
$GBGSV,4,1,16,40,78,170,42,07,75,228,40,33,74,120,44,10,71,270,38,1*7F
$GBGSV,4,2,16,14,56,059,43,08,56,284,21,43,51,076,46,13,48,270,,1*77
$GBGSV,4,3,16,28,46,335,42,41,34,199,23,42,31,044,35,11,28,094,39,1*70
$GBGSV,4,4,16,37,12,261,,34,11,108,24,23,11,212,,58,,,34,1*41
$GBGSV,2,1,07,40,78,170,46,33,74,120,44,43,51,076,43,28,46,335,37,4*74
$GBGSV,2,2,07,41,34,199,20,42,31,044,40,34,11,108,16,4*4C
$GNGGA,041615.000,2500.7953347,N,12132.4377400,E,4,58,0.50,15.975,M,15.25,M,1,3335*4C
$GNRMC,041615.000,A,2500.7953347,N,12132.4377400,E,0.03,341.24,270623,,,R,V*10
$GPHDT,,T*1B
$GNGGA,041615.200,2500.7953382,N,12132.4377416,E,4,58,0.50,15.957,M,15.25,M,1,3335*40
$GNRMC,041615.200,A,2500.7953382,N,12132.4377416,E,0.03,341.24,270623,,,R,V*1C
$GPHDT,,T*1B
$GNGGA,041615.400,2500.7953384,N,12132.4377411,E,4,58,0.50,15.961,M,15.25,M,1,3335*42
$GNRMC,041615.400,A,2500.7953384,N,12132.4377411,E,0.02,341.24,270623,,,R,V*1A
$GPHDT,,T*1B
