$FW : RTK35X,V1.1X0314AS,Lib20210517,1*54
$Tool : LOCOSYS , GNSS Firebird , v1.0.0.19*39
$---------------------------------------------------*2D
$GNGGA,041330.600,2500.7953350,N,12132.4377479,E,4,58,0.45,15.964,M,15.25,M,0,3335*45
$GNRMC,041330.600,A,2500.7953350,N,12132.4377479,E,0.06,136.39,270623,,,R,V*17
$GPHDT,2.254,T*34
$GNGGA,041330.800,2500.7953378,N,12132.4377525,E,4,58,0.45,15.960,M,15.25,M,0,3335*4D
$GNRMC,041330.800,A,2500.7953378,N,12132.4377525,E,0.05,136.39,270623,,,R,V*18
$GPHDT,1.800,T*3C
$GNGSA,A,3,19,195,196,199,17,06,194,09,11,04,14,,0.74,0.47,0.58,1*02
$GNGSA,A,3,68,67,83,82,69,73,80,,,,,,0.74,0.47,0.58,2*02
$GNGSA,A,3,10,12,24,04,19,25,33,,,,,,0.74,0.47,0.58,3*01
$GNGSA,A,3,40,07,33,10,14,43,13,28,42,11,34,41,0.74,0.47,0.58,4*05
$GPGSV,4,1,15,19,71,056,40,195,68,048,41,196,68,122,42,50,60,167,39,1*68
$GPGSV,4,2,15,199,60,167,36,17,59,103,40,06,49,359,44,20,38,241,14,1*57
$GPGSV,4,3,15,194,36,173,42,09,36,090,36,11,32,298,26,12,20,309,20,1*52
$GPGSV,4,4,15,04,19,060,20,14,14,173,18,05,13,227,14,1*51
$GPGSV,2,1,08,196,68,122,46,195,68,048,42,199,60,167,48,06,49,359,47,8*50
$GPGSV,2,2,08,09,36,090,41,194,36,173,44,11,32,298,35,04,19,060,28,8*5D
$GLGSV,2,1,08,68,63,131,43,67,39,044,21,83,38,357,27,82,36,056,28,1*76
$GLGSV,2,2,08,69,24,184,42,73,20,274,18,80,14,220,17,74,07,316,,1*77
$GAGSV,2,1,08,10,49,349,44,12,46,028,35,24,44,230,38,04,37,147,41,7*7C
$GAGSV,2,2,08,19,32,074,33,25,29,297,17,33,11,073,23,09,06,190,,7*75
$GAGSV,2,1,06,10,49,349,45,12,46,028,29,24,44,230,42,04,37,147,42,1*76
$GAGSV,2,2,06,19,32,074,30,25,29,297,18,1*73
$GBGSV,4,1,15,40,79,168,41,07,76,229,40,33,73,124,43,10,71,272,40,1*7C
$GBGSV,4,2,15,08,56,282,,14,56,060,40,43,51,074,40,13,48,268,18,1*7C
$GBGSV,4,3,15,28,45,334,45,41,33,199,14,42,32,045,27,11,28,093,27,1*7C
$GBGSV,4,4,15,37,13,262,,23,12,212,,34,12,107,27,1*46
$GBGSV,2,1,07,40,79,168,44,33,73,124,46,43,51,074,32,28,45,334,44,4*7D
$GBGSV,2,2,07,41,33,199,24,42,32,045,33,34,12,107,23,4*43
$GNGGA,041331.000,2500.7953363,N,12132.4377504,E,4,57,0.47,15.978,M,15.25,M,1,3335*48
$GNRMC,041331.000,A,2500.7953363,N,12132.4377504,E,0.04,136.39,270623,,,R,V*19
$GPHDT,1.779,T*3D
$GNGGA,041331.200,2500.7953348,N,12132.4377476,E,4,56,0.47,15.984,M,15.25,M,1,3335*45
$GNRMC,041331.200,A,2500.7953348,N,12132.4377476,E,0.04,136.39,270623,,,R,V*16
$GPHDT,1.829,T*37
$GNGGA,041331.400,2500.7953362,N,12132.4377460,E,4,56,0.47,15.980,M,15.25,M,1,3335*48
$GNRMC,041331.400,A,2500.7953362,N,12132.4377460,E,0.04,136.39,270623,,,R,V*1F
$GPHDT,1.696,T*3D
$GNGGA,041331.600,2500.7953370,N,12132.4377519,E,4,56,0.47,15.957,M,15.25,M,1,3335*4C
$GNRMC,041331.600,A,2500.7953370,N,12132.4377519,E,0.03,136.39,270623,,,R,V*16
$GPHDT,1.688,T*32
$GNGGA,041331.800,2500.7953373,N,12132.4377455,E,4,56,0.47,15.964,M,15.25,M,0,3335*49
$GNRMC,041331.800,A,2500.7953373,N,12132.4377455,E,0.02,136.39,270623,,,R,V*13
$GPHDT,2.047,T*34
$GNGSA,A,3,19,196,195,199,17,06,09,194,11,04,14,,0.74,0.47,0.58,1*02
$GNGSA,A,3,68,67,83,82,69,73,80,,,,,,0.74,0.47,0.58,2*02
$GNGSA,A,3,10,12,24,04,19,25,33,,,,,,0.74,0.47,0.58,3*01
$GNGSA,A,3,40,07,33,10,14,43,13,28,42,11,41,34,0.74,0.47,0.58,4*05
$GPGSV,4,1,15,19,71,056,40,196,68,122,42,195,68,048,41,50,60,167,39,1*68
$GPGSV,4,2,15,199,60,167,35,17,59,103,41,06,49,359,44,20,38,241,17,1*56
$GPGSV,4,3,15,09,36,090,37,194,36,173,42,11,32,298,26,12,20,309,17,1*57
$GPGSV,4,4,15,04,19,060,21,14,14,173,18,05,13,227,,1*55
$GPGSV,2,1,08,196,68,122,46,195,68,048,42,199,60,167,48,06,49,359,47,8*50
$GPGSV,2,2,08,09,36,090,41,194,36,173,45,11,32,298,35,04,19,060,28,8*5C
$GLGSV,2,1,07,68,63,131,43,67,39,044,21,83,38,357,28,82,36,056,25,1*7B
$GLGSV,2,2,07,69,24,184,42,73,20,274,18,80,14,220,17,1*48
$GAGSV,2,1,08,10,49,349,44,12,46,028,35,24,44,230,38,04,37,147,41,7*7C
$GAGSV,2,2,08,19,32,074,32,25,29,297,18,33,11,073,24,09,06,190,,7*7C
$GAGSV,2,1,06,10,49,349,45,12,46,028,30,24,44,230,42,04,37,147,42,1*7E
$GAGSV,2,2,06,19,32,074,30,25,29,297,18,1*73
$GBGSV,4,1,15,40,79,168,41,07,76,229,40,33,73,124,43,10,71,272,40,1*7C
$GBGSV,4,2,15,14,56,060,40,08,56,282,,43,51,074,40,13,48,268,18,1*7C
$GBGSV,4,3,15,28,45,334,45,41,33,199,12,42,32,045,27,11,28,093,27,1*7A
$GBGSV,4,4,15,37,13,262,,34,12,107,25,23,12,212,,1*44
$GBGSV,2,1,07,40,79,168,44,33,73,124,47,43,51,074,32,28,45,334,44,4*7C
$GBGSV,2,2,07,41,33,199,24,42,32,045,33,34,12,107,25,4*45
$GNGGA,041332.000,2500.7953374,N,12132.4377493,E,4,56,0.47,15.967,M,15.25,M,1,3335*4D
$GNRMC,041332.000,A,2500.7953374,N,12132.4377493,E,0.03,136.39,270623,,,R,V*14
$GPHDT,1.867,T*3D
$GNGGA,041332.200,2500.7953380,N,12132.4377493,E,4,56,0.47,15.958,M,15.25,M,1,3335*48
$GNRMC,041332.200,A,2500.7953380,N,12132.4377493,E,0.02,136.39,270623,,,R,V*1C
$GPHDT,1.739,T*39
$GNGGA,041332.400,2500.7953368,N,12132.4377495,E,4,56,0.47,15.980,M,15.25,M,1,3335*4B
$GNRMC,041332.400,A,2500.7953368,N,12132.4377495,E,0.02,136.39,270623,,,R,V*1A
$GPHDT,1.579,T*3F
$GNGGA,041332.600,2500.7953365,N,12132.4377482,E,4,56,0.47,15.974,M,15.25,M,0,3335*48
$GNRMC,041332.600,A,2500.7953365,N,12132.4377482,E,0.02,136.39,270623,,,R,V*13
$GPHDT,1.945,T*3C
$GNGGA,041332.800,2500.7953374,N,12132.4377498,E,4,56,0.47,15.969,M,15.25,M,0,3335*41
$GNRMC,041332.800,A,2500.7953374,N,12132.4377498,E,0.03,136.39,270623,,,R,V*17
$GPHDT,1.782,T*39
$GNGSA,A,3,19,196,195,199,17,06,09,194,11,04,14,,0.74,0.47,0.58,1*02
$GNGSA,A,3,68,67,83,82,69,73,80,,,,,,0.74,0.47,0.58,2*02
$GNGSA,A,3,10,12,24,04,19,25,33,,,,,,0.74,0.47,0.58,3*01
$GNGSA,A,3,40,07,33,10,14,43,13,28,42,11,34,41,0.74,0.47,0.58,4*05
$GPGSV,4,1,15,19,71,056,40,196,68,122,42,195,68,048,41,50,60,167,39,1*68
$GPGSV,4,2,15,199,60,167,35,17,59,103,41,06,49,359,44,20,38,241,16,1*57
$GPGSV,4,3,15,09,36,090,37,194,36,173,42,11,32,298,26,12,20,309,17,1*57
$GPGSV,4,4,15,04,19,060,21,14,14,173,18,05,13,227,,1*55
$GPGSV,2,1,08,196,68,122,46,195,68,048,42,199,60,167,48,06,49,359,47,8*50
$GPGSV,2,2,08,09,36,090,41,194,36,173,45,11,32,298,35,04,19,060,28,8*5C
$GLGSV,2,1,07,68,64,130,43,67,39,044,21,83,38,357,28,82,36,056,23,1*7B
$GLGSV,2,2,07,69,24,184,42,73,20,274,18,80,14,220,16,1*49
$GAGSV,2,1,08,10,49,349,44,12,46,028,35,24,44,230,38,04,37,147,41,7*7C
$GAGSV,2,2,08,19,32,074,33,25,29,297,18,33,11,073,23,09,06,190,,7*7A
$GAGSV,2,1,06,10,49,349,45,12,46,028,30,24,44,230,42,04,37,147,42,1*7E
$GAGSV,2,2,06,19,32,074,29,25,29,297,17,1*74
$GBGSV,4,1,15,40,79,168,41,07,76,229,40,33,73,124,43,10,71,272,40,1*7C
$GBGSV,4,2,15,14,56,060,40,08,56,282,,43,51,074,40,13,48,268,18,1*7C
$GBGSV,4,3,15,28,45,334,45,41,33,199,14,42,32,045,28,11,28,093,27,1*73
$GBGSV,4,4,15,37,13,262,,34,12,107,27,23,12,212,,1*46
$GBGSV,2,1,07,40,79,168,44,33,73,124,47,43,51,074,32,28,45,334,44,4*7C
$GBGSV,2,2,07,41,33,199,22,42,32,045,32,34,12,107,23,4*44
$GNGGA,041333.000,2500.7953371,N,12132.4377511,E,4,57,0.47,15.958,M,15.25,M,1,3335*4F
$GNRMC,041333.000,A,2500.7953371,N,12132.4377511,E,0.02,136.39,270623,,,R,V*1A
$GPHDT,1.668,T*3C
$GNGGA,041333.200,2500.7953390,N,12132.4377510,E,4,56,0.47,15.964,M,15.25,M,1,3335*4D
$GNRMC,041333.200,A,2500.7953390,N,12132.4377510,E,0.01,136.39,270623,,,R,V*15
$GPHDT,1.922,T*3D
$GNGGA,041333.400,2500.7953382,N,12132.4377500,E,4,56,0.47,15.958,M,15.25,M,1,3335*46
$GNRMC,041333.400,A,2500.7953382,N,12132.4377500,E,0.02,136.39,270623,,,R,V*12
$GPHDT,1.898,T*3D
$GNGGA,041333.600,2500.7953387,N,12132.4377524,E,4,57,0.45,15.960,M,15.25,M,0,3335*4E
$GNRMC,041333.600,A,2500.7953387,N,12132.4377524,E,0.02,136.39,270623,,,R,V*13
$GPHDT,1.691,T*3A
$GNGGA,041333.800,2500.7953381,N,12132.4377498,E,4,57,0.45,15.972,M,15.25,M,0,3335*43
$GNRMC,041333.800,A,2500.7953381,N,12132.4377498,E,0.01,136.39,270623,,,R,V*1E
$GPHDT,1.985,T*30
$GNGSA,A,3,19,196,195,199,17,06,09,194,11,12,04,14,0.73,0.45,0.57,1*0B
$GNGSA,A,3,68,67,83,82,69,73,80,,,,,,0.73,0.45,0.57,2*08
$GNGSA,A,3,10,12,24,04,19,25,33,,,,,,0.73,0.45,0.57,3*0B
$GNGSA,A,3,40,07,33,10,14,43,13,28,42,11,41,34,0.73,0.45,0.57,4*0F
$GPGSV,4,1,15,19,71,056,40,196,68,122,42,195,68,048,41,50,60,167,39,1*68
$GPGSV,4,2,15,199,60,167,35,17,59,103,41,06,49,359,44,20,38,241,16,1*57
$GPGSV,4,3,15,09,36,090,37,194,36,173,42,11,32,298,28,12,20,309,17,1*59
$GPGSV,4,4,15,04,19,060,20,14,14,173,18,05,13,227,15,1*50
$GPGSV,2,1,08,196,68,122,46,195,68,048,42,199,60,167,48,06,49,359,47,8*50
$GPGSV,2,2,08,09,36,090,42,194,36,173,45,11,32,298,35,04,19,060,28,8*5F
$GLGSV,2,1,07,68,64,130,43,67,39,044,21,83,38,357,29,82,36,056,25,1*7C
$GLGSV,2,2,07,69,24,184,42,73,20,274,18,80,14,220,15,1*4A
$GAGSV,2,1,08,10,49,349,44,12,46,028,35,24,44,230,38,04,37,147,41,7*7C
$GAGSV,2,2,08,19,32,074,33,25,29,297,17,33,11,073,23,09,06,190,,7*75
$GAGSV,2,1,07,10,49,349,45,12,46,028,30,24,44,230,42,04,37,147,42,1*7F
$GAGSV,2,2,07,19,32,074,29,25,29,297,18,33,11,073,23,1*4F
$GBGSV,4,1,15,40,79,168,41,07,76,229,40,33,73,124,44,10,71,272,40,1*7B
$GBGSV,4,2,15,14,56,060,41,08,56,282,,43,51,074,40,13,48,268,18,1*7D
$GBGSV,4,3,15,28,45,334,45,41,33,199,13,42,32,045,27,11,28,093,27,1*7B
$GBGSV,4,4,15,37,13,262,,34,12,107,25,23,12,212,,1*44
$GBGSV,2,1,07,40,79,168,44,33,73,124,47,43,51,074,32,28,45,334,44,4*7C
$GBGSV,2,2,07,41,33,199,22,42,32,045,32,34,12,107,23,4*44
$GNGGA,041334.000,2500.7953380,N,12132.4377500,E,4,58,0.45,15.979,M,15.25,M,1,3335*48
$GNRMC,041334.000,A,2500.7953380,N,12132.4377500,E,0.02,136.39,270623,,,R,V*13
$GPHDT,2.024,T*31
$GNGGA,041334.200,2500.7953384,N,12132.4377495,E,4,58,0.45,15.961,M,15.25,M,1,3335*4A
$GNRMC,041334.200,A,2500.7953384,N,12132.4377495,E,0.01,136.39,270623,,,R,V*1B
$GPHDT,1.880,T*34
$GNGGA,041334.400,2500.7953383,N,12132.4377480,E,4,58,0.46,15.981,M,15.25,M,1,3335*42
$GNRMC,041334.400,A,2500.7953383,N,12132.4377480,E,0.02,136.39,270623,,,R,V*1D
$GPHDT,2.002,T*35
$GNGGA,041334.600,2500.7953378,N,12132.4377490,E,4,58,0.46,15.979,M,15.25,M,1,3335*42
$GNRMC,041334.600,A,2500.7953378,N,12132.4377490,E,0.04,136.39,270623,,,R,V*1C
$GPHDT,2.018,T*3E
$GNGGA,041334.800,2500.7953350,N,12132.4377495,E,4,58,0.46,15.968,M,15.25,M,0,3335*42
$GNRMC,041334.800,A,2500.7953350,N,12132.4377495,E,0.03,136.39,270623,,,R,V*1A
$GPHDT,2.069,T*38
$GNGSA,A,3,19,195,196,199,17,06,20,194,09,11,12,04,0.74,0.46,0.58,1*07
$GNGSA,A,3,68,67,83,82,69,73,80,,,,,,0.74,0.46,0.58,2*03
$GNGSA,A,3,10,12,24,04,19,25,33,,,,,,0.74,0.46,0.58,3*00
$GNGSA,A,3,40,07,33,10,14,43,13,28,42,11,41,34,0.74,0.46,0.58,4*04
$GPGSV,4,1,15,19,71,056,40,195,68,048,41,196,68,122,42,50,60,167,39,1*68
$GPGSV,4,2,15,199,60,167,35,17,59,103,41,06,49,359,44,20,38,241,14,1*55
$GPGSV,4,3,15,194,36,173,42,09,36,090,37,11,32,298,27,12,20,309,18,1*59
$GPGSV,4,4,15,04,19,060,20,14,14,173,15,05,13,227,13,1*5B
$GPGSV,2,1,08,196,68,122,46,195,68,048,42,199,60,167,48,06,49,359,47,8*50
$GPGSV,2,2,08,09,36,090,42,194,36,173,45,11,32,298,35,04,19,060,28,8*5F
$GLGSV,2,1,07,68,64,130,43,67,39,044,20,83,38,357,28,82,36,056,26,1*7F
$GLGSV,2,2,07,69,24,184,42,73,20,274,18,80,14,220,16,1*49
$GAGSV,2,1,08,10,49,349,44,12,46,028,35,24,44,230,38,04,37,147,41,7*7C
$GAGSV,2,2,08,19,32,074,33,25,29,297,18,33,11,073,21,09,06,190,,7*78
$GAGSV,2,1,07,10,49,349,45,12,46,028,30,24,44,230,42,04,37,147,42,1*7F
$GAGSV,2,2,07,19,32,074,29,25,29,297,18,33,11,073,23,1*4F
$GBGSV,4,1,16,40,79,168,41,07,76,229,40,33,73,124,44,10,71,272,40,1*78
$GBGSV,4,2,16,14,56,060,41,08,56,282,,43,51,074,40,13,48,268,18,1*7E
$GBGSV,4,3,16,28,45,334,45,41,33,199,15,42,32,045,28,11,28,093,28,1*7E
$GBGSV,4,4,16,37,13,262,,23,12,212,,34,12,107,25,27,06,305,,1*72
$GBGSV,2,1,07,40,79,168,44,33,73,124,47,43,51,074,33,28,45,334,44,4*7D
$GBGSV,2,2,07,41,33,199,21,42,32,045,31,34,12,107,24,4*43
$GNGGA,041335.000,2500.7953370,N,12132.4377515,E,4,58,0.46,15.968,M,15.25,M,1,3335*41
$GNRMC,041335.000,A,2500.7953370,N,12132.4377515,E,0.03,136.39,270623,,,R,V*18
$GPHDT,1.780,T*3B
$GNGGA,041335.200,2500.7953349,N,12132.4377521,E,4,58,0.46,15.975,M,15.25,M,1,3335*42
$GNRMC,041335.200,A,2500.7953349,N,12132.4377521,E,0.03,136.39,270623,,,R,V*17
$GPHDT,1.480,T*38
$GNGGA,041335.400,2500.7953359,N,12132.4377502,E,4,59,0.45,15.971,M,15.25,M,1,3335*42
$GNRMC,041335.400,A,2500.7953359,N,12132.4377502,E,0.02,136.39,270623,,,R,V*10
$GPHDT,1.843,T*3B
$GNGGA,041335.600,2500.7953354,N,12132.4377430,E,4,58,0.46,15.973,M,15.25,M,0,3335*4C
$GNRMC,041335.600,A,2500.7953354,N,12132.4377430,E,0.04,136.39,270623,,,R,V*19
$GPHDT,1.837,T*38
$GNGGA,041335.800,2500.7953364,N,12132.4377412,E,4,58,0.46,15.971,M,15.25,M,0,3335*43
$GNRMC,041335.800,A,2500.7953364,N,12132.4377412,E,0.03,136.39,270623,,,R,V*13
$GPHDT,1.970,T*3A
$GNGSA,A,3,19,195,196,199,17,06,20,194,09,11,04,,0.76,0.48,0.59,1*09
$GNGSA,A,3,68,67,83,82,69,73,80,,,,,,0.76,0.48,0.59,2*0E
$GNGSA,A,3,10,12,24,04,19,25,33,,,,,,0.76,0.48,0.59,3*0D
$GNGSA,A,3,40,07,33,10,14,43,13,28,42,11,41,34,0.76,0.48,0.59,4*09
$GPGSV,4,1,15,19,71,056,40,195,68,048,41,196,68,122,42,50,60,167,39,1*68
$GPGSV,4,2,15,199,60,167,35,17,59,103,41,06,49,359,44,20,38,241,16,1*57
$GPGSV,4,3,15,194,36,173,42,09,36,090,38,11,32,298,26,12,20,309,20,1*5C
$GPGSV,4,4,15,04,19,060,20,14,14,173,15,05,13,227,13,1*5B
$GPGSV,2,1,08,196,68,122,46,195,68,048,42,199,60,167,48,06,49,359,47,8*50
$GPGSV,2,2,08,09,36,090,42,194,36,173,45,11,32,298,34,04,19,060,27,8*51
$GLGSV,2,1,08,68,64,130,43,67,39,044,22,83,38,357,28,82,36,056,27,1*73
$GLGSV,2,2,08,69,24,184,42,73,20,274,17,80,14,220,16,84,03,305,,1*70
$GAGSV,3,1,09,10,49,349,44,12,46,028,36,24,44,230,38,04,37,147,41,7*7F
$GAGSV,3,2,09,19,32,074,33,25,29,297,18,33,11,073,21,09,06,190,,7*78
$GAGSV,3,3,09,36,02,278,,7*40
$GAGSV,2,1,07,10,49,349,45,12,46,028,30,24,44,230,42,04,37,147,41,1*7C
$GAGSV,2,2,07,19,32,074,29,25,29,297,18,33,11,073,22,1*4E
$GBGSV,4,1,15,40,79,168,41,07,76,229,40,33,73,124,44,10,71,272,40,1*7B
$GBGSV,4,2,15,08,56,282,,14,56,060,41,43,51,074,40,13,48,268,18,1*7D
$GBGSV,4,3,15,28,45,334,45,41,33,199,,42,32,045,26,11,28,093,27,1*78
$GBGSV,4,4,15,37,13,262,,34,12,107,25,23,12,212,,1*44
$GBGSV,2,1,07,40,79,168,44,33,73,124,47,43,51,074,33,28,45,334,44,4*7D
$GBGSV,2,2,07,41,33,199,20,42,32,045,32,34,12,107,24,4*41
$GNGGA,041336.000,2500.7953381,N,12132.4377506,E,4,57,0.48,15.944,M,15.25,M,1,3335*41
$GNRMC,041336.000,A,2500.7953381,N,12132.4377506,E,0.03,136.39,270623,,,R,V*17
$GPHDT,1.694,T*3F
$GNGGA,041336.200,2500.7953372,N,12132.4377470,E,4,57,0.48,15.936,M,15.25,M,1,3335*4A
$GNRMC,041336.200,A,2500.7953372,N,12132.4377470,E,0.04,136.39,270623,,,R,V*1E
$GPHDT,1.950,T*38
$GNGGA,041336.400,2500.7953374,N,12132.4377489,E,4,58,0.46,15.929,M,15.25,M,1,3335*43
$GNRMC,041336.400,A,2500.7953374,N,12132.4377489,E,0.05,136.39,270623,,,R,V*19
$GPHDT,1.921,T*3E
$GNGGA,041336.600,2500.7953374,N,12132.4377405,E,4,57,0.48,15.961,M,15.25,M,1,3335*48
$GNRMC,041336.600,A,2500.7953374,N,12132.4377405,E,0.05,136.39,270623,,,R,V*1F
$GPHDT,1.811,T*3C
$GNGGA,041336.800,2500.7953368,N,12132.4377426,E,4,58,0.46,15.959,M,15.25,M,0,3335*41
$GNRMC,041336.800,A,2500.7953368,N,12132.4377426,E,0.05,136.39,270623,,,R,V*1D
$GPHDT,1.993,T*37
$GNGSA,A,3,19,195,196,199,17,06,20,194,09,11,12,04,0.74,0.46,0.58,1*07
$GNGSA,A,3,68,67,83,82,69,73,80,,,,,,0.74,0.46,0.58,2*03
$GNGSA,A,3,10,12,24,04,19,25,33,,,,,,0.74,0.46,0.58,3*00
$GNGSA,A,3,40,07,33,10,14,43,13,28,42,11,41,34,0.74,0.46,0.58,4*04
$GPGSV,4,1,15,19,71,056,40,195,68,048,41,196,68,122,42,50,60,167,39,1*68
$GPGSV,4,2,15,199,60,167,35,17,59,103,41,06,49,359,44,20,38,241,16,1*57
$GPGSV,4,3,15,194,36,173,42,09,36,090,39,11,32,298,25,12,20,309,18,1*55
$GPGSV,4,4,15,04,19,060,23,14,14,173,15,05,13,227,14,1*5F
$GPGSV,2,1,08,196,68,122,46,195,68,048,42,199,60,167,48,06,49,359,47,8*50
$GPGSV,2,2,08,09,36,090,42,194,36,173,45,11,32,298,34,04,19,060,27,8*51
$GLGSV,2,1,07,68,64,130,43,67,39,044,25,83,38,357,29,82,36,056,25,1*78
$GLGSV,2,2,07,69,24,184,42,73,20,274,17,80,14,220,17,1*47
$GAGSV,3,1,09,10,49,349,44,12,46,028,36,24,44,230,39,04,37,147,41,7*7E
$GAGSV,3,2,09,19,32,074,35,25,29,297,18,33,11,073,21,09,06,190,,7*7E
$GAGSV,3,3,09,36,02,278,,7*40
$GAGSV,2,1,07,10,49,349,45,12,46,028,30,24,44,230,42,04,37,147,41,1*7C
$GAGSV,2,2,07,19,32,074,31,25,29,297,18,33,11,073,23,1*46
$GBGSV,4,1,15,40,79,168,41,07,76,229,40,33,73,124,44,10,71,272,40,1*7B
$GBGSV,4,2,15,08,56,282,,14,56,060,42,43,51,074,40,13,48,268,19,1*7F
$GBGSV,4,3,15,28,45,334,45,41,33,199,,42,32,045,28,11,28,093,27,1*76
$GBGSV,4,4,15,37,13,262,,23,12,212,,34,12,107,25,1*44
$GBGSV,2,1,07,40,79,168,44,33,73,124,47,43,51,074,33,28,45,334,44,4*7D
$GBGSV,2,2,07,41,33,199,20,42,32,045,33,34,12,107,24,4*40
$GNGGA,041337.000,2500.7953369,N,12132.4377469,E,4,58,0.46,15.950,M,15.25,M,1,3335*4A
$GNRMC,041337.000,A,2500.7953369,N,12132.4377469,E,0.06,136.39,270623,,,R,V*1D
$GPHDT,1.918,T*34
$GNGGA,041337.200,2500.7953368,N,12132.4377449,E,4,58,0.46,15.954,M,15.25,M,1,3335*4F
$GNRMC,041337.200,A,2500.7953368,N,12132.4377449,E,0.05,136.39,270623,,,R,V*1F
$GPHDT,2.281,T*3C
$GNGGA,041337.400,2500.7953389,N,12132.4377470,E,4,58,0.46,15.939,M,15.25,M,1,3335*47
$GNRMC,041337.400,A,2500.7953389,N,12132.4377470,E,0.03,136.39,270623,,,R,V*1A
$GPHDT,1.839,T*36
$GNGGA,041337.600,2500.7953372,N,12132.4377475,E,4,58,0.46,15.947,M,15.25,M,1,3335*4D
$GNRMC,041337.600,A,2500.7953372,N,12132.4377475,E,0.02,136.39,270623,,,R,V*18
$GPHDT,1.914,T*38
$GNGGA,041337.800,2500.7953358,N,12132.4377474,E,4,58,0.46,15.975,M,15.25,M,0,3335*4A
$GNRMC,041337.800,A,2500.7953358,N,12132.4377474,E,0.01,136.39,270623,,,R,V*1C
$GPHDT,2.042,T*31
$GNGSA,A,3,19,195,196,199,17,06,20,194,09,11,12,04,0.72,0.45,0.57,1*0D
$GNGSA,A,3,14,,,,,,,,,,,,0.72,0.45,0.57,1*02
$GNGSA,A,3,68,67,83,82,69,73,80,,,,,,0.72,0.45,0.57,2*09
$GNGSA,A,3,10,12,24,04,19,25,33,,,,,,0.72,0.45,0.57,3*0A
$GNGSA,A,3,40,07,33,10,14,43,13,28,42,11,41,34,0.72,0.45,0.57,4*0E
$GPGSV,4,1,15,19,71,056,40,195,68,048,41,196,68,122,42,50,60,167,39,1*68
$GPGSV,4,2,15,199,60,167,35,17,59,103,42,06,49,359,44,20,38,241,16,1*54
$GPGSV,4,3,15,194,36,173,42,09,36,090,39,11,32,298,27,12,20,309,18,1*57
$GPGSV,4,4,15,04,19,060,22,14,14,173,16,05,13,227,14,1*5D
$GPGSV,2,1,08,196,68,122,46,195,68,048,42,199,60,167,48,06,49,359,47,8*50
$GPGSV,2,2,08,09,36,090,42,194,36,173,45,11,32,298,34,04,19,060,27,8*51
$GLGSV,2,1,07,68,64,130,43,67,39,044,23,83,38,357,29,82,36,056,20,1*7B
$GLGSV,2,2,07,69,24,184,42,73,20,274,17,80,14,220,17,1*47
$GAGSV,3,1,09,10,49,349,44,12,46,028,36,24,44,230,39,04,37,147,41,7*7E
$GAGSV,3,2,09,19,32,074,35,25,29,297,18,33,11,073,21,09,06,190,,7*7E
$GAGSV,3,3,09,36,02,278,,7*40
$GAGSV,2,1,07,10,49,349,45,12,46,028,30,24,44,230,42,04,37,147,41,1*7C
$GAGSV,2,2,07,19,32,074,30,25,29,297,17,33,11,073,22,1*49
$GBGSV,4,1,15,40,79,168,41,07,76,228,40,33,73,124,44,10,71,272,40,1*7A
$GBGSV,4,2,15,08,56,282,,14,56,060,42,43,51,074,40,13,48,268,18,1*7E
$GBGSV,4,3,15,28,45,334,45,41,33,199,,42,32,045,29,11,28,093,28,1*78
$GBGSV,4,4,15,37,13,262,,23,12,212,,34,12,107,25,1*44
$GBGSV,2,1,07,40,79,168,44,33,73,124,47,43,51,074,33,28,45,334,44,4*7D
$GBGSV,2,2,07,41,33,199,18,42,32,045,33,34,12,107,23,4*4C
$GNGGA,041338.000,2500.7953367,N,12132.4377487,E,4,59,0.45,15.944,M,15.25,M,1,3335*4C
$GNRMC,041338.000,A,2500.7953367,N,12132.4377487,E,0.01,136.39,270623,,,R,V*1B
$GPHDT,2.277,T*35
$GNGGA,041338.200,2500.7953349,N,12132.4377537,E,4,59,0.45,15.976,M,15.25,M,1,3335*49
$GNRMC,041338.200,A,2500.7953349,N,12132.4377537,E,0.02,136.39,270623,,,R,V*1C
$GPHDT,1.905,T*38
$GNGGA,041338.400,2500.7953360,N,12132.4377546,E,4,60,0.45,15.960,M,15.25,M,1,3335*4F
$GNRMC,041338.400,A,2500.7953360,N,12132.4377546,E,0.04,136.39,270623,,,R,V*11
$GPHDT,1.980,T*35
$GNGGA,041338.600,2500.7953364,N,12132.4377509,E,4,59,0.45,15.967,M,15.25,M,0,3335*4E
$GNRMC,041338.600,A,2500.7953364,N,12132.4377509,E,0.05,136.39,270623,,,R,V*1D
$GPHDT,1.700,T*33
$GNGGA,041338.800,2500.7953370,N,12132.4377516,E,4,59,0.45,15.966,M,15.25,M,0,3335*4A
$GNRMC,041338.800,A,2500.7953370,N,12132.4377516,E,0.05,136.39,270623,,,R,V*18
$GPHDT,1.824,T*3A
$GNGSA,A,3,19,196,195,199,17,06,20,09,194,11,12,04,0.72,0.45,0.57,1*0D
$GNGSA,A,3,14,,,,,,,,,,,,0.72,0.45,0.57,1*02
$GNGSA,A,3,68,67,83,82,69,73,80,,,,,,0.72,0.45,0.57,2*09
$GNGSA,A,3,10,12,24,04,19,25,33,,,,,,0.72,0.45,0.57,3*0A
$GNGSA,A,3,40,07,33,10,14,43,13,28,42,11,41,34,0.72,0.45,0.57,4*0E
$GPGSV,4,1,15,19,71,056,40,196,68,122,42,195,68,048,41,50,60,167,39,1*68
$GPGSV,4,2,15,199,60,167,35,17,59,103,42,06,49,359,44,20,38,241,16,1*54
$GPGSV,4,3,15,09,36,090,39,194,36,173,42,11,32,298,28,12,20,309,18,1*58
$GPGSV,4,4,15,04,19,060,20,14,14,173,16,05,13,227,14,1*5F
$GPGSV,3,1,09,196,68,122,46,195,68,048,42,199,60,167,48,06,49,359,47,8*50
$GPGSV,3,2,09,09,36,090,42,194,36,173,45,11,32,298,35,04,19,060,26,8*51
$GPGSV,3,3,09,14,14,173,18,8*58
$GLGSV,2,1,07,68,64,130,43,67,39,044,21,83,38,357,28,82,36,056,22,1*7A
$GLGSV,2,2,07,69,24,184,42,73,20,274,17,80,14,220,17,1*47
$GAGSV,2,1,08,10,49,349,44,12,46,028,36,24,44,230,39,04,37,147,42,7*7D
$GAGSV,2,2,08,19,32,074,35,25,29,297,18,33,11,073,19,36,02,278,,7*78
$GAGSV,2,1,07,10,49,349,45,12,46,028,30,24,44,230,42,04,37,147,42,1*7F
$GAGSV,2,2,07,19,32,074,30,25,29,297,17,33,11,073,23,1*48
$GBGSV,4,1,15,40,79,168,41,07,76,228,40,33,73,124,44,10,71,272,40,1*7A
$GBGSV,4,2,15,14,56,060,42,08,56,283,,43,51,074,40,13,48,268,18,1*7F
$GBGSV,4,3,15,28,45,334,45,41,33,199,,42,32,045,29,11,28,093,29,1*79
$GBGSV,4,4,15,37,13,262,,34,12,107,25,23,12,212,,1*44
$GBGSV,2,1,07,40,79,168,44,33,73,124,47,43,51,074,35,28,45,334,44,4*7B
$GBGSV,2,2,07,41,33,199,18,42,32,045,33,34,12,107,24,4*4B
$GNGGA,041339.000,2500.7953371,N,12132.4377498,E,4,59,0.45,15.968,M,15.25,M,1,3335*4A
$GNRMC,041339.000,A,2500.7953371,N,12132.4377498,E,0.05,136.39,270623,,,R,V*17
$GPHDT,1.940,T*39
$GNGGA,041339.200,2500.7953375,N,12132.4377474,E,4,59,0.45,15.979,M,15.25,M,1,3335*4E
$GNRMC,041339.200,A,2500.7953375,N,12132.4377474,E,0.04,136.39,270623,,,R,V*12
$GPHDT,1.853,T*3A
$GNGGA,041339.400,2500.7953348,N,12132.4377439,E,4,59,0.45,15.992,M,15.25,M,1,3335*4A
$GNRMC,041339.400,A,2500.7953348,N,12132.4377439,E,0.03,136.39,270623,,,R,V*14
$GPHDT,2.092,T*3C
$GNGGA,041339.600,2500.7953380,N,12132.4377503,E,4,60,0.45,15.960,M,15.25,M,0,3335*42
$GNRMC,041339.600,A,2500.7953380,N,12132.4377503,E,0.02,136.39,270623,,,R,V*1B
$GPHDT,1.741,T*36
$GNGGA,041339.800,2500.7953367,N,12132.4377504,E,4,60,0.45,15.965,M,15.25,M,0,3335*47
$GNRMC,041339.800,A,2500.7953367,N,12132.4377504,E,0.02,136.39,270623,,,R,V*1B
$GPHDT,1.990,T*34
$GNGSA,A,3,19,196,195,199,17,06,20,09,194,11,12,04,0.72,0.45,0.57,1*0D
$GNGSA,A,3,14,,,,,,,,,,,,0.72,0.45,0.57,1*02
$GNGSA,A,3,68,67,83,82,69,73,80,,,,,,0.72,0.45,0.57,2*09
$GNGSA,A,3,10,12,24,04,19,25,33,,,,,,0.72,0.45,0.57,3*0A
$GNGSA,A,3,40,07,33,10,14,43,13,28,42,11,34,41,0.72,0.45,0.57,4*0E
$GPGSV,4,1,15,19,71,056,40,196,68,122,42,195,68,048,41,50,60,167,38,1*69
$GPGSV,4,2,15,199,60,167,35,17,59,103,42,06,49,359,44,20,38,241,16,1*54
$GPGSV,4,3,15,09,36,090,39,194,36,173,42,11,32,298,28,12,20,309,18,1*58
$GPGSV,4,4,15,04,19,060,20,14,14,173,14,05,13,227,15,1*5C
$GPGSV,3,1,09,196,68,122,46,195,68,048,42,199,60,167,48,06,49,359,47,8*50
$GPGSV,3,2,09,09,36,090,42,194,36,173,45,11,32,298,34,04,19,060,26,8*50
$GPGSV,3,3,09,14,14,173,16,8*56
$GLGSV,2,1,07,68,64,130,43,67,39,044,19,83,38,357,29,82,36,056,25,1*77
$GLGSV,2,2,07,69,24,184,42,73,20,274,17,80,14,220,17,1*47
$GAGSV,2,1,08,10,49,349,44,12,46,028,36,24,44,230,39,04,37,147,42,7*7D
$GAGSV,2,2,08,19,32,074,35,25,29,297,17,33,11,073,18,36,02,278,,7*76
$GAGSV,2,1,07,10,49,349,45,12,46,028,30,24,44,230,42,04,37,147,42,1*7F
$GAGSV,2,2,07,19,32,074,31,25,29,297,17,33,11,073,22,1*48
$GBGSV,4,1,15,40,79,168,41,07,76,228,40,33,73,124,44,10,71,272,40,1*7A
$GBGSV,4,2,15,14,56,060,42,08,56,283,,43,51,074,40,13,48,269,18,1*7E
$GBGSV,4,3,15,28,45,334,45,41,33,199,,42,32,045,29,11,28,093,30,1*71
$GBGSV,4,4,15,37,13,262,,34,12,107,24,23,12,212,,1*45
$GBGSV,2,1,07,40,79,168,44,33,73,124,47,43,51,074,33,28,45,334,44,4*7D
$GBGSV,2,2,07,41,33,199,18,42,32,045,33,34,12,107,23,4*4C
$GNGGA,041340.000,2500.7953384,N,12132.4377506,E,4,60,0.45,15.965,M,15.25,M,1,3335*4F
$GNRMC,041340.000,A,2500.7953384,N,12132.4377506,E,0.02,136.39,270623,,,R,V*12
$GPHDT,1.674,T*31
$GNGGA,041340.200,2500.7953353,N,12132.4377498,E,4,60,0.45,15.977,M,15.25,M,1,3335*42
$GNRMC,041340.200,A,2500.7953353,N,12132.4377498,E,0.03,136.39,270623,,,R,V*1D
$GPHDT,2.004,T*33
$GNGGA,041340.400,2500.7953357,N,12132.4377507,E,4,60,0.45,15.972,M,15.25,M,1,3335*42
$GNRMC,041340.400,A,2500.7953357,N,12132.4377507,E,0.02,136.39,270623,,,R,V*19
$GPHDT,2.099,T*37
$GNGGA,041340.600,2500.7953372,N,12132.4377479,E,4,60,0.45,15.968,M,15.25,M,0,3335*45
$GNRMC,041340.600,A,2500.7953372,N,12132.4377479,E,0.02,136.39,270623,,,R,V*14
$GPHDT,1.849,T*31
$GNGGA,041340.800,2500.7953378,N,12132.4377498,E,4,60,0.45,15.955,M,15.25,M,0,3335*40
$GNRMC,041340.800,A,2500.7953378,N,12132.4377498,E,0.02,136.39,270623,,,R,V*1F
$GPHDT,2.044,T*37
$GNGSA,A,3,19,195,196,199,17,06,20,194,09,11,12,04,0.82,0.45,0.69,1*0F
$GNGSA,A,3,14,,,,,,,,,,,,0.82,0.45,0.69,1*00
$GNGSA,A,3,68,67,83,82,69,73,80,,,,,,0.82,0.45,0.69,2*0B
$GNGSA,A,3,10,12,24,04,19,25,33,,,,,,0.82,0.45,0.69,3*08
$GNGSA,A,3,40,07,33,10,14,43,13,28,42,11,34,41,0.82,0.45,0.69,4*0C
$GPGSV,4,1,15,19,71,056,40,195,68,048,41,196,68,122,42,50,60,167,38,1*69
$GPGSV,4,2,15,199,60,167,35,17,59,103,42,06,49,359,44,20,38,241,15,1*57
$GPGSV,4,3,15,194,36,173,42,09,36,090,39,11,32,298,28,12,20,309,20,1*53
$GPGSV,4,4,15,04,19,060,20,14,14,173,14,05,13,227,14,1*5D
$GPGSV,3,1,09,196,68,122,46,195,68,048,42,199,60,167,48,06,49,359,47,8*50
$GPGSV,3,2,09,09,36,090,42,194,36,173,45,11,32,298,34,04,19,060,26,8*50
$GPGSV,3,3,09,14,14,173,14,8*54
$GLGSV,2,1,08,68,64,130,43,67,39,044,21,83,38,357,29,82,36,056,28,1*7E
$GLGSV,2,2,08,69,24,184,42,73,20,274,17,80,14,220,17,74,07,316,,1*78
$GAGSV,3,1,09,10,49,349,44,12,46,028,36,24,44,230,39,04,37,147,42,7*7D
$GAGSV,3,2,09,19,32,074,35,25,29,297,17,33,11,073,17,09,06,190,,7*74
$GAGSV,3,3,09,36,02,278,,7*40
$GAGSV,2,1,07,10,49,349,45,12,46,028,30,24,44,230,42,04,37,147,42,1*7F
$GAGSV,2,2,07,19,32,074,31,25,29,297,15,33,11,073,22,1*4A
$GBGSV,4,1,15,40,79,168,41,07,76,228,40,33,73,124,44,10,71,272,40,1*7A
$GBGSV,4,2,15,08,56,283,,14,56,060,42,43,51,074,40,13,48,269,18,1*7E
$GBGSV,4,3,15,28,45,334,46,41,33,199,,42,32,045,30,11,28,093,30,1*7A
$GBGSV,4,4,15,37,13,262,,34,12,107,24,23,12,212,,1*45
$GBGSV,2,1,07,40,79,168,44,33,73,124,47,43,51,074,34,28,45,334,44,4*7A
$GBGSV,2,2,07,41,33,199,18,42,32,045,33,34,12,107,23,4*4C
$GNGGA,041341.000,2500.7953375,N,12132.4377506,E,4,60,0.45,15.965,M,15.25,M,1,3335*40
$GNRMC,041341.000,A,2500.7953375,N,12132.4377506,E,0.01,136.39,270623,,,R,V*1E
$GPHDT,1.854,T*3D
$GNGGA,041341.200,2500.7953379,N,12132.4377489,E,4,60,0.45,15.952,M,15.25,M,1,3335*4C
$GNRMC,041341.200,A,2500.7953379,N,12132.4377489,E,0.01,136.39,270623,,,R,V*16
$GPHDT,1.860,T*3A
$GNGGA,041341.400,2500.7953362,N,12132.4377473,E,4,60,0.45,15.962,M,15.25,M,1,3335*46
$GNRMC,041341.400,A,2500.7953362,N,12132.4377473,E,0.01,136.39,270623,,,R,V*1F
