$FW : RTK35X,V1.1X0314AS,Lib20210517,1*54
$Tool : LOCOSYS , GNSS Firebird , v1.0.0.19*39
$---------------------------------------------------*2D
$GNGGA,041454.600,2500.7963202,N,12132.4390702,E,2,57,0.47,16.480,M,15.25,M,1,3335*4D
$GNRMC,041454.600,A,2500.7963202,N,12132.4390702,E,0.04,341.24,270623,,,D,V*0B
$GPHDT,,T*1B
$GNGGA,041454.800,2500.7963142,N,12132.4390702,E,2,56,0.48,16.477,M,15.25,M,1,3335*42
$GNRMC,041454.800,A,2500.7963142,N,12132.4390702,E,0.06,341.24,270623,,,D,V*00
$GPHDT,,T*1B
$GNGSA,A,3,19,196,195,199,17,06,20,09,194,11,04,14,0.74,0.47,0.58,1*00
$GNGSA,A,3,68,67,83,82,69,73,80,,,,,,0.74,0.47,0.58,2*02
$GNGSA,A,3,10,12,24,04,19,25,33,,,,,,0.74,0.47,0.58,3*01
$GNGSA,A,3,40,07,33,10,14,43,28,41,42,11,34,,0.74,0.47,0.58,4*07
$GPGSV,4,1,15,19,71,058,41,196,68,121,39,195,68,048,40,50,60,167,38,1*68
$GPGSV,4,2,15,199,60,167,35,17,59,104,43,06,49,359,42,20,38,242,15,1*54
$GPGSV,4,3,15,09,36,090,39,194,36,173,42,11,33,299,30,12,21,309,21,1*5A
$GPGSV,4,4,15,04,19,059,25,14,14,173,17,05,13,228,,1*5B
$GPGSV,2,1,07,196,68,121,45,195,68,048,44,199,60,167,45,06,49,359,42,8*51
$GPGSV,2,2,07,09,36,090,41,194,36,173,46,11,33,299,32,8*67
$GLGSV,2,1,07,68,64,129,40,67,38,043,31,83,38,358,32,82,36,057,25,1*74
$GLGSV,2,2,07,69,25,184,43,73,20,274,18,80,13,219,16,1*44
$GAGSV,2,1,08,10,49,349,41,12,45,029,31,24,43,229,39,04,37,147,40,7*70
$GAGSV,2,2,08,19,32,073,32,25,29,296,30,33,11,074,15,09,07,190,,7*74
$GAGSV,2,1,05,10,49,349,41,12,45,029,32,24,43,229,40,04,37,147,43,1*75
$GAGSV,2,2,05,19,32,073,34,1*4A
$GBGSV,4,1,15,40,78,170,43,07,75,228,40,33,74,122,42,10,71,271,39,1*79
$GBGSV,4,2,15,14,56,059,41,08,56,283,,43,51,075,45,13,48,269,14,1*7F
$GBGSV,4,3,15,28,45,335,36,41,34,199,29,42,31,044,34,11,28,094,40,1*76
$GBGSV,4,4,15,37,12,261,,34,11,108,22,23,11,212,,1*4E
$GBGSV,2,1,07,40,78,170,45,33,74,122,46,43,51,075,43,28,45,335,42,4*75
$GBGSV,2,2,07,41,34,199,30,42,31,044,35,34,11,108,20,4*4A
$GNGGA,041455.000,2500.7963142,N,12132.4390762,E,2,56,0.47,16.474,M,15.25,M,1,3335*41
$GNRMC,041455.000,A,2500.7963142,N,12132.4390762,E,0.07,341.24,270623,,,D,V*0E
$GPHDT,,T*1B
$GNGGA,041455.200,2500.7963082,N,12132.4390702,E,2,57,0.47,16.472,M,15.25,M,1,3335*4F
$GNRMC,041455.200,A,2500.7963082,N,12132.4390702,E,0.06,341.24,270623,,,D,V*06
$GPHDT,,T*1B
$GNGGA,041455.400,2500.7963082,N,12132.4390762,E,2,56,0.47,16.469,M,15.25,M,1,3335*44
$GNRMC,041455.400,A,2500.7963082,N,12132.4390762,E,0.06,341.24,270623,,,D,V*06
$GPHDT,,T*1B
$GNGGA,041455.600,2500.7963022,N,12132.4390762,E,2,56,0.47,16.466,M,15.25,M,1,3335*43
$GNRMC,041455.600,A,2500.7963022,N,12132.4390762,E,0.07,341.24,270623,,,D,V*0F
$GPHDT,,T*1B
$GNGGA,041455.800,2500.7963022,N,12132.4390762,E,2,57,0.46,16.463,M,15.25,M,0,3335*49
$GNRMC,041455.800,A,2500.7963022,N,12132.4390762,E,0.07,341.24,270623,,,D,V*01
$GPHDT,,T*1B
$GNGSA,A,3,19,195,196,199,17,06,09,194,11,12,04,14,0.73,0.46,0.57,1*08
$GNGSA,A,3,68,67,83,82,69,73,80,,,,,,0.73,0.46,0.57,2*0B
$GNGSA,A,3,10,12,24,04,19,25,33,,,,,,0.73,0.46,0.57,3*08
$GNGSA,A,3,40,07,33,10,14,43,28,41,42,11,34,,0.73,0.46,0.57,4*0E
$GPGSV,4,1,15,19,71,058,41,195,68,048,40,196,68,121,39,50,60,167,38,1*68
$GPGSV,4,2,15,199,60,167,35,17,59,104,43,06,49,000,42,20,38,242,,1*5F
$GPGSV,4,3,15,09,37,089,39,194,36,173,42,11,33,299,31,12,21,309,20,1*53
$GPGSV,4,4,15,04,19,059,25,14,14,173,17,05,13,228,,1*5B
$GPGSV,2,1,07,196,68,121,45,195,68,048,44,199,60,167,45,06,49,000,39,8*52
$GPGSV,2,2,07,09,37,089,41,194,36,173,46,11,33,299,31,8*6D
$GLGSV,2,1,08,68,64,129,40,67,38,043,35,83,38,358,30,82,36,057,30,1*79
$GLGSV,2,2,08,69,25,184,43,73,20,274,17,80,13,219,17,84,03,305,,1*7C
$GAGSV,2,1,08,10,49,349,42,12,45,029,31,24,43,229,39,04,37,147,40,7*73
$GAGSV,2,2,08,19,32,073,32,25,29,296,28,33,11,074,11,36,02,279,,7*74
$GAGSV,2,1,06,10,49,349,40,12,45,029,31,24,43,229,40,04,37,147,43,1*74
$GAGSV,2,2,06,19,32,073,34,33,11,074,25,1*7D
$GBGSV,4,1,15,40,78,170,43,07,75,228,40,33,74,122,42,10,71,271,39,1*79
$GBGSV,4,2,15,14,56,059,42,08,56,283,,43,51,075,45,13,48,269,14,1*7C
$GBGSV,4,3,15,28,45,335,38,41,34,199,29,42,31,044,35,11,28,094,40,1*79
$GBGSV,4,4,15,23,11,212,,34,11,108,23,39,05,175,,1*41
$GBGSV,2,1,07,40,78,170,45,33,74,122,46,43,51,075,43,28,45,335,42,4*75
$GBGSV,2,2,07,41,34,199,29,42,31,044,35,34,11,108,18,4*49
$GNGGA,041456.000,2500.7962962,N,12132.4390762,E,2,57,0.46,16.461,M,15.25,M,1,3335*4D
$GNRMC,041456.000,A,2500.7962962,N,12132.4390762,E,0.07,341.24,270623,,,D,V*06
$GPHDT,,T*1B
$GNGGA,041456.200,2500.7962962,N,12132.4390762,E,2,55,0.49,16.459,M,15.25,M,1,3335*49
$GNRMC,041456.200,A,2500.7962962,N,12132.4390762,E,0.06,341.24,270623,,,D,V*05
$GPHDT,,T*1B
$GNGGA,041456.400,2500.7962962,N,12132.4390702,E,2,56,0.47,16.457,M,15.25,M,1,3335*4A
$GNRMC,041456.400,A,2500.7962962,N,12132.4390702,E,0.05,341.24,270623,,,D,V*06
$GPHDT,,T*1B
$GNGGA,041456.600,2500.7962962,N,12132.4390702,E,2,58,0.46,16.456,M,15.25,M,0,3335*47
$GNRMC,041456.600,A,2500.7962962,N,12132.4390702,E,0.05,341.24,270623,,,D,V*04
$GPHDT,,T*1B
$GNGGA,041456.800,2500.7962902,N,12132.4390702,E,2,58,0.46,16.454,M,15.25,M,0,3335*4D
$GNRMC,041456.800,A,2500.7962902,N,12132.4390702,E,0.06,341.24,270623,,,D,V*0F
$GPHDT,,T*1B
$GNGSA,A,3,19,196,195,199,17,06,09,194,11,04,14,,0.75,0.47,0.58,1*03
$GNGSA,A,3,68,67,83,82,69,73,80,,,,,,0.75,0.47,0.58,2*03
$GNGSA,A,3,10,12,24,04,19,25,33,,,,,,0.75,0.47,0.58,3*00
$GNGSA,A,3,40,07,33,10,14,43,28,41,42,11,34,,0.75,0.47,0.58,4*06
$GPGSV,4,1,15,19,71,058,41,196,68,121,40,195,68,048,40,50,60,167,38,1*66
$GPGSV,4,2,15,199,60,167,35,17,59,104,43,06,49,000,42,20,38,242,,1*5F
$GPGSV,4,3,15,09,37,089,39,194,36,173,42,11,33,299,30,12,21,308,21,1*52
$GPGSV,4,4,15,04,19,059,26,14,14,173,17,05,13,228,,1*58
$GPGSV,2,1,08,196,68,121,45,195,68,048,44,199,60,167,45,06,49,000,40,8*53
$GPGSV,2,2,08,09,37,089,41,194,36,173,46,11,33,299,31,04,19,059,26,8*56
$GLGSV,2,1,07,68,64,129,40,67,38,043,36,83,38,358,30,82,36,057,31,1*74
$GLGSV,2,2,07,69,25,184,43,73,20,274,17,80,13,219,17,1*4A
$GAGSV,2,1,08,10,49,349,42,12,45,029,32,24,43,229,39,04,37,147,41,7*71
$GAGSV,2,2,08,19,32,073,33,25,29,296,28,33,11,074,14,36,02,279,,7*70
$GAGSV,2,1,06,10,49,349,40,12,45,029,32,24,43,229,40,04,37,147,44,1*70
$GAGSV,2,2,06,19,32,073,34,33,11,074,25,1*7D
$GBGSV,4,1,15,40,78,170,43,07,75,228,40,33,74,122,42,10,71,271,39,1*79
$GBGSV,4,2,15,14,56,059,42,08,56,283,,43,51,075,46,13,48,269,14,1*7F
$GBGSV,4,3,15,28,45,335,38,41,34,199,29,42,31,044,34,11,28,094,40,1*78
$GBGSV,4,4,15,37,12,261,,34,11,108,23,23,11,212,,1*4F
$GBGSV,2,1,07,40,78,170,45,33,74,122,46,43,51,075,43,28,45,335,42,4*75
$GBGSV,2,2,07,41,34,199,29,42,31,044,35,34,11,108,18,4*49
$GNGGA,041457.000,2500.7962902,N,12132.4390702,E,2,57,0.47,16.453,M,15.25,M,1,3335*4C
$GNRMC,041457.000,A,2500.7962902,N,12132.4390702,E,0.06,341.24,270623,,,D,V*06
$GPHDT,,T*1B
$GNGGA,041457.200,2500.7962902,N,12132.4390762,E,2,58,0.46,16.453,M,15.25,M,1,3335*46
$GNRMC,041457.200,A,2500.7962902,N,12132.4390762,E,0.05,341.24,270623,,,D,V*01
$GPHDT,,T*1B
$GNGGA,041457.400,2500.7962902,N,12132.4390762,E,2,57,0.47,16.451,M,15.25,M,1,3335*4C
$GNRMC,041457.400,A,2500.7962902,N,12132.4390762,E,0.04,341.24,270623,,,D,V*06
$GPHDT,,T*1B
$GNGGA,041457.600,2500.7962902,N,12132.4390762,E,2,57,0.47,16.450,M,15.25,M,0,3335*4E
$GNRMC,041457.600,A,2500.7962902,N,12132.4390762,E,0.05,341.24,270623,,,D,V*05
$GPHDT,,T*1B
$GNGGA,041457.800,2500.7962902,N,12132.4390822,E,2,57,0.47,16.448,M,15.25,M,0,3335*42
$GNRMC,041457.800,A,2500.7962902,N,12132.4390822,E,0.06,341.24,270623,,,D,V*03
$GPHDT,,T*1B
$GNGSA,A,3,19,195,196,199,17,06,09,194,11,04,14,,0.75,0.47,0.58,1*03
$GNGSA,A,3,68,67,83,82,69,73,80,,,,,,0.75,0.47,0.58,2*03
$GNGSA,A,3,10,12,24,04,19,25,33,,,,,,0.75,0.47,0.58,3*00
$GNGSA,A,3,40,07,33,10,14,43,28,41,42,11,34,,0.75,0.47,0.58,4*06
$GPGSV,4,1,15,19,72,059,41,195,68,048,40,196,68,121,40,50,60,167,38,1*64
$GPGSV,4,2,15,199,60,167,35,17,59,105,43,06,49,000,42,20,39,242,,1*5F
$GPGSV,4,3,15,09,37,089,40,194,36,173,42,11,33,299,30,12,21,308,20,1*5D
$GPGSV,4,4,15,04,19,059,29,14,14,173,17,05,13,228,,1*57
$GPGSV,2,1,08,196,68,121,45,195,68,048,44,199,60,167,45,06,49,000,41,8*52
$GPGSV,2,2,08,09,37,089,41,194,36,173,46,11,33,299,30,04,19,059,25,8*54
$GLGSV,2,1,08,68,64,129,40,67,38,043,36,83,38,358,30,82,36,057,31,1*7B
$GLGSV,2,2,08,69,25,184,43,73,20,274,18,80,13,219,17,74,07,316,,1*7A
$GAGSV,3,1,09,10,49,349,42,12,45,029,32,24,43,229,39,04,37,147,41,7*71
$GAGSV,3,2,09,19,32,073,33,25,29,296,28,33,11,074,14,09,07,190,,7*7D
$GAGSV,3,3,09,36,02,279,,7*41
$GAGSV,2,1,06,10,49,349,41,12,45,029,34,24,43,229,40,04,37,147,44,1*77
$GAGSV,2,2,06,19,32,073,35,33,11,074,25,1*7C
$GBGSV,4,1,15,40,78,170,43,07,75,228,40,33,74,122,42,10,71,271,39,1*79
$GBGSV,4,2,15,08,56,283,,14,56,059,42,43,51,075,46,13,48,269,13,1*78
$GBGSV,4,3,15,28,45,335,38,41,34,199,29,42,31,044,34,11,28,094,40,1*78
$GBGSV,4,4,15,37,12,261,,34,11,108,21,23,11,212,,1*4D
$GBGSV,2,1,07,40,78,170,45,33,74,122,46,43,51,075,43,28,45,335,42,4*75
$GBGSV,2,2,07,41,34,199,29,42,31,044,36,34,11,108,19,4*4B
$GNGGA,041458.000,2500.7962902,N,12132.4390822,E,2,57,0.47,16.448,M,15.25,M,1,3335*44
$GNRMC,041458.000,A,2500.7962902,N,12132.4390822,E,0.05,341.24,270623,,,D,V*07
$GPHDT,,T*1B
$GNGGA,041458.200,2500.7962902,N,12132.4390822,E,2,57,0.47,16.447,M,15.25,M,1,3335*49
$GNRMC,041458.200,A,2500.7962902,N,12132.4390822,E,0.04,341.24,270623,,,D,V*04
$GPHDT,274.481,T*39
$GNGGA,041458.400,2500.7962962,N,12132.4390822,E,2,57,0.47,16.446,M,15.25,M,1,3335*48
$GNRMC,041458.400,A,2500.7962962,N,12132.4390822,E,0.04,341.24,270623,,,D,V*04
$GPHDT,273.955,T*3A
$GNGGA,041458.600,2500.7962902,N,12132.4390882,E,2,57,0.47,16.445,M,15.25,M,0,3335*44
$GNRMC,041458.600,A,2500.7962902,N,12132.4390882,E,0.05,341.24,270623,,,D,V*0B
$GPHDT,274.236,T*33
$GNGGA,041458.800,2500.7962902,N,12132.4390822,E,2,57,0.47,16.443,M,15.25,M,0,3335*46
$GNRMC,041458.800,A,2500.7962902,N,12132.4390822,E,0.04,341.24,270623,,,D,V*0E
$GPHDT,273.718,T*3D
$GNGSA,A,3,19,195,196,199,17,06,09,194,11,04,14,,0.75,0.47,0.58,1*03
$GNGSA,A,3,68,67,83,82,69,73,80,,,,,,0.75,0.47,0.58,2*03
$GNGSA,A,3,10,12,24,04,19,25,33,,,,,,0.75,0.47,0.58,3*00
$GNGSA,A,3,40,07,33,10,14,43,28,41,42,11,34,,0.75,0.47,0.58,4*06
$GPGSV,4,1,15,19,72,059,41,195,68,048,39,196,68,121,40,50,60,167,38,1*6A
$GPGSV,4,2,15,199,60,167,35,17,59,105,43,06,49,000,43,20,39,242,,1*5E
$GPGSV,4,3,15,09,37,089,41,194,36,173,42,11,33,299,28,12,21,308,19,1*5F
$GPGSV,4,4,15,04,19,059,26,14,14,173,15,05,13,228,,1*5A
$GPGSV,2,1,08,196,68,121,46,195,68,048,44,199,60,167,45,06,49,000,43,8*53
$GPGSV,2,2,08,09,37,089,39,194,36,173,45,11,33,299,30,04,19,059,24,8*59
$GLGSV,2,1,07,68,64,129,40,67,38,043,36,83,38,358,30,82,36,057,33,1*76
$GLGSV,2,2,07,69,25,184,43,73,20,274,20,80,13,219,17,1*4E
$GAGSV,3,1,09,10,49,349,42,12,45,029,32,24,43,229,39,04,37,147,41,7*71
$GAGSV,3,2,09,19,32,073,32,25,29,296,29,33,11,074,16,09,07,190,,7*7F
$GAGSV,3,3,09,36,02,279,,7*41
$GAGSV,2,1,06,10,49,349,41,12,45,029,34,24,43,229,40,04,37,147,44,1*77
$GAGSV,2,2,06,19,32,073,35,33,11,074,25,1*7C
$GBGSV,4,1,15,40,78,170,43,07,75,228,40,33,74,122,42,10,71,271,39,1*79
$GBGSV,4,2,15,08,56,283,,14,56,059,42,43,51,075,45,13,48,269,13,1*7B
$GBGSV,4,3,15,28,45,335,33,41,34,199,30,42,31,044,32,11,28,094,40,1*7D
$GBGSV,4,4,15,37,12,261,,23,11,212,,34,11,108,17,1*48
$GBGSV,2,1,07,40,78,170,45,33,74,122,46,43,51,075,43,28,45,335,42,4*75
$GBGSV,2,2,07,41,34,199,29,42,31,044,35,34,11,108,20,4*42
$GNGGA,041459.000,2500.7962902,N,12132.4390942,E,2,57,0.47,16.442,M,15.25,M,1,3335*48
$GNRMC,041459.000,A,2500.7962902,N,12132.4390942,E,0.05,341.24,270623,,,D,V*01
$GPHDT,274.258,T*3B
$GNGGA,041459.200,2500.7962842,N,12132.4391002,E,2,57,0.47,16.440,M,15.25,M,1,3335*41
$GNRMC,041459.200,A,2500.7962842,N,12132.4391002,E,0.05,341.24,270623,,,D,V*0A
$GPHDT,274.395,T*3B
$GNGGA,041459.400,2500.7962842,N,12132.4391122,E,2,57,0.47,16.438,M,15.25,M,1,3335*4B
$GNRMC,041459.400,A,2500.7962842,N,12132.4391122,E,0.05,341.24,270623,,,D,V*0F
$GPHDT,274.561,T*36
$GNGGA,041459.600,2500.7962842,N,12132.4391182,E,2,57,0.47,16.436,M,15.25,M,0,3335*4C
$GNRMC,041459.600,A,2500.7962842,N,12132.4391182,E,0.05,341.24,270623,,,D,V*07
$GPHDT,274.358,T*3A
$GNGGA,041459.800,2500.7962782,N,12132.4391242,E,2,57,0.47,16.433,M,15.25,M,0,3335*4B
$GNRMC,041459.800,A,2500.7962782,N,12132.4391242,E,0.06,341.24,270623,,,D,V*06
$GPHDT,274.388,T*37
$GNGSA,A,3,19,195,196,199,17,06,09,194,11,04,14,,0.75,0.47,0.58,1*03
$GNGSA,A,3,68,67,83,82,69,73,80,,,,,,0.75,0.47,0.58,2*03
$GNGSA,A,3,10,12,24,04,19,25,33,,,,,,0.75,0.47,0.58,3*00
$GNGSA,A,3,40,07,33,10,14,43,28,41,42,11,34,,0.75,0.47,0.58,4*06
$GPGSV,4,1,15,19,72,059,40,195,68,048,39,196,68,121,40,50,60,167,37,1*64
$GPGSV,4,2,15,199,60,167,34,17,59,105,42,06,49,000,46,20,39,242,,1*5B
$GPGSV,4,3,15,09,37,089,42,194,36,173,42,11,33,299,26,12,21,308,24,1*5C
$GPGSV,4,4,15,04,19,059,28,14,14,173,16,05,13,228,,1*57
$GPGSV,2,1,08,196,68,121,46,195,68,048,44,199,60,167,45,06,49,000,47,8*57
$GPGSV,2,2,08,09,37,089,42,194,36,173,46,11,33,299,31,04,19,059,19,8*59
$GLGSV,2,1,07,68,64,129,41,67,38,043,23,83,38,358,31,82,36,057,35,1*74
$GLGSV,2,2,07,69,25,184,42,73,20,274,19,80,13,219,15,1*47
$GAGSV,3,1,09,10,49,349,40,12,45,029,31,24,43,229,39,04,37,147,41,7*70
$GAGSV,3,2,09,19,32,073,33,25,29,296,29,33,11,074,15,09,07,190,,7*7D
$GAGSV,3,3,09,36,02,279,,7*41
$GAGSV,2,1,06,10,49,349,42,12,45,029,31,24,43,229,40,04,37,147,44,1*71
$GAGSV,2,2,06,19,32,073,35,33,11,074,24,1*7D
$GBGSV,4,1,15,40,78,170,43,07,75,228,40,33,74,122,42,10,71,271,39,1*79
$GBGSV,4,2,15,08,56,283,,14,56,059,38,43,51,075,45,13,48,269,12,1*77
$GBGSV,4,3,15,28,45,335,31,41,34,199,30,42,31,044,31,11,28,094,40,1*7C
$GBGSV,4,4,15,37,12,261,,23,11,212,,34,11,108,17,1*48
$GBGSV,2,1,07,40,78,170,45,33,74,122,46,43,51,075,43,28,45,335,42,4*75
$GBGSV,2,2,07,41,34,199,30,42,31,044,31,34,11,108,20,4*4E
$GNGGA,041500.000,2500.7962782,N,12132.4391242,E,2,57,0.47,16.432,M,15.25,M,1,3335*4E
$GNRMC,041500.000,A,2500.7962782,N,12132.4391242,E,0.05,341.24,270623,,,D,V*00
$GPHDT,274.615,T*36
$GNGGA,041500.200,2500.7962782,N,12132.4391302,E,2,57,0.47,16.431,M,15.25,M,1,3335*4A
$GNRMC,041500.200,A,2500.7962782,N,12132.4391302,E,0.04,341.24,270623,,,D,V*06
$GPHDT,274.453,T*36
$GNGGA,041500.400,2500.7962782,N,12132.4391362,E,2,58,0.47,16.429,M,15.25,M,1,3335*4C
$GNRMC,041500.400,A,2500.7962782,N,12132.4391362,E,0.04,341.24,270623,,,D,V*06
$GPHDT,274.449,T*3D
$GNGGA,041500.600,2500.7962782,N,12132.4391362,E,2,58,0.47,16.427,M,15.25,M,0,3335*41
$GNRMC,041500.600,A,2500.7962782,N,12132.4391362,E,0.03,341.24,270623,,,D,V*03
$GPHDT,274.448,T*3C
$GNGGA,041500.800,2500.7962782,N,12132.4391422,E,2,58,0.47,16.426,M,15.25,M,0,3335*4D
$GNRMC,041500.800,A,2500.7962782,N,12132.4391422,E,0.03,341.24,270623,,,D,V*0E
$GPHDT,274.243,T*31
$GNGSA,A,3,19,195,196,199,17,06,09,194,11,04,14,,0.81,0.52,0.62,1*05
$GNGSA,A,3,68,67,83,82,69,,,,,,,,0.81,0.52,0.62,2*09
$GNGSA,A,3,10,12,24,04,19,25,33,,,,,,0.81,0.52,0.62,3*06
$GNGSA,A,3,40,07,33,10,14,43,28,41,42,11,34,,0.81,0.52,0.62,4*00
$GPGSV,4,1,15,19,72,059,40,195,68,048,39,196,68,121,40,50,60,167,37,1*64
$GPGSV,4,2,15,199,60,167,34,17,59,105,42,06,49,000,46,20,39,242,,1*5B
$GPGSV,4,3,15,09,37,089,42,194,36,173,42,11,33,299,27,12,21,308,24,1*5D
$GPGSV,4,4,15,04,19,059,30,14,14,173,16,05,13,228,,1*5E
$GPGSV,2,1,08,196,68,121,45,195,68,048,43,199,60,167,45,06,49,000,47,8*53
$GPGSV,2,2,08,09,37,089,42,194,36,173,46,11,33,299,30,04,19,059,20,8*52
$GLGSV,2,1,07,68,64,129,42,67,38,043,24,83,38,358,31,82,36,057,35,1*70
$GLGSV,2,2,07,69,25,184,42,73,20,274,19,80,13,219,15,1*47
$GAGSV,3,1,09,10,49,349,41,12,45,029,32,24,43,229,39,04,37,147,41,7*72
$GAGSV,3,2,09,19,32,073,33,25,29,296,29,33,11,074,18,09,07,190,,7*70
$GAGSV,3,3,09,36,02,279,,7*41
$GAGSV,2,1,07,10,49,349,42,12,45,029,32,24,43,229,40,04,37,147,43,1*74
$GAGSV,2,2,07,19,32,073,35,25,29,296,20,33,11,074,26,1*4D
$GBGSV,4,1,15,40,78,170,43,07,75,228,40,33,74,122,42,10,71,271,39,1*79
$GBGSV,4,2,15,08,56,283,,14,56,059,38,43,51,075,45,13,48,269,13,1*76
$GBGSV,4,3,15,28,45,335,30,41,34,199,30,42,31,044,30,11,28,094,41,1*7D
$GBGSV,4,4,15,37,12,261,,23,11,212,,34,11,108,17,1*48
$GBGSV,2,1,07,40,78,170,45,33,74,122,45,43,51,075,43,28,45,335,42,4*76
$GBGSV,2,2,07,41,34,199,30,42,31,044,30,34,11,108,19,4*45
$GNGGA,041501.000,2500.7962782,N,12132.4391482,E,2,56,0.52,16.425,M,15.25,M,1,3335*46
$GNRMC,041501.000,A,2500.7962782,N,12132.4391482,E,0.02,341.24,270623,,,D,V*0C
$GPHDT,274.175,T*37
$GNGGA,041501.200,2500.7962782,N,12132.4391482,E,2,56,0.52,16.427,M,15.25,M,1,3335*46
$GNRMC,041501.200,A,2500.7962782,N,12132.4391482,E,0.02,341.24,270623,,,D,V*0E
$GPHDT,274.065,T*37
$GNGGA,041501.400,2500.7962842,N,12132.4391602,E,2,57,0.52,16.427,M,15.25,M,1,3335*48
$GNRMC,041501.400,A,2500.7962842,N,12132.4391602,E,0.02,341.24,270623,,,D,V*01
$GPHDT,274.218,T*3F
$GNGGA,041501.600,2500.7962842,N,12132.4391602,E,2,57,0.52,16.429,M,15.25,M,1,3335*44
$GNRMC,041501.600,A,2500.7962842,N,12132.4391602,E,0.02,341.24,270623,,,D,V*03
$GPHDT,273.678,T*3A
$GNGGA,041501.800,2500.7962842,N,12132.4391722,E,2,57,0.52,16.429,M,15.25,M,0,3335*48
$GNRMC,041501.800,A,2500.7962842,N,12132.4391722,E,0.03,341.24,270623,,,D,V*0F
$GPHDT,273.926,T*3E
$GNGSA,A,3,19,195,196,199,17,06,09,194,11,04,14,,0.81,0.52,0.62,1*05
$GNGSA,A,3,68,67,83,82,69,,,,,,,,0.81,0.52,0.62,2*09
$GNGSA,A,3,10,12,24,04,19,25,33,,,,,,0.81,0.52,0.62,3*06
$GNGSA,A,3,40,07,33,10,14,43,28,41,42,11,34,,0.81,0.52,0.62,4*00
$GPGSV,4,1,15,19,72,059,42,195,68,048,39,196,68,121,40,50,60,167,37,1*66
$GPGSV,4,2,15,199,60,167,34,17,59,105,42,06,49,000,42,20,39,242,,1*5F
$GPGSV,4,3,15,09,37,089,42,194,36,173,42,11,33,299,26,12,21,308,20,1*58
$GPGSV,4,4,15,04,19,059,26,14,14,173,16,05,13,228,,1*59
$GPGSV,3,1,09,196,68,121,46,195,68,048,43,199,60,167,45,06,49,000,42,8*55
$GPGSV,3,2,09,09,37,089,39,194,36,173,46,11,33,299,31,04,19,059,23,8*5C
$GPGSV,3,3,09,14,14,173,17,8*57
$GLGSV,3,1,09,68,64,129,42,67,38,043,34,83,38,358,31,82,36,057,35,1*7E
$GLGSV,3,2,09,69,25,184,42,73,20,274,15,80,13,219,14,74,07,316,,1*75
$GLGSV,3,3,09,84,03,305,,1*48
$GAGSV,3,1,09,10,49,349,41,12,45,029,33,24,43,229,39,04,37,147,41,7*73
$GAGSV,3,2,09,19,32,073,32,25,29,296,29,33,11,074,18,09,07,190,,7*71
$GAGSV,3,3,09,36,02,279,,7*41
$GAGSV,2,1,07,10,49,349,42,12,45,029,35,24,43,229,40,04,37,147,43,1*73
$GAGSV,2,2,07,19,32,073,36,25,29,296,21,33,11,074,25,1*4C
$GBGSV,4,1,15,40,78,170,43,07,75,228,40,33,74,122,42,10,71,271,39,1*79
$GBGSV,4,2,15,14,56,059,41,08,56,283,,43,51,075,45,13,48,269,15,1*7E
$GBGSV,4,3,15,28,45,335,30,41,34,199,29,42,31,044,32,11,28,094,40,1*76
$GBGSV,4,4,15,37,12,261,,23,11,212,,34,11,108,19,1*46
$GBGSV,2,1,07,40,78,170,45,33,74,122,45,43,51,075,43,28,45,335,42,4*76
$GBGSV,2,2,07,41,34,199,30,42,31,044,33,34,11,108,20,4*4C
$GNGGA,041502.000,2500.7962902,N,12132.4391842,E,2,57,0.52,16.430,M,15.25,M,1,3335*46
$GNRMC,041502.000,A,2500.7962902,N,12132.4391842,E,0.04,341.24,270623,,,D,V*0F
$GPHDT,273.789,T*35
$GNGGA,041502.200,2500.7962902,N,12132.4391962,E,2,57,0.52,16.430,M,15.25,M,1,3335*47
$GNRMC,041502.200,A,2500.7962902,N,12132.4391962,E,0.05,341.24,270623,,,D,V*0F
$GPHDT,273.596,T*39
$GNGGA,041502.400,2500.7962902,N,12132.4392082,E,2,57,0.52,16.428,M,15.25,M,1,3335*4C
$GNRMC,041502.400,A,2500.7962902,N,12132.4392082,E,0.05,341.24,270623,,,D,V*0D
$GPHDT,273.928,T*30
$GNGGA,041502.600,2500.7962902,N,12132.4392142,E,2,57,0.52,16.427,M,15.25,M,0,3335*4D
$GNRMC,041502.600,A,2500.7962902,N,12132.4392142,E,0.05,341.24,270623,,,D,V*02
$GPHDT,273.836,T*3E
$GNGGA,041502.800,2500.7962902,N,12132.4392202,E,2,57,0.52,16.424,M,15.25,M,0,3335*47
$GNRMC,041502.800,A,2500.7962902,N,12132.4392202,E,0.05,341.24,270623,,,D,V*0B
$GPHDT,273.742,T*32
$GNGSA,A,3,19,195,196,199,17,06,09,194,11,04,14,,0.81,0.52,0.62,1*05
$GNGSA,A,3,68,67,83,82,69,,,,,,,,0.81,0.52,0.62,2*09
$GNGSA,A,3,10,12,24,04,19,25,33,,,,,,0.81,0.52,0.62,3*06
$GNGSA,A,3,40,07,33,10,14,43,28,41,42,11,34,,0.81,0.52,0.62,4*00
$GPGSV,4,1,15,19,72,059,42,195,68,048,39,196,68,121,40,50,60,167,37,1*66
$GPGSV,4,2,15,199,60,167,34,17,59,105,42,06,49,000,42,20,39,242,,1*5F
$GPGSV,4,3,15,09,37,089,42,194,36,173,42,11,33,299,27,12,21,308,23,1*5A
$GPGSV,4,4,15,04,19,059,29,14,14,173,16,05,13,228,,1*56
$GPGSV,3,1,09,196,68,121,46,195,68,048,44,199,60,167,45,06,49,000,42,8*52
$GPGSV,3,2,09,09,37,089,39,194,36,173,46,11,33,299,31,04,19,059,23,8*5C
$GPGSV,3,3,09,14,14,173,18,8*58
$GLGSV,2,1,07,68,64,129,40,67,38,043,34,83,38,358,31,82,36,057,36,1*70
$GLGSV,2,2,07,69,25,184,42,73,20,274,14,80,13,219,13,1*4C
$GAGSV,2,1,08,10,49,349,42,12,45,029,33,24,43,229,39,04,37,147,41,7*70
$GAGSV,2,2,08,19,32,073,32,25,29,296,29,33,11,074,18,36,02,279,,7*7C
$GAGSV,2,1,07,10,49,349,42,12,45,029,35,24,43,229,40,04,37,147,44,1*74
$GAGSV,2,2,07,19,32,073,36,25,29,296,18,33,11,074,25,1*46
$GBGSV,4,1,16,40,78,170,43,07,75,228,40,33,74,122,43,10,71,271,39,1*7B
$GBGSV,4,2,16,14,56,059,41,08,56,283,,43,51,075,45,13,48,269,13,1*7B
$GBGSV,4,3,16,28,45,335,32,41,34,199,27,42,31,044,32,11,28,094,40,1*79
$GBGSV,4,4,16,37,12,261,,23,11,212,,34,11,108,19,06,02,185,,1*7D
$GBGSV,2,1,07,40,78,170,45,33,74,122,45,43,51,075,44,28,45,335,42,4*71
$GBGSV,2,2,07,41,34,199,31,42,31,044,33,34,11,108,19,4*47
$GNGGA,041503.000,2500.7962902,N,12132.4392382,E,2,57,0.52,16.421,M,15.25,M,1,3335*43
$GNRMC,041503.000,A,2500.7962902,N,12132.4392382,E,0.06,341.24,270623,,,D,V*08
$GPHDT,273.490,T*3E
$GNGGA,041503.200,2500.7962962,N,12132.4392442,E,2,58,0.49,16.417,M,15.25,M,1,3335*4C
$GNRMC,041503.200,A,2500.7962962,N,12132.4392442,E,0.04,341.24,270623,,,D,V*05
$GPHDT,273.736,T*31
$GNGGA,041503.400,2500.7962962,N,12132.4392442,E,2,57,0.52,16.412,M,15.25,M,1,3335*4A
$GNRMC,041503.400,A,2500.7962962,N,12132.4392442,E,0.04,341.24,270623,,,D,V*03
$GPHDT,273.728,T*3E
$GNGGA,041503.600,2500.7962962,N,12132.4392562,E,2,58,0.49,16.409,M,15.25,M,0,3335*45
$GNRMC,041503.600,A,2500.7962962,N,12132.4392562,E,0.03,341.24,270623,,,D,V*05
$GPHDT,273.750,T*31
$GNGGA,041503.800,2500.7962962,N,12132.4392622,E,2,58,0.49,16.402,M,15.25,M,0,3335*47
$GNRMC,041503.800,A,2500.7962962,N,12132.4392622,E,0.04,341.24,270623,,,D,V*0B
$GPHDT,274.115,T*31
$GNGSA,A,3,19,195,196,199,17,06,09,194,11,12,04,14,0.77,0.49,0.60,1*07
$GNGSA,A,3,68,67,83,82,69,,,,,,,,0.77,0.49,0.60,2*08
$GNGSA,A,3,10,12,24,04,19,25,33,,,,,,0.77,0.49,0.60,3*07
$GNGSA,A,3,40,07,33,10,14,43,28,41,42,11,34,,0.77,0.49,0.60,4*01
$GPGSV,4,1,15,19,72,059,42,195,68,048,39,196,68,121,40,50,60,167,37,1*66
$GPGSV,4,2,15,199,60,167,34,17,59,105,42,06,49,000,42,20,39,242,,1*5F
$GPGSV,4,3,15,09,37,089,43,194,36,173,42,11,33,299,28,12,21,308,24,1*53
$GPGSV,4,4,15,04,19,059,28,14,14,173,17,05,13,228,,1*56
$GPGSV,3,1,09,196,68,121,46,195,68,048,44,199,60,167,45,06,49,000,42,8*52
$GPGSV,3,2,09,09,37,089,39,194,36,173,46,11,33,299,31,04,19,059,21,8*5E
$GPGSV,3,3,09,14,14,173,17,8*57
$GLGSV,2,1,07,68,64,129,40,67,38,043,35,83,38,358,31,82,36,057,35,1*72
$GLGSV,2,2,07,69,25,184,42,73,20,274,17,80,13,219,14,1*48
$GAGSV,3,1,09,10,49,350,42,12,45,029,33,24,43,229,39,04,37,147,41,7*78
$GAGSV,3,2,09,19,32,073,31,25,29,296,29,33,11,074,18,09,07,189,,7*7A
$GAGSV,3,3,09,36,02,279,,7*41
$GAGSV,2,1,07,10,49,350,42,12,45,029,35,24,43,229,40,04,37,147,44,1*7C
$GAGSV,2,2,07,19,32,073,36,25,29,296,17,33,11,074,25,1*49
$GBGSV,4,1,15,40,78,170,43,07,75,228,40,33,74,122,43,10,71,271,39,1*78
$GBGSV,4,2,15,08,56,283,,14,56,059,42,43,51,075,45,13,48,269,14,1*7C
$GBGSV,4,3,15,28,45,335,34,41,34,199,27,42,31,044,32,11,28,094,40,1*7C
$GBGSV,4,4,15,37,12,261,,23,11,212,,34,11,108,19,1*46
$GBGSV,2,1,07,40,78,170,45,33,74,122,45,43,51,075,44,28,45,335,42,4*71
$GBGSV,2,2,07,41,34,199,31,42,31,044,33,34,11,108,19,4*47
$GNGGA,041504.000,2500.7962962,N,12132.4392742,E,2,58,0.49,16.397,M,15.25,M,1,3335*45
$GNRMC,041504.000,A,2500.7962962,N,12132.4392742,E,0.04,341.24,270623,,,D,V*03
$GPHDT,274.271,T*30
$GNGGA,041504.200,2500.7962962,N,12132.4392862,E,2,58,0.49,16.391,M,15.25,M,1,3335*4C
$GNRMC,041504.200,A,2500.7962962,N,12132.4392862,E,0.04,341.24,270623,,,D,V*0C
$GPHDT,274.268,T*38
$GNGGA,041504.400,2500.7962962,N,12132.4392922,E,2,58,0.49,16.384,M,15.25,M,1,3335*4B
$GNRMC,041504.400,A,2500.7962962,N,12132.4392922,E,0.03,341.24,270623,,,D,V*08
$GPHDT,273.887,T*34
$GNGGA,041504.600,2500.7963022,N,12132.4392982,E,2,58,0.49,16.376,M,15.25,M,1,3335*42
$GNRMC,041504.600,A,2500.7963022,N,12132.4392982,E,0.03,341.24,270623,,,D,V*0C
$GPHDT,273.808,T*33
$GNGGA,041504.800,2500.7963022,N,12132.4393042,E,2,58,0.49,16.368,M,15.25,M,1,3335*47
$GNRMC,041504.800,A,2500.7963022,N,12132.4393042,E,0.03,341.24,270623,,,D,V*06
$GPHDT,273.992,T*31
$GNGSA,A,3,19,195,196,199,17,06,09,194,11,12,04,14,0.77,0.49,0.60,1*07
$GNGSA,A,3,68,67,83,82,69,,,,,,,,0.77,0.49,0.60,2*08
$GNGSA,A,3,10,12,24,04,19,25,33,,,,,,0.77,0.49,0.60,3*07
$GNGSA,A,3,40,07,33,10,14,43,28,41,42,11,34,,0.77,0.49,0.60,4*01
$GPGSV,4,1,15,19,72,059,42,195,68,048,39,196,68,121,40,50,60,167,37,1*66
$GPGSV,4,2,15,199,60,167,34,17,59,105,42,06,49,000,42,20,39,242,,1*5F
$GPGSV,4,3,15,09,37,089,43,194,36,173,42,11,33,299,27,12,21,308,22,1*5A
$GPGSV,4,4,15,04,19,059,27,14,14,173,17,05,13,228,,1*59
$GPGSV,3,1,09,196,68,121,46,195,68,048,44,199,60,167,45,06,49,000,42,8*52
$GPGSV,3,2,09,09,37,089,39,194,36,173,46,11,33,299,31,04,19,059,22,8*5D
$GPGSV,3,3,09,14,14,173,17,8*57
$GLGSV,2,1,07,68,64,129,40,67,38,043,36,83,38,358,31,82,36,057,35,1*71
$GLGSV,2,2,07,69,25,184,42,73,20,274,17,80,13,219,15,1*49
$GAGSV,3,1,09,10,49,350,42,12,45,029,33,24,43,229,39,04,37,147,41,7*78
$GAGSV,3,2,09,19,32,073,31,25,29,296,28,33,11,074,18,09,07,189,,7*7B
$GAGSV,3,3,09,36,02,279,,7*41
$GAGSV,2,1,07,10,49,350,42,12,45,029,35,24,43,229,40,04,37,147,44,1*7C
$GAGSV,2,2,07,19,32,073,36,25,29,296,18,33,11,074,26,1*45
$GBGSV,4,1,14,40,78,170,43,07,75,228,40,33,74,122,43,10,71,271,39,1*79
$GBGSV,4,2,14,14,56,059,42,43,51,075,45,13,48,269,14,28,45,335,35,1*77
$GBGSV,4,3,14,41,34,199,29,42,31,044,32,11,28,094,40,37,12,261,,1*78
$GBGSV,4,4,14,23,11,212,,34,11,108,19,1*75
$GBGSV,2,1,07,40,78,170,45,33,74,122,45,43,51,075,44,28,45,335,42,4*71
$GBGSV,2,2,07,41,34,199,31,42,31,044,34,34,11,108,19,4*40
$GNGGA,041505.000,2500.7963082,N,12132.4393102,E,2,58,0.49,16.362,M,15.25,M,1,3335*4B
$GNRMC,041505.000,A,2500.7963082,N,12132.4393102,E,0.03,3