$FW : RTK35X,V1.1X0314AS,Lib20210517,1*54
$Tool : LOCOSYS , GNSS Firebird , v1.0.0.19*39
$---------------------------------------------------*2D
$GNGGA,041628.800,2500.7953314,N,12132.4377398,E,4,57,0.47,16.002,M,15.25,M,0,3335*48
$GNRMC,041628.800,A,2500.7953314,N,12132.4377398,E,0.01,341.24,270623,,,R,V*14
$GPHDT,136.307,T*35
$GNGSA,A,3,19,196,195,199,17,06,20,09,194,11,12,04,0.89,0.47,0.75,1*0B
$GNGSA,A,3,14,,,,,,,,,,,,0.89,0.47,0.75,1*04
$GNGSA,A,3,68,83,67,82,69,,,,,,,,0.89,0.47,0.75,2*03
$GNGSA,A,3,10,12,24,04,19,25,33,,,,,,0.89,0.47,0.75,3*0C
$GNGSA,A,3,40,07,33,10,14,08,43,28,41,42,11,34,0.89,0.47,0.75,4*02
$GPGSV,4,1,15,19,72,061,43,196,68,121,39,195,68,048,42,199,60,167,32,1*5F
$GPGSV,4,2,15,50,60,167,35,17,58,106,44,06,49,001,44,20,39,242,21,1*6A
$GPGSV,4,3,15,09,37,089,41,194,35,173,38,11,33,300,31,12,21,308,25,1*57
$GPGSV,4,4,15,04,19,059,16,05,14,228,18,14,13,173,15,1*50
$GPGSV,3,1,09,196,68,121,47,195,68,048,44,199,60,167,45,06,49,001,49,8*59
$GPGSV,3,2,09,09,37,089,43,194,35,173,38,11,33,300,35,04,19,059,28,8*55
$GPGSV,3,3,09,14,13,173,17,8*50
$GLGSV,2,1,07,68,65,128,42,83,39,359,32,67,38,042,38,82,36,058,27,1*73
$GLGSV,2,2,07,69,25,184,37,73,19,273,20,80,13,219,15,1*42
$GAGSV,2,1,08,10,49,350,39,12,45,030,35,24,43,229,35,04,38,146,42,7*7B
$GAGSV,2,2,08,19,32,072,30,25,29,296,21,33,10,074,19,36,02,279,,7*77
$GAGSV,2,1,06,10,49,350,44,12,45,030,36,24,43,229,37,04,38,146,44,1*7E
$GAGSV,2,2,06,19,32,072,34,33,10,074,18,1*73
$GBGSV,4,1,16,40,78,171,42,07,75,227,40,33,74,119,44,10,71,270,37,1*74
$GBGSV,4,2,16,14,56,058,44,08,56,284,20,43,51,076,47,13,48,270,,1*71
$GBGSV,4,3,16,28,46,335,45,41,35,199,28,42,31,044,32,11,28,094,37,1*74
$GBGSV,4,4,16,37,12,261,,34,11,108,24,23,11,211,,58,,,13,1*47
$GBGSV,2,1,05,40,78,171,44,33,74,119,46,43,51,076,44,28,46,335,43,4*79
$GBGSV,2,2,05,42,31,044,37,4*46
$GNGGA,041629.000,2500.7953298,N,12132.4377428,E,4,57,0.47,16.010,M,15.25,M,1,3335*4A
$GNRMC,041629.000,A,2500.7953298,N,12132.4377428,E,0.00,341.24,270623,,,R,V*15
$GPHDT,136.463,T*30
$GNGGA,041629.200,2500.7953317,N,12132.4377463,E,4,57,0.47,16.024,M,15.25,M,1,3335*46
$GNRMC,041629.200,A,2500.7953317,N,12132.4377463,E,0.01,341.24,270623,,,R,V*1F
$GPHDT,136.578,T*3B
$GNGGA,041629.400,2500.7953312,N,12132.4377414,E,4,57,0.47,16.021,M,15.25,M,1,3335*40
$GNRMC,041629.400,A,2500.7953312,N,12132.4377414,E,0.01,341.24,270623,,,R,V*1C
$GPHDT,136.625,T*30
$GNGGA,041629.600,2500.7953286,N,12132.4377434,E,4,56,0.47,16.011,M,15.25,M,0,3335*4F
$GNRMC,041629.600,A,2500.7953286,N,12132.4377434,E,0.01,341.24,270623,,,R,V*10
$GPHDT,136.319,T*3A
$GNGGA,041629.800,2500.7953287,N,12132.4377377,E,4,56,0.47,15.989,M,15.25,M,0,3335*4B
$GNRMC,041629.800,A,2500.7953287,N,12132.4377377,E,0.01,341.24,270623,,,R,V*1F
$GPHDT,136.292,T*38
$GNGSA,A,3,19,196,195,199,17,06,20,09,194,11,12,04,0.89,0.47,0.75,1*0B
$GNGSA,A,3,14,,,,,,,,,,,,0.89,0.47,0.75,1*04
$GNGSA,A,3,68,83,67,82,69,,,,,,,,0.89,0.47,0.75,2*03
$GNGSA,A,3,10,12,24,04,19,25,33,,,,,,0.89,0.47,0.75,3*0C
$GNGSA,A,3,40,07,33,10,14,08,43,28,41,42,11,34,0.89,0.47,0.75,4*02
$GPGSV,4,1,15,19,72,061,44,196,68,121,39,195,68,048,42,50,60,167,36,1*68
$GPGSV,4,2,15,199,60,167,34,17,58,106,44,06,49,001,45,20,39,242,19,1*55
$GPGSV,4,3,15,09,37,089,42,194,35,173,39,11,33,300,29,12,21,308,24,1*5D
$GPGSV,4,4,15,04,19,059,19,05,14,228,18,14,13,173,17,1*5D
$GPGSV,3,1,09,196,68,121,47,195,68,048,44,199,60,167,45,06,49,001,49,8*59
$GPGSV,3,2,09,09,37,089,43,194,35,173,38,11,33,300,36,04,19,059,28,8*56
$GPGSV,3,3,09,14,13,173,17,8*50
$GLGSV,2,1,07,68,65,128,42,83,39,359,32,67,38,042,38,82,36,058,24,1*70
$GLGSV,2,2,07,69,25,184,34,73,19,273,21,80,13,219,13,1*46
$GAGSV,2,1,08,10,49,350,39,12,45,030,35,24,43,229,35,04,38,146,41,7*78
$GAGSV,2,2,08,19,32,072,29,25,29,296,21,33,10,074,19,36,02,279,,7*7F
$GAGSV,2,1,06,10,49,350,43,12,45,030,35,24,43,229,37,04,38,146,44,1*7A
$GAGSV,2,2,06,19,32,072,34,33,10,074,18,1*73
$GBGSV,4,1,15,40,78,171,42,07,75,227,40,33,74,119,43,10,71,270,37,1*70
$GBGSV,4,2,15,14,56,058,44,08,56,284,21,43,51,076,47,13,48,270,,1*73
$GBGSV,4,3,15,28,46,335,45,41,35,199,26,42,31,044,31,11,28,094,37,1*7A
$GBGSV,4,4,15,37,12,261,,34,11,108,24,23,11,211,,1*4B
$GBGSV,2,1,05,40,78,171,44,33,74,119,47,43,51,076,44,28,46,335,43,4*78
$GBGSV,2,2,05,42,31,044,37,4*46
$GNGGA,041630.000,2500.7953299,N,12132.4377422,E,4,56,0.47,16.005,M,15.25,M,1,3335*4C
$GNRMC,041630.000,A,2500.7953299,N,12132.4377422,E,0.01,341.24,270623,,,R,V*17
$GPHDT,136.696,T*38
$GNGGA,041630.200,2500.7953293,N,12132.4377409,E,4,56,0.47,15.999,M,15.25,M,1,3335*42
$GNRMC,041630.200,A,2500.7953293,N,12132.4377409,E,0.01,341.24,270623,,,R,V*16
$GPHDT,136.350,T*37
$GNGGA,041630.400,2500.7953290,N,12132.4377394,E,4,56,0.47,15.988,M,15.25,M,1,3335*44
$GNRMC,041630.400,A,2500.7953290,N,12132.4377394,E,0.01,341.24,270623,,,R,V*10
$GPHDT,136.463,T*30
$GNGGA,041630.600,2500.7953295,N,12132.4377416,E,4,56,0.47,15.997,M,15.25,M,1,3335*40
$GNRMC,041630.600,A,2500.7953295,N,12132.4377416,E,0.01,341.24,270623,,,R,V*1A
$GPHDT,136.595,T*38
$GNGGA,041630.800,2500.7953285,N,12132.4377445,E,4,56,0.47,16.017,M,15.25,M,0,3335*4A
$GNRMC,041630.800,A,2500.7953285,N,12132.4377445,E,0.00,341.24,270623,,,R,V*12
$GPHDT,136.195,T*3C
$GNGSA,A,3,19,195,196,199,17,06,20,09,194,11,12,04,0.89,0.47,0.75,1*0B
$GNGSA,A,3,14,,,,,,,,,,,,0.89,0.47,0.75,1*04
$GNGSA,A,3,68,83,67,82,69,,,,,,,,0.89,0.47,0.75,2*03
$GNGSA,A,3,10,12,24,04,19,25,33,,,,,,0.89,0.47,0.75,3*0C
$GNGSA,A,3,40,07,33,10,08,14,43,28,41,42,11,34,0.89,0.47,0.75,4*02
$GPGSV,4,1,15,19,72,061,44,195,68,048,42,196,68,121,39,50,60,167,36,1*68
$GPGSV,4,2,15,199,60,167,34,17,58,106,44,06,49,001,45,20,39,242,18,1*54
$GPGSV,4,3,15,09,37,089,42,194,35,173,39,11,33,300,28,12,21,308,28,1*50
$GPGSV,4,4,15,04,19,059,18,05,14,228,18,14,13,173,17,1*5C
$GPGSV,3,1,09,196,68,121,47,195,68,048,45,199,60,167,45,06,49,001,50,8*50
$GPGSV,3,2,09,09,37,089,44,194,35,173,38,11,33,300,36,04,19,059,28,8*51
$GPGSV,3,3,09,14,13,173,17,8*50
$GLGSV,2,1,08,68,65,128,42,83,39,359,31,67,38,042,38,82,36,058,22,1*7A
$GLGSV,2,2,08,69,25,184,35,73,19,273,22,80,13,219,14,74,07,315,,1*7F
$GAGSV,2,1,08,10,49,350,39,12,45,030,34,24,43,229,35,04,38,146,41,7*79
$GAGSV,2,2,08,19,32,072,27,25,29,296,21,33,10,074,18,36,02,279,,7*70
$GAGSV,2,1,06,10,49,350,43,12,45,030,35,24,43,229,37,04,38,146,44,1*7A
$GAGSV,2,2,06,19,32,072,34,33,10,074,18,1*73
$GBGSV,4,1,15,40,78,171,41,07,75,227,40,33,74,119,42,10,71,270,37,1*72
$GBGSV,4,2,15,08,56,284,24,14,56,058,44,43,51,076,47,13,48,270,,1*76
$GBGSV,4,3,15,28,46,335,45,41,35,199,25,42,31,044,33,11,28,094,37,1*7B
$GBGSV,4,4,15,37,12,261,,23,11,211,,34,11,108,22,1*4D
$GBGSV,2,1,05,40,78,171,44,33,74,119,47,43,51,076,44,28,46,335,43,4*78
$GBGSV,2,2,05,42,31,044,37,4*46
$GNGGA,041631.000,2500.7953298,N,12132.4377486,E,4,56,0.47,16.015,M,15.25,M,1,3335*43
$GNRMC,041631.000,A,2500.7953298,N,12132.4377486,E,0.01,341.24,270623,,,R,V*19
$GPHDT,136.318,T*3B
$GNGGA,041631.200,2500.7953323,N,12132.4377499,E,4,56,0.47,16.022,M,15.25,M,1,3335*4A
$GNRMC,041631.200,A,2500.7953323,N,12132.4377499,E,0.00,341.24,270623,,,R,V*15
$GPHDT,136.651,T*33
$GNGGA,041631.400,2500.7953338,N,12132.4377465,E,4,56,0.47,16.014,M,15.25,M,1,3335*40
$GNRMC,041631.400,A,2500.7953338,N,12132.4377465,E,0.00,341.24,270623,,,R,V*1A
$GPHDT,136.659,T*3B
$GNGGA,041631.600,2500.7953364,N,12132.4377510,E,4,56,0.47,16.011,M,15.25,M,1,3335*4D
$GNRMC,041631.600,A,2500.7953364,N,12132.4377510,E,0.00,341.24,270623,,,R,V*12
$GPHDT,137.164,T*33
$GNGGA,041631.800,2500.7953351,N,12132.4377447,E,4,57,0.47,15.989,M,15.25,M,0,3335*4D
$GNRMC,041631.800,A,2500.7953351,N,12132.4377447,E,0.00,341.24,270623,,,R,V*19
$GPHDT,136.846,T*3B
$GNGSA,A,3,19,195,196,199,17,06,20,09,194,11,12,04,0.89,0.47,0.75,1*0B
$GNGSA,A,3,14,,,,,,,,,,,,0.89,0.47,0.75,1*04
$GNGSA,A,3,68,83,67,82,69,,,,,,,,0.89,0.47,0.75,2*03
$GNGSA,A,3,10,12,24,04,19,25,33,,,,,,0.89,0.47,0.75,3*0C
$GNGSA,A,3,40,07,33,10,08,14,43,28,41,42,11,34,0.89,0.47,0.75,4*02
$GPGSV,4,1,15,19,72,061,43,195,68,048,42,196,68,121,38,50,60,167,36,1*6E
$GPGSV,4,2,15,199,60,167,34,17,58,106,42,06,49,001,45,20,39,242,16,1*5C
$GPGSV,4,3,15,09,37,089,42,194,35,173,39,11,33,300,28,12,21,308,28,1*50
$GPGSV,4,4,15,04,19,059,17,05,14,228,18,14,13,173,15,1*51
$GPGSV,3,1,09,196,68,121,47,195,68,048,45,199,60,167,45,06,49,001,50,8*50
$GPGSV,3,2,09,09,37,089,44,194,35,173,39,11,33,300,36,04,19,059,29,8*51
$GPGSV,3,3,09,14,13,173,17,8*50
$GLGSV,2,1,07,68,65,128,42,83,39,359,31,67,38,042,38,82,36,058,20,1*77
$GLGSV,2,2,07,69,25,184,36,73,19,273,20,80,13,219,14,1*42
$GAGSV,3,1,09,10,49,350,38,12,45,030,35,24,43,229,33,04,38,146,41,7*7F
$GAGSV,3,2,09,19,32,072,28,25,29,296,22,33,10,074,18,09,07,189,,7*79
$GAGSV,3,3,09,36,02,279,,7*41
$GAGSV,2,1,07,10,49,350,43,12,45,030,34,24,43,229,37,04,38,146,44,1*7A
$GAGSV,2,2,07,19,32,072,33,25,29,296,22,33,10,074,17,1*4B
$GBGSV,4,1,15,40,78,171,41,07,75,227,40,33,74,119,43,10,71,270,37,1*73
$GBGSV,4,2,15,08,56,284,23,14,56,058,44,43,51,076,47,13,48,270,,1*71
$GBGSV,4,3,15,28,46,335,45,41,35,199,25,42,31,044,32,11,28,094,37,1*7A
$GBGSV,4,4,15,37,12,261,,23,11,211,,34,11,108,21,1*4E
$GBGSV,2,1,05,40,78,171,44,33,74,119,47,43,51,076,44,28,46,335,43,4*78
$GBGSV,2,2,05,42,31,044,37,4*46
$GNGGA,041632.000,2500.7953338,N,12132.4377430,E,4,57,0.47,15.979,M,15.25,M,1,3335*47
$GNRMC,041632.000,A,2500.7953338,N,12132.4377430,E,0.00,341.24,270623,,,R,V*1D
$GPHDT,136.611,T*37
$GNGGA,041632.200,2500.7953331,N,12132.4377437,E,4,58,0.47,15.975,M,15.25,M,1,3335*48
$GNRMC,041632.200,A,2500.7953331,N,12132.4377437,E,0.00,341.24,270623,,,R,V*11
$GPHDT,136.351,T*36
$GNGGA,041632.400,2500.7953335,N,12132.4377429,E,4,58,0.47,15.991,M,15.25,M,1,3335*4F
$GNRMC,041632.400,A,2500.7953335,N,12132.4377429,E,0.00,341.24,270623,,,R,V*1C
$GPHDT,136.317,T*34
$GNGGA,041632.600,2500.7953319,N,12132.4377455,E,4,58,0.47,15.980,M,15.25,M,0,3335*49
$GNRMC,041632.600,A,2500.7953319,N,12132.4377455,E,0.00,341.24,270623,,,R,V*1B
$GPHDT,136.339,T*38
$GNGGA,041632.800,2500.7953329,N,12132.4377487,E,4,58,0.47,15.981,M,15.25,M,0,3335*4A
$GNRMC,041632.800,A,2500.7953329,N,12132.4377487,E,0.01,341.24,270623,,,R,V*18
$GPHDT,136.629,T*3C
$GNGSA,A,3,19,195,196,199,17,06,20,09,194,11,12,04,0.89,0.47,0.75,1*0B
$GNGSA,A,3,14,,,,,,,,,,,,0.89,0.47,0.75,1*04
$GNGSA,A,3,68,83,67,82,69,,,,,,,,0.89,0.47,0.75,2*03
$GNGSA,A,3,10,12,24,04,19,25,33,,,,,,0.89,0.47,0.75,3*0C
$GNGSA,A,3,40,07,33,10,08,14,43,28,41,42,11,34,0.89,0.47,0.75,4*02
$GPGSV,4,1,15,19,72,061,43,195,68,048,42,196,68,121,38,50,60,167,37,1*6F
$GPGSV,4,2,15,199,60,167,34,17,58,106,42,06,49,001,45,20,39,242,17,1*5D
$GPGSV,4,3,15,09,37,088,43,194,35,173,39,11,33,300,29,12,21,308,29,1*50
$GPGSV,4,4,15,04,19,059,19,05,14,228,18,14,13,173,17,1*5D
$GPGSV,3,1,09,196,68,121,47,195,68,048,45,199,60,167,45,06,49,001,50,8*50
$GPGSV,3,2,09,09,37,088,44,194,35,173,39,11,33,300,36,04,19,059,29,8*50
$GPGSV,3,3,09,14,13,173,15,8*52
$GLGSV,2,1,07,68,65,128,42,83,39,359,31,67,38,042,39,82,36,058,24,1*72
$GLGSV,2,2,07,69,25,184,36,73,19,273,20,80,13,219,15,1*43
$GAGSV,3,1,09,10,49,350,38,12,45,030,35,24,43,229,34,04,38,146,41,7*78
$GAGSV,3,2,09,19,32,072,28,25,29,296,22,33,10,074,18,09,07,189,,7*79
$GAGSV,3,3,09,36,02,279,,7*41
$GAGSV,2,1,07,10,49,350,42,12,45,030,34,24,43,229,37,04,38,146,44,1*7B
$GAGSV,2,2,07,19,32,072,33,25,29,296,27,33,10,074,17,1*4E
$GBGSV,4,1,15,40,78,171,41,07,75,227,40,33,74,119,43,10,71,270,37,1*73
$GBGSV,4,2,15,08,56,284,21,14,56,058,44,43,51,076,46,13,48,270,,1*72
$GBGSV,4,3,15,28,46,335,45,41,35,199,26,42,31,044,32,11,28,094,37,1*79
$GBGSV,4,4,15,37,12,261,,23,11,211,,34,11,108,22,1*4D
$GBGSV,2,1,05,40,78,171,44,33,74,119,47,43,51,076,44,28,46,335,44,4*7F
$GBGSV,2,2,05,42,31,044,37,4*46
$GNGGA,041633.000,2500.7953328,N,12132.4377468,E,4,58,0.47,15.988,M,15.25,M,1,3335*4B
$GNRMC,041633.000,A,2500.7953328,N,12132.4377468,E,0.01,341.24,270623,,,R,V*11
$GPHDT,136.852,T*3E
$GNGGA,041633.200,2500.7953323,N,12132.4377415,E,4,58,0.47,15.987,M,15.25,M,1,3335*47
$GNRMC,041633.200,A,2500.7953323,N,12132.4377415,E,0.01,341.24,270623,,,R,V*12
$GPHDT,136.302,T*30
$GNGGA,041633.400,2500.7953339,N,12132.4377431,E,4,58,0.47,15.976,M,15.25,M,1,3335*42
$GNRMC,041633.400,A,2500.7953339,N,12132.4377431,E,0.01,341.24,270623,,,R,V*19
$GPHDT,136.370,T*35
$GNGGA,041633.600,2500.7953361,N,12132.4377445,E,4,58,0.47,15.984,M,15.25,M,1,3335*43
$GNRMC,041633.600,A,2500.7953361,N,12132.4377445,E,0.01,341.24,270623,,,R,V*15
$GPHDT,136.136,T*35
$GNGGA,041633.800,2500.7953351,N,12132.4377424,E,4,58,0.47,15.967,M,15.25,M,1,3335*44
$GNRMC,041633.800,A,2500.7953351,N,12132.4377424,E,0.01,341.24,270623,,,R,V*1F
$GPHDT,136.218,T*3A
$GNGSA,A,3,19,195,196,199,17,06,20,09,194,11,12,04,0.89,0.48,0.75,1*04
$GNGSA,A,3,14,,,,,,,,,,,,0.89,0.48,0.75,1*0B
$GNGSA,A,3,68,83,67,82,69,,,,,,,,0.89,0.48,0.75,2*0C
$GNGSA,A,3,10,12,24,04,19,25,33,,,,,,0.89,0.48,0.75,3*03
$GNGSA,A,3,40,07,33,10,14,43,28,41,42,11,34,,0.89,0.48,0.75,4*05
$GPGSV,4,1,15,19,72,061,43,195,68,048,42,196,68,121,38,50,60,167,37,1*6F
$GPGSV,4,2,15,199,60,167,34,17,58,106,42,06,49,001,45,20,39,242,18,1*52
$GPGSV,4,3,15,09,37,088,43,194,35,173,39,11,33,300,30,12,21,308,28,1*59
$GPGSV,4,4,15,04,19,059,22,05,14,228,18,14,13,173,17,1*55
$GPGSV,3,1,09,196,68,121,47,195,68,048,45,199,60,167,44,06,49,001,50,8*51
$GPGSV,3,2,09,09,37,088,44,194,35,173,39,11,33,300,36,04,19,059,29,8*50
$GPGSV,3,3,09,14,13,173,15,8*52
$GLGSV,2,1,08,68,65,128,42,83,39,359,30,67,38,042,39,82,36,058,24,1*7C
$GLGSV,2,2,08,69,25,184,36,73,19,273,19,80,13,219,15,84,04,306,,1*7B
$GAGSV,3,1,09,10,49,350,38,12,45,030,35,24,43,229,34,04,38,146,41,7*78
$GAGSV,3,2,09,19,32,072,28,25,29,296,21,33,10,074,18,09,07,189,,7*7A
$GAGSV,3,3,09,36,02,279,,7*41
$GAGSV,2,1,07,10,49,350,42,12,45,030,34,24,43,229,36,04,38,146,44,1*7A
$GAGSV,2,2,07,19,32,072,34,25,29,296,25,33,10,074,17,1*4B
$GBGSV,4,1,15,40,78,171,41,07,75,227,39,33,74,119,43,10,71,270,37,1*7D
$GBGSV,4,2,15,08,56,284,20,14,56,058,43,43,51,076,46,13,48,270,,1*74
$GBGSV,4,3,15,28,46,335,45,41,35,199,26,42,31,044,31,11,28,094,37,1*7A
$GBGSV,4,4,15,37,12,261,,34,11,108,20,23,11,211,,1*4F
$GBGSV,2,1,05,40,78,171,44,33,74,119,47,43,51,076,44,28,46,335,44,4*7F
$GBGSV,2,2,05,42,31,044,37,4*46
$GNGGA,041634.000,2500.7953381,N,12132.4377436,E,4,57,0.48,15.975,M,15.25,M,1,3335*46
$GNRMC,041634.000,A,2500.7953381,N,12132.4377436,E,0.01,341.24,270623,,,R,V*1E
$GPHDT,136.055,T*31
$GNGGA,041634.200,2500.7953312,N,12132.4377397,E,4,58,0.47,15.991,M,15.25,M,1,3335*48
$GNRMC,041634.200,A,2500.7953312,N,12132.4377397,E,0.01,341.24,270623,,,R,V*1A
$GPHDT,136.390,T*3B
$GNGGA,041634.400,2500.7953320,N,12132.4377416,E,4,57,0.48,15.990,M,15.25,M,1,3335*40
$GNRMC,041634.400,A,2500.7953320,N,12132.4377416,E,0.01,341.24,270623,,,R,V*13
$GPHDT,136.548,T*38
$GNGGA,041634.600,2500.7953320,N,12132.4377394,E,4,57,0.48,15.986,M,15.25,M,0,3335*49
$GNRMC,041634.600,A,2500.7953320,N,12132.4377394,E,0.01,341.24,270623,,,R,V*1C
$GPHDT,136.348,T*3E
$GNGGA,041634.800,2500.7953323,N,12132.4377429,E,4,58,0.47,16.015,M,15.25,M,0,3335*45
$GNRMC,041634.800,A,2500.7953323,N,12132.4377429,E,0.01,341.24,270623,,,R,V*10
$GPHDT,136.432,T*34
$GNGSA,A,3,19,195,196,199,17,06,20,09,194,11,12,04,0.89,0.48,0.75,1*04
$GNGSA,A,3,14,,,,,,,,,,,,0.89,0.48,0.75,1*0B
$GNGSA,A,3,68,83,67,82,69,,,,,,,,0.89,0.48,0.75,2*0C
$GNGSA,A,3,10,12,24,04,19,25,33,,,,,,0.89,0.48,0.75,3*03
$GNGSA,A,3,40,07,33,10,14,43,28,41,42,11,34,,0.89,0.48,0.75,4*05
$GPGSV,4,1,15,19,72,061,43,195,68,048,42,196,68,121,38,50,60,167,37,1*6F
$GPGSV,4,2,15,199,60,167,34,17,58,106,42,06,49,001,46,20,39,242,17,1*5E
$GPGSV,4,3,15,09,37,088,43,194,35,173,39,11,33,300,28,12,21,308,29,1*51
$GPGSV,4,4,15,04,19,059,23,05,14,228,18,14,13,173,17,1*54
$GPGSV,3,1,09,196,68,121,47,195,68,048,45,199,60,167,44,06,49,001,50,8*51
$GPGSV,3,2,09,09,37,088,44,194,35,173,39,11,33,300,36,04,19,059,29,8*50
$GPGSV,3,3,09,14,13,173,14,8*53
$GLGSV,2,1,08,68,65,128,42,83,39,359,31,67,38,042,39,82,36,058,23,1*7A
$GLGSV,2,2,08,69,25,184,36,73,19,273,16,80,13,219,15,84,04,306,,1*74
$GAGSV,3,1,09,10,49,350,39,12,45,030,35,24,43,229,34,04,38,146,41,7*79
$GAGSV,3,2,09,19,32,072,28,25,29,296,20,33,10,074,21,09,07,189,,7*71
$GAGSV,3,3,09,36,02,279,,7*41
$GAGSV,2,1,07,10,49,350,43,12,45,030,35,24,43,229,36,04,38,146,44,1*7A
$GAGSV,2,2,07,19,32,072,34,25,29,296,25,33,10,074,17,1*4B
$GBGSV,4,1,15,40,78,171,41,07,75,227,39,33,74,119,43,10,71,270,37,1*7D
$GBGSV,4,2,15,08,56,284,19,14,56,058,43,43,51,076,46,13,48,270,,1*7E
$GBGSV,4,3,15,28,46,335,46,41,35,199,25,42,31,044,31,11,28,094,37,1*7A
$GBGSV,4,4,15,37,12,261,,34,11,108,18,23,11,211,,1*44
$GBGSV,2,1,05,40,78,171,44,33,74,119,47,43,51,076,44,28,46,335,44,4*7F
$GBGSV,2,2,05,42,31,044,38,4*49
$GNGGA,041635.000,2500.7953302,N,12132.4377406,E,4,56,0.48,15.999,M,15.25,M,1,3335*4C
$GNRMC,041635.000,A,2500.7953302,N,12132.4377406,E,0.01,341.24,270623,,,R,V*17
$GPHDT,136.021,T*32
$GNGGA,041635.200,2500.7953303,N,12132.4377375,E,4,56,0.48,15.991,M,15.25,M,1,3335*44
$GNRMC,041635.200,A,2500.7953303,N,12132.4377375,E,0.01,341.24,270623,,,R,V*17
$GPHDT,136.107,T*37
$GNGGA,041635.400,2500.7953318,N,12132.4377403,E,4,56,0.48,16.000,M,15.25,M,1,3335*4C
$GNRMC,041635.400,A,2500.7953318,N,12132.4377403,E,0.01,341.24,270623,,,R,V*1D
$GPHDT,136.358,T*3F
$GNGGA,041635.600,2500.7953311,N,12132.4377414,E,4,57,0.48,15.998,M,15.25,M,0,3335*4A
$GNRMC,041635.600,A,2500.7953311,N,12132.4377414,E,0.01,341.24,270623,,,R,V*10
$GPHDT,136.744,T*36
$GNGGA,041635.800,2500.7953321,N,12132.4377429,E,4,56,0.48,15.988,M,15.25,M,0,3335*49
$GNRMC,041635.800,A,2500.7953321,N,12132.4377429,E,0.01,341.24,270623,,,R,V*13
$GPHDT,136.720,T*34
$GNGSA,A,3,19,195,196,199,17,06,20,09,194,11,12,04,0.89,0.48,0.75,1*04
$GNGSA,A,3,14,,,,,,,,,,,,0.89,0.48,0.75,1*0B
$GNGSA,A,3,68,83,67,82,69,,,,,,,,0.89,0.48,0.75,2*0C
$GNGSA,A,3,10,12,24,04,19,25,33,,,,,,0.89,0.48,0.75,3*03
$GNGSA,A,3,40,07,33,10,14,43,28,41,42,11,34,,0.89,0.48,0.75,4*05
$GPGSV,4,1,15,19,72,061,43,195,68,048,42,196,68,121,38,50,60,167,37,1*6F
$GPGSV,4,2,15,199,60,167,34,17,58,106,42,06,49,001,46,20,39,243,16,1*5E
$GPGSV,4,3,15,09,37,088,43,194,35,173,39,11,33,300,29,12,21,308,26,1*5F
$GPGSV,4,4,15,04,19,059,23,05,14,228,19,14,13,173,16,1*54
$GPGSV,3,1,09,196,68,121,47,195,68,048,45,199,60,167,44,06,49,001,50,8*51
$GPGSV,3,2,09,09,37,088,44,194,35,173,38,11,33,300,35,04,19,059,27,8*5C
$GPGSV,3,3,09,14,13,173,13,8*54
$GLGSV,2,1,07,68,65,128,42,83,39,359,30,67,38,042,39,82,36,058,24,1*73
$GLGSV,2,2,07,69,25,184,36,73,19,273,16,80,13,219,14,1*47
$GAGSV,3,1,09,10,49,350,39,12,45,030,35,24,43,229,35,04,38,146,41,7*78
$GAGSV,3,2,09,19,32,072,28,25,29,296,21,33,10,074,22,09,07,189,,7*73
$GAGSV,3,3,09,36,02,279,,7*41
$GAGSV,2,1,07,10,49,350,43,12,45,030,36,24,43,229,36,04,38,146,44,1*79
$GAGSV,2,2,07,19,32,072,34,25,29,296,26,33,10,074,15,1*4A
$GBGSV,4,1,15,40,78,171,41,07,75,227,39,33,74,119,43,10,71,270,37,1*7D
$GBGSV,4,2,15,08,56,284,17,14,56,058,43,43,51,076,46,13,48,270,,1*70
$GBGSV,4,3,15,28,46,335,46,41,35,199,26,42,31,044,30,11,28,094,37,1*78
$GBGSV,4,4,15,37,12,261,,23,11,211,,34,11,108,18,1*44
$GBGSV,2,1,05,40,78,171,44,33,74,119,47,43,51,076,44,28,46,335,44,4*7F
$GBGSV,2,2,05,42,31,044,38,4*49
$GNGGA,041636.000,2500.7953329,N,12132.4377452,E,4,56,0.48,16.008,M,15.25,M,1,3335*45
$GNRMC,041636.000,A,2500.7953329,N,12132.4377452,E,0.02,341.24,270623,,,R,V*1F
$GPHDT,136.298,T*32
$GNGGA,041636.200,2500.7953323,N,12132.4377445,E,4,56,0.48,16.004,M,15.25,M,1,3335*47
$GNRMC,041636.200,A,2500.7953323,N,12132.4377445,E,0.02,341.24,270623,,,R,V*11
$GPHDT,136.153,T*36
$GNGGA,041636.400,2500.7953331,N,12132.4377449,E,4,56,0.48,16.012,M,15.25,M,1,3335*49
$GNRMC,041636.400,A,2500.7953331,N,12132.4377449,E,0.01,341.24,270623,,,R,V*1B
$GPHDT,136.324,T*34
$GNGGA,041636.600,2500.7953307,N,12132.4377397,E,4,56,0.48,15.982,M,15.25,M,0,3335*48
$GNRMC,041636.600,A,2500.7953307,N,12132.4377397,E,0.01,341.24,270623,,,R,V*18
$GPHDT,136.382,T*38
$GNGGA,041636.800,2500.7953316,N,12132.4377395,E,4,56,0.48,15.985,M,15.25,M,0,3335*43
$GNRMC,041636.800,A,2500.7953316,N,12132.4377395,E,0.02,341.24,270623,,,R,V*17
$GPHDT,136.460,T*33
$GNGSA,A,3,19,195,196,199,17,06,20,09,194,11,12,04,0.89,0.48,0.75,1*04
$GNGSA,A,3,14,,,,,,,,,,,,0.89,0.48,0.75,1*0B
$GNGSA,A,3,68,83,67,82,69,,,,,,,,0.89,0.48,0.75,2*0C
$GNGSA,A,3,10,12,24,04,19,25,33,,,,,,0.89,0.48,0.75,3*03
$GNGSA,A,3,40,07,33,10,14,43,28,41,42,11,34,,0.89,0.48,0.75,4*05
$GPGSV,4,1,15,19,72,061,43,195,68,048,41,196,68,121,38,50,60,167,37,1*6C
$GPGSV,4,2,15,199,60,167,34,17,58,106,42,06,49,001,46,20,39,243,15,1*5D
$GPGSV,4,3,15,09,37,088,43,194,35,173,40,11,33,300,30,12,21,308,26,1*59
$GPGSV,4,4,15,04,19,059,24,05,14,228,19,14,13,173,16,1*53
$GPGSV,2,1,08,196,68,121,47,195,68,048,45,199,60,167,44,06,49,001,50,8*51
$GPGSV,2,2,08,09,37,088,44,194,35,173,38,11,33,300,35,04,19,059,28,8*53
$GLGSV,2,1,07,68,65,128,42,83,39,359,30,67,38,042,38,82,36,058,24,1*72
$GLGSV,2,2,07,69,25,184,36,73,19,273,18,80,13,219,14,1*49
$GAGSV,3,1,09,10,49,350,39,12,45,030,35,24,43,229,35,04,38,146,41,7*78
$GAGSV,3,2,09,19,32,072,29,25,29,296,21,33,10,074,22,09,07,189,,7*72
$GAGSV,3,3,09,36,02,279,,7*41
$GAGSV,2,1,07,10,49,350,43,12,45,030,36,24,43,229,36,04,38,146,44,1*79
$GAGSV,2,2,07,19,32,072,34,25,29,296,24,33,10,074,14,1*49
$GBGSV,4,1,14,40,78,171,41,07,75,227,39,33,74,119,43,10,71,270,37,1*7C
$GBGSV,4,2,14,08,56,284,17,14,56,058,43,43,51,076,46,28,46,335,46,1*75
$GBGSV,4,3,14,41,35,199,26,42,31,044,32,11,28,094,37,37,12,261,,1*76
$GBGSV,4,4,14,23,11,211,,34,11,108,18,1*77
$GBGSV,2,1,05,40,78,171,44,33,74,119,47,43,51,076,44,28,46,335,44,4*7F
$GBGSV,2,2,05,42,31,044,38,4*49
$GNGGA,041637.000,2500.7953324,N,12132.4377402,E,4,56,0.48,15.992,M,15.25,M,1,3335*45
$GNRMC,041637.000,A,2500.7953324,N,12132.4377402,E,0.02,341.24,270623,,,R,V*16
$GPHDT,136.519,T*3C
$GNGGA,041637.200,2500.7953317,N,12132.4377414,E,4,55,0.50,15.988,M,15.25,M,1,3335*41
$GNRMC,041637.200,A,2500.7953317,N,12132.4377414,E,0.02,341.24,270623,,,R,V*13
$GPHDT,136.863,T*3C
$GNGGA,041637.400,2500.7953316,N,12132.4377421,E,4,55,0.50,15.994,M,15.25,M,1,3335*4D
$GNRMC,041637.400,A,2500.7953316,N,12132.4377421,E,0.02,341.24,270623,,,R,V*12
$GPHDT,136.675,T*35
$GNGGA,041637.600,2500.7953307,N,12132.4377406,E,4,55,0.50,16.017,M,15.25,M,0,3335*4A
$GNRMC,041637.600,A,2500.7953307,N,12132.4377406,E,0.02,341.24,270623,,,R,V*15
$GPHDT,136.480,T*3D
$GNGGA,041637.800,2500.7953295,N,12132.4377401,E,4,55,0.50,16.002,M,15.25,M,0,3335*4D
$GNRMC,041637.800,A,2500.7953295,N,12132.4377401,E,0.02,341.24,270623,,,R,V*16
$GPHDT,136.265,T*30
$GNGSA,A,3,19,195,196,199,17,06,09,194,11,12,04,14,0.90,0.50,0.75,1*02
$GNGSA,A,3,68,83,67,82,69,,,,,,,,0.90,0.50,0.75,2*0D
$GNGSA,A,3,10,12,24,04,19,25,33,,,,,,0.90,0.50,0.75,3*02
$GNGSA,A,3,40,07,33,10,14,43,28,41,42,11,34,,0.90,0.50,0.75,4*04
$GPGSV,4,1,15,19,72,061,43,195,68,048,41,196,68,121,38,50,60,167,36,1*6D
$GPGSV,4,2,15,199,60,167,33,17,58,106,42,06,49,001,46,20,39,243,16,1*59
$GPGSV,4,3,15,09,37,088,43,194,35,173,40,11,33,300,29,12,21,308,27,1*50
$GPGSV,4,4,15,04,19,059,24,05,14,228,18,14,13,173,16,1*52
$GPGSV,2,1,08,196,68,121,47,195,68,048,45,199,60,167,44,06,49,001,50,8*51
$GPGSV,2,2,08,09,37,088,44,194,35,173,38,11,33,300,35,04,19,059,28,8*53
$GLGSV,2,1,08,68,65,128,42,83,39,359,30,67,38,042,38,82,36,058,25,1*7C
$GLGSV,2,2,08,69,25,184,36,73,19,273,20,80,13,219,15,74,07,315,,1*7F
$GAGSV,3,1,09,10,49,350,39,12,45,030,35,24,43,229,35,04,38,146,41,7*78
$GAGSV,3,2,09,19,32,072,28,25,29,296,20,33,10,074,23,09,07,189,,7*73
$GAGSV,3,3,09,36,02,279,,7*41
$GAGSV,2,1,07,10,49,350,43,12,45,030,34,24,43,229,36,04,38,146,44,1*7B
$GAGSV,2,2,07,19,32,072,34,25,29,296,24,33,10,074,12,1*4F
$GBGSV,4,1,15,40,78,171,41,07,75,227,39,33,74,119,43,10,71,270,38,1*72
$GBGSV,4,2,15,08,56,284,15,14,56,058,44,43,51,076,46,13,48,270,,1*75
$GBGSV,4,3,15,28,46,335,45,41,35,199,23,42,31,044,30,11,28,094,37,1*7E
$GBGSV,4,4,15,37,12,261,,34,11,108,20,23,11,211,,1*4F
$GBGSV,2,1,05,40,78,171,44,33,74,119,47,43,51,076,44,28,46,335,44,4*7F
$GBGSV,2,2,05,42,31,044,38,4*49
$GNGGA,041638.000,2500.7953304,N,12132.4377403,E,4,55,0.50,16.001,M,15.25,M,1,3335*43
$GNRMC,041638.000,A,2500.7953304,N,12132.4377403,E,0.02,341.24,270623,,,R,V*1A
$GPHDT,136.063,T*34
$GNGGA,041638.200,2500.7953318,N,12132.4377418,E,4,54,0.50,16.009,M,15.25,M,1,3335*4F
$GNRMC,041638.200,A,2500.7953318,N,12132.4377418,E,0.00,341.24,270623,,,R,V*1D
$GPHDT,136.272,T*36
$GNGGA,041638.400,2500.7953296,N,12132.4377382,E,4,54,0.50,16.004,M,15.25,M,1,3335*47
$GNRMC,041638.400,A,2500.7953296,N,12132.4377382,E,0.00,341.24,270623,,,R,V*18
$GPHDT,135.992,T*30
$GNGGA,041638.600,2500.7953312,N,12132.4377410,E,4,54,0.50,16.011,M,15.25,M,0,3335*41
$GNRMC,041638.600,A,2500.7953312,N,12132.4377410,E,0.00,341.24,270623,,,R,V*1B
$GPHDT,136.361,T*35
$GNGGA,041638.800,2500.7953317,N,12132.4377411,E,4,54,0.50,15.989,M,15.25,M,0,3335*40
$GNRMC,041638.800,A,2500.7953317,N,12132.4377411,E,0.00,341.24,270623,,,R,V*11
$GPHDT,136.161,T*37
$GNGSA,A,3,19,195,196,199,17,06,09,194,11,12,04,14,0.90,0.50,0.75,1*02
$GNGSA,A,3,68,83,67,82,69,,,,,,,,0.90,0.50,0.75,2*0D
$GNGSA,A,3,10,12,24,04,19,25,33,,,,,,0.90,0.50,0.75,3*02
$GNGSA,A,3,40,07,33,10,14,43,28,41,42,11,34,,0.90,0.50,0.75,4*04
$GPGSV,4,1,15,19,72,061,43,195,68,048,41,196,68,121,38,50,60,167,36,1*6D
$GPGSV,4,2,15,199,60,167,33,17,58,106,42,06,49,001,46,20,39,243,14,1*5B
$GPGSV,4,3,15,09,37,088,43,194,35,173,40,11,33,300,30,12,21,308,27,1*58
$GPGSV,4,4,15,04,19,059,26,05,14,228,18,14,13,173,17,1*51
$GPGSV,2,1,08,196,68,121,47,195,68,048,45,199,60,167,45,06,49,001,50,8*50
$GPGSV,2,2,08,09,37,088,44,194,35,173,38,11,33,300,36,04,19,059,28,8*50
$GLGSV,2,1,07,68,65,128,42,83,39,359,30,67,38,042,38,82,36,058,22,1*74
$GLGSV,2,2,07,69,25,184,36,73,19,273,20,80,13,219,15,1*43
$GAGSV,2,1,08,10,49,350,38,12,45,030,34,24,43,229,34,04,38,146,41,7*79
$GAGSV,2,2,08,19,32,072,27,25,29,296,18,33,10,074,24,09,07,189,,7*70
$GAGSV,2,1,06,10,49,350,43,12,45,030,34,24,43,229,36,04,38,146,44,1*7A
$GAGSV,2,2,06,19,32,072,34,25,29,296,24,1*7F
$GBGSV,4,1,16,40,78,171,41,07,75,227,39,33,74,119,42,10,71,270,38,1*70
$GBGSV,4,2,16,14,56,058,44,08,56,284,15,43,51,076,46,13,48,270,,1*76
$GBGSV,4,3,16,28,46,335,45,41,35,199,24,42,31,044,31,11,28,094,37,1*7B
$GBGSV,4,4,16,37,12,261,,23,11,211,,34,11,108,20,27,06,306,,1*7A
$GBGSV,2,1,05,40,78,171,44,33,74,119,47,43,51,076,44,28,46,335,44,4*7F
$GBGSV,2,2,05,42,31,044,38,4*49
$GNGGA,041639.000,2500.7953303,N,12132.4377417,E,4,54,0.50,16.003,M,15.25,M,1,3335*43
$GNRMC,041639.000,A,2500.7953303,N,12132.4377417,E,0.00,341.24,270623,,,R,V*1B
$GPHDT,136.101,T*31
$GNGGA,041639.200,2500.7953312,N,12132.4377399,E,4,54,0.50,15.988,M,15.25,M,1,3335*49
$GNRMC,041639.200,A,2500.7953312,N,12132.4377399,E,0.00,341.24,270623,,,R,V*18
$GPHDT,136.468,T*3B
$GNGGA,041639.400,2500.7953311,N,12132.4377421,E,4,54,0.50,16.009,M,15.25,M,1,3335*4B
$GNRMC,041639.400,A,2500.7953311,N,12132.4377421,E,0.00,341.24,270623,,,R,V*19
$GPHDT,136.079,T*3F
$GNGGA,041639.600,2500.7953323,N,12132.4377381,E,4,54,0.50,15.980,M,15.25,M,1,3335*4E
$GNRMC,041639.600,A,2500.7953323,N,12132.4377381,E,0.00,341.24,270623,,,R,V*17
$GPHDT,136.468,T*3B
$GNGGA,041639.800,2500.7953308,N,12132.4377417,E,4,54,0.50,16.006,M,15.25,M,0,3335*44
$GNRMC,041639.800,A,2500.7953308,N,12132.4377417,E,0.00,341.24,270623,,,R,V*18
