$FW : RTK35X,V1.1X0314AS,Lib20210517,1*54
$Tool : LOCOSYS , GNSS Firebird , v1.0.0.19*39
$---------------------------------------------------*2D
,78,169,43,33,74,123,42,43,51,075,42,28,45,335,43,4*7C
$GBGSV,2,2,05,42,32,044,37,4*45
$GNGGA,041435.000,2500.7965242,N,12132.4394722,E,2,54,0.51,16.682,M,15.25,M,1,3335*4C
$GNRMC,041435.000,A,2500.7965242,N,12132.4394722,E,0.07,341.24,270623,,,D,V*0D
$GPHDT,,T*1B
$GNGGA,041435.200,2500.7965242,N,12132.4394662,E,2,54,0.51,16.676,M,15.25,M,1,3335*40
$GNRMC,041435.200,A,2500.7965242,N,12132.4394662,E,0.05,341.24,270623,,,D,V*08
$GPHDT,,T*1B
$GNGGA,041435.400,2500.7965242,N,12132.4394602,E,2,55,0.50,16.670,M,15.25,M,1,3335*46
$GNRMC,041435.400,A,2500.7965242,N,12132.4394602,E,0.03,341.24,270623,,,D,V*0E
$GPHDT,,T*1B
$GNGGA,041435.600,2500.7965242,N,12132.4394542,E,2,57,0.49,16.664,M,15.25,M,0,3335*4D
$GNRMC,041435.600,A,2500.7965242,N,12132.4394542,E,0.03,341.24,270623,,,D,V*0B
$GPHDT,,T*1B
$GNGGA,041435.800,2500.7965242,N,12132.4394482,E,2,57,0.49,16.657,M,15.25,M,0,3335*4E
$GNRMC,041435.800,A,2500.7965242,N,12132.4394482,E,0.02,341.24,270623,,,D,V*09
$GPHDT,,T*1B
$GNGSA,A,3,19,195,196,199,17,06,20,194,09,11,12,04,0.78,0.49,0.61,1*0E
$GNGSA,A,3,68,67,83,82,69,73,,,,,,,0.78,0.49,0.61,2*02
$GNGSA,A,3,10,12,24,04,19,25,33,,,,,,0.78,0.49,0.61,3*09
$GNGSA,A,3,40,07,33,10,14,43,13,28,42,11,34,,0.78,0.49,0.61,4*08
$GPGSV,4,1,15,19,71,058,40,195,68,048,39,196,68,121,38,50,60,167,39,1*67
$GPGSV,4,2,15,199,60,167,36,17,59,104,39,06,49,359,29,20,38,242,19,1*5B
$GPGSV,4,3,15,194,36,173,40,09,36,090,36,11,33,299,29,12,21,309,29,1*57
$GPGSV,4,4,15,04,19,060,22,14,14,173,13,05,13,228,,1*52
$GPGSV,2,1,08,196,68,121,41,195,68,048,39,199,60,167,47,06,49,359,39,8*5E
$GPGSV,2,2,08,09,36,090,36,194,36,173,45,11,33,299,34,04,19,060,22,8*57
$GLGSV,2,1,07,68,64,130,40,67,39,043,38,83,38,358,24,82,36,056,26,1*71
$GLGSV,2,2,07,69,24,184,45,73,20,274,14,80,13,219,16,1*4F
$GAGSV,3,1,09,10,49,349,41,12,45,029,32,24,43,229,39,04,37,147,41,7*72
$GAGSV,3,2,09,19,32,073,30,25,29,296,27,33,11,074,22,09,07,190,,7*74
$GAGSV,3,3,09,36,02,279,,7*41
$GAGSV,2,1,07,10,49,349,36,12,45,029,32,24,43,229,43,04,37,147,39,1*79
$GAGSV,2,2,07,19,32,073,33,25,29,296,19,33,11,074,29,1*4E
$GBGSV,4,1,15,40,78,169,40,07,75,228,39,33,74,123,40,10,71,271,38,1*7E
$GBGSV,4,2,15,08,56,283,,14,56,060,32,43,51,075,38,13,48,269,15,1*7A
$GBGSV,4,3,15,28,45,335,46,41,34,199,,42,32,044,33,11,28,093,39,1*77
$GBGSV,4,4,15,37,13,262,,23,12,212,,34,12,107,23,1*42
$GBGSV,2,1,06,40,78,169,45,33,74,123,44,43,51,075,43,28,45,335,42,4*7F
$GBGSV,2,2,06,42,32,044,35,34,12,107,17,4*70
$GNGGA,041436.000,2500.7965302,N,12132.4394422,E,2,57,0.49,16.652,M,15.25,M,1,3335*4E
$GNRMC,041436.000,A,2500.7965302,N,12132.4394422,E,0.02,341.24,270623,,,D,V*0D
$GPHDT,,T*1B
$GNGGA,041436.200,2500.7965302,N,12132.4394362,E,2,57,0.49,16.646,M,15.25,M,1,3335*4A
$GNRMC,041436.200,A,2500.7965302,N,12132.4394362,E,0.02,341.24,270623,,,D,V*0C
$GPHDT,,T*1B
$GNGGA,041436.400,2500.7965362,N,12132.4394242,E,2,57,0.49,16.642,M,15.25,M,1,3335*4D
$GNRMC,041436.400,A,2500.7965362,N,12132.4394242,E,0.01,341.24,270623,,,D,V*0C
$GPHDT,,T*1B
$GNGGA,041436.600,2500.7965362,N,12132.4394242,E,2,58,0.47,16.637,M,15.25,M,0,3335*4D
$GNRMC,041436.600,A,2500.7965362,N,12132.4394242,E,0.02,341.24,270623,,,D,V*0D
$GPHDT,,T*1B
$GNGGA,041436.800,2500.7965362,N,12132.4394182,E,2,58,0.47,16.631,M,15.25,M,0,3335*4A
$GNRMC,041436.800,A,2500.7965362,N,12132.4394182,E,0.04,341.24,270623,,,D,V*0A
$GPHDT,,T*1B
$GNGSA,A,3,19,195,196,199,17,06,20,194,09,11,12,04,0.75,0.47,0.58,1*07
$GNGSA,A,3,68,67,83,82,69,73,80,,,,,,0.75,0.47,0.58,2*03
$GNGSA,A,3,10,12,24,04,19,25,33,,,,,,0.75,0.47,0.58,3*00
$GNGSA,A,3,40,07,33,10,14,43,13,28,42,11,34,,0.75,0.47,0.58,4*01
$GPGSV,4,1,15,19,71,058,40,195,68,048,39,196,68,121,38,50,60,167,38,1*66
$GPGSV,4,2,15,199,60,167,35,17,59,104,40,06,49,359,29,20,38,242,19,1*56
$GPGSV,4,3,15,194,36,173,40,09,36,090,36,11,33,299,29,12,21,309,29,1*57
$GPGSV,4,4,15,04,19,060,23,14,14,173,12,05,13,228,,1*52
$GPGSV,2,1,08,196,68,121,42,195,68,048,40,199,60,167,47,06,49,359,39,8*53
$GPGSV,2,2,08,09,36,090,35,194,36,173,45,11,33,299,34,04,19,060,22,8*54
$GLGSV,2,1,08,68,64,130,41,67,39,043,39,83,38,358,24,82,36,056,25,1*7D
$GLGSV,2,2,08,69,24,184,44,73,20,274,16,80,13,219,17,84,03,305,,1*7B
$GAGSV,3,1,09,10,49,349,41,12,45,029,32,24,43,229,39,04,37,147,41,7*72
$GAGSV,3,2,09,19,32,073,28,25,29,296,27,33,11,074,19,09,07,190,,7*75
$GAGSV,3,3,09,36,02,279,,7*41
$GAGSV,2,1,07,10,49,349,37,12,45,029,33,24,43,229,43,04,37,147,39,1*79
$GAGSV,2,2,07,19,32,073,33,25,29,296,16,33,11,074,29,1*41
$GBGSV,4,1,14,40,78,169,40,07,75,228,39,33,74,123,40,10,71,271,36,1*71
$GBGSV,4,2,14,14,56,060,32,08,56,283,,43,51,075,40,13,48,269,14,1*75
$GBGSV,4,3,14,28,45,335,46,41,34,199,,42,32,044,33,11,28,093,38,1*77
$GBGSV,4,4,14,37,13,262,,34,12,107,21,1*72
$GBGSV,2,1,06,40,78,169,45,33,74,123,44,43,51,075,43,28,45,335,42,4*7F
$GBGSV,2,2,06,42,32,044,35,34,12,107,17,4*70
$GNGGA,041437.000,2500.7965362,N,12132.4394122,E,2,58,0.47,16.625,M,15.25,M,1,3335*4D
$GNRMC,041437.000,A,2500.7965362,N,12132.4394122,E,0.03,341.24,270623,,,D,V*0E
$GPHDT,,T*1B
$GNGGA,041437.200,2500.7965422,N,12132.4394062,E,2,58,0.47,16.618,M,15.25,M,1,3335*47
$GNRMC,041437.200,A,2500.7965422,N,12132.4394062,E,0.02,341.24,270623,,,D,V*0B
$GPHDT,,T*1B
$GNGGA,041437.400,2500.7965422,N,12132.4393942,E,2,58,0.47,16.612,M,15.25,M,1,3335*47
$GNRMC,041437.400,A,2500.7965422,N,12132.4393942,E,0.01,341.24,270623,,,D,V*02
$GPHDT,,T*1B
$GNGGA,041437.600,2500.7965422,N,12132.4393882,E,2,58,0.47,16.605,M,15.25,M,0,3335*4F
$GNRMC,041437.600,A,2500.7965422,N,12132.4393882,E,0.01,341.24,270623,,,D,V*0D
$GPHDT,,T*1B
$GNGGA,041437.800,2500.7965422,N,12132.4393762,E,2,58,0.47,16.600,M,15.25,M,0,3335*45
$GNRMC,041437.800,A,2500.7965422,N,12132.4393762,E,0.01,341.24,270623,,,D,V*02
$GPHDT,,T*1B
$GNGSA,A,3,19,195,196,199,17,06,20,194,09,11,12,04,0.75,0.48,0.58,1*08
$GNGSA,A,3,68,67,83,82,69,73,80,,,,,,0.75,0.48,0.58,2*0C
$GNGSA,A,3,10,12,24,04,19,25,33,,,,,,0.75,0.48,0.58,3*0F
$GNGSA,A,3,40,07,33,10,14,43,28,42,11,34,,,0.75,0.48,0.58,4*0C
$GPGSV,4,1,15,19,71,058,40,195,68,048,39,196,68,121,38,50,60,167,38,1*66
$GPGSV,4,2,15,199,60,167,35,17,59,104,40,06,49,359,29,20,38,242,19,1*56
$GPGSV,4,3,15,194,36,173,41,09,36,090,37,11,33,299,29,12,21,309,28,1*56
$GPGSV,4,4,15,04,19,060,28,14,14,173,11,05,13,228,,1*5A
$GPGSV,2,1,08,196,68,121,42,195,68,048,40,199,60,167,47,06,49,359,37,8*5D
$GPGSV,2,2,08,09,36,090,34,194,36,173,45,11,33,299,34,04,19,060,23,8*54
$GLGSV,2,1,07,68,64,129,41,67,38,043,40,83,38,358,24,82,36,056,26,1*76
$GLGSV,2,2,07,69,25,184,44,73,20,274,18,80,13,219,17,1*42
$GAGSV,3,1,09,10,49,349,41,12,45,029,31,24,43,229,39,04,37,147,41,7*71
$GAGSV,3,2,09,19,32,073,28,25,29,296,27,33,11,074,19,09,07,190,,7*75
$GAGSV,3,3,09,36,02,279,,7*41
$GAGSV,2,1,07,10,49,349,37,12,45,029,32,24,43,229,43,04,37,147,39,1*78
$GAGSV,2,2,07,19,32,073,33,25,29,296,17,33,11,074,28,1*41
$GBGSV,4,1,15,40,78,169,40,07,75,228,39,33,74,123,40,10,71,271,36,1*70
$GBGSV,4,2,15,08,56,283,,14,56,060,31,43,51,075,40,13,48,269,14,1*77
$GBGSV,4,3,15,28,45,335,46,41,34,199,,42,32,044,33,11,28,093,38,1*76
$GBGSV,4,4,15,37,13,262,,23,12,212,,34,12,107,21,1*40
$GBGSV,2,1,06,40,78,169,45,33,74,123,44,43,51,075,43,28,45,335,42,4*7F
$GBGSV,2,2,06,42,32,044,35,34,12,107,15,4*72
$GNGGA,041438.000,2500.7965482,N,12132.4393702,E,2,57,0.48,16.594,M,15.25,M,1,3335*41
$GNRMC,041438.000,A,2500.7965482,N,12132.4393702,E,0.00,341.24,270623,,,D,V*08
$GPHDT,,T*1B
$GNGGA,041438.200,2500.7965482,N,12132.4393642,E,2,57,0.48,16.589,M,15.25,M,1,3335*4A
$GNRMC,041438.200,A,2500.7965482,N,12132.4393642,E,0.01,341.24,270623,,,D,V*0E
$GPHDT,,T*1B
$GNGGA,041438.400,2500.7965482,N,12132.4393582,E,2,57,0.48,16.585,M,15.25,M,1,3335*4F
$GNRMC,041438.400,A,2500.7965482,N,12132.4393582,E,0.01,341.24,270623,,,D,V*07
$GPHDT,,T*1B
$GNGGA,041438.600,2500.7965482,N,12132.4393462,E,2,57,0.48,16.579,M,15.25,M,0,3335*40
$GNRMC,041438.600,A,2500.7965482,N,12132.4393462,E,0.02,341.24,270623,,,D,V*09
$GPHDT,,T*1B
$GNGGA,041438.800,2500.7965422,N,12132.4393282,E,2,57,0.48,16.572,M,15.25,M,0,3335*47
$GNRMC,041438.800,A,2500.7965422,N,12132.4393282,E,0.02,341.24,270623,,,D,V*05
$GPHDT,,T*1B
$GNGSA,A,3,19,195,196,199,17,06,20,194,09,11,12,04,0.75,0.48,0.58,1*08
$GNGSA,A,3,68,67,83,82,69,73,80,,,,,,0.75,0.48,0.58,2*0C
$GNGSA,A,3,10,12,24,04,19,25,33,,,,,,0.75,0.48,0.58,3*0F
$GNGSA,A,3,40,07,33,10,14,43,28,42,11,34,,,0.75,0.48,0.58,4*0C
$GPGSV,4,1,15,19,71,058,40,195,68,048,39,196,68,121,38,50,60,167,38,1*66
$GPGSV,4,2,15,199,60,167,35,17,59,104,40,06,49,359,27,20,38,242,19,1*58
$GPGSV,4,3,15,194,36,173,41,09,36,090,37,11,33,299,28,12,21,309,27,1*58
$GPGSV,4,4,15,04,19,060,27,14,14,173,10,05,13,228,,1*54
$GPGSV,2,1,08,196,68,121,42,195,68,048,40,199,60,167,47,06,49,359,37,8*5D
$GPGSV,2,2,08,09,36,090,34,194,36,173,45,11,33,299,34,04,19,060,23,8*54
$GLGSV,2,1,08,68,64,129,41,67,38,043,39,83,38,358,25,82,36,056,22,1*72
$GLGSV,2,2,08,69,25,184,44,73,20,274,21,80,13,219,17,74,07,316,,1*77
$GAGSV,2,1,08,10,49,349,41,12,45,029,32,24,43,229,39,04,37,147,41,7*72
$GAGSV,2,2,08,19,32,073,28,25,29,296,27,33,11,074,19,36,02,279,,7*78
$GAGSV,2,1,07,10,49,349,37,12,45,029,33,24,43,229,43,04,37,147,39,1*79
$GAGSV,2,2,07,19,32,073,33,25,29,296,17,33,11,074,27,1*4E
$GBGSV,4,1,15,40,78,169,40,07,75,228,39,33,74,123,40,10,71,271,36,1*70
$GBGSV,4,2,15,08,56,283,,14,56,060,30,43,51,075,40,13,48,269,15,1*77
$GBGSV,4,3,15,28,45,335,46,41,34,199,,42,32,044,34,11,28,093,38,1*71
$GBGSV,4,4,15,37,13,262,,23,12,212,,34,12,107,17,1*45
$GBGSV,2,1,06,40,78,169,45,33,74,123,44,43,51,075,43,28,45,335,42,4*7F
$GBGSV,2,2,06,42,32,044,35,34,12,107,16,4*71
$GNGGA,041439.000,2500.7965482,N,12132.4393162,E,2,57,0.48,16.566,M,15.25,M,1,3335*4D
$GNRMC,041439.000,A,2500.7965482,N,12132.4393162,E,0.02,341.24,270623,,,D,V*0B
$GPHDT,,T*1B
$GNGGA,041439.200,2500.7965482,N,12132.4393042,E,2,57,0.48,16.560,M,15.25,M,1,3335*4A
$GNRMC,041439.200,A,2500.7965482,N,12132.4393042,E,0.02,341.24,270623,,,D,V*0A
$GPHDT,,T*1B
$GNGGA,041439.400,2500.7965422,N,12132.4392922,E,2,57,0.48,16.555,M,15.25,M,1,3335*4E
$GNRMC,041439.400,A,2500.7965422,N,12132.4392922,E,0.03,341.24,270623,,,D,V*09
$GPHDT,,T*1B
$GNGGA,041439.600,2500.7965422,N,12132.4392862,E,2,57,0.48,16.548,M,15.25,M,0,3335*44
$GNRMC,041439.600,A,2500.7965422,N,12132.4392862,E,0.03,341.24,270623,,,D,V*0E
$GPHDT,,T*1B
$GNGGA,041439.800,2500.7965362,N,12132.4392682,E,2,56,0.48,16.539,M,15.25,M,0,3335*4E
$GNRMC,041439.800,A,2500.7965362,N,12132.4392682,E,0.05,341.24,270623,,,D,V*05
$GPHDT,,T*1B
$GNGSA,A,3,19,195,196,199,17,06,20,194,09,11,12,04,0.76,0.48,0.59,1*0A
$GNGSA,A,3,68,67,83,82,69,73,80,,,,,,0.76,0.48,0.59,2*0E
$GNGSA,A,3,10,12,24,04,19,25,33,,,,,,0.76,0.48,0.59,3*0D
$GNGSA,A,3,40,07,33,10,43,28,42,11,34,,,,0.76,0.48,0.59,4*0B
$GPGSV,4,1,15,19,71,058,40,195,68,048,39,196,68,121,38,50,60,167,38,1*66
$GPGSV,4,2,15,199,60,167,35,17,59,104,39,06,49,359,29,20,38,242,19,1*58
$GPGSV,4,3,15,194,36,173,41,09,36,090,37,11,33,299,29,12,21,309,27,1*59
$GPGSV,4,4,15,04,19,060,30,14,14,173,11,05,13,228,,1*53
$GPGSV,2,1,08,196,68,121,42,195,68,048,40,199,60,167,47,06,49,359,37,8*5D
$GPGSV,2,2,08,09,36,090,34,194,36,173,45,11,33,299,33,04,19,060,22,8*52
$GLGSV,2,1,07,68,64,129,41,67,38,043,39,83,38,358,25,82,36,056,27,1*78
$GLGSV,2,2,07,69,25,184,43,73,20,274,22,80,13,219,17,1*4C
$GAGSV,3,1,09,10,49,349,41,12,45,029,32,24,43,229,39,04,37,147,41,7*72
$GAGSV,3,2,09,19,32,073,27,25,29,296,26,33,11,074,18,09,07,190,,7*7A
$GAGSV,3,3,09,36,02,279,,7*41
$GAGSV,2,1,07,10,49,349,38,12,45,029,33,24,43,229,43,04,37,147,39,1*76
$GAGSV,2,2,07,19,32,073,33,25,29,296,17,33,11,074,27,1*4E
$GBGSV,4,1,15,40,78,169,40,07,75,228,39,33,74,123,40,10,71,271,36,1*70
$GBGSV,4,2,15,08,56,283,,14,56,060,31,43,51,075,40,13,48,269,15,1*76
$GBGSV,4,3,15,28,45,335,46,41,34,199,,42,32,044,34,11,28,093,38,1*71
$GBGSV,4,4,15,37,13,262,,23,12,212,,34,12,107,16,1*44
$GBGSV,2,1,06,40,78,169,45,33,74,123,44,43,51,075,43,28,45,335,42,4*7F
$GBGSV,2,2,06,42,32,044,35,34,12,107,14,4*73
$GNGGA,041440.000,2500.7965362,N,12132.4392562,E,2,56,0.48,16.533,M,15.25,M,1,3335*4E
$GNRMC,041440.000,A,2500.7965362,N,12132.4392562,E,0.04,341.24,270623,,,D,V*0F
$GPHDT,,T*1B
$GNGGA,041440.200,2500.7965302,N,12132.4392502,E,2,57,0.48,16.528,M,15.25,M,1,3335*47
$GNRMC,041440.200,A,2500.7965302,N,12132.4392502,E,0.03,341.24,270623,,,D,V*0A
$GPHDT,,T*1B
$GNGGA,041440.400,2500.7965362,N,12132.4392382,E,2,56,0.48,16.521,M,15.25,M,1,3335*41
$GNRMC,041440.400,A,2500.7965362,N,12132.4392382,E,0.02,341.24,270623,,,D,V*05
$GPHDT,,T*1B
$GNGGA,041440.600,2500.7965362,N,12132.4392322,E,2,56,0.48,16.514,M,15.25,M,0,3335*4E
$GNRMC,041440.600,A,2500.7965362,N,12132.4392322,E,0.02,341.24,270623,,,D,V*0D
$GPHDT,,T*1B
$GNGGA,041440.800,2500.7965302,N,12132.4392202,E,2,56,0.48,16.506,M,15.25,M,0,3335*46
$GNRMC,041440.800,A,2500.7965302,N,12132.4392202,E,0.04,341.24,270623,,,D,V*00
$GPHDT,,T*1B
$GNGSA,A,3,19,195,196,199,17,06,20,194,09,11,12,04,0.75,0.48,0.58,1*08
$GNGSA,A,3,68,67,83,82,69,73,80,,,,,,0.75,0.48,0.58,2*0C
$GNGSA,A,3,10,12,24,04,19,25,33,,,,,,0.75,0.48,0.58,3*0F
$GNGSA,A,3,40,07,33,10,14,43,28,42,11,34,,,0.75,0.48,0.58,4*0C
$GPGSV,4,1,15,19,71,058,40,195,68,048,38,196,68,121,38,50,60,167,38,1*67
$GPGSV,4,2,15,199,60,167,35,17,59,104,39,06,49,359,29,20,38,242,19,1*58
$GPGSV,4,3,15,194,36,173,41,09,36,090,38,11,33,299,30,12,21,309,26,1*5F
$GPGSV,4,4,15,04,19,060,29,14,14,173,,05,13,228,,1*5B
$GPGSV,2,1,08,196,68,121,42,195,68,048,40,199,60,167,47,06,49,359,37,8*5D
$GPGSV,2,2,08,09,36,090,35,194,36,173,46,11,33,299,33,04,19,060,22,8*50
$GLGSV,2,1,07,68,64,129,41,67,38,043,39,83,38,358,25,82,36,057,28,1*76
$GLGSV,2,2,07,69,25,184,43,73,20,274,23,80,13,219,16,1*4C
$GAGSV,3,1,09,10,49,349,41,12,45,029,31,24,43,229,39,04,37,147,41,7*71
$GAGSV,3,2,09,19,32,073,27,25,29,296,27,33,11,074,14,09,07,190,,7*77
$GAGSV,3,3,09,36,02,279,,7*41
$GAGSV,2,1,07,10,49,349,38,12,45,029,34,24,43,229,43,04,37,147,39,1*71
$GAGSV,2,2,07,19,32,073,33,25,29,296,17,33,11,074,28,1*41
$GBGSV,4,1,15,40,78,169,40,07,75,228,39,33,74,123,40,10,71,271,36,1*70
$GBGSV,4,2,15,08,56,283,,14,56,060,31,43,51,075,39,13,48,269,15,1*78
$GBGSV,4,3,15,28,45,335,46,41,34,199,,42,32,044,34,11,28,093,38,1*71
$GBGSV,4,4,15,37,13,262,,23,12,212,,34,12,107,15,1*47
$GBGSV,2,1,06,40,78,169,45,33,74,123,44,43,51,075,43,28,45,335,42,4*7F
$GBGSV,2,2,06,42,32,044,34,34,12,107,15,4*73
$GNGGA,041441.000,2500.7965362,N,12132.4392142,E,2,56,0.48,16.500,M,15.25,M,1,3335*49
$GNRMC,041441.000,A,2500.7965362,N,12132.4392142,E,0.02,341.24,270623,,,D,V*0E
$GPHDT,,T*1B
$GNGGA,041441.200,2500.7965362,N,12132.4392082,E,2,55,0.48,16.492,M,15.25,M,1,3335*4F
$GNRMC,041441.200,A,2500.7965362,N,12132.4392082,E,0.02,341.24,270623,,,D,V*01
$GPHDT,,T*1B
$GNGGA,041441.400,2500.7965362,N,12132.4392022,E,2,55,0.48,16.485,M,15.25,M,1,3335*45
$GNRMC,041441.400,A,2500.7965362,N,12132.4392022,E,0.03,341.24,270623,,,D,V*0C
$GPHDT,,T*1B
$GNGGA,041441.600,2500.7965302,N,12132.4391902,E,2,55,0.48,16.478,M,15.25,M,0,3335*4A
$GNRMC,041441.600,A,2500.7965302,N,12132.4391902,E,0.02,341.24,270623,,,D,V*01
$GPHDT,,T*1B
$GNGGA,041441.800,2500.7965302,N,12132.4391782,E,2,55,0.48,16.470,M,15.25,M,0,3335*4A
$GNRMC,041441.800,A,2500.7965302,N,12132.4391782,E,0.02,341.24,270623,,,D,V*09
$GPHDT,,T*1B
$GNGSA,A,3,19,195,196,199,17,06,20,194,09,11,12,04,0.74,0.47,0.58,1*06
$GNGSA,A,3,68,67,83,82,69,73,80,,,,,,0.74,0.47,0.58,2*02
$GNGSA,A,3,10,12,24,04,19,25,33,,,,,,0.74,0.47,0.58,3*01
$GNGSA,A,3,40,07,33,10,14,43,28,41,42,11,34,,0.74,0.47,0.58,4*07
$GPGSV,4,1,15,19,71,058,40,195,68,048,38,196,68,121,38,50,60,167,38,1*67
$GPGSV,4,2,15,199,60,167,35,17,59,104,39,06,49,359,28,20,38,242,19,1*59
$GPGSV,4,3,15,194,36,173,41,09,36,090,38,11,33,299,29,12,21,309,26,1*57
$GPGSV,4,4,15,04,19,060,27,14,14,173,,05,13,228,,1*55
$GPGSV,2,1,08,196,68,121,42,195,68,048,40,199,60,167,47,06,49,359,37,8*5D
$GPGSV,2,2,08,09,36,090,36,194,36,173,46,11,33,299,35,04,19,060,23,8*54
$GLGSV,2,1,07,68,64,129,42,67,38,043,38,83,38,358,24,82,36,057,28,1*75
$GLGSV,2,2,07,69,25,184,44,73,20,274,24,80,13,219,15,1*4F
$GAGSV,2,1,08,10,49,349,41,12,45,029,33,24,43,229,39,04,37,147,41,7*73
$GAGSV,2,2,08,19,32,073,25,25,29,296,27,33,11,074,11,09,07,190,,7*70
$GAGSV,2,1,07,10,49,349,38,12,45,029,34,24,43,229,43,04,37,147,39,1*71
$GAGSV,2,2,07,19,32,073,34,25,29,296,18,33,11,074,28,1*49
$GBGSV,4,1,15,40,78,169,40,07,75,228,39,33,74,123,40,10,71,271,36,1*70
$GBGSV,4,2,15,14,56,060,33,08,56,283,,43,51,075,38,13,48,269,14,1*7A
$GBGSV,4,3,15,28,45,335,47,41,34,199,30,42,32,044,34,11,28,093,38,1*73
$GBGSV,4,4,15,23,12,212,,34,12,107,17,27,06,306,,1*43
$GBGSV,2,1,06,40,78,169,45,33,74,123,44,43,51,075,43,28,45,335,42,4*7F
$GBGSV,2,2,06,42,32,044,34,34,12,107,16,4*70
$GNGGA,041442.000,2500.7965302,N,12132.4391902,E,2,57,0.47,16.477,M,15.25,M,1,3335*4C
$GNRMC,041442.000,A,2500.7965302,N,12132.4391902,E,0.07,341.24,270623,,,D,V*01
$GPHDT,,T*1B
$GNGGA,041442.200,2500.7965302,N,12132.4391842,E,2,57,0.45,16.475,M,15.25,M,1,3335*4B
$GNRMC,041442.200,A,2500.7965302,N,12132.4391842,E,0.03,341.24,270623,,,D,V*02
$GPHDT,,T*1B
$GNGGA,041442.400,2500.7965302,N,12132.4391842,E,2,57,0.45,16.481,M,15.25,M,1,3335*46
$GNRMC,041442.400,A,2500.7965302,N,12132.4391842,E,0.03,341.24,270623,,,D,V*04
$GPHDT,,T*1B
$GNGGA,041442.600,2500.7965242,N,12132.4391782,E,2,57,0.45,16.488,M,15.25,M,1,3335*4B
$GNRMC,041442.600,A,2500.7965242,N,12132.4391782,E,0.04,341.24,270623,,,D,V*07
$GPHDT,,T*1B
$GNGGA,041442.800,2500.7965242,N,12132.4391782,E,2,57,0.45,16.490,M,15.25,M,0,3335*4D
$GNRMC,041442.800,A,2500.7965242,N,12132.4391782,E,0.04,341.24,270623,,,D,V*09
$GPHDT,,T*1B
$GNGSA,A,3,19,195,196,199,17,06,20,194,09,11,12,04,0.73,0.45,0.57,1*0C
$GNGSA,A,3,14,,,,,,,,,,,,0.73,0.45,0.57,1*03
$GNGSA,A,3,68,67,83,82,69,73,80,,,,,,0.73,0.45,0.57,2*08
$GNGSA,A,3,10,12,24,04,19,25,33,,,,,,0.73,0.45,0.57,3*0B
$GNGSA,A,3,40,07,33,10,14,43,28,41,42,11,34,,0.73,0.45,0.57,4*0D
$GPGSV,4,1,15,19,71,058,40,195,68,048,39,196,68,121,38,50,60,167,38,1*66
$GPGSV,4,2,15,199,60,167,35,17,59,104,38,06,49,359,30,20,38,242,16,1*5E
$GPGSV,4,3,15,194,36,173,40,09,36,090,39,11,33,299,29,12,21,309,25,1*54
$GPGSV,4,4,15,04,19,060,28,14,14,173,,05,13,228,,1*5A
$GPGSV,3,1,09,196,68,121,42,195,68,048,40,199,60,167,47,06,49,359,36,8*5C
$GPGSV,3,2,09,09,36,090,37,194,36,173,46,11,33,299,34,04,19,060,24,8*53
$GPGSV,3,3,09,14,14,173,17,8*57
$GLGSV,2,1,08,68,64,129,42,67,38,043,38,83,38,358,24,82,36,057,26,1*74
$GLGSV,2,2,08,69,25,184,44,73,20,274,25,80,13,219,15,74,07,316,,1*71
$GAGSV,2,1,08,10,49,349,41,12,45,029,32,24,43,229,39,04,37,147,40,7*73
$GAGSV,2,2,08,19,32,073,24,25,29,296,27,33,11,074,13,09,07,190,,7*73
$GAGSV,2,1,07,10,49,349,39,12,45,029,34,24,43,229,43,04,37,147,40,1*7E
$GAGSV,2,2,07,19,32,073,32,25,29,296,18,33,11,074,28,1*4F
$GBGSV,4,1,15,40,78,169,40,07,75,228,39,33,74,123,40,10,71,271,36,1*70
$GBGSV,4,2,15,08,56,283,,14,56,060,39,43,51,075,35,13,48,269,15,1*7C
$GBGSV,4,3,15,28,45,335,47,41,34,199,27,42,32,044,36,11,28,093,38,1*77
$GBGSV,4,4,15,37,13,262,,23,12,212,,34,12,107,16,1*44
$GBGSV,2,1,06,40,78,169,44,33,74,123,44,43,51,075,42,28,45,335,42,4*7F
$GBGSV,2,2,06,42,32,044,36,34,12,107,16,4*72
$GNGGA,041443.000,2500.7965242,N,12132.4391722,E,2,58,0.45,16.492,M,15.25,M,1,3335*42
$GNRMC,041443.000,A,2500.7965242,N,12132.4391722,E,0.05,341.24,270623,,,D,V*0B
$GPHDT,,T*1B
$GNGGA,041443.200,2500.7965182,N,12132.4391722,E,2,58,0.45,16.495,M,15.25,M,1,3335*48
$GNRMC,041443.200,A,2500.7965182,N,12132.4391722,E,0.06,341.24,270623,,,D,V*05
$GPHDT,,T*1B
$GNGGA,041443.400,2500.7965122,N,12132.4391722,E,2,57,0.46,16.497,M,15.25,M,1,3335*4A
$GNRMC,041443.400,A,2500.7965122,N,12132.4391722,E,0.06,341.24,270623,,,D,V*09
$GPHDT,,T*1B
$GNGGA,041443.600,2500.7965122,N,12132.4391782,E,2,58,0.46,16.499,M,15.25,M,0,3335*42
$GNRMC,041443.600,A,2500.7965122,N,12132.4391782,E,0.05,341.24,270623,,,D,V*02
$GPHDT,,T*1B
$GNGGA,041443.800,2500.7965122,N,12132.4391782,E,2,58,0.46,16.500,M,15.25,M,0,3335*4D
$GNRMC,041443.800,A,2500.7965122,N,12132.4391782,E,0.06,341.24,270623,,,D,V*0F
$GPHDT,,T*1B
$GNGSA,A,3,19,196,195,199,17,06,09,194,11,12,04,14,0.73,0.46,0.57,1*08
$GNGSA,A,3,68,67,83,82,69,73,80,,,,,,0.73,0.46,0.57,2*0B
$GNGSA,A,3,10,12,24,04,19,25,33,,,,,,0.73,0.46,0.57,3*08
$GNGSA,A,3,40,07,33,10,14,43,28,41,42,11,34,,0.73,0.46,0.57,4*0E
$GPGSV,4,1,15,19,71,058,41,196,68,121,35,195,68,048,39,50,60,167,38,1*6A
$GPGSV,4,2,15,199,60,167,35,17,59,104,38,06,49,359,35,20,38,242,,1*5C
$GPGSV,4,3,15,09,36,090,41,194,36,173,40,11,33,299,29,12,21,309,28,1*56
$GPGSV,4,4,15,04,19,060,28,14,14,173,,05,13,228,,1*5A
$GPGSV,3,1,09,196,68,121,41,195,68,048,43,199,60,167,47,06,49,359,38,8*52
$GPGSV,3,2,09,09,36,090,37,194,36,173,45,11,33,299,33,04,19,060,26,8*55
$GPGSV,3,3,09,14,14,173,19,8*59
$GLGSV,2,1,07,68,64,129,39,67,38,043,36,83,38,358,24,82,36,057,26,1*79
$GLGSV,2,2,07,69,25,184,44,73,20,274,25,80,13,219,16,1*4D
$GAGSV,2,1,08,10,49,349,42,12,45,029,30,24,43,229,39,04,37,147,42,7*70
$GAGSV,2,2,08,19,32,073,32,25,29,296,28,33,11,074,15,09,07,190,,7*7D
$GAGSV,2,1,07,10,49,349,37,12,45,029,29,24,43,229,43,04,37,147,42,1*7E
$GAGSV,2,2,07,19,32,073,34,25,29,296,18,33,11,074,26,1*47
$GBGSV,4,1,14,40,78,169,41,07,75,228,39,33,74,123,37,10,71,271,36,1*70
$GBGSV,4,2,14,08,56,283,,14,56,060,45,43,51,075,44,13,48,269,15,1*70
$GBGSV,4,3,14,28,45,335,48,41,34,199,30,42,32,044,36,11,28,094,39,1*79
$GBGSV,4,4,14,34,12,107,20,23,12,212,,1*70
$GBGSV,2,1,06,40,78,169,44,33,74,123,44,43,51,075,42,28,45,335,43,4*7E
$GBGSV,2,2,06,42,32,044,33,34,12,107,15,4*74
$GNGGA,041444.000,2500.7965122,N,12132.4391842,E,2,58,0.46,16.502,M,15.25,M,1,3335*42
$GNRMC,041444.000,A,2500.7965122,N,12132.4391842,E,0.04,341.24,270623,,,D,V*01
$GPHDT,,T*1B
$GNGGA,041444.200,2500.7965182,N,12132.4391842,E,2,58,0.46,16.505,M,15.25,M,1,3335*4D
$GNRMC,041444.200,A,2500.7965182,N,12132.4391842,E,0.03,341.24,270623,,,D,V*0E
$GPHDT,,T*1B
$GNGGA,041444.400,2500.7965182,N,12132.4391902,E,2,58,0.46,16.506,M,15.25,M,1,3335*4D
$GNRMC,041444.400,A,2500.7965182,N,12132.4391902,E,0.03,341.24,270623,,,D,V*0D
$GPHDT,,T*1B
$GNGGA,041444.600,2500.7965122,N,12132.4391902,E,2,58,0.46,16.506,M,15.25,M,0,3335*44
$GNRMC,041444.600,A,2500.7965122,N,12132.4391902,E,0.05,341.24,270623,,,D,V*03
$GPHDT,,T*1B
$GNGGA,041444.800,2500.7965062,N,12132.4391842,E,2,58,0.45,16.505,M,15.25,M,0,3335*4A
$GNRMC,041444.800,A,2500.7965062,N,12132.4391842,E,0.05,341.24,270623,,,D,V*0D
$GPHDT,,T*1B
$GNGSA,A,3,19,195,196,199,17,06,20,194,09,11,12,04,0.73,0.45,0.57,1*0C
$GNGSA,A,3,14,,,,,,,,,,,,0.73,0.45,0.57,1*03
$GNGSA,A,3,68,67,83,82,69,73,80,,,,,,0.73,0.45,0.57,2*08
$GNGSA,A,3,10,12,24,04,19,25,33,,,,,,0.73,0.45,0.57,3*0B
$GNGSA,A,3,40,07,33,10,14,43,28,41,42,11,34,,0.73,0.45,0.57,4*0D
$GPGSV,4,1,15,19,71,058,41,195,68,048,39,196,68,121,36,50,60,167,38,1*69
$GPGSV,4,2,15,199,60,167,35,17,59,104,37,06,49,359,36,20,38,242,14,1*55
$GPGSV,4,3,15,194,36,173,39,09,36,090,39,11,33,299,29,12,21,309,28,1*57
$GPGSV,4,4,15,04,19,060,30,14,14,173,,05,13,228,,1*53
$GPGSV,3,1,09,196,68,121,40,195,68,048,42,199,60,167,47,06,49,359,37,8*5D
$GPGSV,3,2,09,09,36,090,37,194,36,173,45,11,33,299,33,04,19,060,25,8*56
$GPGSV,3,3,09,14,14,173,18,8*58
$GLGSV,2,1,08,68,64,129,40,67,38,043,36,83,38,358,24,82,36,057,27,1*79
$GLGSV,2,2,08,69,25,184,43,73,20,274,23,80,13,219,16,84,03,305,,1*7A
$GAGSV,3,1,09,10,49,349,42,12,45,029,29,24,43,229,40,04,37,147,42,7*76
$GAGSV,3,2,09,19,32,073,31,25,29,296,26,33,11,074,13,09,07,190,,7*76
$GAGSV,3,3,09,36,02,279,,7*41
$GAGSV,2,1,06,10,49,349,38,12,45,029,33,24,43,229,43,04,37,147,42,1*7B
$GAGSV,2,2,06,19,32,073,33,25,29,296,18,1*76
$GBGSV,4,1,14,40,78,169,41,07,75,228,39,33,74,123,37,10,71,271,36,1*70
$GBGSV,4,2,14,14,56,059,40,43,51,075,34,13,48,269,18,28,45,335,47,1*7A
$GBGSV,4,3,14,41,34,199,32,42,32,044,36,11,28,094,37,37,13,262,,1*77
$GBGSV,4,4,14,34,12,107,19,23,12,212,,1*7A
$GBGSV,2,1,06,40,78,169,44,33,74,123,44,43,51,075,40,28,45,335,43,4*7C
$GBGSV,2,2,06,42,32,044,36,34,12,107,15,4*71
$GNGGA,041445.000,2500.7965122,N,12132.4391842,E,2,58,0.45,16.505,M,15.25,M,1,3335*47
$GNRMC,041445.000,A,2500.7965122,N,12132.4391842,E,0.03,341.24,270623,,,D,V*07
$GPHDT,,T*1B
$GNGGA,041445.200,2500.7965122,N,12132.4391842,E,2,58,0.45,16.504,M,15.25,M,1,3335*44
$GNRMC,041445.200,A,2500.7965122,N,12132.4391842,E,0.02,341.24,270623,,,D,V*04
$GPHDT,,T*1B
$GNGGA,041445.400,2500.7965062,N,12132.4391842,E,2,58,0.45,16.503,M,15.25,M,1,3335*40
$GNRMC,041445.400,A,2500.7965062,N,12132.4391842,E,0.03,341.24,270623,,,D,V*06
$GPHDT,,T*1B
$GNGGA,041445.600,2500.7965062,N,12132.4391842,E,2,59,0.45,16.501,M,15.25,M,0,3335*40
$GNRMC,041445.600,A,2500.7965062,N,12132.4391842,E,0.02,341.24,270623,,,D,V*05
$GPHDT,,T*1B
$GNGGA,041445.800,2500.7965062,N,12132.4391842,E,2,59,0.45,16.499,M,15.25,M,0,3335*4E
$GNRMC,041445.800,A,2500.7965062,N,12132.4391842,E,0.02,341.24,270623,,,D,V*0B
$GPHDT,,T*1B
