$FW : RTK35X,V1.1X0314AS,Lib20210517,1*54
$Tool : LOCOSYS , GNSS Firebird , v1.0.0.19*39
$---------------------------------------------------*2D
230,42,04,37,147,41,1*7B
$GAGSV,2,2,07,19,32,074,28,25,28,297,20,33,11,073,26,1*41
$GBGSV,4,1,15,40,79,168,43,07,76,229,40,33,73,125,42,10,71,272,38,1*71
$GBGSV,4,2,15,14,56,060,44,08,56,282,,43,51,074,42,13,48,268,17,1*75
$GBGSV,4,3,15,28,45,334,46,41,33,199,17,42,32,045,33,11,28,093,33,1*7C
$GBGSV,4,4,15,37,13,262,,34,12,107,13,23,12,212,,1*41
$GBGSV,2,1,07,40,79,168,45,33,73,125,45,43,51,074,36,28,45,334,44,4*7A
$GBGSV,2,2,07,41,33,199,29,42,32,045,34,34,12,107,25,4*4F
$GNGGA,041310.000,2500.7956649,N,12132.4374235,E,2,56,0.49,15.785,M,15.25,M,1,3335*40
$GNRMC,041310.000,A,2500.7956649,N,12132.4374235,E,0.04,136.39,270623,,,D,V*02
$GPHDT,46.348,T*08
$GNGGA,041310.200,2500.7956589,N,12132.4374115,E,2,57,0.49,15.775,M,15.25,M,1,3335*42
$GNRMC,041310.200,A,2500.7956589,N,12132.4374115,E,0.03,136.39,270623,,,D,V*09
$GPHDT,46.475,T*01
$GNGGA,041310.400,2500.7956529,N,12132.4373995,E,2,57,0.49,15.767,M,15.25,M,1,3335*4A
$GNRMC,041310.400,A,2500.7956529,N,12132.4373995,E,0.02,136.39,270623,,,D,V*03
$GPHDT,46.656,T*02
$GNGGA,041310.600,2500.7956469,N,12132.4373935,E,2,57,0.49,15.760,M,15.25,M,1,3335*40
$GNRMC,041310.600,A,2500.7956469,N,12132.4373935,E,0.02,136.39,270623,,,D,V*0E
$GPHDT,47.195,T*0B
$GNGGA,041310.800,2500.7956349,N,12132.4373815,E,2,57,0.49,15.756,M,15.25,M,0,3335*4C
$GNRMC,041310.800,A,2500.7956349,N,12132.4373815,E,0.02,136.39,270623,,,D,V*06
$GPHDT,46.574,T*01
$GNGSA,A,3,19,195,196,199,17,06,194,09,11,04,14,,0.77,0.49,0.60,1*04
$GNGSA,A,3,68,67,83,82,69,80,,,,,,,0.77,0.49,0.60,2*00
$GNGSA,A,3,10,12,24,04,19,25,33,,,,,,0.77,0.49,0.60,3*07
$GNGSA,A,3,40,07,33,10,14,43,13,28,41,42,11,34,0.77,0.49,0.60,4*03
$GPGSV,4,1,15,19,71,055,43,195,68,048,43,196,67,122,40,50,60,167,40,1*69
$GPGSV,4,2,15,199,60,167,36,17,59,103,43,06,49,358,42,20,38,241,15,1*52
$GPGSV,4,3,15,194,36,173,43,09,36,090,31,11,32,298,26,12,20,309,18,1*5F
$GPGSV,4,4,15,04,19,060,27,14,14,173,22,05,12,227,,1*5B
$GPGSV,3,1,09,195,68,048,45,196,67,122,43,199,60,167,48,06,49,358,45,8*5E
$GPGSV,3,2,09,09,36,090,40,194,36,173,45,11,32,298,34,04,19,060,25,8*51
$GPGSV,3,3,09,14,14,173,18,8*58
$GLGSV,2,1,08,68,63,131,40,67,39,044,39,83,38,357,29,82,36,056,34,1*7F
$GLGSV,2,2,08,69,24,184,44,73,20,274,13,80,14,220,18,84,03,305,,1*7C
$GAGSV,3,1,09,10,49,349,43,12,46,028,38,24,44,230,38,04,37,147,42,7*75
$GAGSV,3,2,09,19,32,074,31,25,28,297,19,33,11,073,24,09,06,190,,7*7F
$GAGSV,3,3,09,36,02,278,,7*40
$GAGSV,2,1,07,10,49,349,44,12,46,028,35,24,44,230,42,04,37,147,43,1*7A
$GAGSV,2,2,07,19,32,074,29,25,28,297,21,33,11,073,25,1*42
$GBGSV,4,1,15,40,79,168,43,07,76,229,40,33,73,124,42,10,71,272,38,1*70
$GBGSV,4,2,15,08,56,282,,14,56,060,44,43,51,074,42,13,48,268,18,1*7A
$GBGSV,4,3,15,28,45,334,45,41,33,199,17,42,32,045,34,11,28,093,33,1*78
$GBGSV,4,4,15,37,13,262,,34,12,107,15,23,12,212,,1*47
$GBGSV,2,1,07,40,79,168,45,33,73,124,45,43,51,074,36,28,45,334,44,4*7B
$GBGSV,2,2,07,41,33,199,28,42,32,045,35,34,12,107,23,4*49
$GNGGA,041311.000,2500.7956289,N,12132.4373695,E,2,57,0.49,15.752,M,15.25,M,1,3335*4B
$GNRMC,041311.000,A,2500.7956289,N,12132.4373695,E,0.02,136.39,270623,,,D,V*04
$GPHDT,46.902,T*0C
$GNGGA,041311.200,2500.7956229,N,12132.4373575,E,2,57,0.49,15.748,M,15.25,M,1,3335*45
$GNRMC,041311.200,A,2500.7956229,N,12132.4373575,E,0.02,136.39,270623,,,D,V*01
$GPHDT,46.751,T*04
$GNGGA,041311.400,2500.7956109,N,12132.4373395,E,2,56,0.49,15.745,M,15.25,M,1,3335*46
$GNRMC,041311.400,A,2500.7956109,N,12132.4373395,E,0.01,136.39,270623,,,D,V*0D
$GPHDT,46.836,T*0A
$GNGGA,041311.600,2500.7956049,N,12132.4373275,E,2,56,0.49,15.742,M,15.25,M,0,3335*48
$GNRMC,041311.600,A,2500.7956049,N,12132.4373275,E,0.02,136.39,270623,,,D,V*06
$GPHDT,46.394,T*09
$GNGGA,041311.800,2500.7955989,N,12132.4373155,E,2,57,0.49,15.741,M,15.25,M,0,3335*43
$GNRMC,041311.800,A,2500.7955989,N,12132.4373155,E,0.03,136.39,270623,,,D,V*0E
$GPHDT,46.233,T*05
$GNGSA,A,3,19,195,196,199,17,06,194,09,11,12,04,14,0.74,0.47,0.58,1*01
$GNGSA,A,3,68,67,83,82,69,80,,,,,,,0.74,0.47,0.58,2*06
$GNGSA,A,3,10,12,24,04,19,25,33,,,,,,0.74,0.47,0.58,3*01
$GNGSA,A,3,40,07,33,10,14,43,13,28,42,11,41,34,0.74,0.47,0.58,4*05
$GPGSV,4,1,15,19,71,055,43,195,68,048,43,196,67,122,40,50,60,167,40,1*69
$GPGSV,4,2,15,199,60,167,36,17,59,103,43,06,49,358,42,20,38,241,16,1*51
$GPGSV,4,3,15,194,36,173,43,09,36,090,31,11,32,298,26,12,20,309,21,1*55
$GPGSV,4,4,15,04,19,060,27,14,14,173,21,05,12,227,,1*58
$GPGSV,3,1,09,195,68,048,45,196,67,122,43,199,60,167,48,06,49,358,45,8*5E
$GPGSV,3,2,09,09,36,090,40,194,36,173,45,11,32,298,34,04,19,060,25,8*51
$GPGSV,3,3,09,14,14,173,18,8*58
$GLGSV,2,1,07,68,63,131,40,67,39,044,39,83,38,357,29,82,36,056,33,1*77
$GLGSV,2,2,07,69,24,184,44,73,20,274,16,80,14,220,16,1*41
$GAGSV,3,1,09,10,49,349,43,12,46,028,38,24,44,230,38,04,37,147,42,7*75
$GAGSV,3,2,09,19,32,074,31,25,28,297,19,33,11,073,24,09,06,190,,7*7F
$GAGSV,3,3,09,36,02,278,,7*40
$GAGSV,2,1,07,10,49,349,44,12,46,028,36,24,44,230,42,04,37,147,43,1*79
$GAGSV,2,2,07,19,32,074,29,25,28,297,22,33,11,073,28,1*4C
$GBGSV,4,1,15,40,79,168,42,07,76,229,40,33,73,124,42,10,71,272,38,1*71
$GBGSV,4,2,15,08,56,282,,14,56,060,44,43,51,074,42,13,48,268,18,1*7A
$GBGSV,4,3,15,28,45,334,45,41,33,199,15,42,32,045,34,11,28,093,34,1*7D
$GBGSV,4,4,15,37,13,262,,23,12,212,,34,12,107,14,1*46
$GBGSV,2,1,07,40,79,168,45,33,73,124,46,43,51,074,37,28,45,334,44,4*79
$GBGSV,2,2,07,41,33,199,29,42,32,045,35,34,12,107,22,4*49
$GNGGA,041312.000,2500.7955929,N,12132.4373035,E,2,57,0.47,15.740,M,15.25,M,1,3335*4B
$GNRMC,041312.000,A,2500.7955929,N,12132.4373035,E,0.03,136.39,270623,,,D,V*08
$GPHDT,46.347,T*07
$GNGGA,041312.200,2500.7955809,N,12132.4372915,E,2,57,0.47,15.742,M,15.25,M,1,3335*42
$GNRMC,041312.200,A,2500.7955809,N,12132.4372915,E,0.04,136.39,270623,,,D,V*04
$GPHDT,46.362,T*00
$GNGGA,041312.400,2500.7955809,N,12132.4372795,E,2,58,0.47,15.740,M,15.25,M,1,3335*4F
$GNRMC,041312.400,A,2500.7955809,N,12132.4372795,E,0.02,136.39,270623,,,D,V*02
$GPHDT,45.900,T*0D
$GNGGA,041312.600,2500.7955689,N,12132.4372615,E,2,58,0.47,15.742,M,15.25,M,0,3335*41
$GNRMC,041312.600,A,2500.7955689,N,12132.4372615,E,0.03,136.39,270623,,,D,V*0E
$GPHDT,46.016,T*00
$GNGGA,041312.800,2500.7955569,N,12132.4372435,E,2,57,0.47,15.752,M,15.25,M,0,3335*4C
$GNRMC,041312.800,A,2500.7955569,N,12132.4372435,E,0.04,136.39,270623,,,D,V*0A
$GPHDT,46.721,T*03
$GNGSA,A,3,19,195,196,199,17,06,194,09,11,12,04,14,0.74,0.47,0.58,1*01
$GNGSA,A,3,68,67,83,82,69,80,,,,,,,0.74,0.47,0.58,2*06
$GNGSA,A,3,10,12,24,04,19,25,33,,,,,,0.74,0.47,0.58,3*01
$GNGSA,A,3,40,07,33,10,14,43,13,28,42,11,41,34,0.74,0.47,0.58,4*05
$GPGSV,4,1,15,19,71,055,43,195,68,048,43,196,67,122,40,50,60,167,39,1*67
$GPGSV,4,2,15,199,60,167,35,17,59,103,43,06,49,358,42,20,38,241,15,1*51
$GPGSV,4,3,15,194,36,173,43,09,36,090,25,11,32,298,25,12,20,309,19,1*58
$GPGSV,4,4,15,04,19,060,26,14,14,173,21,05,12,227,,1*59
$GPGSV,3,1,09,195,68,048,45,196,67,122,43,199,60,167,47,06,49,358,45,8*51
$GPGSV,3,2,09,09,36,090,39,194,36,173,45,11,32,298,33,04,19,060,25,8*58
$GPGSV,3,3,09,14,14,173,18,8*58
$GLGSV,2,1,07,68,63,131,40,67,39,044,39,83,38,357,29,82,36,056,32,1*76
$GLGSV,2,2,07,69,24,184,43,73,20,274,15,80,14,220,16,1*45
$GAGSV,3,1,09,10,49,349,43,12,46,028,38,24,44,230,39,04,37,147,37,7*76
$GAGSV,3,2,09,19,32,074,30,25,28,297,19,33,11,073,24,09,06,190,,7*7E
$GAGSV,3,3,09,36,02,278,,7*40
$GAGSV,2,1,07,10,49,349,44,12,46,028,36,24,44,230,41,04,37,147,38,1*76
$GAGSV,2,2,07,19,32,074,28,25,28,297,22,33,11,073,29,1*4C
$GBGSV,4,1,13,40,79,168,42,07,76,229,40,33,73,124,43,10,71,272,38,1*76
$GBGSV,4,2,13,14,56,060,44,43,51,074,42,13,48,268,18,28,45,334,45,1*71
$GBGSV,4,3,13,41,33,199,18,42,32,045,34,11,28,093,26,23,12,212,,1*78
$GBGSV,4,4,13,34,12,107,14,1*43
$GBGSV,2,1,07,40,79,168,45,33,73,124,46,43,51,074,36,28,45,334,44,4*78
$GBGSV,2,2,07,41,33,199,29,42,32,045,35,34,12,107,23,4*48
$GNGGA,041313.000,2500.7955509,N,12132.4372315,E,2,57,0.47,15.761,M,15.25,M,1,3335*47
$GNRMC,041313.000,A,2500.7955509,N,12132.4372315,E,0.04,136.39,270623,,,D,V*00
$GPHDT,46.734,T*07
$GNGGA,041313.200,2500.7955449,N,12132.4372195,E,2,57,0.47,15.768,M,15.25,M,1,3335*43
$GNRMC,041313.200,A,2500.7955449,N,12132.4372195,E,0.04,136.39,270623,,,D,V*0D
$GPHDT,46.912,T*0D
$GNGGA,041313.400,2500.7955389,N,12132.4372075,E,2,58,0.46,15.773,M,15.25,M,1,3335*45
$GNRMC,041313.400,A,2500.7955389,N,12132.4372075,E,0.02,136.39,270623,,,D,V*09
$GPHDT,46.792,T*0B
$GNGGA,041313.600,2500.7955269,N,12132.4371895,E,2,57,0.46,15.776,M,15.25,M,0,3335*46
$GNRMC,041313.600,A,2500.7955269,N,12132.4371895,E,0.02,136.39,270623,,,D,V*01
$GPHDT,46.671,T*07
$GNGGA,041313.800,2500.7955209,N,12132.4371775,E,2,58,0.45,15.781,M,15.25,M,0,3335*4B
$GNRMC,041313.800,A,2500.7955209,N,12132.4371775,E,0.02,136.39,270623,,,D,V*08
$GPHDT,47.094,T*0B
$GNGSA,A,3,19,195,196,199,17,06,20,194,09,11,12,14,0.72,0.45,0.57,1*0C
$GNGSA,A,3,04,,,,,,,,,,,,0.72,0.45,0.57,1*03
$GNGSA,A,3,68,67,83,82,69,73,80,,,,,,0.72,0.45,0.57,2*09
$GNGSA,A,3,10,12,24,04,19,25,33,,,,,,0.72,0.45,0.57,3*0A
$GNGSA,A,3,40,07,33,10,14,43,13,28,42,11,41,34,0.72,0.45,0.57,4*0E
$GPGSV,4,1,15,19,71,055,43,195,68,048,43,196,67,122,40,50,60,167,36,1*68
$GPGSV,4,2,15,199,60,167,33,17,59,103,43,06,49,358,42,20,38,241,17,1*55
$GPGSV,4,3,15,194,36,173,43,09,36,090,32,11,32,298,22,12,20,309,15,1*55
$GPGSV,4,4,15,04,19,060,24,14,14,173,23,05,12,227,15,1*5D
$GPGSV,3,1,09,195,68,048,45,196,67,122,44,199,60,167,46,06,49,358,45,8*57
$GPGSV,3,2,09,09,36,090,37,194,36,173,44,11,32,298,33,04,19,060,25,8*57
$GPGSV,3,3,09,14,14,173,18,8*58
$GLGSV,2,1,08,68,63,131,39,67,39,044,39,83,38,357,28,82,36,056,33,1*77
$GLGSV,2,2,08,69,24,184,43,73,20,274,15,80,14,220,15,84,03,305,,1*70
$GAGSV,3,1,09,10,49,349,43,12,46,028,38,24,44,230,39,04,37,147,34,7*75
$GAGSV,3,2,09,19,32,074,31,25,28,297,19,33,11,073,21,09,06,190,,7*7A
$GAGSV,3,3,09,36,02,278,,7*40
$GAGSV,2,1,07,10,49,349,44,12,46,028,36,24,44,230,42,04,37,147,40,1*7A
$GAGSV,2,2,07,19,32,074,29,25,28,297,21,33,11,073,27,1*40
$GBGSV,4,1,15,40,79,168,42,07,76,229,40,33,73,124,43,10,71,272,38,1*70
$GBGSV,4,2,15,08,56,282,,14,56,060,44,43,51,074,41,13,48,268,15,1*74
$GBGSV,4,3,15,28,45,334,45,41,33,199,14,42,32,045,33,11,28,093,35,1*7A
$GBGSV,4,4,15,37,13,262,,34,12,107,17,23,12,212,,1*45
$GBGSV,2,1,07,40,79,168,45,33,73,124,46,43,51,074,36,28,45,334,45,4*79
$GBGSV,2,2,07,41,33,199,29,42,32,045,36,34,12,107,24,4*4C
$GNGGA,041314.000,2500.7955149,N,12132.4371655,E,2,58,0.45,15.791,M,15.25,M,1,3335*40
$GNRMC,041314.000,A,2500.7955149,N,12132.4371655,E,0.01,136.39,270623,,,D,V*00
$GPHDT,46.769,T*0F
$GNGGA,041314.200,2500.7955089,N,12132.4371595,E,2,59,0.45,15.798,M,15.25,M,1,3335*48
$GNRMC,041314.200,A,2500.7955089,N,12132.4371595,E,0.01,136.39,270623,,,D,V*00
$GPHDT,47.763,T*04
$GNGGA,041314.400,2500.7955029,N,12132.4371475,E,2,60,0.45,15.808,M,15.25,M,1,3335*47
$GNRMC,041314.400,A,2500.7955029,N,12132.4371475,E,0.02,136.39,270623,,,D,V*00
$GPHDT,48.020,T*0B
$GNGGA,041314.600,2500.7954969,N,12132.4371355,E,2,60,0.45,15.817,M,15.25,M,0,3335*43
$GNRMC,041314.600,A,2500.7954969,N,12132.4371355,E,0.02,136.39,270623,,,D,V*0B
$GPHDT,48.049,T*04
$GNGGA,041314.800,2500.7954909,N,12132.4371175,E,2,59,0.45,15.834,M,15.25,M,0,3335*40
$GNRMC,041314.800,A,2500.7954909,N,12132.4371175,E,0.02,136.39,270623,,,D,V*03
$GPHDT,48.671,T*09
$GNGSA,A,3,19,195,196,199,17,06,20,194,09,11,12,04,0.73,0.45,0.57,1*0C
$GNGSA,A,3,14,,,,,,,,,,,,0.73,0.45,0.57,1*03
$GNGSA,A,3,68,67,83,82,69,73,80,,,,,,0.73,0.45,0.57,2*08
$GNGSA,A,3,10,12,24,04,19,25,33,,,,,,0.73,0.45,0.57,3*0B
$GNGSA,A,3,40,07,33,10,14,43,28,42,11,41,34,,0.73,0.45,0.57,4*0D
$GPGSV,4,1,15,19,71,055,43,195,68,048,43,196,67,122,40,50,60,167,37,1*69
$GPGSV,4,2,15,199,60,167,34,17,59,103,42,06,49,358,42,20,38,241,19,1*5D
$GPGSV,4,3,15,194,36,173,44,09,36,090,24,11,32,298,22,12,20,309,18,1*58
$GPGSV,4,4,15,04,19,060,24,14,14,173,22,05,12,227,15,1*5C
$GPGSV,3,1,09,195,68,048,45,196,67,122,43,199,60,167,46,06,49,358,45,8*50
$GPGSV,3,2,09,09,36,090,37,194,36,173,45,11,32,298,33,04,19,060,25,8*56
$GPGSV,3,3,09,14,14,173,17,8*57
$GLGSV,2,1,07,68,63,131,39,67,39,044,39,83,38,357,28,82,36,056,32,1*79
$GLGSV,2,2,07,69,24,184,42,73,20,274,16,80,14,220,15,1*44
$GAGSV,3,1,09,10,49,349,43,12,46,028,38,24,44,230,39,04,37,147,33,7*72
$GAGSV,3,2,09,19,32,074,30,25,28,297,18,33,11,073,23,09,06,190,,7*78
$GAGSV,3,3,09,36,02,278,,7*40
$GAGSV,2,1,07,10,49,349,44,12,46,028,36,24,44,230,41,04,37,147,39,1*77
$GAGSV,2,2,07,19,32,074,29,25,28,297,21,33,11,073,28,1*4F
$GBGSV,4,1,16,40,79,168,42,07,76,229,41,33,73,124,43,10,71,272,38,1*72
$GBGSV,4,2,16,08,56,282,,14,56,060,44,43,51,074,42,13,48,268,13,1*72
$GBGSV,4,3,16,28,45,334,45,41,33,199,17,42,32,045,33,11,28,093,29,1*77
$GBGSV,4,4,16,37,13,262,,23,12,212,,34,12,107,15,58,,,38,1*42
$GBGSV,2,1,07,40,79,168,46,33,73,124,46,43,51,074,36,28,45,334,44,4*7B
$GBGSV,2,2,07,41,33,199,29,42,32,045,36,34,12,107,25,4*4D
$GNGGA,041315.000,2500.7954849,N,12132.4371055,E,2,59,0.45,15.851,M,15.25,M,1,3335*4D
$GNRMC,041315.000,A,2500.7954849,N,12132.4371055,E,0.03,136.39,270623,,,D,V*0D
$GPHDT,47.264,T*06
$GNGGA,041315.200,2500.7954789,N,12132.4370935,E,2,58,0.45,15.862,M,15.25,M,1,3335*43
$GNRMC,041315.200,A,2500.7954789,N,12132.4370935,E,0.01,136.39,270623,,,D,V*00
$GPHDT,46.673,T*05
$GNGGA,041315.400,2500.7954729,N,12132.4370815,E,2,58,0.47,15.870,M,15.25,M,1,3335*4D
$GNRMC,041315.400,A,2500.7954729,N,12132.4370815,E,0.01,136.39,270623,,,D,V*0F
$GPHDT,47.097,T*08
$GNGGA,041315.600,2500.7954669,N,12132.4370695,E,2,57,0.47,15.878,M,15.25,M,0,3335*4A
$GNRMC,041315.600,A,2500.7954669,N,12132.4370695,E,0.01,136.39,270623,,,D,V*0E
$GPHDT,46.277,T*05
$GNGGA,041315.800,2500.7954609,N,12132.4370635,E,2,56,0.48,15.886,M,15.25,M,0,3335*47
$GNRMC,041315.800,A,2500.7954609,N,12132.4370635,E,0.01,136.39,270623,,,D,V*0C
$GPHDT,46.504,T*06
$GNGSA,A,3,19,195,196,199,17,06,20,194,09,11,04,14,0.77,0.48,0.60,1*07
$GNGSA,A,3,68,67,83,82,69,73,,,,,,,0.77,0.48,0.60,2*0D
$GNGSA,A,3,10,12,24,04,19,25,33,,,,,,0.77,0.48,0.60,3*06
$GNGSA,A,3,40,07,33,10,14,43,28,41,42,11,34,,0.77,0.48,0.60,4*00
$GPGSV,4,1,15,19,71,055,43,195,68,048,43,196,67,122,40,50,60,167,39,1*67
$GPGSV,4,2,15,199,60,167,37,17,59,103,42,06,49,358,42,20,38,241,20,1*54
$GPGSV,4,3,15,194,36,173,44,09,36,090,30,11,32,298,22,12,20,309,22,1*54
$GPGSV,4,4,15,04,19,060,22,14,14,173,21,05,12,227,15,1*59
$GPGSV,3,1,09,195,68,048,45,196,67,122,43,199,60,167,47,06,49,358,45,8*51
$GPGSV,3,2,09,09,36,090,39,194,36,173,45,11,32,298,33,04,19,060,26,8*5B
$GPGSV,3,3,09,14,14,173,13,8*53
$GLGSV,2,1,08,68,63,131,38,67,39,044,38,83,38,357,28,82,36,056,30,1*74
$GLGSV,2,2,08,69,24,184,43,73,20,274,16,80,14,220,15,74,07,316,,1*7A
$GAGSV,2,1,08,10,49,349,44,12,46,028,38,24,44,230,40,04,37,147,35,7*7D
$GAGSV,2,2,08,19,32,074,31,25,28,297,18,33,11,073,21,09,06,190,,7*7B
$GAGSV,2,1,07,10,49,349,44,12,46,028,35,24,44,230,41,04,37,147,37,1*7A
$GAGSV,2,2,07,19,32,074,29,25,28,297,21,33,11,073,28,1*4F
$GBGSV,4,1,15,40,79,168,42,07,76,229,40,33,73,124,43,10,71,272,38,1*70
$GBGSV,4,2,15,08,56,282,,14,56,060,44,43,51,074,42,13,48,268,14,1*76
$GBGSV,4,3,15,28,45,334,45,41,33,199,17,42,32,045,31,11,28,093,31,1*7F
$GBGSV,4,4,15,37,13,262,,23,12,212,,34,12,107,,1*43
$GBGSV,2,1,07,40,79,168,46,33,73,124,46,43,51,074,36,28,45,334,44,4*7B
$GBGSV,2,2,07,41,33,199,28,42,32,045,36,34,12,107,26,4*4F
$GNGGA,041316.000,2500.7954549,N,12132.4370575,E,2,57,0.48,15.894,M,15.25,M,1,3335*4F
$GNRMC,041316.000,A,2500.7954549,N,12132.4370575,E,0.02,136.39,270623,,,D,V*04
$GPHDT,46.219,T*0D
$GNGGA,041316.200,2500.7954489,N,12132.4370515,E,2,56,0.48,15.900,M,15.25,M,1,3335*4B
$GNRMC,041316.200,A,2500.7954489,N,12132.4370515,E,0.01,136.39,270623,,,D,V*0E
$GPHDT,46.279,T*0B
$GNGGA,041316.400,2500.7954429,N,12132.4370455,E,2,57,0.47,15.906,M,15.25,M,1,3335*4A
$GNRMC,041316.400,A,2500.7954429,N,12132.4370455,E,0.01,136.39,270623,,,D,V*07
$GPHDT,46.435,T*05
$GNGGA,041316.600,2500.7954369,N,12132.4370395,E,2,57,0.47,15.912,M,15.25,M,0,3335*44
$GNRMC,041316.600,A,2500.7954369,N,12132.4370395,E,0.02,136.39,270623,,,D,V*0E
$GPHDT,46.470,T*04
$GNGGA,041316.800,2500.7954309,N,12132.4370335,E,2,56,0.47,15.917,M,15.25,M,0,3335*42
$GNRMC,041316.800,A,2500.7954309,N,12132.4370335,E,0.02,136.39,270623,,,D,V*0C
$GPHDT,46.366,T*04
$GNGSA,A,3,19,195,196,199,17,06,20,09,194,12,04,14,0.75,0.47,0.59,1*03
$GNGSA,A,3,11,,,,,,,,,,,,0.75,0.47,0.59,1*0C
$GNGSA,A,3,68,67,83,82,69,73,,,,,,,0.75,0.47,0.59,2*0A
$GNGSA,A,3,10,12,24,04,19,25,33,,,,,,0.75,0.47,0.59,3*01
$GNGSA,A,3,40,07,33,10,14,43,28,41,42,11,34,,0.75,0.47,0.59,4*07
$GPGSV,4,1,15,19,71,055,43,195,68,048,43,196,67,122,40,50,60,167,40,1*69
$GPGSV,4,2,15,199,60,167,37,17,59,103,41,06,49,358,42,20,38,241,20,1*57
$GPGSV,4,3,15,09,36,090,31,194,36,173,44,11,32,298,20,12,20,309,21,1*54
$GPGSV,4,4,15,04,19,060,24,14,14,173,22,05,12,227,15,1*5C
$GPGSV,3,1,09,195,68,048,45,196,67,122,43,199,60,167,47,06,49,358,45,8*51
$GPGSV,3,2,09,09,36,090,40,194,36,173,45,11,32,298,33,04,19,060,26,8*55
$GPGSV,3,3,09,14,14,173,14,8*54
$GLGSV,2,1,07,68,63,131,39,67,39,044,37,83,38,357,29,82,36,056,30,1*74
$GLGSV,2,2,07,69,24,184,43,73,20,274,16,80,14,220,16,1*46
$GAGSV,2,1,08,10,49,349,44,12,46,028,38,24,44,230,40,04,37,147,35,7*7D
$GAGSV,2,2,08,19,32,074,31,25,28,297,18,33,11,073,21,09,06,190,,7*7B
$GAGSV,2,1,07,10,49,349,44,12,46,028,35,24,44,230,42,04,37,147,37,1*79
$GAGSV,2,2,07,19,32,074,29,25,28,297,21,33,11,073,28,1*4F
$GBGSV,4,1,15,40,79,168,42,07,76,229,40,33,73,124,43,10,71,272,39,1*71
$GBGSV,4,2,15,14,56,060,44,08,56,282,,43,51,074,42,13,48,268,14,1*76
$GBGSV,4,3,15,28,45,334,45,41,33,199,16,42,32,045,31,11,28,093,31,1*7E
$GBGSV,4,4,15,37,13,262,,34,12,107,,23,12,212,,1*43
$GBGSV,2,1,07,40,79,168,46,33,73,124,46,43,51,074,36,28,45,334,44,4*7B
$GBGSV,2,2,07,41,33,199,28,42,32,045,36,34,12,107,27,4*4E
$GNGGA,041317.000,2500.7954249,N,12132.4370275,E,2,58,0.47,15.923,M,15.25,M,1,3335*43
$GNRMC,041317.000,A,2500.7954249,N,12132.4370275,E,0.02,136.39,270623,,,D,V*05
$GPHDT,46.414,T*06
$GNGGA,041317.200,2500.7954189,N,12132.4370275,E,2,56,0.47,15.927,M,15.25,M,1,3335*44
$GNRMC,041317.200,A,2500.7954189,N,12132.4370275,E,0.02,136.39,270623,,,D,V*08
$GPHDT,46.096,T*08
$GNGGA,041317.400,2500.7954129,N,12132.4370215,E,2,58,0.47,15.931,M,15.25,M,1,3335*47
$GNRMC,041317.400,A,2500.7954129,N,12132.4370215,E,0.01,136.39,270623,,,D,V*01
$GPHDT,46.233,T*05
$GNGGA,041317.600,2500.7954069,N,12132.4370215,E,2,57,0.47,15.939,M,15.25,M,0,3335*46
$GNRMC,041317.600,A,2500.7954069,N,12132.4370215,E,0.01,136.39,270623,,,D,V*06
$GPHDT,46.137,T*02
$GNGGA,041317.800,2500.7954009,N,12132.4370215,E,2,58,0.47,15.946,M,15.25,M,0,3335*49
$GNRMC,041317.800,A,2500.7954009,N,12132.4370215,E,0.02,136.39,270623,,,D,V*0D
$GPHDT,45.937,T*09
$GNGSA,A,3,19,195,196,199,17,06,20,09,194,11,12,04,0.75,0.47,0.59,1*06
$GNGSA,A,3,14,,,,,,,,,,,,0.75,0.47,0.59,1*09
$GNGSA,A,3,68,67,83,82,69,73,,,,,,,0.75,0.47,0.59,2*0A
$GNGSA,A,3,10,12,24,04,19,25,33,,,,,,0.75,0.47,0.59,3*01
$GNGSA,A,3,40,07,33,10,14,43,28,41,42,11,34,,0.75,0.47,0.59,4*07
$GPGSV,4,1,15,19,71,055,43,195,68,048,43,196,67,122,40,50,60,167,40,1*69
$GPGSV,4,2,15,199,60,167,37,17,59,103,41,06,49,359,42,20,38,241,20,1*56
$GPGSV,4,3,15,09,36,090,33,194,36,173,44,11,32,298,20,12,20,309,20,1*57
$GPGSV,4,4,15,04,19,060,24,14,14,173,22,05,13,227,15,1*5D
$GPGSV,3,1,09,195,68,048,45,196,67,122,43,199,60,167,47,06,49,359,46,8*53
$GPGSV,3,2,09,09,36,090,40,194,36,173,45,11,32,298,33,04,19,060,27,8*54
$GPGSV,3,3,09,14,14,173,15,8*55
$GLGSV,2,1,07,68,63,131,39,67,39,044,36,83,38,357,29,82,36,056,30,1*75
$GLGSV,2,2,07,69,24,184,43,73,20,274,16,80,14,220,14,1*44
$GAGSV,2,1,08,10,49,349,44,12,46,028,38,24,44,230,39,04,37,147,35,7*73
$GAGSV,2,2,08,19,32,074,31,25,28,297,17,33,11,073,21,09,06,190,,7*74
$GAGSV,2,1,07,10,49,349,44,12,46,028,35,24,44,230,42,04,37,147,36,1*78
$GAGSV,2,2,07,19,32,074,29,25,28,297,23,33,11,073,28,1*4D
$GBGSV,4,1,15,40,79,168,42,07,76,229,40,33,73,124,44,10,71,272,39,1*76
$GBGSV,4,2,15,14,56,060,44,08,56,282,,43,51,074,42,13,48,268,13,1*71
$GBGSV,4,3,15,28,45,334,45,41,33,199,16,42,32,045,31,11,28,093,31,1*7E
$GBGSV,4,4,15,37,13,262,,34,12,107,,23,12,212,,1*43
$GBGSV,2,1,07,40,79,168,46,33,73,124,46,43,51,074,37,28,45,334,44,4*7A
$GBGSV,2,2,07,41,33,199,28,42,32,045,36,34,12,107,27,4*4E
$GNGGA,041318.000,2500.7954009,N,12132.4370215,E,2,59,0.47,15.950,M,15.25,M,1,3335*49
$GNRMC,041318.000,A,2500.7954009,N,12132.4370215,E,0.04,136.39,270623,,,D,V*0C
$GPHDT,46.686,T*0F
$GNGGA,041318.200,2500.7953404,N,12132.4377568,E,4,58,0.47,15.966,M,15.25,M,1,3335*4D
$GNRMC,041318.200,A,2500.7953404,N,12132.4377568,E,0.04,136.39,270623,,,R,V*1C
$GPHDT,47.015,T*02
$GNGGA,041318.400,2500.7953373,N,12132.4377531,E,4,58,0.47,15.975,M,15.25,M,1,3335*42
$GNRMC,041318.400,A,2500.7953373,N,12132.4377531,E,0.04,136.39,270623,,,R,V*11
$GPHDT,46.751,T*04
$GNGGA,041318.600,2500.7953393,N,12132.4377508,E,4,59,0.47,15.966,M,15.25,M,0,3335*46
$GNRMC,041318.600,A,2500.7953393,N,12132.4377508,E,0.03,136.39,270623,,,R,V*10
$GPHDT,46.782,T*0A
$GNGGA,041318.800,2500.7953368,N,12132.4377510,E,4,59,0.47,15.964,M,15.25,M,0,3335*47
$GNRMC,041318.800,A,2500.7953368,N,12132.4377510,E,0.03,136.39,270623,,,R,V*13
$GPHDT,46.282,T*0F
$GNGSA,A,3,19,195,196,199,17,06,20,194,09,11,12,04,0.75,0.47,0.59,1*06
$GNGSA,A,3,14,,,,,,,,,,,,0.75,0.47,0.59,1*09
$GNGSA,A,3,68,67,83,82,69,73,,,,,,,0.75,0.47,0.59,2*0A
$GNGSA,A,3,10,12,24,04,19,25,33,,,,,,0.75,0.47,0.59,3*01
$GNGSA,A,3,40,07,33,10,14,43,28,41,42,11,34,,0.75,0.47,0.59,4*07
$GPGSV,4,1,15,19,71,055,43,195,68,048,43,196,67,122,40,50,60,167,40,1*69
$GPGSV,4,2,15,199,60,167,38,17,59,103,41,06,49,359,41,20,38,241,19,1*50
$GPGSV,4,3,15,194,36,173,44,09,36,090,36,11,32,298,24,12,20,309,20,1*56
$GPGSV,4,4,15,04,19,060,24,14,14,173,22,05,13,227,14,1*5C
$GPGSV,3,1,09,195,68,048,45,196,67,122,43,199,60,167,47,06,49,359,46,8*53
$GPGSV,3,2,09,09,36,090,39,194,36,173,45,11,32,298,33,04,19,060,27,8*5A
$GPGSV,3,3,09,14,14,173,15,8*55
$GLGSV,2,1,08,68,63,131,39,67,39,044,36,83,38,357,30,82,36,056,30,1*72
$GLGSV,2,2,08,69,24,184,43,73,20,274,15,80,14,220,13,84,03,305,,1*76
$GAGSV,2,1,08,10,49,349,44,12,46,028,38,24,44,230,39,04,37,147,35,7*73
$GAGSV,2,2,08,19,32,074,33,25,28,297,18,33,11,073,19,09,06,190,,7*72
$GAGSV,2,1,07,10,49,349,44,12,46,028,35,24,44,230,41,04,37,147,37,1*7A
$GAGSV,2,2,07,19,32,074,30,25,28,297,23,33,11,073,26,1*4B
$GBGSV,4,1,15,40,79,168,42,07,76,229,40,33,73,124,44,10,71,272,38,1*77
$GBGSV,4,2,15,08,56,282,,14,56,060,44,43,51,074,44,13,48,268,14,1*70
$GBGSV,4,3,15,28,45,334,45,41,33,199,16,42,32,045,28,11,28,093,30,1*77
$GBGSV,4,4,15,37,13,262,,23,12,212,,34,12,107,,1*43
$GBGSV,2,1,07,40,79,168,46,33,73,124,46,43,51,074,40,28,45,334,43,4*7D
$GBGSV,2,2,07,41,33,199,28,42,32,045,33,34,12,107,26,4*4A
$GNGGA,041319.000,2500.7953369,N,12132.4377538,E,4,59,0.47,15.970,M,15.25,M,1,3335*41
$GNRMC,041319.000,A,2500.7953369,N,12132.4377538,E,0.02,136.39,270623,,,R,V*10
$GPHDT,46.413,T*01
$GNGGA,041319.200,2500.7953369,N,12132.4377490,E,4,58,0.47,15.958,M,15.25,M,1,3335*4B
$GNRMC,041319.200,A,2500.7953369,N,12132.4377490,E,0.01,136.39,270623,,,R,V*12
$GPHDT,46.719,T*08
$GNGGA,041319.400,2500.7953366,N,12132.4377507,E,4,58,0.47,15.962,M,15.25,M,1,3335*44
$GNRMC,041319.400,A,2500.7953366,N,12132.4377507,E,0.03,136.39,270623,,,R,V*16
$GPHDT,46.550,T*07
$GNGGA,041319.600,2500.7953365,N,12132.4377515,E,4,58,0.47,15.969,M,15.25,M,1,3335*4D
$GNRMC,041319.600,A,2500.7953365,N,12132.4377515,E,0.04,136.39,270623,,,R,V*13
$GPHDT,46.669,T*0E
$GNGGA,041319.800,2500.7953395,N,12132.4377504,E,4,57,0.47,15.979,M,15.25,M,0,3335*43
$GNRMC,041319.800,A,2500.7953395,N,12132.4377504,E,0.04,136.39,270623,,,R,V*12
$GPHDT,46.614,T*04
$GNGSA,A,3,19,195,196,199,17,06,20,194,09,11,12,14,0.75,0.47,0.59,1*07
$GNGSA,A,3,04,,,,,,,,,,,,0.75,0.47,0.59,1*08
$GNGSA,A,3,68,67,83,82,69,73,,,,,,,0.75,0.47,0.59,2*0A
$GNGSA,A,3,10,12,24,04,19,25,33,,,,,,0.75,0.47,0.59,3*01
$GNGSA,A,3,40,07,33,10,14,43,28,41,42,11,34,,0.75,0.47,0.59,4*07
$GPGSV,4,1,15,19,71,055,43,195,68,048,43,196,67,122,40,50,60,167,40,1*69
$GPGSV,4,2,15,199,60,167,38,17,59,103,41,06,49,359,41,20,38,241,19,1*50
$GPGSV,4,3,15,194,36,173,44,09,36,090,37,11,32,298,23,12,20,309,23,1*53
$GPGSV,4,4,15,04,19,060,20,14,14,173,20,05,13,227,13,1*5D
$GPGSV,3,1,09,195,68,048,45,196,67,122,43,199,60,167,47,06,49,359,46,8*53
$GPGSV,3,2,09,09,36,090,39,194,36,173,45,11,32,298,34,04,19,060,27,8*5D
$GPGSV,3,3,09,14,14,173,14,8*54
$GLGSV,2,1,07,68,63,131,39,67,39,044,36,83,38,357,29,82,36,056,31,1*74
$GLGSV,2,2,07,69,24,184,43,73,20,274,14,80,14,220,14,1*46
$GAGSV,3,1,09,10,49,349,44,12,46,028,38,24,44,230,38,04,37,147,31,7*76
$GAGSV,3,2,09,19,32,074,33,25,28,297,19,33,11,073,19,09,06,190,,7*73
$GAGSV,3,3,09,36,02,278,,7*40
$GAGSV,2,1,07,10,49,349,44,12,46,028,35,24,44,230,40,04,37,147,37,1*7B
$GAGSV,2,2,07,19,32,074,30,25,28,297,22,33,11,073,26,1*4A
$GBGSV,4,1,15,40,79,168,42,07,76,229,40,33,73,124,43,10,71,272,37,1*7F
$GBGSV,4,2,15,08,56,282,,14,56,060,44,43,51,074,44,13,48,268,13,1*77
$GBGSV,4,3,15,28,45,334,45,41,33,199,15,42,32,045,24,11,28,093,30,1*78
$GBGSV,4,4,15,37,13,262,,23,12,212,,34,12,107,,1*43
$GBGSV,2,1,07,40,79,168,46,33,73,124,46,43,51,074,39,28,45,334,43,4*73
$GBGSV,2,2,07,41,33,199,28,42,32,045,31,34,12,107,25,4*4B
$GNGGA,041320.000,2500.7953393,N,12132.4377535,E,4,58,0.47,15.976,M,15.25,M,1,3335*44
$GNRMC,041320.000,A,2500.7953393,N,12132.4377535,E,0.03,136.39,270623,,,R,V*13
$GPHDT,46.588,T*02
$GNGGA,041320.200,2500.7953383,N,12132.4377500,E,4,58,0.47,15.964,M,15.25,M,1,3335*42
$GNRMC,041320.200,A,2500.7953383,N,12132.4377500,E,0.02,136.39,270623,,,R,V*17
$GPHDT,46.605,T*04
$GNGGA,041320.400,2500.7953385,N,12132.4377520,E,4,56,0.47,15.965,M,15.25,M,1,3335*4F
$GNRMC,041320.400,A,2500.7953385,N,12132.4377520,E,0.03,136.39,270623,,,R,V*14
$GPHDT,46.665,T*02
$GNGGA,041320.600,2500.7953398,N,12132.4377537,E,4,57,0.47,15.979,M,15.25,M,1,3335*4B
$GNRMC,041320.600,A,2500.7953398,N,12132.4377537,E,0.02,136.39,270623,,,R,V*1D
$GPHDT,46.491,T*0B
$GNGGA,041320.800,2500.7953372,N,12132.4377528,E,4,57,0.47,15.962,M,15.25,M,0,3335*44
$GNRMC,041320.800,A,2500.7953372,N,12132.4377528,E,0.03,136.39,270623,,,R,V*18
