$FW : RTK35X,V1.1X0314AS,Lib20210517,1*54
$Tool : LOCOSYS , GNSS Firebird , v1.0.0.19*39
$---------------------------------------------------*2D
$GPHDT,89.367,T*06
$GNGGA,041654.800,2500.7953300,N,12132.4377429,E,4,58,0.48,15.979,M,15.25,M,0,3335*4D
$GNRMC,041654.800,A,2500.7953300,N,12132.4377429,E,0.00,341.24,270623,,,R,V*16
$GPHDT,89.289,T*07
$GNGSA,A,3,19,195,196,199,17,06,09,194,11,12,04,14,0.90,0.50,0.75,1*02
$GNGSA,A,3,68,83,67,82,69,,,,,,,,0.90,0.50,0.75,2*0D
$GNGSA,A,3,10,12,24,04,19,25,33,,,,,,0.90,0.50,0.75,3*02
$GNGSA,A,3,40,07,33,10,14,43,28,41,42,11,34,,0.90,0.50,0.75,4*04
$GPGSV,4,1,15,19,72,061,42,195,68,048,42,196,68,121,40,50,60,167,38,1*6E
$GPGSV,4,2,15,199,60,167,36,17,58,106,42,06,49,001,45,20,39,243,17,1*5E
$GPGSV,4,3,15,09,37,088,43,194,35,173,40,11,33,300,28,12,21,308,32,1*55
$GPGSV,4,4,15,04,19,059,25,05,14,228,18,14,13,173,12,1*57
$GPGSV,3,1,09,196,68,121,44,195,68,048,44,199,60,167,44,06,49,001,49,8*5B
$GPGSV,3,2,09,09,37,088,42,194,35,173,43,11,33,300,38,04,19,059,26,8*5A
$GPGSV,3,3,09,14,13,173,17,8*50
$GLGSV,2,1,08,68,65,127,39,83,39,359,31,67,38,042,35,82,36,058,22,1*74
$GLGSV,2,2,08,69,26,184,39,73,19,272,15,80,12,218,17,74,07,315,,1*76
$GAGSV,2,1,08,10,49,351,41,12,45,030,36,24,43,229,40,04,38,146,35,7*74
$GAGSV,2,2,08,19,32,072,27,25,29,296,18,33,10,075,21,36,03,279,,7*70
$GAGSV,2,1,07,10,49,351,43,12,45,030,36,24,43,229,41,04,38,146,40,1*7C
$GAGSV,2,2,07,19,32,072,30,25,29,296,29,33,10,075,18,1*4D
$GBGSV,4,1,15,40,78,171,43,07,75,227,39,33,74,119,43,10,71,270,39,1*71
$GBGSV,4,2,15,08,56,284,15,14,55,058,44,43,51,076,46,13,48,270,,1*76
$GBGSV,4,3,15,28,46,335,44,41,35,199,22,42,31,044,36,11,27,095,39,1*78
$GBGSV,4,4,15,37,12,261,,23,11,211,,34,11,108,21,1*4E
$GBGSV,2,1,07,40,78,171,45,33,74,119,45,43,51,076,44,28,46,335,44,4*7E
$GBGSV,2,2,07,41,35,199,21,42,31,044,33,34,11,108,22,4*4F
$GNGGA,041655.000,2500.7953297,N,12132.4377466,E,4,57,0.50,15.984,M,15.25,M,1,3335*45
$GNRMC,041655.000,A,2500.7953297,N,12132.4377466,E,0.00,341.24,270623,,,R,V*1B
$GPHDT,89.422,T*00
$GNGGA,041655.200,2500.7953292,N,12132.4377435,E,4,58,0.48,15.964,M,15.25,M,1,3335*4C
$GNRMC,041655.200,A,2500.7953292,N,12132.4377435,E,0.00,341.24,270623,,,R,V*1A
$GPHDT,89.758,T*0E
$GNGGA,041655.400,2500.7953335,N,12132.4377389,E,4,57,0.50,15.976,M,15.25,M,1,3335*43
$GNRMC,041655.400,A,2500.7953335,N,12132.4377389,E,0.00,341.24,270623,,,R,V*10
$GPHDT,89.992,T*06
$GNGGA,041655.600,2500.7953320,N,12132.4377393,E,4,57,0.50,15.983,M,15.25,M,1,3335*44
$GNRMC,041655.600,A,2500.7953320,N,12132.4377393,E,0.00,341.24,270623,,,R,V*1D
$GPHDT,90.002,T*0E
$GNGGA,041655.800,2500.7953349,N,12132.4377395,E,4,56,0.48,15.961,M,15.25,M,0,3335*46
$GNRMC,041655.800,A,2500.7953349,N,12132.4377395,E,0.00,341.24,270623,,,R,V*1A
$GPHDT,90.124,T*0B
$GNGSA,A,3,19,195,196,199,17,06,20,09,194,11,12,04,0.89,0.48,0.75,1*04
$GNGSA,A,3,14,,,,,,,,,,,,0.89,0.48,0.75,1*0B
$GNGSA,A,3,68,83,67,82,69,,,,,,,,0.89,0.48,0.75,2*0C
$GNGSA,A,3,10,12,24,04,19,25,33,,,,,,0.89,0.48,0.75,3*03
$GNGSA,A,3,40,07,33,10,14,43,28,41,42,11,34,,0.89,0.48,0.75,4*05
$GPGSV,4,1,15,19,72,061,42,195,68,048,42,196,68,121,40,50,60,167,38,1*6E
$GPGSV,4,2,15,199,60,167,36,17,58,106,42,06,49,001,45,20,39,243,16,1*5F
$GPGSV,4,3,15,09,37,088,43,194,35,173,40,11,33,300,28,12,21,308,32,1*55
$GPGSV,4,4,15,04,19,059,25,05,14,228,18,14,13,173,13,1*56
$GPGSV,3,1,09,196,68,121,44,195,68,048,44,199,60,167,44,06,49,001,49,8*5B
$GPGSV,3,2,09,09,37,088,42,194,35,173,43,11,33,300,38,04,19,059,25,8*59
$GPGSV,3,3,09,14,13,173,17,8*50
$GLGSV,2,1,07,68,65,127,39,83,39,359,31,67,38,042,35,82,36,058,23,1*7A
$GLGSV,2,2,07,69,26,184,40,73,19,272,15,80,12,218,16,1*45
$GAGSV,3,1,09,10,49,351,41,12,45,030,36,24,43,229,40,04,38,146,35,7*74
$GAGSV,3,2,09,19,32,072,28,25,29,296,18,33,10,075,22,09,07,189,,7*78
$GAGSV,3,3,09,36,03,279,,7*40
$GAGSV,2,1,06,10,49,351,43,12,45,030,36,24,43,229,42,04,38,146,40,1*7E
$GAGSV,2,2,06,19,32,072,30,25,29,296,29,1*76
$GBGSV,4,1,15,40,78,171,43,07,75,227,39,33,74,119,43,10,71,270,39,1*71
$GBGSV,4,2,15,08,56,284,15,14,55,058,44,43,51,076,46,13,48,270,,1*76
$GBGSV,4,3,15,28,46,335,44,41,35,199,21,42,31,044,36,11,27,095,39,1*7B
$GBGSV,4,4,15,37,12,261,,23,11,211,,34,11,108,18,1*44
$GBGSV,2,1,07,40,78,171,45,33,74,119,46,43,51,076,44,28,46,335,44,4*7D
$GBGSV,2,2,07,41,35,199,22,42,31,044,33,34,11,108,22,4*4C
$GNGGA,041656.000,2500.7953341,N,12132.4377395,E,4,57,0.48,15.965,M,15.25,M,1,3335*41
$GNRMC,041656.000,A,2500.7953341,N,12132.4377395,E,0.00,341.24,270623,,,R,V*19
$GPHDT,89.935,T*0B
$GNGGA,041656.200,2500.7953347,N,12132.4377411,E,4,57,0.48,15.961,M,15.25,M,1,3335*4A
$GNRMC,041656.200,A,2500.7953347,N,12132.4377411,E,0.00,341.24,270623,,,R,V*16
$GPHDT,89.865,T*0F
$GNGGA,041656.400,2500.7953350,N,12132.4377403,E,4,57,0.50,15.971,M,15.25,M,1,3335*41
$GNRMC,041656.400,A,2500.7953350,N,12132.4377403,E,0.00,341.24,270623,,,R,V*15
$GPHDT,90.136,T*08
$GNGGA,041656.600,2500.7953387,N,12132.4377404,E,4,58,0.48,15.984,M,15.25,M,0,3335*43
$GNRMC,041656.600,A,2500.7953387,N,12132.4377404,E,0.00,341.24,270623,,,R,V*1A
$GPHDT,90.128,T*07
$GNGGA,041656.800,2500.7953389,N,12132.4377411,E,4,57,0.48,15.981,M,15.25,M,0,3335*4D
$GNRMC,041656.800,A,2500.7953389,N,12132.4377411,E,0.00,341.24,270623,,,R,V*1E
$GPHDT,90.167,T*0C
$GNGSA,A,3,19,195,196,199,17,06,09,194,11,12,04,,0.95,0.52,0.80,1*0A
$GNGSA,A,3,68,83,67,82,69,,,,,,,,0.95,0.52,0.80,2*00
$GNGSA,A,3,10,12,24,04,19,25,33,,,,,,0.95,0.52,0.80,3*0F
$GNGSA,A,3,40,07,33,10,14,43,28,41,42,11,34,,0.95,0.52,0.80,4*09
$GPGSV,4,1,15,19,72,061,42,195,68,048,42,196,68,121,40,50,60,167,38,1*6E
$GPGSV,4,2,15,199,60,167,36,17,58,106,42,06,49,001,45,20,39,243,16,1*5F
$GPGSV,4,3,15,09,37,088,43,194,35,173,40,11,33,300,26,12,21,308,32,1*5B
$GPGSV,4,4,15,04,19,059,25,05,14,228,18,14,13,173,13,1*56
$GPGSV,2,1,08,196,68,121,44,195,68,048,44,199,60,167,44,06,49,001,49,8*5B
$GPGSV,2,2,08,09,37,088,42,194,35,173,43,11,33,300,38,04,19,059,25,8*59
$GLGSV,2,1,07,68,65,127,39,83,39,359,31,67,38,042,35,82,36,058,24,1*7D
$GLGSV,2,2,07,69,26,184,39,73,19,272,16,80,12,218,16,1*48
$GAGSV,3,1,09,10,49,351,41,12,45,030,37,24,43,229,40,04,38,146,35,7*75
$GAGSV,3,2,09,19,32,072,29,25,29,296,19,33,10,075,22,09,07,189,,7*78
$GAGSV,3,3,09,36,03,279,,7*40
$GAGSV,2,1,07,10,49,351,43,12,45,030,35,24,43,229,42,04,38,146,40,1*7C
$GAGSV,2,2,07,19,32,072,30,25,29,296,29,33,10,075,18,1*4D
$GBGSV,4,1,15,40,78,171,43,07,75,227,39,33,74,119,43,10,71,270,39,1*71
$GBGSV,4,2,15,08,56,284,16,14,55,058,44,43,51,076,46,13,48,270,,1*75
$GBGSV,4,3,15,28,46,336,44,41,35,199,22,42,31,044,36,11,27,095,39,1*7B
$GBGSV,4,4,15,37,12,261,,23,11,211,,34,11,108,18,1*44
$GBGSV,2,1,07,40,78,171,45,33,74,119,46,43,51,076,44,28,46,336,44,4*7E
$GBGSV,2,2,07,41,35,199,22,42,31,044,32,34,11,108,19,4*45
$GNGGA,041657.000,2500.7953337,N,12132.4377467,E,4,56,0.52,15.978,M,15.25,M,1,3335*4D
$GNRMC,041657.000,A,2500.7953337,N,12132.4377467,E,0.00,341.24,270623,,,R,V*13
$GPHDT,89.432,T*01
$GNGGA,041657.200,2500.7953350,N,12132.4377465,E,4,56,0.52,15.977,M,15.25,M,1,3335*43
$GNRMC,041657.200,A,2500.7953350,N,12132.4377465,E,0.00,341.24,270623,,,R,V*12
$GPHDT,89.754,T*02
$GNGGA,041657.400,2500.7953339,N,12132.4377448,E,4,57,0.50,15.972,M,15.25,M,1,3335*43
$GNRMC,041657.400,A,2500.7953339,N,12132.4377448,E,0.00,341.24,270623,,,R,V*14
$GPHDT,89.484,T*0C
$GNGGA,041657.600,2500.7953311,N,12132.4377452,E,4,56,0.52,15.964,M,15.25,M,1,3335*44
$GNRMC,041657.600,A,2500.7953311,N,12132.4377452,E,0.00,341.24,270623,,,R,V*17
$GPHDT,89.319,T*0F
$GNGGA,041657.800,2500.7953332,N,12132.4377466,E,4,57,0.51,15.962,M,15.25,M,1,3335*48
$GNRMC,041657.800,A,2500.7953332,N,12132.4377466,E,0.00,341.24,270623,,,R,V*1F
$GPHDT,89.328,T*0D
$GNGSA,A,3,19,195,196,199,17,06,20,09,194,11,12,04,0.93,0.49,0.79,1*02
$GNGSA,A,3,68,83,67,82,69,,,,,,,,0.93,0.49,0.79,2*0A
$GNGSA,A,3,10,12,24,04,19,25,33,,,,,,0.93,0.49,0.79,3*05
$GNGSA,A,3,40,07,33,10,08,14,43,28,41,42,11,34,0.93,0.49,0.79,4*0B
$GPGSV,4,1,15,19,72,061,42,195,68,048,42,196,68,121,40,50,60,167,38,1*6E
$GPGSV,4,2,15,199,60,167,36,17,58,106,42,06,49,001,45,20,39,243,16,1*5F
$GPGSV,4,3,15,09,37,088,43,194,35,173,40,11,33,300,27,12,21,308,32,1*5A
$GPGSV,4,4,15,04,19,059,29,05,14,228,18,14,13,173,12,1*5B
$GPGSV,2,1,08,196,68,121,44,195,68,048,44,199,60,167,44,06,49,001,49,8*5B
$GPGSV,2,2,08,09,37,088,42,194,35,173,43,11,33,300,38,04,19,059,24,8*58
$GLGSV,2,1,08,68,65,127,39,83,39,359,31,67,38,042,35,82,36,058,28,1*7E
$GLGSV,2,2,08,69,26,184,39,73,19,272,19,80,12,218,15,84,04,306,,1*76
$GAGSV,2,1,08,10,49,351,42,12,45,030,37,24,43,229,40,04,38,146,35,7*76
$GAGSV,2,2,08,19,32,072,29,25,29,296,19,33,10,075,21,09,07,189,,7*7B
$GAGSV,2,1,07,10,49,351,43,12,45,030,35,24,43,229,42,04,38,146,40,1*7C
$GAGSV,2,2,07,19,32,072,30,25,29,296,28,33,10,075,19,1*4D
$GBGSV,4,1,15,40,78,171,43,07,75,227,39,33,74,119,43,10,71,270,39,1*71
$GBGSV,4,2,15,08,56,284,17,14,55,058,44,43,51,076,46,13,48,270,,1*74
$GBGSV,4,3,15,28,46,336,44,41,35,199,22,42,31,044,35,11,27,095,39,1*78
$GBGSV,4,4,15,37,12,261,,23,11,211,,34,11,108,18,1*44
$GBGSV,2,1,07,40,78,171,45,33,74,119,46,43,51,076,44,28,46,336,44,4*7E
$GBGSV,2,2,07,41,35,199,21,42,31,044,33,34,11,108,19,4*47
$GNGGA,041658.000,2500.7953319,N,12132.4377466,E,4,58,0.49,15.980,M,15.25,M,2,3335*4F
$GNRMC,041658.000,A,2500.7953319,N,12132.4377466,E,0.00,341.24,270623,,,R,V*11
$GPHDT,89.402,T*02
$GNGGA,041658.200,2500.7953367,N,12132.4377392,E,4,57,0.50,15.974,M,15.25,M,2,3335*44
$GNRMC,041658.200,A,2500.7953367,N,12132.4377392,E,0.00,341.24,270623,,,R,V*16
$GPHDT,90.207,T*09
$GNGGA,041658.400,2500.7953403,N,12132.4377389,E,4,57,0.50,15.972,M,15.25,M,2,3335*4B
$GNRMC,041658.400,A,2500.7953403,N,12132.4377389,E,0.00,341.24,270623,,,R,V*1F
$GPHDT,90.471,T*0E
$GNGGA,041658.600,2500.7953305,N,12132.4377429,E,4,57,0.50,15.971,M,15.25,M,1,3335*45
$GNRMC,041658.600,A,2500.7953305,N,12132.4377429,E,0.00,341.24,270623,,,R,V*11
$GPHDT,89.802,T*0E
$GNGGA,041658.800,2500.7953301,N,12132.4377419,E,4,56,0.50,15.963,M,15.25,M,0,3335*4F
$GNRMC,041658.800,A,2500.7953301,N,12132.4377419,E,0.00,341.24,270623,,,R,V*18
$GPHDT,89.529,T*0A
$GNGSA,A,3,19,195,196,199,17,06,20,09,194,11,12,04,0.93,0.50,0.79,1*0A
$GNGSA,A,3,68,83,67,82,69,,,,,,,,0.93,0.50,0.79,2*02
$GNGSA,A,3,10,12,24,04,19,25,33,,,,,,0.93,0.50,0.79,3*0D
$GNGSA,A,3,40,07,33,10,14,28,41,42,11,34,43,,0.93,0.50,0.79,4*0B
$GPGSV,4,1,15,19,72,061,42,195,68,048,42,196,68,121,40,50,60,167,38,1*6E
$GPGSV,4,2,15,199,60,167,36,17,58,106,42,06,49,001,45,20,39,243,17,1*5E
$GPGSV,4,3,15,09,37,088,43,194,35,173,40,11,33,300,28,12,21,308,33,1*54
$GPGSV,4,4,15,04,19,059,26,05,14,228,18,14,13,173,13,1*55
$GPGSV,2,1,08,196,68,121,44,195,68,048,44,199,60,167,44,06,49,001,49,8*5B
$GPGSV,2,2,08,09,37,088,42,194,35,173,43,11,33,300,38,04,19,059,25,8*59
$GLGSV,2,1,08,68,65,127,39,83,39,359,31,67,38,042,36,82,36,058,27,1*72
$GLGSV,2,2,08,69,26,184,39,73,19,272,21,80,12,218,12,84,04,306,,1*7A
$GAGSV,2,1,08,10,49,351,42,12,45,030,37,24,43,229,40,04,38,146,35,7*76
$GAGSV,2,2,08,19,32,072,29,25,29,296,19,33,10,075,22,36,03,279,,7*7C
$GAGSV,2,1,06,10,49,351,44,12,45,030,35,24,43,229,42,04,38,146,40,1*7A
$GAGSV,2,2,06,19,32,072,31,25,29,296,29,1*77
$GBGSV,4,1,16,40,78,171,43,07,75,227,39,33,74,119,43,10,71,270,38,1*73
$GBGSV,4,2,16,08,56,284,17,14,55,058,44,43,51,076,,13,48,270,,1*75
$GBGSV,4,3,16,28,46,336,44,41,35,199,21,42,31,044,35,11,27,095,39,1*78
$GBGSV,4,4,16,37,12,261,,23,11,211,,34,11,108,18,58,,,39,1*40
$GBGSV,2,1,07,40,78,171,45,33,74,119,46,43,51,076,44,28,46,336,44,4*7E
$GBGSV,2,2,07,41,35,199,22,42,31,044,33,34,11,108,19,4*44
$GNGGA,041659.000,2500.7953359,N,12132.4377373,E,4,55,0.50,15.979,M,15.25,M,1,3335*49
$GNRMC,041659.000,A,2500.7953359,N,12132.4377373,E,0.00,341.24,270623,,,R,V*17
$GPHDT,90.086,T*02
$GNGGA,041659.200,2500.7953359,N,12132.4377378,E,4,56,0.50,15.980,M,15.25,M,1,3335*45
$GNRMC,041659.200,A,2500.7953359,N,12132.4377378,E,0.00,341.24,270623,,,R,V*1E
$GPHDT,90.177,T*0D
$GNGGA,041659.400,2500.7953349,N,12132.4377396,E,4,56,0.50,15.990,M,15.25,M,1,3335*43
$GNRMC,041659.400,A,2500.7953349,N,12132.4377396,E,0.00,341.24,270623,,,R,V*19
$GPHDT,90.090,T*05
$GNGGA,041659.600,2500.7953361,N,12132.4377372,E,4,56,0.50,15.988,M,15.25,M,1,3335*48
$GNRMC,041659.600,A,2500.7953361,N,12132.4377372,E,0.00,341.24,270623,,,R,V*1B
$GPHDT,90.057,T*0E
$GNGGA,041659.800,2500.7953358,N,12132.4377389,E,4,56,0.50,15.987,M,15.25,M,0,3335*46
$GNRMC,041659.800,A,2500.7953358,N,12132.4377389,E,0.00,341.24,270623,,,R,V*1B
$GPHDT,90.075,T*0E
$GNGSA,A,3,19,196,195,199,17,06,20,09,194,11,12,04,0.93,0.49,0.79,1*02
$GNGSA,A,3,68,83,67,82,69,,,,,,,,0.93,0.49,0.79,2*0A
$GNGSA,A,3,10,12,24,04,19,25,33,,,,,,0.93,0.49,0.79,3*05
$GNGSA,A,3,40,07,33,10,08,14,43,28,41,42,11,34,0.93,0.49,0.79,4*0B
$GPGSV,4,1,15,19,72,061,42,196,68,121,40,195,68,048,42,50,60,167,39,1*6F
$GPGSV,4,2,15,199,60,167,36,17,58,106,42,06,49,001,45,20,39,243,17,1*5E
$GPGSV,4,3,15,09,37,088,43,194,35,173,40,11,33,300,28,12,21,308,32,1*55
$GPGSV,4,4,15,04,19,059,28,05,14,228,18,14,13,173,,1*59
$GPGSV,2,1,08,196,68,121,44,195,68,048,44,199,60,167,44,06,49,001,49,8*5B
$GPGSV,2,2,08,09,37,088,42,194,35,173,43,11,33,300,38,04,19,059,24,8*58
$GLGSV,2,1,08,68,65,127,39,83,39,359,31,67,38,042,36,82,36,058,30,1*74
$GLGSV,2,2,08,69,26,184,39,73,19,272,21,80,12,218,11,74,07,315,,1*77
$GAGSV,3,1,09,10,49,351,42,12,45,030,37,24,43,229,40,04,38,146,35,7*76
$GAGSV,3,2,09,19,32,072,29,25,29,296,22,33,10,075,21,09,07,189,,7*73
$GAGSV,3,3,09,36,03,279,,7*40
$GAGSV,2,1,06,10,49,351,44,12,45,030,35,24,43,229,42,04,38,146,40,1*7A
$GAGSV,2,2,06,19,32,072,31,25,29,296,29,1*77
$GBGSV,4,1,16,40,78,171,43,07,75,227,39,33,74,119,43,10,71,270,38,1*73
$GBGSV,4,2,16,08,56,284,18,14,55,058,44,43,50,077,45,13,48,270,,1*7B
$GBGSV,4,3,16,28,46,336,44,41,35,199,23,42,31,044,35,11,27,095,39,1*7A
$GBGSV,4,4,16,37,12,261,,34,11,108,16,23,11,211,,58,,,40,1*40
$GBGSV,2,1,07,40,78,171,45,33,74,119,46,43,50,077,44,28,46,336,44,4*7E
$GBGSV,2,2,07,41,35,199,22,42,31,044,34,34,11,108,19,4*43
$GNGGA,041700.000,2500.7953351,N,12132.4377362,E,4,57,0.49,15.972,M,15.25,M,1,3335*4D
$GNRMC,041700.000,A,2500.7953351,N,12132.4377362,E,0.00,341.24,270623,,,R,V*12
$GPHDT,90.087,T*03
$GNGGA,041700.200,2500.7953308,N,12132.4377407,E,4,57,0.49,15.968,M,15.25,M,1,3335*4C
$GNRMC,041700.200,A,2500.7953308,N,12132.4377407,E,0.00,341.24,270623,,,R,V*18
$GPHDT,89.523,T*00
$GNGGA,041700.400,2500.7953309,N,12132.4377431,E,4,57,0.49,15.974,M,15.25,M,1,3335*43
$GNRMC,041700.400,A,2500.7953309,N,12132.4377431,E,0.00,341.24,270623,,,R,V*1A
$GPHDT,89.706,T*05
$GNGGA,041700.600,2500.7953293,N,12132.4377450,E,4,56,0.50,15.977,M,15.25,M,1,3335*4E
$GNRMC,041700.600,A,2500.7953293,N,12132.4377450,E,0.00,341.24,270623,,,R,V*1D
$GPHDT,89.607,T*05
$GNGGA,041700.800,2500.7953354,N,12132.4377396,E,4,56,0.50,15.990,M,15.25,M,0,3335*4F
$GNRMC,041700.800,A,2500.7953354,N,12132.4377396,E,0.00,341.24,270623,,,R,V*14
$GPHDT,90.146,T*0F
$GNGSA,A,3,19,196,195,199,17,06,20,09,194,11,12,04,0.93,0.50,0.79,1*0A
$GNGSA,A,3,68,83,67,82,69,,,,,,,,0.93,0.50,0.79,2*02
$GNGSA,A,3,10,12,24,04,19,25,33,,,,,,0.93,0.50,0.79,3*0D
$GNGSA,A,3,40,07,33,10,14,43,28,41,42,11,34,,0.93,0.50,0.79,4*0B
$GPGSV,4,1,15,19,72,061,42,196,68,121,40,195,68,048,42,50,60,167,39,1*6F
$GPGSV,4,2,15,199,60,167,36,17,58,106,43,06,49,001,45,20,39,243,17,1*5F
$GPGSV,4,3,15,09,37,088,43,194,35,173,40,11,33,300,28,12,21,308,32,1*55
$GPGSV,4,4,15,04,19,059,28,05,14,228,18,14,13,173,,1*59
$GPGSV,2,1,08,196,68,121,44,195,68,048,44,199,60,167,44,06,49,001,49,8*5B
$GPGSV,2,2,08,09,37,088,42,194,35,173,43,11,33,300,38,04,19,059,24,8*58
$GLGSV,2,1,08,68,65,127,39,83,39,359,31,67,38,042,36,82,36,058,30,1*74
$GLGSV,2,2,08,69,26,184,39,73,19,272,23,80,12,218,12,74,07,315,,1*76
$GAGSV,3,1,09,10,49,351,42,12,45,030,37,24,43,229,40,04,38,146,35,7*76
$GAGSV,3,2,09,19,32,072,29,25,29,296,22,33,10,075,21,09,07,189,,7*73
$GAGSV,3,3,09,36,03,279,,7*40
$GAGSV,2,1,06,10,49,351,44,12,45,030,35,24,43,229,42,04,38,146,40,1*7A
$GAGSV,2,2,06,19,32,072,31,25,29,296,28,1*76
$GBGSV,4,1,16,40,78,171,43,07,75,227,39,33,74,119,43,10,71,270,38,1*73
$GBGSV,4,2,16,08,56,284,18,14,55,058,44,43,50,077,45,13,48,270,,1*7B
$GBGSV,4,3,16,28,46,336,44,41,35,199,23,42,31,044,35,11,27,095,39,1*7A
$GBGSV,4,4,16,37,12,261,,34,11,108,15,23,11,211,,58,,,40,1*43
$GBGSV,2,1,07,40,78,171,45,33,74,119,46,43,50,077,44,28,46,336,44,4*7E
$GBGSV,2,2,07,41,35,199,21,42,31,044,33,34,11,108,18,4*46
$GNGGA,041701.000,2500.7953369,N,12132.4377369,E,4,56,0.50,15.969,M,15.25,M,1,3335*4F
$GNRMC,041701.000,A,2500.7953369,N,12132.4377369,E,0.00,341.24,270623,,,R,V*13
$GPHDT,90.138,T*06
$GNGGA,041701.200,2500.7953376,N,12132.4377359,E,4,55,0.50,15.965,M,15.25,M,1,3335*4F
$GNRMC,041701.200,A,2500.7953376,N,12132.4377359,E,0.00,341.24,270623,,,R,V*1C
$GPHDT,90.366,T*0F
$GNGGA,041701.400,2500.7953362,N,12132.4377412,E,4,55,0.51,15.985,M,15.25,M,1,3335*4B
$GNRMC,041701.400,A,2500.7953362,N,12132.4377412,E,0.00,341.24,270623,,,R,V*17
$GPHDT,89.942,T*0B
$GNGGA,041701.600,2500.7953355,N,12132.4377341,E,4,54,0.52,15.973,M,15.25,M,0,3335*46
$GNRMC,041701.600,A,2500.7953355,N,12132.4377341,E,0.00,341.24,270623,,,R,V*10
$GPHDT,90.409,T*01
$GNGGA,041701.800,2500.7953360,N,12132.4377351,E,4,54,0.52,15.971,M,15.25,M,0,3335*4D
$GNRMC,041701.800,A,2500.7953360,N,12132.4377351,E,0.00,341.24,270623,,,R,V*19
$GPHDT,90.292,T*05
$GNGSA,A,3,19,195,196,199,17,06,09,194,11,12,04,,0.95,0.52,0.80,1*0A
$GNGSA,A,3,68,83,67,82,69,,,,,,,,0.95,0.52,0.80,2*00
$GNGSA,A,3,10,12,24,04,19,25,33,,,,,,0.95,0.52,0.80,3*0F
$GNGSA,A,3,40,07,33,10,14,43,28,41,42,11,34,,0.95,0.52,0.80,4*09
$GPGSV,4,1,14,19,72,061,42,195,68,048,42,196,68,121,40,50,60,167,39,1*6E
$GPGSV,4,2,14,199,60,167,36,17,58,106,43,06,49,001,45,20,39,243,15,1*5C
$GPGSV,4,3,14,09,37,088,43,194,35,173,40,11,33,300,28,12,21,308,34,1*52
$GPGSV,4,4,14,04,19,059,27,05,14,228,18,1*65
$GPGSV,2,1,08,196,68,121,44,195,68,048,44,199,60,167,44,06,49,001,49,8*5B
$GPGSV,2,2,08,09,37,088,42,194,35,173,43,11,33,300,38,04,19,059,22,8*5E
$GLGSV,2,1,07,68,65,127,39,83,39,359,31,67,38,042,37,82,36,058,30,1*7A
$GLGSV,2,2,07,69,26,184,39,73,19,272,22,80,12,218,12,1*4B
$GAGSV,3,1,09,10,49,351,42,12,45,030,37,24,43,229,40,04,38,146,35,7*76
$GAGSV,3,2,09,19,32,072,29,25,29,296,22,33,10,075,19,09,07,189,,7*78
$GAGSV,3,3,09,36,03,279,,7*40
$GAGSV,2,1,06,10,49,351,44,12,45,030,35,24,43,229,42,04,38,146,40,1*7A
$GAGSV,2,2,06,19,32,072,31,25,29,296,29,1*77
$GBGSV,4,1,16,40,78,171,43,07,75,227,39,33,74,119,43,10,71,270,38,1*73
$GBGSV,4,2,16,08,56,284,18,14,55,058,44,43,50,077,45,13,48,270,,1*7B
$GBGSV,4,3,16,28,46,336,44,41,35,199,23,42,31,044,35,11,27,095,39,1*7A
$GBGSV,4,4,16,37,12,261,,23,11,211,,34,11,108,,58,,,25,1*44
$GBGSV,2,1,07,40,78,171,45,33,74,119,46,43,50,077,44,28,46,336,44,4*7E
$GBGSV,2,2,07,41,35,199,23,42,31,044,33,34,11,108,18,4*44
$GNGGA,041702.000,2500.7953350,N,12132.4377366,E,4,54,0.52,15.984,M,15.25,M,1,3335*4A
$GNRMC,041702.000,A,2500.7953350,N,12132.4377366,E,0.00,341.24,270623,,,R,V*15
$GPHDT,90.129,T*06
$GNGGA,041702.200,2500.7953272,N,12132.4377416,E,4,55,0.50,15.966,M,15.25,M,1,3335*46
$GNRMC,041702.200,A,2500.7953272,N,12132.4377416,E,0.00,341.24,270623,,,R,V*16
$GPHDT,89.550,T*04
$GNGGA,041702.400,2500.7953301,N,12132.4377437,E,4,56,0.49,15.980,M,15.25,M,1,3335*45
$GNRMC,041702.400,A,2500.7953301,N,12132.4377437,E,0.00,341.24,270623,,,R,V*16
$GPHDT,89.740,T*07
$GNGGA,041702.600,2500.7953312,N,12132.4377430,E,4,55,0.50,15.974,M,15.25,M,1,3335*42
$GNRMC,041702.600,A,2500.7953312,N,12132.4377430,E,0.00,341.24,270623,,,R,V*11
$GPHDT,89.742,T*05
$GNGGA,041702.800,2500.7953311,N,12132.4377428,E,4,55,0.50,15.960,M,15.25,M,0,3335*42
$GNRMC,041702.800,A,2500.7953311,N,12132.4377428,E,0.00,341.24,270623,,,R,V*15
$GPHDT,89.662,T*06
$GNGSA,A,3,19,195,196,199,17,06,20,09,194,11,12,04,0.93,0.50,0.79,1*0A
$GNGSA,A,3,68,83,67,82,69,,,,,,,,0.93,0.50,0.79,2*02
$GNGSA,A,3,10,12,24,04,19,25,33,,,,,,0.93,0.50,0.79,3*0D
$GNGSA,A,3,40,07,33,10,14,43,28,41,42,11,34,,0.93,0.50,0.79,4*0B
$GPGSV,4,1,15,19,72,061,42,195,68,048,42,196,68,121,40,50,60,167,39,1*6F
$GPGSV,4,2,15,199,60,167,36,17,58,106,43,06,49,001,45,20,39,243,17,1*5F
$GPGSV,4,3,15,09,37,088,43,194,35,173,39,11,33,300,29,12,21,308,32,1*5A
$GPGSV,4,4,15,04,19,059,28,05,14,228,18,14,13,173,,1*59
$GPGSV,2,1,08,196,68,121,44,195,68,048,44,199,60,167,44,06,49,001,49,8*5B
$GPGSV,2,2,08,09,37,088,42,194,35,173,43,11,33,300,38,04,19,059,22,8*5E
$GLGSV,2,1,07,68,65,127,39,83,39,359,31,67,38,042,38,82,36,058,30,1*75
$GLGSV,2,2,07,69,26,184,39,73,19,272,19,80,12,218,12,1*43
$GAGSV,3,1,09,10,49,351,42,12,45,030,37,24,43,229,40,04,38,146,34,7*77
$GAGSV,3,2,09,19,32,072,28,25,29,296,22,33,10,075,19,09,07,189,,7*79
$GAGSV,3,3,09,36,03,279,,7*40
$GAGSV,2,1,06,10,49,351,44,12,45,030,35,24,43,229,42,04,38,146,40,1*7A
$GAGSV,2,2,06,19,32,072,31,25,29,296,29,1*77
$GBGSV,4,1,15,40,78,171,43,07,75,227,39,33,74,119,43,10,71,270,38,1*70
$GBGSV,4,2,15,08,56,284,18,14,55,058,44,43,50,077,45,28,46,336,44,1*7D
$GBGSV,4,3,15,41,35,199,23,42,31,044,35,11,27,095,39,37,12,261,,1*75
$GBGSV,4,4,15,23,11,211,,34,11,108,,58,,,18,1*7B
$GBGSV,2,1,07,40,78,171,45,33,74,119,46,43,50,077,44,28,46,336,44,4*7E
$GBGSV,2,2,07,41,35,199,23,42,31,044,33,34,11,108,18,4*44
$GNGGA,041703.000,2500.7953316,N,12132.4377431,E,4,55,0.50,15.959,M,15.25,M,1,3335*4F
$GNRMC,041703.000,A,2500.7953316,N,12132.4377431,E,0.00,341.24,270623,,,R,V*13
$GPHDT,89.891,T*04
$GNGGA,041703.200,2500.7953307,N,12132.4377444,E,4,56,0.50,15.986,M,15.25,M,1,3335*4E
$GNRMC,041703.200,A,2500.7953307,N,12132.4377444,E,0.00,341.24,270623,,,R,V*13
$GPHDT,89.618,T*0B
$GNGGA,041703.400,2500.7953285,N,12132.4377443,E,4,57,0.49,15.974,M,15.25,M,1,3335*40
$GNRMC,041703.400,A,2500.7953285,N,12132.4377443,E,0.00,341.24,270623,,,R,V*19
$GPHDT,89.165,T*06
$GNGGA,041703.600,2500.7953282,N,12132.4377433,E,4,58,0.49,15.991,M,15.25,M,0,3335*47
$GNRMC,041703.600,A,2500.7953282,N,12132.4377433,E,0.00,341.24,270623,,,R,V*1B
$GPHDT,89.210,T*07
$GNGGA,041703.800,2500.7953285,N,12132.4377441,E,4,58,0.49,15.983,M,15.25,M,0,3335*48
$GNRMC,041703.800,A,2500.7953285,N,12132.4377441,E,0.00,341.24,270623,,,R,V*17
$GPHDT,89.084,T*08
$GNGSA,A,3,19,195,196,199,17,06,20,09,194,11,12,04,0.93,0.49,0.79,1*02
$GNGSA,A,3,68,83,67,82,69,,,,,,,,0.93,0.49,0.79,2*0A
$GNGSA,A,3,10,12,24,04,19,25,33,,,,,,0.93,0.49,0.79,3*05
$GNGSA,A,3,40,07,33,10,08,14,43,28,41,42,11,34,0.93,0.49,0.79,4*0B
$GPGSV,4,1,15,19,72,061,42,195,68,048,42,196,68,121,40,50,60,167,39,1*6F
$GPGSV,4,2,15,199,60,167,36,17,58,106,43,06,49,001,45,20,39,243,17,1*5F
$GPGSV,4,3,15,09,37,088,44,194,35,173,39,11,33,300,29,12,21,308,32,1*5D
$GPGSV,4,4,15,04,19,059,27,05,14,228,18,14,13,173,,1*56
$GPGSV,2,1,08,196,68,121,44,195,68,048,44,199,60,167,44,06,49,001,49,8*5B
$GPGSV,2,2,08,09,37,088,42,194,35,173,43,11,33,300,38,04,19,059,22,8*5E
$GLGSV,2,1,08,68,65,127,39,83,39,359,31,67,38,042,38,82,36,058,31,1*7B
$GLGSV,2,2,08,69,26,184,39,73,19,272,17,80,12,218,11,84,04,306,,1*7C
$GAGSV,3,1,09,10,49,351,42,12,45,030,37,24,43,229,40,04,38,146,34,7*77
$GAGSV,3,2,09,19,32,072,28,25,29,296,22,33,10,075,19,09,07,189,,7*79
$GAGSV,3,3,09,36,03,279,,7*40
$GAGSV,2,1,07,10,49,351,44,12,45,030,35,24,43,229,42,04,38,146,39,1*75
$GAGSV,2,2,07,19,32,072,31,25,29,296,28,33,10,075,21,1*47
$GBGSV,4,1,15,40,78,171,43,07,75,227,39,33,74,119,43,10,71,270,38,1*70
$GBGSV,4,2,15,08,56,284,19,14,55,058,44,43,50,077,45,28,46,336,44,1*7C
$GBGSV,4,3,15,41,35,199,26,42,31,044,35,11,27,095,39,37,12,261,,1*70
$GBGSV,4,4,15,34,11,108,22,23,11,211,,58,,,16,1*75
$GBGSV,2,1,07,40,78,171,45,33,74,119,46,43,50,077,44,28,46,336,44,4*7E
$GBGSV,2,2,07,41,35,199,22,42,31,044,33,34,11,108,17,4*4A
$GNGGA,041704.000,2500.7953286,N,12132.4377422,E,4,58,0.49,15.974,M,15.25,M,1,3335*48
$GNRMC,041704.000,A,2500.7953286,N,12132.4377422,E,0.00,341.24,270623,,,R,V*1E
$GPHDT,89.199,T*05
$GNGGA,041704.200,2500.7953280,N,12132.4377438,E,4,58,0.49,15.973,M,15.25,M,1,3335*40
$GNRMC,041704.200,A,2500.7953280,N,12132.4377438,E,0.00,341.24,270623,,,R,V*11
$GPHDT,89.299,T*06
$GNGGA,041704.400,2500.7953281,N,12132.4377424,E,4,58,0.49,15.970,M,15.25,M,1,3335*49
$GNRMC,041704.400,A,2500.7953281,N,12132.4377424,E,0.00,341.24,270623,,,R,V*1B
$GPHDT,89.437,T*04
$GNGGA,041704.600,2500.7953286,N,12132.4377445,E,4,58,0.49,15.978,M,15.25,M,0,3335*42
$GNRMC,041704.600,A,2500.7953286,N,12132.4377445,E,0.00,341.24,270623,,,R,V*19
$GPHDT,89.399,T*07
$GNGGA,041704.800,2500.7953290,N,12132.4377447,E,4,58,0.49,15.961,M,15.25,M,0,3335*41
$GNRMC,041704.800,A,2500.7953290,N,12132.4377447,E,0.00,341.24,270623,,,R,V*12
$GPHDT,89.371,T*01
$GNGSA,A,3,19,195,196,199,17,06,20,09,194,11,12,04,0.93,0.49,0.79,1*02
$GNGSA,A,3,68,83,67,82,69,,,,,,,,0.93,0.49,0.79,2*0A
$GNGSA,A,3,10,12,24,04,19,25,33,,,,,,0.93,0.49,0.79,3*05
$GNGSA,A,3,40,07,33,10,08,14,43,28,41,42,11,34,0.93,0.49,0.79,4*0B
$GPGSV,4,1,15,19,72,061,42,195,68,048,42,196,68,121,40,50,60,167,39,1*6F
$GPGSV,4,2,15,199,60,167,36,17,58,106,43,06,49,001,45,20,39,243,22,1*59
$GPGSV,4,3,15,09,37,088,44,194,35,173,39,11,33,300,27,12,21,308,31,1*50
$GPGSV,4,4,15,04,19,058,29,05,14,228,18,14,13,173,,1*59
$GPGSV,2,1,08,196,68,121,44,195,68,048,44,199,60,167,44,06,49,001,49,8*5B
$GPGSV,2,2,08,09,37,088,42,194,35,173,43,11,33,300,38,04,19,058,24,8*59
$GLGSV,2,1,07,68,65,127,39,83,39,359,32,67,38,042,38,82,36,058,31,1*77
$GLGSV,2,2,07,69,26,184,39,73,19,272,15,80,12,218,13,1*4E
$GAGSV,2,1,08,10,49,351,42,12,45,030,38,24,43,229,40,04,38,146,34,7*78
$GAGSV,2,2,08,19,32,072,28,25,29,296,22,33,10,075,18,36,03,279,,7*7C
$GAGSV,2,1,07,10,49,351,44,12,45,030,35,24,43,229,42,04,38,146,39,1*75
$GAGSV,2,2,07,19,32,072,31,25,29,296,28,33,10,075,21,1*47
$GBGSV,4,1,15,40,78,171,43,07,75,227,39,33,74,119,43,10,71,270,38,1*70
$GBGSV,4,2,15,08,56,284,20,14,55,058,44,43,50,077,45,28,46,336,44,1*76
$GBGSV,4,3,15,41,35,199,26,42,31,044,35,11,27,095,39,37,12,261,,1*70
$GBGSV,4,4,15,23,11,211,,34,11,108,23,06,02,185,,1*46
$GBGSV,2,1,07,40,78,171,45,33,74,119,46,43,50,077,44,28,46,336,44,4*7E
$GBGSV,2,2,07,41,35,199,22,42,31,044,31,34,11,108,17,4*48
$GNGGA,041705.000,2500.7953300,N,12132.4377421,E,4,58,0.49,15.960,M,15.25,M,1,3335*40
$GNRMC,041705.000,A,2500.7953300,N,12132.4377421,E,0.00,341.24,270623,,,R,V*13
$GPHDT,89.506,T*07
$GNGGA,041705.200,2500.7953339,N,12132.4377387,E,4,58,0.49,15.971,M,15.25,M,1,3335*43
$GNRMC,041705.200,A,2500.7953339,N,12132.4377387,E,0.00,341.24,270623,,,R,V*10
$GPHDT,90.040,T*08
$GNGGA,041705.400,2500.7953354,N,12132.4377373,E,4,58,0.49,15.960,M,15.25,M,1,3335*45
$GNRMC,041705.400,A,2500.7953354,N,12132.4377373,E,0.00,341.24,270623,,,R,V*16
$GPHDT,90.274,T*0D
$GNGGA,041705.600,2500.7953357,N,12132.4377383,E,4,58,0.49,15.951,M,15.25,M,1,3335*49
$GNRMC,041705.600,A,2500.7953357,N,12132.4377383,E,0.00,341.24,270623,,,R,V*18
$GPHDT,90.303,T*0C
$GNGGA,041705.800,2500.7953267,N,12132.4377427,E,4,58,0.49,15.969,M,15.25,M,0,3335*46
$GNRMC,041705.800,A,2500.7953267,N,12132.4377427,E,0.00,341.24,270623,,,R,V*1D
