$FW : RTK35X,V1.1X0314AS,Lib20210517,1*54
$Tool : LOCOSYS , GNSS Firebird , v1.0.0.19*39
$---------------------------------------------------*2D
$GPHDT,,T*1B
$GNGGA,041530.600,2500.7953350,N,12132.4377423,E,4,53,0.53,16.008,M,15.25,M,1,3335*41
$GNRMC,041530.600,A,2500.7953350,N,12132.4377423,E,0.01,341.24,270623,,,R,V*17
$GPHDT,,T*1B
$GNGGA,041530.800,2500.7953346,N,12132.4377431,E,4,53,0.53,16.002,M,15.25,M,0,3335*40
$GNRMC,041530.800,A,2500.7953346,N,12132.4377431,E,0.02,341.24,270623,,,R,V*1E
$GPHDT,,T*1B
$GNGSA,A,3,19,195,196,199,17,06,09,194,12,04,11,,0.81,0.52,0.62,1*03
$GNGSA,A,3,68,67,83,82,69,,,,,,,,0.81,0.52,0.62,2*09
$GNGSA,A,3,10,12,24,04,19,25,33,,,,,,0.81,0.52,0.62,3*06
$GNGSA,A,3,40,07,33,10,14,43,28,41,42,11,34,,0.81,0.52,0.62,4*00
$GPGSV,4,1,15,19,72,060,42,195,68,048,42,196,68,121,38,50,60,167,39,1*61
$GPGSV,4,2,15,199,60,167,36,17,59,105,41,06,49,000,42,20,39,242,,1*5E
$GPGSV,4,3,15,09,37,089,43,194,36,173,42,11,33,299,15,12,21,308,21,1*58
$GPGSV,4,4,15,04,19,059,30,14,13,173,13,05,13,228,16,1*5B
$GPGSV,2,1,08,196,68,121,45,195,68,048,44,199,60,167,47,06,49,000,47,8*56
$GPGSV,2,2,08,09,37,089,44,194,36,173,44,11,33,299,32,04,19,059,19,8*5E
$GLGSV,2,1,08,68,64,129,42,67,38,043,36,83,38,358,30,82,36,057,18,1*72
$GLGSV,2,2,08,69,25,184,42,73,19,273,25,80,13,219,14,74,07,315,,1*78
$GAGSV,2,1,08,10,49,350,43,12,45,029,35,24,43,229,39,04,37,147,40,7*7E
$GAGSV,2,2,08,19,32,073,34,25,29,296,26,33,10,074,22,09,07,189,,7*78
$GAGSV,2,1,06,10,49,350,46,12,45,029,38,24,43,229,40,04,37,147,44,1*74
$GAGSV,2,2,06,19,32,073,33,33,10,074,24,1*7A
$GBGSV,4,1,15,40,78,170,41,07,75,228,41,33,74,121,44,10,71,271,38,1*7E
$GBGSV,4,2,15,08,56,283,,14,56,059,44,43,51,076,44,13,48,269,,1*7D
$GBGSV,4,3,15,28,45,335,46,41,34,199,18,42,31,044,33,11,28,094,41,1*75
$GBGSV,4,4,15,37,12,261,,23,11,212,,34,11,108,22,1*4E
$GBGSV,2,1,07,40,78,170,45,33,74,121,44,43,51,076,44,28,45,335,45,4*77
$GBGSV,2,2,07,41,34,199,30,42,31,044,34,34,11,108,18,4*40
$GNGGA,041531.000,2500.7953348,N,12132.4377444,E,4,54,0.52,16.002,M,15.25,M,1,3335*42
$GNRMC,041531.000,A,2500.7953348,N,12132.4377444,E,0.03,341.24,270623,,,R,V*1A
$GPHDT,,T*1B
$GNGGA,041531.200,2500.7953349,N,12132.4377429,E,4,54,0.52,16.018,M,15.25,M,1,3335*41
$GNRMC,041531.200,A,2500.7953349,N,12132.4377429,E,0.02,341.24,270623,,,R,V*13
$GPHDT,,T*1B
$GNGGA,041531.400,2500.7953359,N,12132.4377462,E,4,54,0.52,16.024,M,15.25,M,1,3335*46
$GNRMC,041531.400,A,2500.7953359,N,12132.4377462,E,0.01,341.24,270623,,,R,V*18
$GPHDT,,T*1B
$GNGGA,041531.600,2500.7953357,N,12132.4377434,E,4,54,0.52,16.006,M,15.25,M,0,3335*48
$GNRMC,041531.600,A,2500.7953357,N,12132.4377434,E,0.01,341.24,270623,,,R,V*17
$GPHDT,,T*1B
$GNGGA,041531.800,2500.7953327,N,12132.4377454,E,4,53,0.54,16.010,M,15.25,M,0,3335*41
$GNRMC,041531.800,A,2500.7953327,N,12132.4377454,E,0.01,341.24,270623,,,R,V*18
$GPHDT,,T*1B
$GNGSA,A,3,19,196,195,199,17,06,09,194,04,11,,,1.00,0.54,0.84,1*06
$GNGSA,A,3,68,67,83,82,69,,,,,,,,1.00,0.54,0.84,2*0F
$GNGSA,A,3,10,12,24,04,19,25,33,,,,,,1.00,0.54,0.84,3*00
$GNGSA,A,3,40,07,33,10,14,43,28,41,42,11,34,,1.00,0.54,0.84,4*06
$GPGSV,4,1,15,19,72,060,42,196,68,121,38,195,68,048,42,50,60,167,39,1*61
$GPGSV,4,2,15,199,60,167,36,17,59,105,41,06,49,000,42,20,39,242,,1*5E
$GPGSV,4,3,15,09,37,089,42,194,36,173,42,11,33,299,17,12,21,308,21,1*5B
$GPGSV,4,4,15,04,19,059,30,05,13,228,15,14,13,173,13,1*58
$GPGSV,2,1,08,196,68,121,45,195,68,048,44,199,60,167,47,06,49,000,47,8*56
$GPGSV,2,2,08,09,37,089,44,194,36,173,44,11,33,299,32,04,19,059,20,8*54
$GLGSV,2,1,07,68,64,129,42,67,38,043,36,83,38,358,29,82,36,057,14,1*79
$GLGSV,2,2,07,69,25,184,42,73,19,273,25,80,13,219,14,1*44
$GAGSV,2,1,08,10,49,350,43,12,45,029,35,24,43,229,39,04,37,147,40,7*7E
$GAGSV,2,2,08,19,32,073,34,25,29,296,26,33,10,074,22,09,07,189,,7*78
$GAGSV,2,1,07,10,49,350,46,12,45,029,38,24,43,229,40,04,37,147,43,1*72
$GAGSV,2,2,07,19,32,073,33,25,29,296,21,33,10,074,24,1*49
$GBGSV,4,1,15,40,78,170,41,07,75,228,41,33,74,121,44,10,71,271,38,1*7E
$GBGSV,4,2,15,14,56,059,43,08,56,283,,43,51,076,44,13,48,269,,1*7A
$GBGSV,4,3,15,28,45,335,46,41,34,199,18,42,31,044,33,11,28,094,41,1*75
$GBGSV,4,4,15,37,12,261,,34,11,108,23,23,11,212,,1*4F
$GBGSV,2,1,07,40,78,170,45,33,74,121,44,43,51,076,44,28,45,335,45,4*77
$GBGSV,2,2,07,41,34,199,30,42,31,044,33,34,11,108,19,4*46
$GNGGA,041532.000,2500.7953361,N,12132.4377430,E,4,54,0.54,15.987,M,15.25,M,1,3335*48
$GNRMC,041532.000,A,2500.7953361,N,12132.4377430,E,0.00,341.24,270623,,,R,V*12
$GPHDT,,T*1B
$GNGGA,041532.200,2500.7953353,N,12132.4377415,E,4,54,0.54,15.986,M,15.25,M,1,3335*4D
$GNRMC,041532.200,A,2500.7953353,N,12132.4377415,E,0.01,341.24,270623,,,R,V*17
$GPHDT,,T*1B
$GNGGA,041532.400,2500.7953349,N,12132.4377423,E,4,54,0.54,15.994,M,15.25,M,1,3335*46
$GNRMC,041532.400,A,2500.7953349,N,12132.4377423,E,0.00,341.24,270623,,,R,V*1E
$GPHDT,,T*1B
$GNGGA,041532.600,2500.7953353,N,12132.4377427,E,4,53,0.54,15.991,M,15.25,M,1,3335*49
$GNRMC,041532.600,A,2500.7953353,N,12132.4377427,E,0.00,341.24,270623,,,R,V*13
$GPHDT,,T*1B
$GNGGA,041532.800,2500.7953328,N,12132.4377441,E,4,53,0.54,16.019,M,15.25,M,0,3335*40
$GNRMC,041532.800,A,2500.7953328,N,12132.4377441,E,0.00,341.24,270623,,,R,V*11
$GPHDT,,T*1B
$GNGSA,A,3,19,196,195,199,17,06,09,194,04,11,,,1.00,0.54,0.84,1*06
$GNGSA,A,3,68,67,83,82,69,,,,,,,,1.00,0.54,0.84,2*0F
$GNGSA,A,3,10,12,24,04,19,25,33,,,,,,1.00,0.54,0.84,3*00
$GNGSA,A,3,40,07,33,10,14,43,28,41,42,11,34,,1.00,0.54,0.84,4*06
$GPGSV,4,1,15,19,72,060,42,196,68,121,38,195,68,048,42,50,60,167,39,1*61
$GPGSV,4,2,15,199,60,167,36,17,59,105,41,06,49,000,42,20,39,242,,1*5E
$GPGSV,4,3,15,09,37,089,42,194,36,173,42,11,33,299,15,12,21,308,18,1*53
$GPGSV,4,4,15,04,19,059,31,05,13,228,16,14,13,173,14,1*5D
$GPGSV,2,1,08,196,68,121,45,195,68,048,44,199,60,167,47,06,49,000,47,8*56
$GPGSV,2,2,08,09,37,089,44,194,36,173,44,11,33,299,31,04,19,059,23,8*54
$GLGSV,2,1,07,68,64,129,42,67,38,043,36,83,38,358,29,82,36,057,17,1*7A
$GLGSV,2,2,07,69,25,184,43,73,19,273,24,80,13,219,13,1*43
$GAGSV,2,1,08,10,49,350,43,12,45,029,35,24,43,229,39,04,37,147,40,7*7E
$GAGSV,2,2,08,19,32,073,34,25,29,296,26,33,10,074,21,09,07,189,,7*7B
$GAGSV,2,1,07,10,49,350,46,12,45,029,38,24,43,229,40,04,37,147,43,1*72
$GAGSV,2,2,07,19,32,073,33,25,29,296,20,33,10,074,24,1*48
$GBGSV,4,1,15,40,78,170,41,07,75,228,40,33,74,121,44,10,71,271,38,1*7F
$GBGSV,4,2,15,14,56,059,43,08,56,283,,43,51,076,44,13,48,269,,1*7A
$GBGSV,4,3,15,28,45,335,46,41,34,199,15,42,31,044,34,11,28,094,41,1*7F
$GBGSV,4,4,15,37,12,261,,34,11,108,20,23,11,212,,1*4C
$GBGSV,2,1,07,40,78,170,45,33,74,121,44,43,51,076,44,28,45,335,45,4*77
$GBGSV,2,2,07,41,34,199,30,42,31,044,33,34,11,108,20,4*4C
$GNGGA,041533.000,2500.7953330,N,12132.4377421,E,4,54,0.54,16.007,M,15.25,M,1,3335*4F
$GNRMC,041533.000,A,2500.7953330,N,12132.4377421,E,0.00,341.24,270623,,,R,V*17
$GPHDT,,T*1B
$GNGGA,041533.200,2500.7953322,N,12132.4377420,E,4,53,0.54,16.013,M,15.25,M,1,3335*4D
$GNRMC,041533.200,A,2500.7953322,N,12132.4377420,E,0.00,341.24,270623,,,R,V*17
$GPHDT,225.919,T*31
$GNGGA,041533.400,2500.7953331,N,12132.4377431,E,4,54,0.54,16.014,M,15.25,M,1,3335*49
$GNRMC,041533.400,A,2500.7953331,N,12132.4377431,E,0.00,341.24,270623,,,R,V*13
$GPHDT,226.158,T*3F
$GNGGA,041533.600,2500.7953330,N,12132.4377411,E,4,54,0.54,16.008,M,15.25,M,1,3335*45
$GNRMC,041533.600,A,2500.7953330,N,12132.4377411,E,0.00,341.24,270623,,,R,V*12
$GPHDT,226.302,T*32
$GNGGA,041533.800,2500.7953345,N,12132.4377437,E,4,54,0.54,16.026,M,15.25,M,0,3335*40
$GNRMC,041533.800,A,2500.7953345,N,12132.4377437,E,0.00,341.24,270623,,,R,V*1A
$GPHDT,226.595,T*3A
$GNGSA,A,3,19,196,195,199,17,06,09,194,04,11,,,1.00,0.54,0.84,1*06
$GNGSA,A,3,68,67,83,82,69,,,,,,,,1.00,0.54,0.84,2*0F
$GNGSA,A,3,10,12,24,04,19,25,33,,,,,,1.00,0.54,0.84,3*00
$GNGSA,A,3,40,07,33,10,14,43,28,41,42,11,34,,1.00,0.54,0.84,4*06
$GPGSV,4,1,15,19,72,060,42,196,68,121,39,195,68,048,42,50,60,167,39,1*60
$GPGSV,4,2,15,199,60,167,36,17,59,105,41,06,49,000,42,20,39,242,,1*5E
$GPGSV,4,3,15,09,37,089,41,194,36,173,42,11,33,299,15,12,21,308,19,1*51
$GPGSV,4,4,15,04,19,059,30,05,13,228,17,14,13,173,14,1*5D
$GPGSV,2,1,08,196,68,121,45,195,68,048,44,199,60,167,47,06,49,000,47,8*56
$GPGSV,2,2,08,09,37,089,44,194,36,173,44,11,33,299,31,04,19,059,23,8*54
$GLGSV,2,1,07,68,64,129,41,67,38,043,37,83,38,358,30,82,36,057,15,1*72
$GLGSV,2,2,07,69,25,184,42,73,19,273,24,80,13,219,14,1*45
$GAGSV,2,1,08,10,49,350,43,12,45,029,35,24,43,229,39,04,37,147,40,7*7E
$GAGSV,2,2,08,19,32,073,34,25,29,296,26,33,10,074,23,09,07,189,,7*79
$GAGSV,2,1,07,10,49,350,46,12,45,029,38,24,43,229,40,04,37,147,43,1*72
$GAGSV,2,2,07,19,32,073,33,25,29,296,20,33,10,074,22,1*4E
$GBGSV,4,1,15,40,78,170,41,07,75,228,40,33,74,121,44,10,71,271,38,1*7F
$GBGSV,4,2,15,14,56,059,43,08,56,283,,43,51,076,44,13,48,269,,1*7A
$GBGSV,4,3,15,28,45,335,46,41,34,199,16,42,31,044,34,11,28,094,41,1*7C
$GBGSV,4,4,15,37,12,261,,34,11,108,21,23,11,212,,1*4D
$GBGSV,2,1,07,40,78,170,45,33,74,121,44,43,51,076,44,28,45,335,45,4*77
$GBGSV,2,2,07,41,34,199,30,42,31,044,32,34,11,108,20,4*4D
$GNGGA,041534.000,2500.7953373,N,12132.4377447,E,4,54,0.54,16.011,M,15.25,M,1,3335*48
$GNRMC,041534.000,A,2500.7953373,N,12132.4377447,E,0.00,341.24,270623,,,R,V*17
$GPHDT,226.312,T*33
$GNGGA,041534.200,2500.7953365,N,12132.4377412,E,4,54,0.54,16.006,M,15.25,M,1,3335*4B
$GNRMC,041534.200,A,2500.7953365,N,12132.4377412,E,0.00,341.24,270623,,,R,V*12
$GPHDT,225.910,T*38
$GNGGA,041534.400,2500.7953365,N,12132.4377426,E,4,54,0.54,16.007,M,15.25,M,1,3335*4B
$GNRMC,041534.400,A,2500.7953365,N,12132.4377426,E,0.00,341.24,270623,,,R,V*13
$GPHDT,226.546,T*34
$GNGGA,041534.600,2500.7953368,N,12132.4377420,E,4,54,0.54,16.002,M,15.25,M,1,3335*47
$GNRMC,041534.600,A,2500.7953368,N,12132.4377420,E,0.00,341.24,270623,,,R,V*1A
$GPHDT,225.939,T*33
$GNGGA,041534.800,2500.7953333,N,12132.4377426,E,4,54,0.54,16.008,M,15.25,M,0,3335*4A
$GNRMC,041534.800,A,2500.7953333,N,12132.4377426,E,0.00,341.24,270623,,,R,V*1C
$GPHDT,225.901,T*38
$GNGSA,A,3,19,195,196,199,17,06,09,194,12,04,11,,0.95,0.52,0.80,1*0A
$GNGSA,A,3,68,67,83,82,69,,,,,,,,0.95,0.52,0.80,2*00
$GNGSA,A,3,10,12,24,04,19,25,33,,,,,,0.95,0.52,0.80,3*0F
$GNGSA,A,3,40,07,33,10,14,43,28,41,42,11,34,,0.95,0.52,0.80,4*09
$GPGSV,4,1,15,19,72,060,42,195,68,048,42,196,68,121,39,50,60,167,39,1*60
$GPGSV,4,2,15,199,60,167,36,17,59,105,41,06,49,000,43,20,39,242,,1*5F
$GPGSV,4,3,15,09,37,089,41,194,36,173,42,11,33,299,17,12,21,308,21,1*58
$GPGSV,4,4,15,04,19,059,30,14,13,173,11,05,13,228,17,1*58
$GPGSV,2,1,08,196,68,121,45,195,68,048,44,199,60,167,47,06,49,000,47,8*56
$GPGSV,2,2,08,09,37,089,44,194,36,173,44,11,33,299,31,04,19,059,22,8*55
$GLGSV,2,1,07,68,64,129,41,67,38,043,38,83,38,358,30,82,36,057,18,1*70
$GLGSV,2,2,07,69,25,184,42,73,19,273,22,80,13,219,15,1*42
$GAGSV,2,1,08,10,49,350,43,12,45,029,36,24,43,229,39,04,38,147,40,7*72
$GAGSV,2,2,08,19,32,073,34,25,29,296,27,33,10,074,23,09,07,189,,7*78
$GAGSV,2,1,07,10,49,350,46,12,45,029,38,24,43,229,40,04,38,147,43,1*7D
$GAGSV,2,2,07,19,32,073,33,25,29,296,20,33,10,074,22,1*4E
$GBGSV,4,1,16,40,78,170,41,07,75,228,40,33,74,121,44,10,71,271,38,1*7C
$GBGSV,4,2,16,14,56,059,43,08,56,283,,43,51,076,44,13,48,269,,1*79
$GBGSV,4,3,16,28,45,335,45,41,34,199,17,42,31,044,35,11,28,094,41,1*7C
$GBGSV,4,4,16,37,12,261,,23,11,212,,34,11,108,23,39,05,175,,1*70
$GBGSV,2,1,07,40,78,170,45,33,74,121,43,43,51,076,44,28,45,335,45,4*70
$GBGSV,2,2,07,41,34,199,31,42,31,044,33,34,11,108,18,4*46
$GNGGA,041535.000,2500.7953367,N,12132.4377411,E,4,55,0.52,16.015,M,15.25,M,1,3335*4C
$GNRMC,041535.000,A,2500.7953367,N,12132.4377411,E,0.00,341.24,270623,,,R,V*10
$GPHDT,225.871,T*3E
$GNGGA,041535.200,2500.7953374,N,12132.4377441,E,4,56,0.50,16.012,M,15.25,M,1,3335*4F
$GNRMC,041535.200,A,2500.7953374,N,12132.4377441,E,0.00,341.24,270623,,,R,V*15
$GPHDT,225.855,T*38
$GNGGA,041535.400,2500.7953382,N,12132.4377434,E,4,55,0.52,16.006,M,15.25,M,1,3335*46
$GNRMC,041535.400,A,2500.7953382,N,12132.4377434,E,0.00,341.24,270623,,,R,V*18
$GPHDT,225.842,T*3E
$GNGGA,041535.600,2500.7953363,N,12132.4377428,E,4,55,0.52,16.015,M,15.25,M,1,3335*44
$GNRMC,041535.600,A,2500.7953363,N,12132.4377428,E,0.00,341.24,270623,,,R,V*18
$GPHDT,225.972,T*3C
$GNGGA,041535.800,2500.7953367,N,12132.4377428,E,4,55,0.52,16.011,M,15.25,M,0,3335*4B
$GNRMC,041535.800,A,2500.7953367,N,12132.4377428,E,0.00,341.24,270623,,,R,V*12
$GPHDT,225.613,T*34
$GNGSA,A,3,19,195,196,199,17,06,20,09,194,04,11,,0.98,0.52,0.83,1*05
$GNGSA,A,3,68,67,83,82,69,,,,,,,,0.98,0.52,0.83,2*0E
$GNGSA,A,3,10,12,24,04,19,25,33,,,,,,0.98,0.52,0.83,3*01
$GNGSA,A,3,40,07,33,10,14,43,28,41,42,11,34,,0.98,0.52,0.83,4*07
$GPGSV,4,1,15,19,72,060,42,195,68,048,41,196,68,121,39,50,60,167,39,1*63
$GPGSV,4,2,15,199,60,167,36,17,59,105,41,06,49,000,43,20,39,242,16,1*58
$GPGSV,4,3,15,09,37,089,41,194,36,173,42,11,33,299,15,12,21,308,21,1*5A
$GPGSV,4,4,15,04,19,059,29,14,13,173,13,05,13,228,18,1*5D
$GPGSV,2,1,08,196,68,121,45,195,68,048,44,199,60,167,47,06,49,000,47,8*56
$GPGSV,2,2,08,09,37,089,44,194,36,173,44,11,33,299,32,04,19,059,23,8*57
$GLGSV,2,1,08,68,64,129,40,67,38,043,38,83,38,358,30,82,36,057,19,1*7F
$GLGSV,2,2,08,69,25,184,42,73,19,273,19,80,13,219,16,84,03,306,,1*7C
$GAGSV,3,1,09,10,49,350,43,12,45,029,35,24,43,229,39,04,38,147,40,7*71
$GAGSV,3,2,09,19,32,073,33,25,29,296,26,33,10,074,23,09,07,189,,7*7E
$GAGSV,3,3,09,36,02,279,,7*41
$GAGSV,2,1,07,10,49,350,46,12,45,029,38,24,43,229,40,04,38,147,44,1*7A
$GAGSV,2,2,07,19,32,073,33,25,29,296,19,33,10,074,22,1*44
$GBGSV,4,1,14,40,78,170,41,07,75,228,40,33,74,121,44,10,71,271,38,1*7E
$GBGSV,4,2,14,14,56,059,43,43,51,076,43,13,48,269,,28,45,335,45,1*71
$GBGSV,4,3,14,41,34,199,17,42,31,044,36,11,28,094,41,37,12,261,,1*70
$GBGSV,4,4,14,34,11,108,23,23,11,212,,1*7C
$GBGSV,2,1,07,40,78,170,45,33,74,121,43,43,51,076,44,28,45,335,45,4*70
$GBGSV,2,2,07,41,34,199,31,42,31,044,33,34,11,108,18,4*46
$GNGGA,041536.000,2500.7953338,N,12132.4377401,E,4,55,0.52,16.010,M,15.25,M,1,3335*41
$GNRMC,041536.000,A,2500.7953338,N,12132.4377401,E,0.00,341.24,270623,,,R,V*18
$GPHDT,225.751,T*33
$GNGGA,041536.200,2500.7953368,N,12132.4377418,E,4,55,0.52,16.008,M,15.25,M,1,3335*47
$GNRMC,041536.200,A,2500.7953368,N,12132.4377418,E,0.00,341.24,270623,,,R,V*17
$GPHDT,225.592,T*3E
$GNGGA,041536.400,2500.7953360,N,12132.4377416,E,4,55,0.52,16.000,M,15.25,M,1,3335*4F
$GNRMC,041536.400,A,2500.7953360,N,12132.4377416,E,0.00,341.24,270623,,,R,V*17
$GPHDT,225.404,T*30
$GNGGA,041536.600,2500.7953355,N,12132.4377419,E,4,55,0.52,16.007,M,15.25,M,1,3335*43
$GNRMC,041536.600,A,2500.7953355,N,12132.4377419,E,0.00,341.24,270623,,,R,V*1C
$GPHDT,225.210,T*33
$GNGGA,041536.800,2500.7953348,N,12132.4377413,E,4,54,0.52,16.004,M,15.25,M,0,3335*48
$GNRMC,041536.800,A,2500.7953348,N,12132.4377413,E,0.00,341.24,270623,,,R,V*14
$GPHDT,225.420,T*36
$GNGSA,A,3,19,195,196,199,17,06,20,09,194,11,04,,0.98,0.52,0.83,1*05
$GNGSA,A,3,68,67,83,82,69,,,,,,,,0.98,0.52,0.83,2*0E
$GNGSA,A,3,10,12,24,04,19,25,33,,,,,,0.98,0.52,0.83,3*01
$GNGSA,A,3,40,07,33,10,14,43,28,41,42,11,34,,0.98,0.52,0.83,4*07
$GPGSV,4,1,15,19,72,060,42,195,68,048,41,196,68,121,39,50,60,167,39,1*63
$GPGSV,4,2,15,199,60,167,36,17,59,105,41,06,49,000,43,20,39,242,17,1*59
$GPGSV,4,3,15,09,37,089,41,194,36,173,42,11,33,299,19,12,21,308,20,1*57
$GPGSV,4,4,15,04,19,059,31,14,13,173,15,05,13,228,18,1*52
$GPGSV,2,1,08,196,68,121,45,195,68,048,44,199,60,167,47,06,49,000,47,8*56
$GPGSV,2,2,08,09,37,089,44,194,36,173,44,11,33,299,32,04,19,059,23,8*57
$GLGSV,2,1,07,68,64,129,40,67,38,043,39,83,38,358,30,82,36,057,18,1*70
$GLGSV,2,2,07,69,25,184,42,73,19,273,18,80,13,219,16,1*48
$GAGSV,3,1,09,10,49,350,43,12,45,030,35,24,43,229,39,04,38,147,40,7*79
$GAGSV,3,2,09,19,32,073,33,25,29,296,27,33,10,074,21,09,07,189,,7*7D
$GAGSV,3,3,09,36,02,279,,7*41
$GAGSV,2,1,07,10,49,350,46,12,45,030,38,24,43,229,40,04,38,147,44,1*72
$GAGSV,2,2,07,19,32,073,33,25,29,296,20,33,10,074,24,1*48
$GBGSV,4,1,15,40,78,170,41,07,75,228,40,33,74,121,44,10,71,271,38,1*7F
$GBGSV,4,2,15,08,56,283,,14,56,059,42,43,51,076,44,13,48,269,,1*7B
$GBGSV,4,3,15,28,45,335,45,41,34,199,18,42,31,044,36,11,28,094,41,1*73
$GBGSV,4,4,15,37,12,261,,23,11,212,,34,11,108,21,1*4D
$GBGSV,2,1,07,40,78,170,45,33,74,121,43,43,51,076,44,28,45,335,45,4*70
$GBGSV,2,2,07,41,34,199,31,42,31,044,33,34,11,108,18,4*46
$GNGGA,041537.000,2500.7953353,N,12132.4377411,E,4,55,0.52,15.995,M,15.25,M,1,3335*4B
$GNRMC,041537.000,A,2500.7953353,N,12132.4377411,E,0.00,341.24,270623,,,R,V*15
$GPHDT,225.554,T*34
$GNGGA,041537.200,2500.7953351,N,12132.4377433,E,4,56,0.52,16.013,M,15.25,M,1,3335*4C
$GNRMC,041537.200,A,2500.7953351,N,12132.4377433,E,0.00,341.24,270623,,,R,V*15
$GPHDT,225.670,T*31
$GNGGA,041537.400,2500.7953360,N,12132.4377445,E,4,56,0.52,16.010,M,15.25,M,1,3335*4A
$GNRMC,041537.400,A,2500.7953360,N,12132.4377445,E,0.00,341.24,270623,,,R,V*10
$GPHDT,225.522,T*35
$GNGGA,041537.600,2500.7953369,N,12132.4377453,E,4,56,0.52,16.013,M,15.25,M,0,3335*44
$GNRMC,041537.600,A,2500.7953369,N,12132.4377453,E,0.00,341.24,270623,,,R,V*1C
$GPHDT,225.574,T*36
$GNGGA,041537.800,2500.7953362,N,12132.4377443,E,4,56,0.52,16.008,M,15.25,M,0,3335*4A
$GNRMC,041537.800,A,2500.7953362,N,12132.4377443,E,0.00,341.24,270623,,,R,V*18
$GPHDT,225.823,T*39
$GNGSA,A,3,19,195,196,199,17,06,20,09,194,11,04,,0.98,0.52,0.83,1*05
$GNGSA,A,3,68,67,83,82,69,,,,,,,,0.98,0.52,0.83,2*0E
$GNGSA,A,3,10,12,24,04,19,25,33,,,,,,0.98,0.52,0.83,3*01
$GNGSA,A,3,40,07,33,10,14,43,28,41,42,11,34,,0.98,0.52,0.83,4*07
$GPGSV,4,1,15,19,72,060,42,195,68,048,41,196,68,121,38,50,60,167,39,1*62
$GPGSV,4,2,15,199,60,167,36,17,59,105,41,06,49,000,42,20,39,242,18,1*57
$GPGSV,4,3,15,09,37,089,40,194,36,173,42,11,33,299,19,12,21,308,19,1*5C
$GPGSV,4,4,15,04,19,059,30,14,13,173,14,05,13,228,18,1*52
$GPGSV,2,1,08,196,68,121,45,195,68,048,44,199,60,167,47,06,49,000,47,8*56
$GPGSV,2,2,08,09,37,089,44,194,36,173,44,11,33,299,31,04,19,059,25,8*52
$GLGSV,2,1,07,68,64,129,40,67,38,043,39,83,38,358,31,82,36,057,18,1*71
$GLGSV,2,2,07,69,25,184,42,73,19,273,21,80,13,219,16,1*42
$GAGSV,3,1,09,10,49,350,43,12,45,030,35,24,43,229,39,04,38,147,40,7*79
$GAGSV,3,2,09,19,32,073,33,25,29,296,27,33,10,074,21,09,07,189,,7*7D
$GAGSV,3,3,09,36,02,279,,7*41
$GAGSV,2,1,07,10,49,350,46,12,45,030,39,24,43,229,40,04,38,147,44,1*73
$GAGSV,2,2,07,19,32,073,33,25,29,296,21,33,10,074,25,1*48
$GBGSV,4,1,15,40,78,170,41,07,75,228,40,33,74,121,44,10,71,271,38,1*7F
$GBGSV,4,2,15,08,56,283,,14,56,059,42,43,51,076,44,13,48,269,,1*7B
$GBGSV,4,3,15,28,45,335,45,41,34,199,18,42,31,044,36,11,28,094,41,1*73
$GBGSV,4,4,15,37,12,261,,23,11,212,,34,11,108,23,1*4F
$GBGSV,2,1,07,40,78,170,45,33,74,121,43,43,51,076,44,28,45,335,45,4*70
$GBGSV,2,2,07,41,34,199,31,42,31,044,33,34,11,108,17,4*49
$GNGGA,041538.000,2500.7953371,N,12132.4377463,E,4,56,0.52,16.020,M,15.25,M,1,3335*46
$GNRMC,041538.000,A,2500.7953371,N,12132.4377463,E,0.00,341.24,270623,,,R,V*1F
$GPHDT,225.645,T*37
$GNGGA,041538.200,2500.7953373,N,12132.4377436,E,4,56,0.52,16.009,M,15.25,M,1,3335*4D
$GNRMC,041538.200,A,2500.7953373,N,12132.4377436,E,0.00,341.24,270623,,,R,V*1F
$GPHDT,225.535,T*33
$GNGGA,041538.400,2500.7953373,N,12132.4377439,E,4,56,0.52,16.006,M,15.25,M,1,3335*4B
$GNRMC,041538.400,A,2500.7953373,N,12132.4377439,E,0.00,341.24,270623,,,R,V*16
$GPHDT,225.521,T*36
$GNGGA,041538.600,2500.7953359,N,12132.4377467,E,4,56,0.52,16.028,M,15.25,M,1,3335*46
$GNRMC,041538.600,A,2500.7953359,N,12132.4377467,E,0.00,341.24,270623,,,R,V*17
$GPHDT,225.572,T*30
$GNGGA,041538.800,2500.7953375,N,12132.4377428,E,4,56,0.52,15.990,M,15.25,M,0,3335*45
$GNRMC,041538.800,A,2500.7953375,N,12132.4377428,E,0.00,341.24,270623,,,R,V*1C
$GPHDT,225.636,T*33
$GNGSA,A,3,19,196,195,199,17,06,20,09,194,11,04,,0.98,0.52,0.83,1*05
$GNGSA,A,3,68,67,83,82,69,,,,,,,,0.98,0.52,0.83,2*0E
$GNGSA,A,3,10,12,24,04,19,25,33,,,,,,0.98,0.52,0.83,3*01
$GNGSA,A,3,40,07,33,10,14,43,28,41,42,11,34,,0.98,0.52,0.83,4*07
$GPGSV,4,1,15,19,72,060,42,196,68,121,38,195,68,048,41,50,60,167,39,1*62
$GPGSV,4,2,15,199,60,167,36,17,59,105,41,06,49,000,42,20,39,242,17,1*58
$GPGSV,4,3,15,09,37,089,40,194,36,173,42,11,33,299,21,12,21,308,18,1*56
$GPGSV,4,4,15,04,19,059,29,05,13,228,18,14,13,173,15,1*5B
$GPGSV,2,1,08,196,68,121,45,195,68,048,44,199,60,167,47,06,49,000,47,8*56
$GPGSV,2,2,08,09,37,089,44,194,36,173,44,11,33,299,31,04,19,059,25,8*52
$GLGSV,2,1,07,68,64,129,40,67,38,043,39,83,38,358,31,82,36,057,17,1*7E
$GLGSV,2,2,07,69,25,184,42,73,19,273,25,80,13,219,15,1*45
$GAGSV,2,1,08,10,49,350,43,12,45,030,35,24,43,229,39,04,38,147,40,7*79
$GAGSV,2,2,08,19,32,073,34,25,29,296,26,33,10,074,21,36,02,279,,7*7E
$GAGSV,2,1,07,10,49,350,46,12,45,030,39,24,43,229,40,04,38,147,44,1*73
$GAGSV,2,2,07,19,32,073,33,25,29,296,21,33,10,074,25,1*48
$GBGSV,4,1,15,40,78,170,41,07,75,228,40,33,74,121,44,10,71,271,38,1*7F
$GBGSV,4,2,15,14,56,059,42,08,56,283,,43,51,076,44,13,48,269,,1*7B
$GBGSV,4,3,15,28,45,335,45,41,34,199,18,42,31,044,36,11,28,094,41,1*73
$GBGSV,4,4,15,37,12,261,,34,11,108,24,23,11,212,,1*48
$GBGSV,2,1,07,40,78,170,45,33,74,121,43,43,51,076,44,28,45,335,45,4*70
$GBGSV,2,2,07,41,34,199,31,42,31,044,33,34,11,108,14,4*4A
$GNGGA,041539.000,2500.7953362,N,12132.4377413,E,4,56,0.52,15.991,M,15.25,M,1,3335*42
$GNRMC,041539.000,A,2500.7953362,N,12132.4377413,E,0.00,341.24,270623,,,R,V*1B
$GPHDT,225.693,T*3C
$GNGGA,041539.200,2500.7953367,N,12132.4377411,E,4,56,0.52,15.999,M,15.25,M,1,3335*4F
$GNRMC,041539.200,A,2500.7953367,N,12132.4377411,E,0.00,341.24,270623,,,R,V*1E
$GPHDT,225.489,T*35
$GNGGA,041539.400,2500.7953358,N,12132.4377438,E,4,56,0.52,16.002,M,15.25,M,1,3335*46
$GNRMC,041539.400,A,2500.7953358,N,12132.4377438,E,0.00,341.24,270623,,,R,V*1F
$GPHDT,225.782,T*3D
$GNGGA,041539.600,2500.7953358,N,12132.4377415,E,4,56,0.52,15.993,M,15.25,M,1,3335*49
$GNRMC,041539.600,A,2500.7953358,N,12132.4377415,E,0.00,341.24,270623,,,R,V*12
$GPHDT,225.786,T*39
$GNGGA,041539.800,2500.7953331,N,12132.4377400,E,4,56,0.52,15.999,M,15.25,M,0,3335*47
$GNRMC,041539.800,A,2500.7953331,N,12132.4377400,E,0.00,341.24,270623,,,R,V*17
$GPHDT,225.778,T*38
$GNGSA,A,3,19,196,195,199,17,06,20,09,194,11,04,,0.98,0.52,0.83,1*05
$GNGSA,A,3,68,67,83,82,69,,,,,,,,0.98,0.52,0.83,2*0E
$GNGSA,A,3,10,12,24,04,19,25,33,,,,,,0.98,0.52,0.83,3*01
$GNGSA,A,3,40,07,33,10,14,43,28,41,42,11,34,,0.98,0.52,0.83,4*07
$GPGSV,4,1,15,19,72,060,42,196,68,121,38,195,68,048,41,50,60,167,39,1*62
$GPGSV,4,2,15,199,60,167,36,17,59,105,40,06,49,000,42,20,39,242,14,1*5A
$GPGSV,4,3,15,09,37,089,40,194,36,173,42,11,33,299,22,12,21,308,18,1*55
$GPGSV,4,4,15,04,19,059,29,05,13,228,18,14,13,173,13,1*5D
$GPGSV,2,1,08,196,68,121,45,195,68,048,44,199,60,167,47,06,49,000,47,8*56
$GPGSV,2,2,08,09,37,089,44,194,36,173,44,11,33,299,31,04,19,059,24,8*53
$GLGSV,2,1,07,68,64,129,40,67,38,043,39,83,38,358,31,82,36,057,17,1*7E
$GLGSV,2,2,07,69,25,184,42,73,19,273,25,80,13,219,15,1*45
$GAGSV,2,1,08,10,49,350,43,12,45,030,35,24,43,229,39,04,38,147,40,7*79
$GAGSV,2,2,08,19,32,073,34,25,29,296,26,33,10,074,21,36,02,279,,7*7E
$GAGSV,2,1,07,10,49,350,46,12,45,030,39,24,43,229,40,04,38,147,44,1*73
$GAGSV,2,2,07,19,32,073,33,25,29,296,22,33,10,074,26,1*48
$GBGSV,4,1,15,40,78,170,41,07,75,228,40,33,74,121,44,10,71,271,38,1*7F
$GBGSV,4,2,15,14,56,059,42,08,56,283,,43,51,076,44,13,48,269,,1*7B
$GBGSV,4,3,15,28,45,335,45,41,34,199,18,42,31,044,36,11,28,094,41,1*73
$GBGSV,4,4,15,37,12,261,,34,11,108,23,23,11,212,,1*4F
$GBGSV,2,1,07,40,78,170,45,33,74,121,43,43,51,076,44,28,45,335,45,4*70
$GBGSV,2,2,07,41,34,199,31,42,31,044,33,34,11,108,14,4*4A
$GNGGA,041540.000,2500.7953358,N,12132.4377411,E,4,56,0.52,15.990,M,15.25,M,1,3335*46
$GNRMC,041540.000,A,2500.7953358,N,12132.4377411,E,0.00,341.24,270623,,,R,V*1E
$GPHDT,225.708,T*3F
$GNGGA,041540.200,2500.7953356,N,12132.4377431,E,4,55,0.52,16.007,M,15.25,M,1,3335*4F
$GNRMC,041540.200,A,2500.7953356,N,12132.4377431,E,0.00,341.24,270623,,,R,V*10
$GPHDT,225.647,T*35
$GNGGA,041540.400,2500.7953367,N,12132.4377395,E,4,56,0.52,15.998,M,15.25,M,1,3335*4D
$GNRMC,041540.400,A,2500.7953367,N,12132.4377395,E,0.00,341.24,270623,,,R,V*1D
$GPHDT,225.760,T*31
$GNGGA,041540.600,2500.7953371,N,12132.4377416,E,4,57,0.51,16.003,M,15.25,M,1,3335*4E
$GNRMC,041540.600,A,2500.7953371,N,12132.4377416,E,0.00,341.24,270623,,,R,V*14
$GPHDT,225.585,T*38
$GNGGA,041540.800,2500.7953379,N,12132.4377433,E,4,57,0.51,16.003,M,15.25,M,0,3335*4E
$GNRMC,041540.800,A,2500.7953379,N,12132.4377433,E,0.00,341.24,270623,,,R,V*15
$GPHDT,225.658,T*3B
$GNGSA,A,3,19,195,196,199,17,06,09,194,11,04,14,,0.95,0.52,0.79,1*0A
$GNGSA,A,3,68,67,83,82,69,,,,,,,,0.95,0.52,0.79,2*06
$GNGSA,A,3,10,12,24,04,19,25,33,,,,,,0.95,0.52,0.79,3*09
$GNGSA,A,3,40,07,33,10,14,43,28,42,11,34,41,,0.95,0.52,0.79,4*0F
$GPGSV,4,1,15,19,72,060,42,195,68,048,41,196,68,121,38,50,60,167,39,1*62
$GPGSV,4,2,15,199,60,167,36,17,59,105,40,06,49,000,42,20,39,242,15,1*5B
$GPGSV,4,3,15,09,37,089,40,194,36,173,42,11,33,299,24,12,21,308,19,1*52
$GPGSV,4,4,15,04,19,059,26,14,13,