$FW : RTK35X,V1.1X0314AS,Lib20210517,1*54
$Tool : LOCOSYS , GNSS Firebird , v1.0.0.19*39
$---------------------------------------------------*2D
$GPHDT,45.796,T*0C
$GNGGA,095901.200,2500.7829469,N,12132.4668218,E,4,31,0.80,15.887,M,15.25,M,4,3335*45
$GNRMC,095901.200,A,2500.7829469,N,12132.4668218,E,0.02,316.85,260623,,,R,V*1B
$GPHDT,46.083,T*0C
$GNGGA,095901.400,2500.7829444,N,12132.4668218,E,4,31,0.80,15.896,M,15.25,M,4,3335*4C
$GNRMC,095901.400,A,2500.7829444,N,12132.4668218,E,0.02,316.85,260623,,,R,V*12
$GPHDT,45.948,T*01
$GNGGA,095901.600,2500.7829446,N,12132.4668227,E,4,31,0.80,15.893,M,15.25,M,4,3335*45
$GNRMC,095901.600,A,2500.7829446,N,12132.4668227,E,0.00,316.85,260623,,,R,V*1C
$GPHDT,46.028,T*0D
$GNGGA,095901.800,2500.7829448,N,12132.4668230,E,4,31,0.84,15.903,M,15.25,M,4,3335*4F
$GNRMC,095901.800,A,2500.7829448,N,12132.4668230,E,0.01,316.85,260623,,,R,V*1B
$GPHDT,45.822,T*0C
$GNGSA,A,3,196,199,15,24,195,05,13,29,20,,,,1.62,0.84,1.38,1*3C
$GNGSA,A,3,84,79,,,,,,,,,,,1.62,0.84,1.38,2*03
$GNGSA,A,3,08,15,,,,,,,,,,,1.62,0.84,1.38,3*0C
$GNGSA,A,3,38,39,16,06,29,37,46,,,,,,1.62,0.84,1.38,4*0A
$GPGSV,3,1,10,196,72,048,42,199,60,167,37,15,59,356,40,24,56,176,43,1*6B
$GPGSV,3,2,10,195,50,175,44,05,40,077,45,41,38,241,36,13,37,033,38,1*5E
$GPGSV,3,3,10,29,23,227,39,20,22,101,39,1*6A
$GPGSV,2,1,05,196,72,048,45,199,60,167,46,24,56,176,47,195,50,175,45,8*54
$GPGSV,2,2,05,194,,,26,8*50
$GLGSV,1,1,03,84,54,209,34,79,25,075,33,69,,,19,1*76
$GAGSV,1,1,03,08,63,339,37,15,58,167,40,07,,,34,7*7D
$GAGSV,1,1,02,08,63,339,41,15,58,167,45,1*7E
$GBGSV,3,1,10,38,70,029,44,39,69,214,44,16,60,208,43,06,57,208,40,1*76
$GBGSV,3,2,10,29,44,246,42,37,34,085,43,46,31,154,45,32,17,067,33,1*75
$GBGSV,3,3,10,08,,,42,20,,,16,1*7C
$GBGSV,2,1,08,38,70,029,45,39,69,214,43,29,44,246,40,37,34,085,41,4*7F
$GBGSV,2,2,08,46,31,154,45,30,22,184,31,32,17,067,16,20,,,21,4*46
$GNGGA,095902.000,2500.7829445,N,12132.4668235,E,4,31,0.84,15.900,M,15.25,M,5,3335*4E
$GNRMC,095902.000,A,2500.7829445,N,12132.4668235,E,0.00,316.85,260623,,,R,V*19
$GPHDT,45.813,T*0E
$GNGGA,095902.200,2500.7829471,N,12132.4668241,E,4,32,0.82,15.887,M,15.25,M,5,3335*43
$GNRMC,095902.200,A,2500.7829471,N,12132.4668241,E,0.01,316.85,260623,,,R,V*1E
$GPHDT,45.868,T*02
$GNGGA,095902.400,2500.7829421,N,12132.4668250,E,4,33,0.81,15.909,M,15.25,M,5,3335*45
$GNRMC,095902.400,A,2500.7829421,N,12132.4668250,E,0.00,316.85,260623,,,R,V*1C
$GPHDT,45.881,T*05
$GNGGA,095902.600,2500.7829436,N,12132.4668241,E,4,33,0.81,15.901,M,15.25,M,5,3335*49
$GNRMC,095902.600,A,2500.7829436,N,12132.4668241,E,0.01,316.85,260623,,,R,V*19
$GPHDT,46.135,T*00
$GNGGA,095902.800,2500.7829443,N,12132.4668246,E,4,33,0.81,15.899,M,15.25,M,5,3335*42
$GNRMC,095902.800,A,2500.7829443,N,12132.4668246,E,0.00,316.85,260623,,,R,V*13
$GPHDT,46.086,T*09
$GNGSA,A,3,196,199,15,24,195,05,13,29,20,,,,1.51,0.81,1.28,1*38
$GNGSA,A,3,84,79,,,,,,,,,,,1.51,0.81,1.28,2*07
$GNGSA,A,3,08,15,,,,,,,,,,,1.51,0.81,1.28,3*08
$GNGSA,A,3,38,39,08,16,06,29,37,46,30,,,,1.51,0.81,1.28,4*05
$GPGSV,3,1,10,196,72,048,42,199,60,167,37,15,59,356,40,24,56,176,43,1*6B
$GPGSV,3,2,10,195,50,175,44,05,40,077,45,41,38,241,36,13,37,033,38,1*5E
$GPGSV,3,3,10,29,23,227,39,20,22,101,39,1*6A
$GPGSV,2,1,05,196,72,048,45,199,60,167,47,24,56,176,47,195,50,175,45,8*55
$GPGSV,2,2,05,194,,,26,8*50
$GLGSV,1,1,03,84,54,209,34,79,25,075,33,69,,,16,1*79
$GAGSV,1,1,03,08,63,339,37,15,58,167,41,07,,,32,7*7A
$GAGSV,1,1,02,08,63,339,42,15,58,167,45,1*7D
$GBGSV,3,1,11,38,70,029,44,39,69,214,43,08,60,003,42,16,60,208,43,1*71
$GBGSV,3,2,11,06,57,208,41,29,44,246,42,37,34,085,43,46,31,154,45,1*79
$GBGSV,3,3,11,30,22,184,,32,17,067,33,20,,,12,1*7F
$GBGSV,2,1,08,38,70,029,45,39,69,214,43,29,44,246,40,37,34,085,41,4*7F
$GBGSV,2,2,08,46,31,154,45,30,22,184,31,32,17,067,24,20,,,22,4*44
$GNGGA,095903.000,2500.7829417,N,12132.4668250,E,4,33,0.81,15.908,M,15.25,M,6,3335*47
$GNRMC,095903.000,A,2500.7829417,N,12132.4668250,E,0.00,316.85,260623,,,R,V*1C
$GPHDT,46.084,T*0B
$GNGGA,095903.200,2500.7829421,N,12132.4668249,E,4,33,0.81,15.900,M,15.25,M,6,3335*40
$GNRMC,095903.200,A,2500.7829421,N,12132.4668249,E,0.00,316.85,260623,,,R,V*13
$GPHDT,45.864,T*0E
$GNGGA,095903.400,2500.7829461,N,12132.4668218,E,4,33,0.81,15.875,M,15.25,M,5,3335*46
$GNRMC,095903.400,A,2500.7829461,N,12132.4668218,E,0.00,316.85,260623,,,R,V*15
$GPHDT,46.032,T*06
$GNGGA,095903.600,2500.7829456,N,12132.4668219,E,4,33,0.81,15.869,M,15.25,M,5,3335*4C
$GNRMC,095903.600,A,2500.7829456,N,12132.4668219,E,0.00,316.85,260623,,,R,V*12
$GPHDT,46.068,T*09
$GNGGA,095903.800,2500.7829434,N,12132.4668219,E,4,33,0.81,15.884,M,15.25,M,5,3335*45
$GNRMC,095903.800,A,2500.7829434,N,12132.4668219,E,0.00,316.85,260623,,,R,V*18
$GPHDT,45.851,T*08
$GNGSA,A,3,196,199,15,24,195,05,13,29,20,,,,1.51,0.81,1.28,1*38
$GNGSA,A,3,84,79,,,,,,,,,,,1.51,0.81,1.28,2*07
$GNGSA,A,3,08,15,,,,,,,,,,,1.51,0.81,1.28,3*08
$GNGSA,A,3,38,39,08,16,06,29,37,46,30,,,,1.51,0.81,1.28,4*05
$GPGSV,3,1,10,196,72,048,42,199,60,167,37,15,59,356,40,24,56,176,43,1*6B
$GPGSV,3,2,10,195,50,175,44,05,40,077,45,41,38,241,36,13,37,033,39,1*5F
$GPGSV,3,3,10,29,23,227,40,20,22,101,39,1*64
$GPGSV,2,1,05,196,72,048,45,199,60,167,47,24,56,176,47,195,50,175,45,8*55
$GPGSV,2,2,05,194,,,27,8*51
$GLGSV,1,1,03,84,54,209,34,79,25,075,34,69,,,15,1*7D
$GAGSV,1,1,03,08,63,339,37,15,58,167,41,07,,,34,7*7C
$GAGSV,1,1,02,08,63,339,42,15,58,167,45,1*7D
$GBGSV,3,1,11,38,70,029,44,39,69,214,43,08,60,003,42,16,60,208,43,1*71
$GBGSV,3,2,11,06,57,208,41,29,44,246,42,37,34,085,43,46,31,154,45,1*79
$GBGSV,3,3,11,30,22,184,30,32,17,067,33,20,,,12,1*7C
$GBGSV,2,1,08,38,70,029,45,39,69,214,43,29,44,246,40,37,34,085,41,4*7F
$GBGSV,2,2,08,46,31,154,45,30,22,184,31,32,17,067,24,20,,,22,4*44
$GNGGA,095904.000,2500.7829444,N,12132.4668236,E,4,34,0.81,15.877,M,15.25,M,4,3335*4A
$GNRMC,095904.000,A,2500.7829444,N,12132.4668236,E,0.00,316.85,260623,,,R,V*1D
$GPHDT,45.662,T*06
$GNGGA,095904.200,2500.7829480,N,12132.4668194,E,4,34,0.81,15.841,M,15.25,M,1,3335*4B
$GNRMC,095904.200,A,2500.7829480,N,12132.4668194,E,0.00,316.85,260623,,,R,V*1C
$GPHDT,46.362,T*00
$GNGGA,095904.400,2500.7829481,N,12132.4668223,E,4,34,0.81,15.851,M,15.25,M,1,3335*42
$GNRMC,095904.400,A,2500.7829481,N,12132.4668223,E,0.00,316.85,260623,,,R,V*14
$GPHDT,45.984,T*01
$GNGGA,095904.600,2500.7829476,N,12132.4668222,E,4,34,0.81,15.852,M,15.25,M,0,3335*4B
$GNRMC,095904.600,A,2500.7829476,N,12132.4668222,E,0.00,316.85,260623,,,R,V*1F
$GPHDT,45.986,T*03
$GNGGA,095904.800,2500.7829463,N,12132.4668227,E,4,34,0.81,15.858,M,15.25,M,0,3335*4E
$GNRMC,095904.800,A,2500.7829463,N,12132.4668227,E,0.00,316.85,260623,,,R,V*10
$GPHDT,45.953,T*0B
$GNGSA,A,3,196,199,15,24,195,05,13,29,20,,,,1.51,0.81,1.28,1*38
$GNGSA,A,3,84,79,,,,,,,,,,,1.51,0.81,1.28,2*07
$GNGSA,A,3,08,15,,,,,,,,,,,1.51,0.81,1.28,3*08
$GNGSA,A,3,38,39,08,16,06,29,37,46,30,,,,1.51,0.81,1.28,4*05
$GPGSV,3,1,10,196,72,048,42,199,60,167,37,15,59,356,40,24,56,176,43,1*6B
$GPGSV,3,2,10,195,50,175,44,05,40,077,45,41,38,241,36,13,37,033,39,1*5F
$GPGSV,3,3,10,29,23,227,40,20,22,101,39,1*64
$GPGSV,2,1,05,196,72,048,45,199,60,167,47,24,56,176,47,195,50,175,45,8*55
$GPGSV,2,2,05,194,,,27,8*51
$GLGSV,1,1,03,84,54,209,34,79,25,075,34,69,,,19,1*71
$GAGSV,1,1,03,08,63,339,37,15,58,167,41,07,,,33,7*7B
$GAGSV,1,1,02,08,63,339,42,15,58,167,45,1*7D
$GBGSV,3,1,10,38,70,029,44,39,69,214,43,08,60,003,42,16,60,208,43,1*70
$GBGSV,3,2,10,06,57,208,41,29,44,246,42,37,34,085,43,46,31,154,45,1*78
$GBGSV,3,3,10,30,22,184,31,32,17,067,33,1*7D
$GBGSV,2,1,07,38,70,029,45,39,69,214,43,29,44,246,40,37,34,085,41,4*70
$GBGSV,2,2,07,46,31,154,45,30,22,184,31,32,17,067,24,4*49
$GNGGA,095905.000,2500.7829467,N,12132.4668221,E,4,34,0.81,15.865,M,15.25,M,1,3335*4A
$GNRMC,095905.000,A,2500.7829467,N,12132.4668221,E,0.00,316.85,260623,,,R,V*1B
$GPHDT,45.857,T*0E
$GNGGA,095905.200,2500.7829448,N,12132.4668236,E,4,34,0.81,15.867,M,15.25,M,1,3335*41
$GNRMC,095905.200,A,2500.7829448,N,12132.4668236,E,0.00,316.85,260623,,,R,V*12
$GPHDT,45.854,T*0D
$GNGGA,095905.400,2500.7829470,N,12132.4668208,E,4,34,0.81,15.849,M,15.25,M,1,3335*4D
$GNRMC,095905.400,A,2500.7829470,N,12132.4668208,E,0.00,316.85,260623,,,R,V*12
$GPHDT,46.076,T*06
$GNGGA,095905.600,2500.7829418,N,12132.4668254,E,4,34,0.81,15.892,M,15.25,M,1,3335*4E
$GNRMC,095905.600,A,2500.7829418,N,12132.4668254,E,0.00,316.85,260623,,,R,V*17
$GPHDT,46.086,T*09
$GNGGA,095905.800,2500.7829442,N,12132.4668238,E,4,34,0.81,15.862,M,15.25,M,1,3335*4A
$GNRMC,095905.800,A,2500.7829442,N,12132.4668238,E,0.00,316.85,260623,,,R,V*1C
$GPHDT,45.758,T*0E
$GNGSA,A,3,196,199,15,24,195,05,13,29,20,,,,1.51,0.81,1.28,1*38
$GNGSA,A,3,84,79,,,,,,,,,,,1.51,0.81,1.28,2*07
$GNGSA,A,3,08,15,,,,,,,,,,,1.51,0.81,1.28,3*08
$GNGSA,A,3,38,39,08,16,06,29,37,46,30,,,,1.51,0.81,1.28,4*05
$GPGSV,3,1,10,196,72,048,42,199,60,167,37,15,59,356,40,24,56,176,43,1*6B
$GPGSV,3,2,10,195,50,175,44,05,40,077,45,41,38,241,36,13,37,033,39,1*5F
$GPGSV,3,3,10,29,23,227,40,20,22,101,39,1*64
$GPGSV,2,1,05,196,72,048,45,199,60,167,47,24,56,176,47,195,50,175,45,8*55
$GPGSV,2,2,05,194,,,27,8*51
$GLGSV,1,1,03,84,54,209,34,79,25,075,34,69,,,22,1*79
$GAGSV,1,1,03,08,63,339,37,15,58,167,41,07,,,33,7*7B
$GAGSV,1,1,02,08,63,339,43,15,58,167,45,1*7C
$GBGSV,3,1,10,38,70,029,44,39,69,214,43,08,60,003,42,16,60,208,43,1*70
$GBGSV,3,2,10,06,57,208,41,29,44,246,42,37,34,085,43,46,31,154,45,1*78
$GBGSV,3,3,10,30,22,184,30,32,17,067,33,1*7C
$GBGSV,2,1,07,38,70,029,45,39,69,214,43,29,44,246,40,37,34,085,41,4*70
$GBGSV,2,2,07,46,31,154,45,30,22,184,31,32,17,067,24,4*49
$GNGGA,095906.000,2500.7829437,N,12132.4668209,E,4,34,0.81,15.870,M,15.25,M,2,3335*41
$GNRMC,095906.000,A,2500.7829437,N,12132.4668209,E,0.00,316.85,260623,,,R,V*17
$GPHDT,45.914,T*08
$GNGGA,095906.200,2500.7829440,N,12132.4668227,E,4,34,0.81,15.869,M,15.25,M,2,3335*47
$GNRMC,095906.200,A,2500.7829440,N,12132.4668227,E,0.00,316.85,260623,,,R,V*19
$GPHDT,45.635,T*04
$GNGGA,095906.400,2500.7829454,N,12132.4668207,E,4,34,0.81,15.864,M,15.25,M,2,3335*4B
$GNRMC,095906.400,A,2500.7829454,N,12132.4668207,E,0.00,316.85,260623,,,R,V*18
$GPHDT,45.907,T*0A
$GNGGA,095906.600,2500.7829439,N,12132.4668238,E,4,34,0.81,15.878,M,15.25,M,2,3335*43
$GNRMC,095906.600,A,2500.7829439,N,12132.4668238,E,0.00,316.85,260623,,,R,V*1D
$GPHDT,45.873,T*08
$GNGGA,095906.800,2500.7829469,N,12132.4668211,E,4,34,0.81,15.868,M,15.25,M,2,3335*42
$GNRMC,095906.800,A,2500.7829469,N,12132.4668211,E,0.00,316.85,260623,,,R,V*1D
$GPHDT,45.753,T*05
$GNGSA,A,3,196,199,15,24,195,05,13,29,20,,,,1.51,0.81,1.28,1*38
$GNGSA,A,3,84,79,,,,,,,,,,,1.51,0.81,1.28,2*07
$GNGSA,A,3,08,15,,,,,,,,,,,1.51,0.81,1.28,3*08
$GNGSA,A,3,38,39,08,16,06,29,37,46,30,,,,1.51,0.81,1.28,4*05
$GPGSV,3,1,10,196,72,048,42,199,60,167,37,15,59,356,40,24,56,176,43,1*6B
$GPGSV,3,2,10,195,50,175,44,05,40,077,44,41,38,241,38,13,37,033,38,1*51
$GPGSV,3,3,10,29,23,227,40,20,22,101,39,1*64
$GPGSV,2,1,05,196,72,048,45,199,60,167,46,24,56,176,47,195,50,175,45,8*54
$GPGSV,2,2,05,194,,,29,8*5F
$GLGSV,1,1,03,84,54,209,34,79,25,075,34,69,,,25,1*7E
$GAGSV,1,1,03,08,63,339,37,15,58,167,41,07,,,33,7*7B
$GAGSV,1,1,02,08,63,339,43,15,58,167,45,1*7C
$GBGSV,3,1,11,38,70,029,44,39,69,214,43,08,60,003,42,16,60,208,43,1*71
$GBGSV,3,2,11,06,57,208,41,29,44,246,42,37,34,085,43,46,31,154,45,1*79
$GBGSV,3,3,11,30,22,184,30,32,17,067,33,20,,,30,1*7C
$GBGSV,2,1,08,38,70,029,45,39,69,214,43,29,44,246,40,37,34,085,41,4*7F
$GBGSV,2,2,08,46,31,154,45,30,22,184,29,32,17,067,24,20,,,21,4*4E
$GNGGA,095907.000,2500.7829443,N,12132.4668231,E,4,34,0.81,15.854,M,15.25,M,3,3335*4F
$GNRMC,095907.000,A,2500.7829443,N,12132.4668231,E,0.00,316.85,260623,,,R,V*1E
$GPHDT,45.660,T*04
$GNGGA,095907.200,2500.7829464,N,12132.4668215,E,4,34,0.81,15.855,M,15.25,M,3,3335*4F
$GNRMC,095907.200,A,2500.7829464,N,12132.4668215,E,0.00,316.85,260623,,,R,V*1F
$GPHDT,45.798,T*02
$GNGGA,095907.400,2500.7829439,N,12132.4668239,E,4,34,0.81,15.865,M,15.25,M,3,3335*4C
$GNRMC,095907.400,A,2500.7829439,N,12132.4668239,E,0.00,316.85,260623,,,R,V*1F
$GPHDT,45.589,T*00
$GNGGA,095907.600,2500.7829450,N,12132.4668213,E,4,34,0.81,15.866,M,15.25,M,3,3335*4A
$GNRMC,095907.600,A,2500.7829450,N,12132.4668213,E,0.00,316.85,260623,,,R,V*1A
$GPHDT,45.572,T*04
$GNGGA,095907.800,2500.7829459,N,12132.4668223,E,4,34,0.81,15.866,M,15.25,M,3,3335*4E
$GNRMC,095907.800,A,2500.7829459,N,12132.4668223,E,0.00,316.85,260623,,,R,V*1E
$GPHDT,45.763,T*06
$GNGSA,A,3,196,199,15,24,195,05,13,29,20,,,,1.51,0.81,1.28,1*38
$GNGSA,A,3,84,79,,,,,,,,,,,1.51,0.81,1.28,2*07
$GNGSA,A,3,08,15,,,,,,,,,,,1.51,0.81,1.28,3*08
$GNGSA,A,3,38,39,08,16,06,29,37,46,30,,,,1.51,0.81,1.28,4*05
$GPGSV,3,1,10,196,72,048,42,199,60,167,36,15,59,356,40,24,56,176,43,1*6A
$GPGSV,3,2,10,195,50,175,44,05,40,077,44,41,38,241,39,13,36,033,36,1*5F
$GPGSV,3,3,10,29,23,227,40,20,22,101,38,1*65
$GPGSV,2,1,05,196,72,048,45,199,60,167,46,24,56,176,47,195,50,175,45,8*54
$GPGSV,2,2,05,194,,,28,8*5E
$GLGSV,1,1,03,84,54,209,34,79,25,075,34,69,,,29,1*72
$GAGSV,1,1,03,08,63,339,37,15,58,167,41,07,,,33,7*7B
$GAGSV,1,1,02,08,63,339,43,15,58,167,45,1*7C
$GBGSV,3,1,11,38,70,029,44,39,69,214,43,08,60,003,42,16,60,208,43,1*71
$GBGSV,3,2,11,06,57,208,41,29,44,246,42,37,34,085,43,46,31,154,45,1*79
$GBGSV,3,3,11,30,22,184,30,32,17,067,33,20,,,30,1*7C
$GBGSV,2,1,08,38,70,029,45,39,69,214,43,29,44,246,39,37,34,085,41,4*71
$GBGSV,2,2,08,46,31,154,45,30,22,184,30,32,17,067,24,20,,,22,4*45
$GNGGA,095908.000,2500.7829443,N,12132.4668233,E,4,34,0.81,15.868,M,15.25,M,4,3335*4A
$GNRMC,095908.000,A,2500.7829443,N,12132.4668233,E,0.00,316.85,260623,,,R,V*13
$GPHDT,45.367,T*06
$GNGGA,095908.200,2500.7829470,N,12132.4668210,E,4,34,0.81,15.856,M,15.25,M,4,3335*44
$GNRMC,095908.200,A,2500.7829470,N,12132.4668210,E,0.00,316.85,260623,,,R,V*10
$GPHDT,46.015,T*03
$GNGGA,095908.400,2500.7829444,N,12132.4668243,E,4,34,0.81,15.870,M,15.25,M,4,3335*47
$GNRMC,095908.400,A,2500.7829444,N,12132.4668243,E,0.00,316.85,260623,,,R,V*17
$GPHDT,45.479,T*0E
$GNGGA,095908.600,2500.7829437,N,12132.4668261,E,4,34,0.81,15.872,M,15.25,M,4,3335*43
$GNRMC,095908.600,A,2500.7829437,N,12132.4668261,E,0.00,316.85,260623,,,R,V*11
$GPHDT,45.205,T*03
$GNGGA,095908.800,2500.7829441,N,12132.4668229,E,4,34,0.81,15.875,M,15.25,M,4,3335*47
$GNRMC,095908.800,A,2500.7829441,N,12132.4668229,E,0.00,316.85,260623,,,R,V*12
$GPHDT,45.758,T*0E
$GNGSA,A,3,196,199,15,24,195,05,13,29,20,,,,1.51,0.81,1.28,1*38
$GNGSA,A,3,84,79,,,,,,,,,,,1.51,0.81,1.28,2*07
$GNGSA,A,3,08,15,,,,,,,,,,,1.51,0.81,1.28,3*08
$GNGSA,A,3,38,39,08,16,06,29,37,46,30,,,,1.51,0.81,1.28,4*05
$GPGSV,3,1,10,196,72,048,42,199,60,167,36,15,59,357,40,24,56,176,43,1*6B
$GPGSV,3,2,10,195,50,175,44,05,40,077,44,41,38,241,39,13,36,033,36,1*5F
$GPGSV,3,3,10,29,23,227,40,20,22,101,38,1*65
$GPGSV,2,1,05,196,72,048,44,199,60,167,46,24,56,176,47,195,50,175,45,8*55
$GPGSV,2,2,05,194,,,27,8*51
$GLGSV,1,1,03,84,54,209,34,79,25,075,34,69,,,29,1*72
$GAGSV,1,1,03,08,63,339,37,15,58,167,41,07,,,32,7*7A
$GAGSV,1,1,02,08,63,339,42,15,58,167,45,1*7D
$GBGSV,3,1,11,38,70,029,44,39,69,214,43,08,60,003,42,16,60,208,43,1*71
$GBGSV,3,2,11,06,57,208,41,29,44,246,43,37,34,085,43,46,31,154,45,1*78
$GBGSV,3,3,11,30,22,184,29,32,17,067,33,20,,,30,1*74
$GBGSV,2,1,08,38,70,029,44,39,69,214,43,29,44,246,38,37,34,085,41,4*71
$GBGSV,2,2,08,46,31,154,45,30,22,184,29,32,17,067,24,20,,,23,4*4C
$GNGGA,095909.000,2500.7829428,N,12132.4668232,E,4,34,0.81,15.887,M,15.25,M,5,3335*47
$GNRMC,095909.000,A,2500.7829428,N,12132.4668232,E,0.00,316.85,260623,,,R,V*1E
$GPHDT,45.520,T*03
$GNGGA,095909.200,2500.7829438,N,12132.4668235,E,4,34,0.81,15.872,M,15.25,M,5,3335*49
$GNRMC,095909.200,A,2500.7829438,N,12132.4668235,E,0.00,316.85,260623,,,R,V*1A
$GPHDT,45.225,T*01
$GNGGA,095909.400,2500.7829486,N,12132.4668217,E,4,34,0.81,15.850,M,15.25,M,5,3335*4A
$GNRMC,095909.400,A,2500.7829486,N,12132.4668217,E,0.00,316.85,260623,,,R,V*19
$GPHDT,45.666,T*02
$GNGGA,095909.600,2500.7829461,N,12132.4668231,E,4,34,0.81,15.872,M,15.25,M,5,3335*45
$GNRMC,095909.600,A,2500.7829461,N,12132.4668231,E,0.00,316.85,260623,,,R,V*16
$GPHDT,45.070,T*03
$GNGGA,095909.800,2500.7829433,N,12132.4668233,E,4,34,0.81,15.873,M,15.25,M,5,3335*4F
$GNRMC,095909.800,A,2500.7829433,N,12132.4668233,E,0.00,316.85,260623,,,R,V*1D
$GPHDT,45.577,T*01
$GNGSA,A,3,196,199,15,24,195,05,13,29,20,,,,1.51,0.81,1.28,1*38
$GNGSA,A,3,84,79,,,,,,,,,,,1.51,0.81,1.28,2*07
$GNGSA,A,3,08,15,,,,,,,,,,,1.51,0.81,1.28,3*08
$GNGSA,A,3,38,39,08,16,06,29,37,46,30,,,,1.51,0.81,1.28,4*05
$GPGSV,3,1,10,196,72,048,42,199,60,167,36,15,59,357,40,24,56,176,43,1*6B
$GPGSV,3,2,10,195,50,175,45,05,40,077,44,41,38,241,39,13,36,033,35,1*5D
$GPGSV,3,3,10,29,23,227,40,20,22,101,38,1*65
$GPGSV,2,1,05,196,72,048,44,199,60,167,46,24,56,176,47,195,50,175,45,8*55
$GPGSV,2,2,05,194,,,27,8*51
$GLGSV,1,1,03,84,54,209,34,79,25,075,35,69,,,30,1*7B
$GAGSV,1,1,03,08,63,339,37,15,58,167,41,07,,,33,7*7B
$GAGSV,1,1,02,08,63,339,42,15,58,167,45,1*7D
$GBGSV,3,1,11,38,70,029,44,39,69,214,43,08,60,003,42,16,60,208,43,1*71
$GBGSV,3,2,11,06,57,208,41,29,44,246,43,37,34,085,43,46,31,154,45,1*78
$GBGSV,3,3,11,30,22,184,30,32,17,067,33,20,,,29,1*74
$GBGSV,2,1,08,38,70,029,44,39,69,214,43,29,44,246,38,37,34,085,41,4*71
$GBGSV,2,2,08,46,31,154,45,30,22,184,29,32,17,067,24,20,,,24,4*4B
$GNGGA,095910.000,2500.7829448,N,12132.4668217,E,4,34,0.81,15.867,M,15.25,M,6,3335*43
$GNRMC,095910.000,A,2500.7829448,N,12132.4668217,E,0.00,316.85,260623,,,R,V*17
$GPHDT,45.772,T*06
$GNGGA,095910.200,2500.7829456,N,12132.4668198,E,4,34,0.81,15.867,M,15.25,M,6,3335*4A
$GNRMC,095910.200,A,2500.7829456,N,12132.4668198,E,0.00,316.85,260623,,,R,V*1E
$GPHDT,46.028,T*0D
$GNGGA,095910.400,2500.7829459,N,12132.4668218,E,4,34,0.81,15.869,M,15.25,M,6,3335*46
$GNRMC,095910.400,A,2500.7829459,N,12132.4668218,E,0.00,316.85,260623,,,R,V*1C
$GPHDT,45.799,T*03
$GNGGA,095910.600,2500.7829459,N,12132.4668207,E,4,34,0.81,15.866,M,15.25,M,6,3335*45
$GNRMC,095910.600,A,2500.7829459,N,12132.4668207,E,0.00,316.85,260623,,,R,V*10
$GPHDT,45.554,T*00
$GNGGA,095910.800,2500.7829430,N,12132.4668213,E,4,34,0.81,15.882,M,15.25,M,6,3335*4B
$GNRMC,095910.800,A,2500.7829430,N,12132.4668213,E,0.00,316.85,260623,,,R,V*14
$GPHDT,45.063,T*01
$GNGSA,A,3,196,199,15,24,195,05,13,29,20,,,,1.51,0.81,1.28,1*38
$GNGSA,A,3,84,79,,,,,,,,,,,1.51,0.81,1.28,2*07
$GNGSA,A,3,08,15,,,,,,,,,,,1.51,0.81,1.28,3*08
$GNGSA,A,3,38,39,08,16,06,29,37,46,30,,,,1.51,0.81,1.28,4*05
$GPGSV,3,1,10,196,72,048,42,199,60,167,36,15,59,357,40,24,56,176,43,1*6B
$GPGSV,3,2,10,195,50,175,45,05,40,077,43,41,38,241,39,13,36,033,35,1*5A
$GPGSV,3,3,10,29,23,226,40,20,22,101,38,1*64
$GPGSV,2,1,05,196,72,048,44,199,60,167,46,24,56,176,47,195,50,175,45,8*55
$GPGSV,2,2,05,194,,,27,8*51
$GLGSV,1,1,03,84,54,209,34,79,25,075,35,69,,,30,1*7B
$GAGSV,1,1,03,08,63,339,37,15,58,167,41,07,,,33,7*7B
$GAGSV,1,1,02,08,63,339,42,15,58,167,45,1*7D
$GBGSV,3,1,11,38,70,029,44,39,69,214,43,08,60,003,42,16,60,208,43,1*71
$GBGSV,3,2,11,06,57,208,41,29,44,246,43,37,34,085,43,46,31,154,45,1*78
$GBGSV,3,3,11,30,22,184,30,32,17,067,33,20,,,29,1*74
$GBGSV,2,1,08,38,70,029,44,39,69,214,43,29,44,246,38,37,34,085,41,4*71
$GBGSV,2,2,08,46,31,154,45,30,22,184,29,32,17,067,25,20,,,24,4*4A
$GNGGA,095911.000,2500.7829470,N,12132.4668193,E,4,34,0.81,15.866,M,15.25,M,5,3335*44
$GNRMC,095911.000,A,2500.7829470,N,12132.4668193,E,0.00,316.85,260623,,,R,V*12
$GPHDT,45.508,T*09
$GNGGA,095911.200,2500.7829485,N,12132.4668177,E,4,34,0.81,15.866,M,15.25,M,4,3335*47
$GNRMC,095911.200,A,2500.7829485,N,12132.4668177,E,0.00,316.85,260623,,,R,V*10
$GPHDT,45.795,T*0F
$GNGGA,095911.400,2500.7829469,N,12132.4668195,E,4,34,0.81,15.864,M,15.25,M,1,3335*48
$GNRMC,095911.400,A,2500.7829469,N,12132.4668195,E,0.00,316.85,260623,,,R,V*18
$GPHDT,45.842,T*0A
$GNGGA,095911.600,2500.7829447,N,12132.4668205,E,4,34,0.81,15.880,M,15.25,M,1,3335*46
$GNRMC,095911.600,A,2500.7829447,N,12132.4668205,E,0.00,316.85,260623,,,R,V*1C
