$FW : RTK35X,V1.1X0314AS,Lib20210517,1*54
$Tool : LOCOSYS , GNSS Firebird , v1.0.0.19*39
$---------------------------------------------------*2D
SV,2,2,07,03,27,042,21,30,05,164,,25,04,070,,7*46
$GAGSV,2,1,05,08,62,342,42,13,62,304,35,15,57,168,45,07,34,263,40,1*70
$GAGSV,2,2,05,03,27,042,30,1*43
$GBGSV,3,1,12,39,70,217,43,38,70,030,35,08,61,004,38,16,60,210,44,1*72
$GBGSV,3,2,12,06,58,210,43,20,50,014,34,29,44,244,42,37,34,083,43,1*7E
$GBGSV,3,3,12,46,33,153,45,30,21,183,31,32,16,068,25,36,04,192,,1*7D
$GBGSV,2,1,08,38,70,030,41,39,70,217,46,20,50,014,29,29,44,244,44,4*79
$GBGSV,2,2,08,37,34,083,44,46,33,153,43,30,21,183,18,32,16,068,14,4*7F
$GNGGA,100249.000,2500.7829463,N,12132.4668239,E,4,47,0.62,15.872,M,15.25,M,1,3335*46
$GNRMC,100249.000,A,2500.7829463,N,12132.4668239,E,0.00,178.84,260623,,,R,V*13
$GPHDT,,T*1B
$GNGGA,100249.200,2500.7829483,N,12132.4668253,E,4,47,0.62,15.870,M,15.25,M,1,3335*44
$GNRMC,100249.200,A,2500.7829483,N,12132.4668253,E,0.00,178.84,260623,,,R,V*13
$GPHDT,,T*1B
$GNGGA,100249.400,2500.7829472,N,12132.4668249,E,4,47,0.62,15.881,M,15.25,M,1,3335*49
$GNRMC,100249.400,A,2500.7829472,N,12132.4668249,E,0.00,178.84,260623,,,R,V*10
$GPHDT,,T*1B
$GNGGA,100249.600,2500.7829491,N,12132.4668246,E,4,47,0.62,15.862,M,15.25,M,1,3335*44
$GNRMC,100249.600,A,2500.7829491,N,12132.4668246,E,0.00,178.84,260623,,,R,V*10
$GPHDT,,T*1B
$GNGGA,100249.800,2500.7829433,N,12132.4668279,E,4,47,0.62,15.884,M,15.25,M,1,3335*46
$GNRMC,100249.800,A,2500.7829433,N,12132.4668279,E,0.00,178.84,260623,,,R,V*1A
$GPHDT,,T*1B
$GNGSA,A,3,196,199,24,15,195,05,13,29,20,194,,,1.18,0.62,1.00,1*0E
$GNGSA,A,3,84,69,79,,,,,,,,,,1.18,0.62,1.00,2*02
$GNGSA,A,3,08,13,15,07,03,,,,,,,,1.18,0.62,1.00,3*04
$GNGSA,A,3,39,38,08,16,06,20,29,37,46,30,32,,1.18,0.62,1.00,4*0C
$GPGSV,3,1,12,196,72,049,39,199,60,167,36,24,58,175,46,15,58,359,43,1*60
$GPGSV,3,2,12,195,49,175,43,05,39,079,44,41,38,242,37,13,35,034,36,1*5B
$GPGSV,3,3,12,29,22,225,43,20,21,103,30,194,19,147,28,11,10,148,,1*5E
$GPGSV,2,1,05,196,72,049,43,199,60,167,46,24,58,175,48,195,49,175,44,8*58
$GPGSV,2,2,05,194,19,147,26,8*6A
$GLGSV,1,1,03,84,51,208,33,69,28,031,31,79,26,073,35,1*44
$GAGSV,2,1,07,08,62,342,38,13,62,304,32,15,57,168,43,07,34,263,35,7*7A
$GAGSV,2,2,07,03,27,042,22,30,05,164,,25,04,070,,7*45
$GAGSV,2,1,05,08,62,342,42,13,62,304,35,15,57,168,45,07,34,263,40,1*70
$GAGSV,2,2,05,03,27,042,29,1*4B
$GBGSV,3,1,11,39,70,217,43,38,70,030,36,08,61,004,38,16,60,210,44,1*72
$GBGSV,3,2,11,06,58,210,43,20,50,014,34,29,44,244,42,37,34,083,43,1*7D
$GBGSV,3,3,11,46,33,153,45,30,21,183,32,32,16,068,26,1*45
$GBGSV,2,1,08,38,70,030,41,39,70,217,45,20,50,014,26,29,44,244,44,4*75
$GBGSV,2,2,08,37,34,083,44,46,33,153,43,30,21,183,16,32,16,068,14,4*71
$GNGGA,100250.000,2500.7829423,N,12132.4668272,E,4,47,0.62,15.898,M,15.25,M,2,3335*42
$GNRMC,100250.000,A,2500.7829423,N,12132.4668272,E,0.00,178.84,260623,,,R,V*10
$GPHDT,,T*1B
$GNGGA,100250.200,2500.7829457,N,12132.4668253,E,4,47,0.62,15.879,M,15.25,M,2,3335*4F
$GNRMC,100250.200,A,2500.7829457,N,12132.4668253,E,0.00,178.84,260623,,,R,V*12
$GPHDT,,T*1B
$GNGGA,100250.400,2500.7829446,N,12132.4668270,E,4,47,0.62,15.884,M,15.25,M,2,3335*4A
$GNRMC,100250.400,A,2500.7829446,N,12132.4668270,E,0.00,178.84,260623,,,R,V*15
$GPHDT,,T*1B
$GNGGA,100250.600,2500.7829429,N,12132.4668245,E,4,47,0.62,15.902,M,15.25,M,2,3335*48
$GNRMC,100250.600,A,2500.7829429,N,12132.4668245,E,0.00,178.84,260623,,,R,V*18
$GPHDT,,T*1B
$GNGGA,100250.800,2500.7829452,N,12132.4668248,E,4,47,0.62,15.902,M,15.25,M,2,3335*47
$GNRMC,100250.800,A,2500.7829452,N,12132.4668248,E,0.00,178.84,260623,,,R,V*17
$GPHDT,,T*1B
$GNGSA,A,3,196,199,24,15,195,05,13,29,20,194,,,1.18,0.62,1.00,1*0E
$GNGSA,A,3,84,69,79,,,,,,,,,,1.18,0.62,1.00,2*02
$GNGSA,A,3,13,08,15,07,03,,,,,,,,1.18,0.62,1.00,3*04
$GNGSA,A,3,38,39,08,16,06,20,29,37,46,30,32,,1.18,0.62,1.00,4*0C
$GPGSV,3,1,12,196,72,049,39,199,60,167,36,24,58,175,46,15,58,359,44,1*67
$GPGSV,3,2,12,195,49,175,43,05,39,079,44,41,38,242,36,13,35,034,37,1*5B
$GPGSV,3,3,12,29,22,225,43,20,21,103,29,194,19,147,28,11,10,148,,1*56
$GPGSV,2,1,05,196,72,049,43,199,60,167,46,24,58,175,48,195,49,175,44,8*58
$GPGSV,2,2,05,194,19,147,27,8*6B
$GLGSV,1,1,03,84,51,208,33,69,28,031,31,79,26,073,35,1*44
$GAGSV,2,1,06,13,62,304,32,08,62,342,38,15,57,168,43,07,34,263,35,7*7B
$GAGSV,2,2,06,03,27,042,23,25,04,070,,7*70
$GAGSV,2,1,05,08,62,342,42,13,62,304,36,15,57,168,45,07,34,263,40,1*73
$GAGSV,2,2,05,03,27,042,29,1*4B
$GBGSV,3,1,12,38,70,030,36,39,70,217,43,08,61,004,39,16,60,210,44,1*70
$GBGSV,3,2,12,06,58,210,43,20,50,014,34,29,44,244,42,37,34,083,43,1*7E
$GBGSV,3,3,12,46,33,153,45,30,21,183,32,32,16,068,26,23,03,041,,1*71
$GBGSV,2,1,08,38,70,030,41,39,70,217,45,20,50,014,28,29,44,244,44,4*7B
$GBGSV,2,2,08,37,34,083,44,46,33,153,43,30,21,183,16,32,16,068,16,4*73
$GNGGA,100251.000,2500.7829488,N,12132.4668243,E,4,47,0.62,15.896,M,15.25,M,3,3335*4F
$GNRMC,100251.000,A,2500.7829488,N,12132.4668243,E,0.00,178.84,260623,,,R,V*12
$GPHDT,,T*1B
$GNGGA,100251.200,2500.7829486,N,12132.4668235,E,4,47,0.62,15.890,M,15.25,M,3,3335*44
$GNRMC,100251.200,A,2500.7829486,N,12132.4668235,E,0.00,178.84,260623,,,R,V*1F
$GPHDT,,T*1B
$GNGGA,100251.400,2500.7829491,N,12132.4668260,E,4,47,0.62,15.903,M,15.25,M,3,3335*4F
$GNRMC,100251.400,A,2500.7829491,N,12132.4668260,E,0.00,178.84,260623,,,R,V*1F
$GPHDT,,T*1B
$GNGGA,100251.600,2500.7829479,N,12132.4668262,E,4,47,0.62,15.909,M,15.25,M,3,3335*43
$GNRMC,100251.600,A,2500.7829479,N,12132.4668262,E,0.00,178.84,260623,,,R,V*19
$GPHDT,,T*1B
$GNGGA,100251.800,2500.7829464,N,12132.4668257,E,4,47,0.62,15.900,M,15.25,M,3,3335*4E
$GNRMC,100251.800,A,2500.7829464,N,12132.4668257,E,0.00,178.84,260623,,,R,V*1D
$GPHDT,,T*1B
$GNGSA,A,3,196,199,24,15,195,05,13,29,20,194,,,1.18,0.62,1.00,1*0E
$GNGSA,A,3,84,69,79,,,,,,,,,,1.18,0.62,1.00,2*02
$GNGSA,A,3,13,08,15,07,03,,,,,,,,1.18,0.62,1.00,3*04
$GNGSA,A,3,38,39,08,16,06,20,29,37,46,30,32,,1.18,0.62,1.00,4*0C
$GPGSV,3,1,12,196,72,049,40,199,60,167,36,24,58,175,46,15,58,359,44,1*69
$GPGSV,3,2,12,195,49,175,43,05,39,079,44,41,38,242,35,13,35,034,37,1*58
$GPGSV,3,3,12,29,22,225,43,20,21,103,28,194,19,147,27,11,10,148,,1*58
$GPGSV,2,1,05,196,72,049,43,199,60,167,46,24,58,175,48,195,49,175,44,8*58
$GPGSV,2,2,05,194,19,147,27,8*6B
$GLGSV,1,1,03,84,51,208,33,69,28,031,30,79,26,073,35,1*45
$GAGSV,2,1,06,13,62,304,32,08,62,342,38,15,57,168,43,07,34,263,35,7*7B
$GAGSV,2,2,06,03,27,042,23,25,04,070,,7*70
$GAGSV,2,1,05,08,62,342,42,13,62,304,36,15,57,168,45,07,34,263,40,1*73
$GAGSV,2,2,05,03,27,042,29,1*4B
$GBGSV,3,1,12,38,70,030,36,39,70,217,43,08,61,004,39,16,60,210,44,1*70
$GBGSV,3,2,12,06,58,210,43,20,50,014,34,29,44,244,42,37,34,083,43,1*7E
$GBGSV,3,3,12,46,33,153,45,30,21,183,32,32,16,068,25,40,03,193,,1*79
$GBGSV,2,1,08,38,70,030,41,39,70,217,45,20,50,014,30,29,44,244,44,4*72
$GBGSV,2,2,08,37,34,083,44,46,33,153,43,30,21,183,17,32,16,068,16,4*72
$GNGGA,100252.000,2500.7829476,N,12132.4668238,E,4,47,0.62,15.904,M,15.25,M,4,3335*4C
$GNRMC,100252.000,A,2500.7829476,N,12132.4668238,E,0.00,178.84,260623,,,R,V*1C
$GPHDT,,T*1B
$GNGGA,100252.200,2500.7829455,N,12132.4668234,E,4,47,0.62,15.900,M,15.25,M,2,3335*41
$GNRMC,100252.200,A,2500.7829455,N,12132.4668234,E,0.00,178.84,260623,,,R,V*13
$GPHDT,,T*1B
$GNGGA,100252.400,2500.7829460,N,12132.4668241,E,4,47,0.62,15.908,M,15.25,M,1,3335*48
$GNRMC,100252.400,A,2500.7829460,N,12132.4668241,E,0.00,178.84,260623,,,R,V*11
$GPHDT,,T*1B
$GNGGA,100252.600,2500.7829440,N,12132.4668231,E,4,47,0.62,15.918,M,15.25,M,0,3335*4F
$GNRMC,100252.600,A,2500.7829440,N,12132.4668231,E,0.00,178.84,260623,,,R,V*16
$GPHDT,,T*1B
$GNGGA,100252.800,2500.7829464,N,12132.4668229,E,4,47,0.62,15.894,M,15.25,M,0,3335*4B
$GNRMC,100252.800,A,2500.7829464,N,12132.4668229,E,0.00,178.84,260623,,,R,V*17
$GPHDT,,T*1B
$GNGSA,A,3,196,199,24,15,195,05,13,29,20,194,,,1.18,0.62,1.00,1*0E
$GNGSA,A,3,84,69,79,,,,,,,,,,1.18,0.62,1.00,2*02
$GNGSA,A,3,13,08,15,07,03,,,,,,,,1.18,0.62,1.00,3*04
$GNGSA,A,3,38,39,08,16,06,20,29,37,46,30,32,,1.18,0.62,1.00,4*0C
$GPGSV,3,1,12,196,72,049,40,199,60,167,36,24,58,175,46,15,58,359,44,1*69
$GPGSV,3,2,12,195,49,175,43,05,39,079,44,41,38,242,36,13,35,034,37,1*5B
$GPGSV,3,3,12,29,22,225,43,20,21,103,28,194,19,147,25,11,10,148,,1*5A
$GPGSV,2,1,05,196,72,049,43,199,60,167,46,24,58,175,48,195,49,175,44,8*58
$GPGSV,2,2,05,194,19,147,26,8*6A
$GLGSV,1,1,04,84,51,208,34,69,28,031,29,79,26,073,35,78,01,030,,1*70
$GAGSV,2,1,06,13,62,304,32,08,62,342,38,15,57,168,43,07,34,263,35,7*7B
$GAGSV,2,2,06,03,27,042,23,25,04,070,,7*70
$GAGSV,2,1,05,08,62,342,42,13,62,304,35,15,57,168,45,07,34,263,40,1*70
$GAGSV,2,2,05,03,27,042,29,1*4B
$GBGSV,3,1,11,38,70,030,36,39,70,217,43,08,61,004,39,16,60,210,44,1*73
$GBGSV,3,2,11,06,58,210,43,20,50,014,34,29,44,244,42,37,34,083,43,1*7D
$GBGSV,3,3,11,46,33,153,45,30,21,183,32,32,16,068,25,1*46
$GBGSV,2,1,08,38,70,030,41,39,70,217,45,20,50,014,30,29,44,244,44,4*72
$GBGSV,2,2,08,37,34,083,44,46,33,153,43,30,21,183,18,32,16,068,15,4*7E
$GNGGA,100253.000,2500.7829436,N,12132.4668227,E,4,47,0.62,15.904,M,15.25,M,1,3335*42
$GNRMC,100253.000,A,2500.7829436,N,12132.4668227,E,0.00,178.84,260623,,,R,V*17
$GPHDT,,T*1B
$GNGGA,100253.200,2500.7829448,N,12132.4668221,E,4,47,0.62,15.907,M,15.25,M,1,3335*4C
$GNRMC,100253.200,A,2500.7829448,N,12132.4668221,E,0.00,178.84,260623,,,R,V*1A
$GPHDT,,T*1B
$GNGGA,100253.400,2500.7829417,N,12132.4668239,E,4,47,0.62,15.932,M,15.25,M,1,3335*4F
$GNRMC,100253.400,A,2500.7829417,N,12132.4668239,E,0.00,178.84,260623,,,R,V*1F
$GPHDT,,T*1B
$GNGGA,100253.600,2500.7829438,N,12132.4668223,E,4,47,0.62,15.922,M,15.25,M,1,3335*4A
$GNRMC,100253.600,A,2500.7829438,N,12132.4668223,E,0.00,178.84,260623,,,R,V*1B
$GPHDT,,T*1B
$GNGGA,100253.800,2500.7829407,N,12132.4668227,E,4,47,0.62,15.917,M,15.25,M,1,3335*4A
$GNRMC,100253.800,A,2500.7829407,N,12132.4668227,E,0.00,178.84,260623,,,R,V*1D
$GPHDT,,T*1B
$GNGSA,A,3,196,199,24,15,195,05,13,29,20,194,,,1.18,0.62,1.00,1*0E
$GNGSA,A,3,84,69,79,,,,,,,,,,1.18,0.62,1.00,2*02
$GNGSA,A,3,08,13,15,07,03,,,,,,,,1.18,0.62,1.00,3*04
$GNGSA,A,3,39,38,08,16,06,20,29,37,46,30,32,,1.18,0.62,1.00,4*0C
$GPGSV,3,1,12,196,72,049,40,199,60,167,36,24,58,175,46,15,58,359,44,1*69
$GPGSV,3,2,12,195,49,175,43,05,39,079,44,41,38,242,36,13,35,034,37,1*5B
$GPGSV,3,3,12,29,22,225,43,20,21,103,29,194,19,147,24,11,10,148,,1*5A
$GPGSV,2,1,05,196,72,049,43,199,60,167,46,24,58,175,48,195,49,175,44,8*58
$GPGSV,2,2,05,194,19,147,25,8*69
$GLGSV,1,1,03,84,51,208,34,69,28,031,26,79,26,073,35,1*45
$GAGSV,2,1,07,08,62,342,38,13,62,304,33,15,57,168,43,07,34,263,35,7*7B
$GAGSV,2,2,07,03,27,042,23,02,11,116,,25,04,070,,7*45
$GAGSV,2,1,05,08,62,342,42,13,62,304,35,15,57,168,45,07,34,263,40,1*70
$GAGSV,2,2,05,03,27,042,29,1*4B
$GBGSV,3,1,11,39,70,217,43,38,70,030,36,08,61,004,39,16,60,210,44,1*73
$GBGSV,3,2,11,06,58,210,43,20,50,014,34,29,44,244,43,37,34,083,43,1*7C
$GBGSV,3,3,11,46,33,153,45,30,21,183,32,32,16,068,25,1*46
$GBGSV,2,1,08,38,70,030,41,39,70,217,45,20,50,014,29,29,44,244,44,4*7A
$GBGSV,2,2,08,37,34,083,44,46,33,153,43,30,21,183,16,32,16,068,14,4*71
$GNGGA,100254.000,2500.7829384,N,12132.4668224,E,4,47,0.62,15.934,M,15.25,M,2,3335*48
$GNRMC,100254.000,A,2500.7829384,N,12132.4668224,E,0.00,178.84,260623,,,R,V*1D
$GPHDT,,T*1B
$GNGGA,100254.200,2500.7829434,N,12132.4668223,E,4,47,0.62,15.914,M,15.25,M,2,3335*43
$GNRMC,100254.200,A,2500.7829434,N,12132.4668223,E,0.00,178.84,260623,,,R,V*14
$GPHDT,,T*1B
$GNGGA,100254.400,2500.7829455,N,12132.4668191,E,4,47,0.62,15.903,M,15.25,M,2,3335*4E
$GNRMC,100254.400,A,2500.7829455,N,12132.4668191,E,0.00,178.84,260623,,,R,V*1F
$GPHDT,,T*1B
$GNGGA,100254.600,2500.7829401,N,12132.4668216,E,4,47,0.62,15.919,M,15.25,M,2,3335*4A
$GNRMC,100254.600,A,2500.7829401,N,12132.4668216,E,0.00,178.84,260623,,,R,V*10
$GPHDT,,T*1B
$GNGGA,100254.800,2500.7829439,N,12132.4668208,E,4,47,0.62,15.917,M,15.25,M,2,3335*4E
$GNRMC,100254.800,A,2500.7829439,N,12132.4668208,E,0.00,178.84,260623,,,R,V*1A
$GPHDT,,T*1B
$GNGSA,A,3,196,199,24,15,195,05,13,29,20,194,,,1.18,0.62,1.00,1*0E
$GNGSA,A,3,84,69,79,,,,,,,,,,1.18,0.62,1.00,2*02
$GNGSA,A,3,08,13,15,07,03,,,,,,,,1.18,0.62,1.00,3*04
$GNGSA,A,3,39,38,08,16,06,20,29,37,46,30,32,,1.18,0.62,1.00,4*0C
$GPGSV,3,1,12,196,72,049,40,199,60,167,36,24,58,175,46,15,58,359,44,1*69
$GPGSV,3,2,12,195,49,175,43,05,39,079,44,41,38,242,35,13,35,034,37,1*58
$GPGSV,3,3,12,29,22,225,43,20,21,103,28,194,19,147,24,11,10,148,,1*5B
$GPGSV,2,1,05,196,72,049,43,199,60,167,46,24,58,175,48,195,49,175,44,8*58
$GPGSV,2,2,05,194,19,147,25,8*69
$GLGSV,1,1,04,84,51,208,34,85,41,309,,69,28,031,25,79,26,073,35,1*73
$GAGSV,2,1,07,08,62,342,38,13,62,304,33,15,57,168,43,07,34,263,35,7*7B
$GAGSV,2,2,07,03,27,042,23,02,11,116,,25,04,070,,7*45
$GAGSV,2,1,05,08,62,342,42,13,62,304,35,15,57,168,45,07,34,263,40,1*70
$GAGSV,2,2,05,03,27,042,27,1*45
$GBGSV,3,1,11,39,70,217,43,38,70,030,38,08,61,004,39,16,60,210,44,1*7D
$GBGSV,3,2,11,06,58,210,43,20,50,014,33,29,44,244,43,37,34,083,43,1*7B
$GBGSV,3,3,11,46,33,153,45,30,21,183,33,32,16,068,25,1*47
$GBGSV,2,1,08,38,70,030,41,39,70,217,45,20,50,014,29,29,44,244,44,4*7A
$GBGSV,2,2,08,37,34,083,44,46,33,153,43,30,21,183,14,32,16,068,14,4*73
$GNGGA,100255.000,2500.7829409,N,12132.4668215,E,4,47,0.62,15.917,M,15.25,M,3,3335*49
$GNRMC,100255.000,A,2500.7829409,N,12132.4668215,E,0.00,178.84,260623,,,R,V*1C
$GPHDT,,T*1B
$GNGGA,100255.200,2500.7829427,N,12132.4668205,E,4,47,0.62,15.921,M,15.25,M,3,3335*43
$GNRMC,100255.200,A,2500.7829427,N,12132.4668205,E,0.00,178.84,260623,,,R,V*13
$GPHDT,,T*1B
$GNGGA,100255.400,2500.7829432,N,12132.4668221,E,4,47,0.62,15.904,M,15.25,M,1,3335*42
$GNRMC,100255.400,A,2500.7829432,N,12132.4668221,E,0.00,178.84,260623,,,R,V*17
$GPHDT,,T*1B
$GNGGA,100255.600,2500.7829429,N,12132.4668226,E,4,47,0.62,15.901,M,15.25,M,1,3335*48
$GNRMC,100255.600,A,2500.7829429,N,12132.4668226,E,0.00,178.84,260623,,,R,V*18
$GPHDT,,T*1B
$GNGGA,100255.800,2500.7829443,N,12132.4668232,E,4,47,0.62,15.909,M,15.25,M,1,3335*47
$GNRMC,100255.800,A,2500.7829443,N,12132.4668232,E,0.00,178.84,260623,,,R,V*1F
$GPHDT,,T*1B
$GNGSA,A,3,196,199,24,15,195,05,13,29,20,194,,,1.18,0.62,1.00,1*0E
$GNGSA,A,3,84,69,79,,,,,,,,,,1.18,0.62,1.00,2*02
$GNGSA,A,3,08,13,15,07,03,,,,,,,,1.18,0.62,1.00,3*04
$GNGSA,A,3,39,38,08,16,06,20,29,37,46,30,32,,1.18,0.62,1.00,4*0C
$GPGSV,3,1,12,196,72,049,40,199,60,167,36,24,58,175,46,15,58,359,44,1*69
$GPGSV,3,2,12,195,49,175,43,05,39,079,44,41,38,242,35,13,35,034,37,1*58
$GPGSV,3,3,12,29,22,225,43,20,21,103,28,194,19,147,24,11,10,148,,1*5B
$GPGSV,2,1,05,196,72,049,43,199,60,167,46,24,58,175,48,195,49,175,44,8*58
$GPGSV,2,2,05,194,19,147,25,8*69
$GLGSV,1,1,03,84,51,208,34,69,28,031,24,79,26,073,35,1*47
$GAGSV,2,1,08,08,62,342,38,13,62,304,32,15,57,168,43,07,34,263,34,7*74
$GAGSV,2,2,08,03,27,042,22,02,11,116,,26,10,324,,25,04,070,,7*7B
$GAGSV,2,1,05,08,62,342,42,13,62,304,35,15,57,168,45,07,34,263,40,1*70
$GAGSV,2,2,05,03,27,042,27,1*45
$GBGSV,3,1,12,39,70,217,43,38,70,030,38,08,61,004,39,16,60,210,44,1*7E
$GBGSV,3,2,12,06,58,210,43,20,50,014,33,29,44,244,43,19,35,305,,1*7F
$GBGSV,3,3,12,37,34,083,43,46,33,153,45,30,21,183,33,32,16,068,25,1*7B
$GBGSV,2,1,08,38,70,030,41,39,70,217,45,20,50,014,30,29,44,244,44,4*72
$GBGSV,2,2,08,37,34,083,44,46,33,153,43,30,21,183,14,32,16,068,15,4*72
$GNGGA,100256.000,2500.7829439,N,12132.4668224,E,4,47,0.62,15.902,M,15.25,M,2,3335*4E
$GNRMC,100256.000,A,2500.7829439,N,12132.4668224,E,0.00,178.84,260623,,,R,V*1E
$GPHDT,,T*1B
$GNGGA,100256.200,2500.7829441,N,12132.4668208,E,4,46,0.62,15.880,M,15.25,M,1,3335*44
$GNRMC,100256.200,A,2500.7829441,N,12132.4668208,E,0.00,178.84,260623,,,R,V*1D
$GPHDT,,T*1B
$GNGGA,100256.400,2500.7829430,N,12132.4668211,E,4,46,0.62,15.882,M,15.25,M,1,3335*4E
$GNRMC,100256.400,A,2500.7829430,N,12132.4668211,E,0.00,178.84,260623,,,R,V*15
$GPHDT,,T*1B
$GNGGA,100256.600,2500.7829468,N,12132.4668234,E,4,46,0.62,15.868,M,15.25,M,1,3335*42
$GNRMC,100256.600,A,2500.7829468,N,12132.4668234,E,0.00,178.84,260623,,,R,V*1D
$GPHDT,,T*1B
$GNGGA,100256.800,2500.7829497,N,12132.4668228,E,4,46,0.62,15.866,M,15.25,M,1,3335*4F
$GNRMC,100256.800,A,2500.7829497,N,12132.4668228,E,0.00,178.84,260623,,,R,V*1E
$GPHDT,,T*1B
$GNGSA,A,3,196,199,24,15,195,05,13,29,20,194,,,1.18,0.62,1.00,1*0E
$GNGSA,A,3,84,69,79,,,,,,,,,,1.18,0.62,1.00,2*02
$GNGSA,A,3,08,13,15,07,03,,,,,,,,1.18,0.62,1.00,3*04
$GNGSA,A,3,39,38,08,16,06,20,29,37,46,30,32,,1.18,0.62,1.00,4*0C
$GPGSV,3,1,12,196,72,049,40,199,60,167,37,24,58,175,46,15,58,359,44,1*68
$GPGSV,3,2,12,195,49,175,43,05,39,079,44,41,38,242,36,13,35,034,37,1*5B
$GPGSV,3,3,12,29,22,225,43,20,21,103,28,194,19,147,24,11,10,148,,1*5B
$GPGSV,2,1,05,196,72,049,43,199,60,167,46,24,58,175,48,195,49,175,44,8*58
$GPGSV,2,2,05,194,19,147,26,8*6A
$GLGSV,1,1,03,84,51,208,34,69,28,031,20,79,26,073,35,1*43
$GAGSV,2,1,07,08,62,342,38,13,62,304,32,15,57,168,43,07,34,263,34,7*7B
$GAGSV,2,2,07,03,27,042,24,02,11,116,,26,10,324,,7*46
$GAGSV,2,1,05,08,62,342,42,13,62,304,36,15,57,168,45,07,34,263,40,1*73
$GAGSV,2,2,05,03,27,042,29,1*4B
$GBGSV,3,1,12,39,70,217,43,38,70,030,38,08,61,004,39,16,60,210,44,1*7E
$GBGSV,3,2,12,06,58,210,43,20,50,014,33,29,44,244,43,19,35,305,,1*7F
$GBGSV,3,3,12,37,34,083,43,46,33,153,45,30,21,183,33,32,16,068,24,1*7A
$GBGSV,2,1,07,38,70,030,41,39,70,217,45,20,50,014,31,29,44,244,44,4*7C
$GBGSV,2,2,07,37,34,083,44,46,33,153,43,32,16,068,16,4*41
$GNGGA,100257.000,2500.7829469,N,12132.4668227,E,4,46,0.62,15.888,M,15.25,M,2,3335*4B
$GNRMC,100257.000,A,2500.7829469,N,12132.4668227,E,0.00,178.84,260623,,,R,V*19
$GPHDT,,T*1B
$GNGGA,100257.200,2500.7829416,N,12132.4668205,E,4,46,0.62,15.891,M,15.25,M,2,3335*49
$GNRMC,100257.200,A,2500.7829416,N,12132.4668205,E,0.00,178.84,260623,,,R,V*13
$GPHDT,,T*1B
$GNGGA,100257.400,2500.7829451,N,12132.4668196,E,4,46,0.62,15.885,M,15.25,M,2,3335*40
$GNRMC,100257.400,A,2500.7829451,N,12132.4668196,E,0.00,178.84,260623,,,R,V*1F
$GPHDT,,T*1B
$GNGGA,100257.600,2500.7829452,N,12132.4668202,E,4,46,0.62,15.887,M,15.25,M,2,3335*4D
$GNRMC,100257.600,A,2500.7829452,N,12132.4668202,E,0.00,178.84,260623,,,R,V*10
$GPHDT,,T*1B
$GNGGA,100257.800,2500.7829400,N,12132.4668225,E,4,46,0.62,15.912,M,15.25,M,0,3335*4E
$GNRMC,100257.800,A,2500.7829400,N,12132.4668225,E,0.00,178.84,260623,,,R,V*1C
$GPHDT,,T*1B
$GNGSA,A,3,196,199,24,15,195,05,13,29,20,194,,,1.18,0.62,1.00,1*0E
$GNGSA,A,3,84,69,79,,,,,,,,,,1.18,0.62,1.00,2*02
$GNGSA,A,3,08,13,15,07,03,,,,,,,,1.18,0.62,1.00,3*04
$GNGSA,A,3,39,38,08,16,06,20,29,37,46,30,32,,1.18,0.62,1.00,4*0C
$GPGSV,3,1,12,196,72,049,40,199,60,167,37,24,58,175,46,15,58,359,44,1*68
$GPGSV,3,2,12,195,49,175,43,05,39,079,44,41,38,242,36,13,35,034,36,1*5A
$GPGSV,3,3,12,29,22,225,43,20,21,103,28,194,19,147,24,11,10,148,,1*5B
$GPGSV,2,1,05,196,72,049,43,199,60,167,46,24,58,175,48,195,49,175,44,8*58
$GPGSV,2,2,05,194,19,147,26,8*6A
$GLGSV,1,1,03,84,51,208,34,69,28,031,21,79,26,073,35,1*42
$GAGSV,2,1,07,08,62,342,38,13,62,304,32,15,57,168,43,07,34,263,34,7*7B
$GAGSV,2,2,07,03,27,042,24,02,11,116,,26,10,324,,7*46
$GAGSV,2,1,05,08,62,342,43,13,62,304,36,15,57,168,45,07,34,263,40,1*72
$GAGSV,2,2,05,03,27,042,29,1*4B
$GBGSV,3,1,11,39,70,217,43,38,70,030,38,08,61,004,39,16,60,210,44,1*7D
$GBGSV,3,2,11,06,58,210,43,20,50,014,33,29,44,244,43,37,34,083,43,1*7B
$GBGSV,3,3,11,46,33,153,45,30,21,183,33,32,16,068,24,1*46
$GBGSV,2,1,08,38,70,030,41,39,70,217,45,20,50,014,31,29,44,244,44,4*73
$GBGSV,2,2,08,37,34,083,44,46,33,153,43,30,21,183,18,32,16,068,16,4*7D
$GNGGA,100258.000,2500.7829372,N,12132.4668242,E,4,47,0.62,15.923,M,15.25,M,1,3335*48
$GNRMC,100258.000,A,2500.7829372,N,12132.4668242,E,0.00,178.84,260623,,,R,V*18
$GPHDT,,T*1B
$GNGGA,100258.200,2500.7829447,N,12132.4668243,E,4,47,0.62,15.894,M,15.25,M,1,3335*47
$GNRMC,100258.200,A,2500.7829447,N,12132.4668243,E,0.00,178.84,260623,,,R,V*1A
$GPHDT,,T*1B
$GNGGA,100258.400,2500.7829432,N,12132.4668241,E,4,47,0.62,15.889,M,15.25,M,1,3335*4D
$GNRMC,100258.400,A,2500.7829432,N,12132.4668241,E,0.00,178.84,260623,,,R,V*1C
$GPHDT,,T*1B
$GNGGA,100258.600,2500.7829426,N,12132.4668262,E,4,46,0.62,15.887,M,15.25,M,1,3335*44
$GNRMC,100258.600,A,2500.7829426,N,12132.4668262,E,0.00,178.84,260623,,,R,V*1A
$GPHDT,,T*1B
$GNGGA,100258.800,2500.7829396,N,12132.4668230,E,4,46,0.62,15.894,M,15.25,M,1,3335*43
$GNRMC,100258.800,A,2500.7829396,N,12132.4668230,E,0.00,178.84,260623,,,R,V*1F
$GPHDT,,T*1B
$GNGSA,A,3,196,199,24,15,195,05,29,20,194,,,,1.18,0.63,1.00,1*0D
$GNGSA,A,3,84,69,79,,,,,,,,,,1.18,0.63,1.00,2*03
$GNGSA,A,3,08,13,15,07,03,,,,,,,,1.18,0.63,1.00,3*05
$GNGSA,A,3,39,38,08,16,06,20,29,37,46,30,32,,1.18,0.63,1.00,4*0D
$GPGSV,3,1,12,196,72,049,40,199,60,167,37,24,58,175,46,15,58,359,43,1*6F
$GPGSV,3,2,12,195,49,176,43,05,39,079,43,41,38,242,36,13,35,034,34,1*5C
$GPGSV,3,3,12,29,22,225,44,20,21,103,30,194,19,147,22,11,10,148,,1*53
$GPGSV,2,1,05,196,72,049,43,199,60,167,46,24,58,175,48,195,49,176,44,8*5B
$GPGSV,2,2,05,194,19,147,25,8*69
$GLGSV,1,1,03,84,51,208,33,69,28,031,28,79,26,073,34,1*4D
$GAGSV,2,1,08,08,62,342,38,13,62,304,31,15,57,168,43,07,34,263,34,7*77
$GAGSV,2,2,08,03,27,042,22,02,11,116,,26,10,324,,25,04,070,,7*7B
$GAGSV,2,1,05,08,62,342,43,13,62,304,33,15,57,168,45,07,34,263,40,1*77
$GAGSV,2,2,05,03,27,042,28,1*4A
$GBGSV,3,1,11,39,70,217,43,38,70,030,38,08,61,004,38,16,60,210,44,1*7C
$GBGSV,3,2,11,06,58,210,43,20,50,014,31,29,44,244,43,37,34,083,43,1*79
$GBGSV,3,3,11,46,33,153,45,30,21,183,31,32,16,068,22,1*42
$GBGSV,2,1,08,38,70,030,41,39,70,217,45,20,50,014,32,29,44,244,43,4*77
$GBGSV,2,2,08,37,34,083,43,46,33,153,43,30,21,183,17,32,16,068,16,4*75
$GNGGA,100259.000,2500.7829431,N,12132.4668227,E,4,45,0.63,15.876,M,15.25,M,2,3335*4B
$GNRMC,100259.000,A,2500.7829431,N,12132.4668227,E,0.00,178.84,260623,,,R,V*1A
$GPHDT,,T*1B
$GNGGA,100259.200,2500.7829428,N,12132.4668261,E,4,44,0.63,15.876,M,15.25,M,2,3335*42
$GNRMC,100259.200,A,2500.7829428,N,12132.4668261,E,0.00,178.84,260623,,,R,V*12
$GPHDT,,T*1B
$GNGGA,100259.400,2500.7829330,N,12132.4668308,E,4,45,0.62,15.899,M,15.25,M,2,3335*45
$GNRMC,100259.400,A,2500.7829330,N,12132.4668308,E,0.00,178.84,260623,,,R,V*14
$GPHDT,,T*1B
$GNGGA,100259.600,2500.7829335,N,12132.4668294,E,4,45,0.62,15.878,M,15.25,M,2,3335*49
$GNRMC,100259.600,A,2500.7829335,N,12132.4668294,E,0.00,178.84,260623,,,R,V*17
