$FW : RTK35X,V1.1X0314AS,Lib20210517,1*54
$Tool : LOCOSYS , GNSS Firebird , v1.0.0.19*39
$---------------------------------------------------*2D
$GPHDT,,T*1B
$GNGGA,095950.400,2500.7829712,N,12132.4668350,E,4,38,0.68,15.942,M,15.25,M,20,3335*74
$GNRMC,095950.400,A,2500.7829712,N,12132.4668350,E,0.01,291.25,260623,,,R,V*1C
$GPHDT,,T*1B
$GNGGA,095950.600,2500.7829656,N,12132.4668471,E,4,38,0.68,15.980,M,15.25,M,20,3335*7D
$GNRMC,095950.600,A,2500.7829656,N,12132.4668471,E,0.01,291.25,260623,,,R,V*1B
$GPHDT,,T*1B
$GNGGA,095950.800,2500.7829691,N,12132.4668316,E,4,38,0.68,15.950,M,15.25,M,20,3335*73
$GNRMC,095950.800,A,2500.7829691,N,12132.4668316,E,0.01,291.25,260623,,,R,V*18
$GPHDT,,T*1B
$GNGSA,A,3,196,199,15,24,195,05,13,29,20,194,,,1.00,0.68,0.74,1*0F
$GNGSA,A,3,84,69,79,,,,,,,,,,1.00,0.68,0.74,2*03
$GNGSA,A,3,08,15,,,,,,,,,,,1.00,0.68,0.74,3*03
$GNGSA,A,3,38,39,16,08,06,20,29,37,46,30,32,,1.00,0.68,0.74,4*0D
$GPGSV,3,1,11,196,72,048,43,199,60,167,36,15,59,357,43,24,57,176,44,1*6E
$GPGSV,3,2,11,195,50,175,44,05,40,077,44,41,38,241,30,13,36,033,37,1*56
$GPGSV,3,3,11,29,23,226,30,20,22,101,36,194,18,148,14,1*61
$GPGSV,2,1,05,196,72,048,44,199,60,167,46,24,57,176,45,195,50,175,44,8*57
$GPGSV,2,2,05,194,18,148,21,8*63
$GLGSV,1,1,03,84,53,209,29,69,29,030,23,79,25,075,34,1*4B
$GAGSV,1,1,03,08,62,340,37,15,58,167,42,07,,,27,7*72
$GAGSV,1,1,03,08,62,340,42,15,58,167,45,07,,,38,1*7F
$GBGSV,3,1,11,38,70,029,44,39,69,215,38,16,60,208,37,08,60,003,43,1*7E
$GBGSV,3,2,11,06,57,208,33,20,50,012,34,29,44,245,42,37,34,085,44,1*7A
$GBGSV,3,3,11,46,31,153,45,30,22,184,32,32,17,067,32,1*48
$GBGSV,2,1,07,38,70,029,45,39,69,215,42,20,50,012,27,29,44,245,38,4*76
$GBGSV,2,2,07,37,34,085,43,46,31,153,40,30,22,184,24,4*46
$GNGGA,095951.000,2500.7829692,N,12132.4668321,E,4,38,0.68,15.961,M,15.25,M,21,3335*7E
$GNRMC,095951.000,A,2500.7829692,N,12132.4668321,E,0.01,291.25,260623,,,R,V*16
$GPHDT,,T*1B
$GNGGA,095951.200,2500.7829698,N,12132.4668357,E,4,38,0.68,15.951,M,15.25,M,21,3335*74
$GNRMC,095951.200,A,2500.7829698,N,12132.4668357,E,0.01,291.25,260623,,,R,V*1F
$GPHDT,,T*1B
$GNGGA,095951.400,2500.7829690,N,12132.4668313,E,4,38,0.68,15.943,M,15.25,M,21,3335*79
$GNRMC,095951.400,A,2500.7829690,N,12132.4668313,E,0.01,291.25,260623,,,R,V*11
$GPHDT,,T*1B
$GNGGA,095951.600,2500.7829693,N,12132.4668330,E,4,38,0.68,15.944,M,15.25,M,21,3335*7E
$GNRMC,095951.600,A,2500.7829693,N,12132.4668330,E,0.02,291.25,260623,,,R,V*12
$GPHDT,,T*1B
$GNGGA,095951.800,2500.7829686,N,12132.4668353,E,4,38,0.68,15.956,M,15.25,M,21,3335*72
$GNRMC,095951.800,A,2500.7829686,N,12132.4668353,E,0.02,291.25,260623,,,R,V*1D
$GPHDT,,T*1B
$GNGSA,A,3,196,199,15,24,195,05,13,29,20,194,,,1.00,0.68,0.74,1*0F
$GNGSA,A,3,84,69,79,,,,,,,,,,1.00,0.68,0.74,2*03
$GNGSA,A,3,08,15,,,,,,,,,,,1.00,0.68,0.74,3*03
$GNGSA,A,3,38,39,16,08,06,20,29,37,46,30,32,,1.00,0.68,0.74,4*0D
$GPGSV,3,1,11,196,72,048,43,199,60,167,36,15,59,357,43,24,57,176,44,1*6E
$GPGSV,3,2,11,195,50,175,44,05,40,077,45,41,38,241,28,13,36,033,37,1*5E
$GPGSV,3,3,11,29,23,226,34,20,22,101,36,194,18,148,17,1*66
$GPGSV,2,1,05,196,72,048,44,199,60,167,46,24,57,176,45,195,50,175,44,8*57
$GPGSV,2,2,05,194,18,148,22,8*60
$GLGSV,1,1,04,84,53,209,29,85,40,311,,69,29,030,21,79,25,075,35,1*75
$GAGSV,1,1,03,08,62,340,37,15,58,167,42,07,,,29,7*7C
$GAGSV,1,1,03,08,62,340,42,15,58,167,45,07,,,38,1*7F
$GBGSV,4,1,13,38,70,029,44,39,69,215,39,16,60,208,37,08,60,003,43,1*7A
$GBGSV,4,2,13,06,57,208,34,20,50,012,34,29,44,245,42,37,34,085,44,1*78
$GBGSV,4,3,13,46,31,153,45,30,22,184,32,32,17,067,32,23,04,042,,1*7E
$GBGSV,4,4,13,40,04,193,,1*4F
$GBGSV,2,1,07,38,70,029,45,39,69,215,42,20,50,012,28,29,44,245,39,4*78
$GBGSV,2,2,07,37,34,085,43,46,31,153,41,30,22,184,24,4*47
$GNGGA,095952.000,2500.7829701,N,12132.4668359,E,4,38,0.68,15.961,M,15.25,M,22,3335*7A
$GNRMC,095952.000,A,2500.7829701,N,12132.4668359,E,0.00,291.25,260623,,,R,V*10
$GPHDT,,T*1B
$GNGGA,095952.200,2500.7829673,N,12132.4668485,E,4,38,0.68,15.997,M,15.25,M,22,3335*73
$GNRMC,095952.200,A,2500.7829673,N,12132.4668485,E,0.01,291.25,260623,,,R,V*11
$GPHDT,,T*1B
$GNGGA,095952.400,2500.7829686,N,12132.4668458,E,4,38,0.68,15.988,M,15.25,M,22,3335*71
$GNRMC,095952.400,A,2500.7829686,N,12132.4668458,E,0.02,291.25,260623,,,R,V*1E
$GPHDT,,T*1B
$GNGGA,095952.600,2500.7829687,N,12132.4668524,E,4,38,0.68,16.008,M,15.25,M,22,3335*7A
$GNRMC,095952.600,A,2500.7829687,N,12132.4668524,E,0.02,291.25,260623,,,R,V*17
$GPHDT,,T*1B
$GNGGA,095952.800,2500.7829692,N,12132.4668511,E,4,38,0.68,15.999,M,15.25,M,22,3335*74
$GNRMC,095952.800,A,2500.7829692,N,12132.4668511,E,0.02,291.25,260623,,,R,V*1B
$GPHDT,,T*1B
$GNGSA,A,3,196,199,15,24,195,05,13,29,20,194,,,1.00,0.68,0.74,1*0F
$GNGSA,A,3,84,69,79,,,,,,,,,,1.00,0.68,0.74,2*03
$GNGSA,A,3,08,15,,,,,,,,,,,1.00,0.68,0.74,3*03
$GNGSA,A,3,38,39,08,16,06,20,29,37,46,30,32,,1.00,0.68,0.74,4*0D
$GPGSV,3,1,11,196,72,048,43,199,60,167,36,15,59,357,43,24,57,176,44,1*6E
$GPGSV,3,2,11,195,50,175,44,05,40,077,46,41,38,241,27,13,36,033,37,1*52
$GPGSV,3,3,11,29,23,226,37,20,22,101,35,194,18,148,20,1*62
$GPGSV,2,1,05,196,72,048,44,199,60,167,46,24,57,176,46,195,50,175,45,8*55
$GPGSV,2,2,05,194,18,148,24,8*66
$GLGSV,1,1,04,84,53,209,29,69,29,030,22,79,25,075,36,86,02,335,,1*76
$GAGSV,1,1,04,08,62,340,37,15,58,167,43,02,11,117,,07,,,30,7*47
$GAGSV,1,1,03,08,62,340,42,15,58,167,45,07,,,38,1*7F
$GBGSV,3,1,12,38,70,029,44,39,69,215,41,08,60,003,43,16,60,208,39,1*7D
$GBGSV,3,2,12,06,57,208,37,20,50,012,34,29,44,245,42,37,34,085,44,1*7D
$GBGSV,3,3,12,46,31,153,45,30,22,184,31,32,17,067,32,36,03,192,,1*74
$GBGSV,2,1,07,38,70,029,45,39,69,215,42,20,50,012,29,29,44,245,39,4*79
$GBGSV,2,2,07,37,34,085,43,46,31,153,41,30,22,184,24,4*47
$GNGGA,095953.000,2500.7829696,N,12132.4668525,E,4,38,0.68,16.003,M,15.25,M,23,3335*76
$GNRMC,095953.000,A,2500.7829696,N,12132.4668525,E,0.03,291.25,260623,,,R,V*10
$GPHDT,,T*1B
$GNGGA,095953.200,2500.7829696,N,12132.4668525,E,1,39,0.68,16.003,M,15.25,M,23,3335*70
$GNRMC,095953.200,A,2500.7829696,N,12132.4668525,E,0.01,291.25,260623,,,A,V*03
$GPHDT,,T*1B
$GNGGA,095953.400,2500.7829696,N,12132.4668525,E,1,39,0.68,16.003,M,15.25,M,23,3335*76
$GNRMC,095953.400,A,2500.7829696,N,12132.4668525,E,0.02,291.25,260623,,,A,V*06
$GPHDT,,T*1B
$GNGGA,095953.600,2500.7829696,N,12132.4668525,E,1,39,0.68,16.003,M,15.25,M,23,3335*74
$GNRMC,095953.600,A,2500.7829696,N,12132.4668525,E,0.02,291.25,260623,,,A,V*04
$GPHDT,,T*1B
$GNGGA,095953.800,2500.7829696,N,12132.4668525,E,1,39,0.68,16.003,M,15.25,M,23,3335*7A
$GNRMC,095953.800,A,2500.7829696,N,12132.4668525,E,0.02,291.25,260623,,,A,V*0A
$GPHDT,,T*1B
$GNGSA,A,3,196,199,15,24,195,05,13,29,20,194,,,1.00,0.68,0.74,1*0F
$GNGSA,A,3,84,69,79,,,,,,,,,,1.00,0.68,0.74,2*03
$GNGSA,A,3,08,15,,,,,,,,,,,1.00,0.68,0.74,3*03
$GNGSA,A,3,38,39,08,16,06,20,29,37,46,30,32,,1.00,0.68,0.74,4*0D
$GPGSV,3,1,11,196,72,048,43,199,60,167,36,15,59,357,43,24,57,176,44,1*6E
$GPGSV,3,2,11,195,50,175,44,05,40,077,46,41,38,241,30,13,36,033,37,1*54
$GPGSV,3,3,11,29,23,226,37,20,22,101,35,194,18,148,23,1*61
$GPGSV,2,1,05,196,72,048,44,199,60,167,47,24,57,176,47,195,50,175,46,8*56
$GPGSV,2,2,05,194,18,148,25,8*67
$GLGSV,1,1,03,84,53,209,29,69,28,030,24,79,25,075,35,1*4C
$GAGSV,1,1,04,08,62,340,37,15,58,167,43,02,11,117,,07,,,31,7*46
$GAGSV,1,1,03,08,62,340,42,15,58,167,45,07,,,38,1*7F
$GBGSV,3,1,11,38,70,029,44,39,69,215,41,08,60,003,43,16,60,208,39,1*7E
$GBGSV,3,2,11,06,57,208,37,20,50,012,34,29,44,245,42,37,34,085,44,1*7E
$GBGSV,3,3,11,46,31,153,45,30,22,184,31,32,17,067,32,1*4B
$GBGSV,2,1,07,38,70,029,45,39,69,215,42,20,50,012,29,29,44,245,39,4*79
$GBGSV,2,2,07,37,34,085,44,46,31,153,42,30,22,184,24,4*43
$GNGGA,095954.000,2500.7829696,N,12132.4668525,E,1,39,0.68,16.003,M,15.25,M,24,3335*72
$GNRMC,095954.000,A,2500.7829696,N,12132.4668525,E,0.02,291.25,260623,,,A,V*05
$GPHDT,,T*1B
$GNGGA,095954.200,2500.7829696,N,12132.4668525,E,1,39,0.72,16.003,M,15.25,M,24,3335*7B
$GNRMC,095954.200,A,2500.7829696,N,12132.4668525,E,0.01,291.25,260623,,,A,V*04
$GPHDT,,T*1B
$GNGGA,095954.400,2500.7829696,N,12132.4668525,E,1,39,0.72,16.003,M,15.25,M,24,3335*7D
$GNRMC,095954.400,A,2500.7829696,N,12132.4668525,E,0.01,291.25,260623,,,A,V*02
$GPHDT,,T*1B
$GNGGA,095954.600,2500.7829696,N,12132.4668525,E,1,39,0.72,16.003,M,15.25,M,24,3335*7F
$GNRMC,095954.600,A,2500.7829696,N,12132.4668525,E,0.01,291.25,260623,,,A,V*00
$GPHDT,,T*1B
$GNGGA,095954.800,2500.7829696,N,12132.4668525,E,1,39,0.72,16.003,M,15.25,M,24,3335*71
$GNRMC,095954.800,A,2500.7829696,N,12132.4668525,E,0.04,291.25,260623,,,A,V*0B
$GPHDT,,T*1B
$GNGSA,A,3,196,199,15,24,195,05,13,29,20,194,,,1.32,0.72,1.11,1*07
$GNGSA,A,3,84,69,79,,,,,,,,,,1.32,0.72,1.11,2*0B
$GNGSA,A,3,08,15,,,,,,,,,,,1.32,0.72,1.11,3*0B
$GNGSA,A,3,38,39,08,16,06,20,29,37,46,30,32,,1.32,0.72,1.11,4*05
$GPGSV,3,1,11,196,72,048,43,199,60,167,36,15,59,357,43,24,57,176,44,1*6E
$GPGSV,3,2,11,195,50,175,44,05,40,077,46,41,38,241,30,13,36,033,37,1*54
$GPGSV,3,3,11,29,23,226,38,20,22,101,35,194,18,148,23,1*6E
$GPGSV,2,1,05,196,72,048,44,199,60,167,47,24,57,176,47,195,50,175,46,8*56
$GPGSV,2,2,05,194,18,148,25,8*67
$GLGSV,1,1,03,84,53,209,29,69,28,030,25,79,25,075,34,1*4C
$GAGSV,1,1,03,08,62,340,37,15,58,167,43,07,,,31,7*74
$GAGSV,1,1,03,08,62,340,42,15,58,167,45,07,,,38,1*7F
$GBGSV,3,1,12,38,70,029,44,39,69,215,41,08,60,003,43,16,60,208,39,1*7D
$GBGSV,3,2,12,06,57,208,37,20,50,012,34,29,44,245,42,37,34,085,44,1*7D
$GBGSV,3,3,12,46,31,153,45,30,22,184,31,35,20,306,,32,17,067,32,1*79
$GBGSV,2,1,07,38,70,029,45,39,69,215,42,20,50,012,29,29,44,245,39,4*79
$GBGSV,2,2,07,37,34,085,44,46,31,153,42,30,22,184,24,4*43
$GNGGA,095955.000,2500.7829696,N,12132.4668525,E,1,39,0.72,16.005,M,15.25,M,25,3335*7F
$GNRMC,095955.000,A,2500.7829696,N,12132.4668525,E,0.04,291.25,260623,,,A,V*02
$GPHDT,,T*1B
$GNGGA,095955.200,2500.7829696,N,12132.4668525,E,1,40,0.72,16.004,M,15.25,M,25,3335*72
$GNRMC,095955.200,A,2500.7829696,N,12132.4668525,E,0.01,291.25,260623,,,A,V*05
$GPHDT,316.013,T*33
$GNGGA,095955.400,2500.7829696,N,12132.4668525,E,1,40,0.72,16.003,M,15.25,M,25,3335*73
$GNRMC,095955.400,A,2500.7829696,N,12132.4668525,E,0.00,291.25,260623,,,A,V*02
$GPHDT,315.872,T*3F
$GNGGA,095955.600,2500.7829696,N,12132.4668525,E,1,40,0.72,16.003,M,15.25,M,25,3335*71
$GNRMC,095955.600,A,2500.7829696,N,12132.4668525,E,0.00,291.25,260623,,,A,V*00
$GPHDT,315.926,T*3F
$GNGGA,095955.800,2500.7829696,N,12132.4668525,E,1,40,0.72,16.003,M,15.25,M,25,3335*7F
$GNRMC,095955.800,A,2500.7829696,N,12132.4668525,E,0.01,291.25,260623,,,A,V*0F
$GPHDT,315.688,T*34
$GNGSA,A,3,196,199,15,24,195,05,13,29,20,194,,,1.32,0.72,1.11,1*07
$GNGSA,A,3,84,69,79,,,,,,,,,,1.32,0.72,1.11,2*0B
$GNGSA,A,3,08,15,,,,,,,,,,,1.32,0.72,1.11,3*0B
$GNGSA,A,3,38,39,16,08,06,20,29,37,46,30,32,,1.32,0.72,1.11,4*05
$GPGSV,3,1,11,196,72,048,43,199,60,167,36,15,59,357,43,24,57,176,44,1*6E
$GPGSV,3,2,11,195,50,175,44,05,40,077,46,41,38,241,29,13,36,033,37,1*5C
$GPGSV,3,3,11,29,23,226,38,20,22,101,35,194,18,148,24,1*69
$GPGSV,2,1,05,196,72,048,44,199,60,167,47,24,57,176,47,195,50,175,46,8*56
$GPGSV,2,2,05,194,18,148,25,8*67
$GLGSV,1,1,03,84,53,209,29,69,28,030,26,79,25,074,34,1*4E
$GAGSV,1,1,03,08,62,340,37,15,58,167,43,07,,,31,7*74
$GAGSV,1,1,03,08,62,340,42,15,58,167,45,07,,,38,1*7F
$GBGSV,3,1,11,38,70,029,44,39,69,215,42,16,60,208,40,08,60,003,43,1*73
$GBGSV,3,2,11,06,57,208,37,20,50,012,34,29,44,245,42,37,34,085,44,1*7E
$GBGSV,3,3,11,46,31,153,45,30,22,184,31,32,17,067,33,1*4A
$GBGSV,2,1,07,38,70,029,45,39,69,215,42,20,50,012,29,29,44,245,39,4*79
$GBGSV,2,2,07,37,34,085,44,46,31,153,42,30,22,184,24,4*43
$GNGGA,095956.000,2500.7829696,N,12132.4668525,E,1,40,0.72,16.003,M,15.25,M,26,3335*77
$GNRMC,095956.000,A,2500.7829696,N,12132.4668525,E,0.00,291.25,260623,,,A,V*05
$GPHDT,315.785,T*38
$GNGGA,095956.200,2500.7829696,N,12132.4668525,E,1,40,0.72,16.003,M,15.25,M,26,3335*75
$GNRMC,095956.200,A,2500.7829696,N,12132.4668525,E,0.00,291.25,260623,,,A,V*07
$GPHDT,315.563,T*32
$GNGGA,095956.400,2500.7829696,N,12132.4668525,E,1,40,0.72,16.002,M,15.25,M,26,3335*72
$GNRMC,095956.400,A,2500.7829696,N,12132.4668525,E,0.00,291.25,260623,,,A,V*01
$GPHDT,315.651,T*30
$GNGGA,095956.600,2500.7829696,N,12132.4668525,E,1,40,0.72,16.002,M,15.25,M,26,3335*70
$GNRMC,095956.600,A,2500.7829696,N,12132.4668525,E,0.00,291.25,260623,,,A,V*03
$GPHDT,315.799,T*35
$GNGGA,095956.800,2500.7829696,N,12132.4668525,E,1,40,0.72,16.002,M,15.25,M,26,3335*7E
$GNRMC,095956.800,A,2500.7829696,N,12132.4668525,E,0.04,291.25,260623,,,A,V*09
$GPHDT,315.815,T*3E
$GNGSA,A,3,196,199,15,24,195,05,13,29,20,194,,,1.32,0.72,1.11,1*07
$GNGSA,A,3,84,69,79,,,,,,,,,,1.32,0.72,1.11,2*0B
$GNGSA,A,3,08,15,,,,,,,,,,,1.32,0.72,1.11,3*0B
$GNGSA,A,3,38,39,16,08,06,20,29,37,46,30,32,,1.32,0.72,1.11,4*05
$GPGSV,3,1,11,196,72,048,43,199,60,167,36,15,59,357,43,24,57,176,44,1*6E
$GPGSV,3,2,11,195,50,175,44,05,40,077,46,41,38,241,29,13,36,033,37,1*5C
$GPGSV,3,3,11,29,23,226,36,20,22,101,35,194,18,148,24,1*67
$GPGSV,2,1,05,196,72,048,44,199,60,167,47,24,57,176,47,195,50,175,46,8*56
$GPGSV,2,2,05,194,18,148,25,8*67
$GLGSV,1,1,03,84,53,209,28,69,28,030,26,79,25,074,34,1*4F
$GAGSV,1,1,03,08,62,340,37,15,58,167,43,07,,,31,7*74
$GAGSV,1,1,03,08,62,340,42,15,58,167,45,07,,,38,1*7F
$GBGSV,3,1,11,38,70,029,44,39,69,215,42,16,60,208,40,08,60,003,43,1*73
$GBGSV,3,2,11,06,57,208,37,20,50,012,34,29,44,245,42,37,34,085,45,1*7F
$GBGSV,3,3,11,46,31,153,45,30,22,184,31,32,17,067,33,1*4A
$GBGSV,2,1,07,38,70,029,45,39,69,215,42,20,50,012,27,29,44,245,39,4*77
$GBGSV,2,2,07,37,34,085,44,46,31,153,42,30,22,184,24,4*43
$GNGGA,095957.000,2500.7829696,N,12132.4668525,E,1,40,0.72,16.003,M,15.25,M,27,3335*77
$GNRMC,095957.000,A,2500.7829696,N,12132.4668525,E,0.02,291.25,260623,,,A,V*06
$GPHDT,315.807,T*3D
$GNGGA,095957.200,2500.7829696,N,12132.4668525,E,1,40,0.72,16.003,M,15.25,M,27,3335*75
$GNRMC,095957.200,A,2500.7829696,N,12132.4668525,E,0.01,291.25,260623,,,A,V*07
$GPHDT,316.026,T*35
$GNGGA,095957.400,2500.7829696,N,12132.4668525,E,1,40,0.72,16.003,M,15.25,M,27,3335*73
$GNRMC,095957.400,A,2500.7829696,N,12132.4668525,E,0.01,291.25,260623,,,A,V*01
$GPHDT,315.936,T*3E
$GNGGA,095957.600,2500.7829696,N,12132.4668525,E,1,40,0.72,16.004,M,15.25,M,27,3335*76
$GNRMC,095957.600,A,2500.7829696,N,12132.4668525,E,0.01,291.25,260623,,,A,V*03
$GPHDT,315.721,T*36
$GNGGA,095957.800,2500.7829696,N,12132.4668525,E,1,40,0.72,16.003,M,15.25,M,27,3335*7F
$GNRMC,095957.800,A,2500.7829696,N,12132.4668525,E,0.03,291.25,260623,,,A,V*0F
$GPHDT,315.344,T*31
$GNGSA,A,3,196,199,15,24,195,05,13,29,20,194,,,1.32,0.72,1.11,1*07
$GNGSA,A,3,84,69,79,,,,,,,,,,1.32,0.72,1.11,2*0B
$GNGSA,A,3,08,15,,,,,,,,,,,1.32,0.72,1.11,3*0B
$GNGSA,A,3,38,39,16,08,06,20,29,37,46,30,32,,1.32,0.72,1.11,4*05
$GPGSV,3,1,11,196,72,048,43,199,60,167,36,15,59,357,43,24,57,176,44,1*6E
$GPGSV,3,2,11,195,50,175,44,05,40,077,46,41,38,241,31,13,36,033,38,1*5A
$GPGSV,3,3,11,29,23,226,37,20,22,101,35,194,18,148,25,1*67
$GPGSV,2,1,05,196,72,048,44,199,60,167,47,24,57,176,47,195,50,175,46,8*56
$GPGSV,2,2,05,194,18,148,25,8*67
$GLGSV,1,1,03,84,53,209,28,69,28,030,27,79,25,074,35,1*4F
$GAGSV,1,1,03,08,62,340,38,15,58,167,43,07,,,30,7*7A
$GAGSV,1,1,03,08,62,340,42,15,58,167,45,07,,,38,1*7F
$GBGSV,3,1,11,38,70,029,44,39,69,215,42,16,60,208,40,08,60,003,43,1*73
$GBGSV,3,2,11,06,57,208,38,20,50,012,34,29,44,245,43,37,34,085,45,1*71
$GBGSV,3,3,11,46,31,153,45,30,22,184,31,32,17,067,33,1*4A
$GBGSV,2,1,07,38,70,029,45,39,69,215,42,20,50,012,27,29,44,245,40,4*79
$GBGSV,2,2,07,37,34,085,44,46,31,153,42,30,22,184,23,4*44
$GNGGA,095958.000,2500.7829696,N,12132.4668525,E,1,40,0.72,16.006,M,15.25,M,28,3335*72
$GNRMC,095958.000,A,2500.7829696,N,12132.4668525,E,0.02,291.25,260623,,,A,V*09
$GPHDT,315.548,T*3B
$GNGGA,095958.200,2500.7829696,N,12132.4668525,E,1,40,0.72,16.006,M,15.25,M,28,3335*70
$GNRMC,095958.200,A,2500.7829696,N,12132.4668525,E,0.01,291.25,260623,,,A,V*08
$GPHDT,314.842,T*3D
$GNGGA,095958.400,2500.7829696,N,12132.4668525,E,1,40,0.72,16.007,M,15.25,M,28,3335*77
$GNRMC,095958.400,A,2500.7829696,N,12132.4668525,E,0.01,291.25,260623,,,A,V*0E
$GPHDT,315.036,T*37
$GNGGA,095958.600,2500.7829696,N,12132.4668525,E,1,39,0.72,16.007,M,15.25,M,28,3335*7B
$GNRMC,095958.600,A,2500.7829696,N,12132.4668525,E,0.01,291.25,260623,,,A,V*0C
$GPHDT,315.333,T*31
$GNGGA,095958.800,2500.7829696,N,12132.4668525,E,1,39,0.72,16.006,M,15.25,M,28,3335*74
$GNRMC,095958.800,A,2500.7829696,N,12132.4668525,E,0.00,291.25,260623,,,A,V*03
$GPHDT,315.180,T*3B
$GNGSA,A,3,196,199,15,24,195,05,13,29,20,194,,,1.32,0.72,1.11,1*07
$GNGSA,A,3,84,69,79,,,,,,,,,,1.32,0.72,1.11,2*0B
$GNGSA,A,3,08,15,,,,,,,,,,,1.32,0.72,1.11,3*0B
$GNGSA,A,3,38,39,16,08,06,20,29,37,46,30,32,,1.32,0.72,1.11,4*05
$GPGSV,3,1,11,196,72,048,43,199,60,167,36,15,59,357,43,24,57,176,44,1*6E
$GPGSV,3,2,11,195,50,175,44,05,40,077,46,41,38,241,33,13,36,033,38,1*58
$GPGSV,3,3,11,29,23,226,36,20,22,101,36,194,18,148,22,1*62
$GPGSV,2,1,05,196,72,048,44,199,60,167,47,24,57,176,47,195,50,175,46,8*56
$GPGSV,2,2,05,194,18,148,24,8*66
$GLGSV,1,1,03,84,53,209,28,69,28,030,26,79,25,074,36,1*4D
$GAGSV,1,1,03,08,62,340,38,15,58,167,43,07,,,29,7*72
$GAGSV,1,1,03,08,62,340,42,15,58,167,45,07,,,38,1*7F
$GBGSV,3,1,11,38,70,029,44,39,69,215,42,16,60,208,40,08,60,004,43,1*74
$GBGSV,3,2,11,06,57,209,38,20,50,012,34,29,44,245,44,37,34,085,45,1*77
$GBGSV,3,3,11,46,31,153,45,30,22,184,30,32,17,067,34,1*4C
$GBGSV,2,1,07,38,70,029,45,39,69,215,42,20,50,012,28,29,44,245,41,4*77
$GBGSV,2,2,07,37,34,085,44,46,31,153,42,30,22,184,23,4*44
$GNGGA,095959.000,2500.7829696,N,12132.4668525,E,1,39,0.72,16.006,M,15.25,M,29,3335*7C
$GNRMC,095959.000,A,2500.7829696,N,12132.4668525,E,0.00,291.25,260623,,,A,V*0A
$GPHDT,315.307,T*36
$GNGGA,095959.200,2500.7829696,N,12132.4668525,E,1,39,0.72,16.006,M,15.25,M,29,3335*7E
$GNRMC,095959.200,A,2500.7829696,N,12132.4668525,E,0.00,291.25,260623,,,A,V*08
$GPHDT,315.793,T*3F
$GNGGA,095959.400,2500.7829696,N,12132.4668525,E,1,39,0.72,16.006,M,15.25,M,29,3335*78
$GNRMC,095959.400,A,2500.7829696,N,12132.4668525,E,0.00,291.25,260623,,,A,V*0E
$GPHDT,315.933,T*3B
$GNGGA,095959.600,2500.7829696,N,12132.4668525,E,1,40,0.72,16.006,M,15.25,M,29,3335*74
$GNRMC,095959.600,A,2500.7829696,N,12132.4668525,E,0.00,291.25,260623,,,A,V*0C
$GPHDT,315.844,T*3A
$GNGGA,095959.800,2500.7829696,N,12132.4668525,E,1,39,0.72,16.006,M,15.25,M,29,3335*74
$GNRMC,095959.800,A,2500.7829696,N,12132.4668525,E,0.04,291.25,260623,,,A,V*06
$GPHDT,315.747,T*36
$GNGSA,A,3,196,199,15,24,195,05,13,29,20,194,,,1.32,0.72,1.11,1*07
$GNGSA,A,3,84,69,79,,,,,,,,,,1.32,0.72,1.11,2*0B
$GNGSA,A,3,08,15,,,,,,,,,,,1.32,0.72,1.11,3*0B
$GNGSA,A,3,38,39,16,08,06,20,29,37,46,30,32,,1.32,0.72,1.11,4*05
$GPGSV,3,1,11,196,72,048,43,199,60,167,36,15,59,357,43,24,57,176,44,1*6E
$GPGSV,3,2,11,195,50,175,44,05,40,077,46,41,38,241,28,13,36,033,38,1*52
$GPGSV,3,3,11,29,23,226,37,20,22,101,36,194,18,148,20,1*61
$GPGSV,2,1,05,196,72,048,44,199,60,167,47,24,57,176,47,195,50,175,45,8*55
$GPGSV,2,2,05,194,18,148,24,8*66
$GLGSV,1,1,03,84,53,209,27,69,28,030,27,79,25,074,37,1*42
$GAGSV,1,1,03,08,62,340,37,15,58,167,43,07,,,27,7*73
$GAGSV,1,1,03,08,62,340,42,15,58,167,45,07,,,39,1*7E
$GBGSV,3,1,11,38,70,029,44,39,69,215,44,16,60,208,42,08,60,004,43,1*70
$GBGSV,3,2,11,06,57,209,40,20,50,012,34,29,44,245,41,37,34,085,45,1*7D
$GBGSV,3,3,11,46,31,153,45,30,22,184,32,32,17,067,34,1*4E
$GBGSV,2,1,07,38,70,029,45,39,69,215,43,20,50,012,28,29,44,245,37,4*77
$GBGSV,2,2,07,37,34,085,44,46,31,153,40,30,22,184,20,4*45
$GNGGA,100000.000,2500.7829696,N,12132.4668525,E,1,39,0.72,16.006,M,15.25,M,30,3335*7C
$GNRMC,100000.000,A,2500.7829696,N,12132.4668525,E,0.01,291.25,260623,,,A,V*03
$PAIR010,0,1,2268,122418*38
$GPHDT,316.184,T*3C
$GNGGA,100000.200,2500.7829696,N,12132.4668525,E,1,39,0.72,16.006,M,15.25,M,30,3335*7E
$GNRMC,100000.200,A,2500.7829696,N,12132.4668525,E,0.02,291.25,260623,,,A,V*02
$GPHDT,316.052,T*36
$GNGGA,100000.400,2500.7829696,N,12132.4668525,E,1,39,0.72,16.006,M,15.25,M,30,3335*78
$GNRMC,100000.400,A,2500.7829696,N,12132.4668525,E,0.00,291.25,260623,,,A,V*06
$GPHDT,316.251,T*37
$GNGGA,100000.600,2500.7829696,N,12132.4668525,E,1,39,0.72,16.006,M,15.25,M,30,3335*7A
$GNRMC,100000.600,A,2500.7829696,N,12132.4668525,E,0.02,291.25,260623,,,A,V*06
$GPHDT,315.867,T*3B
$GNGGA,100000.800,2500.7829696,N,12132.4668525,E,1,39,0.72,16.006,M,15.25,M,30,3335*74
$GNRMC,100000.800,A,2500.7829696,N,12132.4668525,E,0.00,291.25,260623,,,A,V*0A
$GPHDT,315.666,T*34
$GNGSA,A,3,196,199,15,24,195,05,13,29,20,194,,,1.32,0.72,1.11,1*07
$GNGSA,A,3,84,69,79,,,,,,,,,,1.32,0.72,1.11,2*0B
$GNGSA,A,3,08,15,,,,,,,,,,,1.32,0.72,1.11,3*0B
$GNGSA,A,3,38,39,16,08,06,20,29,37,46,30,32,,1.32,0.72,1.11,4*05
$GPGSV,3,1,11,196,72,048,43,199,60,167,36,15,59,357,43,24,57,176,44,1*6E
$GPGSV,3,2,11,195,50,175,44,05,40,077,46,41,38,241,27,13,36,033,38,1*5D
$GPGSV,3,3,11,29,23,226,37,20,22,101,36,194,18,148,18,1*6A
$GPGSV,2,1,05,196,72,048,45,199,60,167,47,24,57,176,46,195,50,175,44,8*54
$GPGSV,2,2,05,194,18,148,25,8*67
$GLGSV,1,1,03,84,53,209,27,69,28,030,28,79,25,074,37,1*4D
$GAGSV,1,1,03,08,62,340,37,15,58,167,43,07,,,25,7*71
$GAGSV,1,1,03,08,62,340,42,15,58,167,45,07,,,39,1*7E
$GBGSV,3,1,11,38,70,029,44,39,69,215,44,16,60,209,42,08,60,004,43,1*71
$GBGSV,3,2,11,06,57,209,40,20,50,012,34,29,44,245,41,37,34,085,45,1*7D
$GBGSV,3,3,11,46,31,153,45,30,22,184,32,32,17,067,35,1*4F
$GBGSV,2,1,07,38,70,029,45,39,69,215,43,20,50,012,29,29,44,245,38,4*79
$GBGSV,2,2,07,37,34,085,44,46,31,153,41,30,22,184,19,4*4E
$GNGGA,100001.000,2500.7829696,N,12132.4668525,E,1,39,0.72,16.007,M,15.25,M,31,3335*7D
$GNRMC,100001.000,A,2500.7829696,N,12132.4668525,E,0.00,291.25,260623,,,A,V*03
$GPHDT,316.182,T*3A
$GNGGA,100001.200,2500.7829696,N,12132.4668525,E,1,39,0.72,16.006,M,15.25,M,31,3335*7E
$GNRMC,100001.200,A,2500.7829696,N,12132.4668525,E,0.00,291.25,260623,,,A,V*01
$GPHDT,315.964,T*39
$GNGGA,100001.400,2500.7829696,N,12132.4668525,E,1,39,0.72,16.006,M,15.25,M,31,3335*78
$GNRMC,100001.400,A,2500.7829696,N,12132.4668525,E,0.00,291.25,260623,,,A,V*07
$GPHDT,315.919,T*33
$GNGGA,100001.600,2500.7829696,N,12132.4668525,E,1,39,0.72,16.006,M,15.25,M,31,3335*7A
$GNRMC,100001.600,A,2500.7829696,N,12132.4668525,E,0.00,291.25,260623,,,A,V*05
