$FW : RTK35X,V1.1X0314AS,Lib20210517,1*54
$Tool : LOCOSYS , GNSS Firebird , v1.0.0.19*39
$---------------------------------------------------*2D
$GNGGA,100150.800,2500.7829469,N,12132.4668141,E,4,46,0.60,15.861,M,15.25,M,2,3335*41
$GNRMC,100150.800,A,2500.7829469,N,12132.4668141,E,0.08,178.84,260623,,,R,V*1E
$GPHDT,,T*1B
$GNGSA,A,3,196,199,15,24,195,05,13,29,194,,,,0.94,0.62,0.71,1*0E
$GNGSA,A,3,84,69,79,,,,,,,,,,0.94,0.62,0.71,2*00
$GNGSA,A,3,08,13,15,07,03,,,,,,,,0.94,0.62,0.71,3*06
$GNGSA,A,3,38,39,08,16,06,20,29,37,46,30,32,,0.94,0.62,0.71,4*0E
$GPGSV,3,1,11,196,72,048,42,199,60,167,33,15,58,359,43,24,57,176,42,1*63
$GPGSV,3,2,11,195,49,175,38,05,39,078,43,41,38,242,38,13,35,034,40,1*5C
$GPGSV,3,3,11,29,22,226,44,20,21,102,25,194,18,147,24,1*6D
$GPGSV,2,1,05,196,72,048,44,199,60,167,44,24,57,176,46,195,49,175,42,8*58
$GPGSV,2,2,05,194,18,147,18,8*66
$GLGSV,1,1,03,84,52,208,32,69,28,031,30,79,26,074,36,1*43
$GAGSV,2,1,05,08,62,341,40,13,61,305,34,15,57,168,40,07,34,262,35,7*72
$GAGSV,2,2,05,03,28,041,26,7*4E
$GAGSV,2,1,05,08,62,341,42,13,61,305,35,15,57,168,43,07,34,262,36,1*77
$GAGSV,2,2,05,03,28,041,30,1*4F
$GBGSV,3,1,11,38,70,030,43,39,70,216,44,08,61,004,42,16,60,209,42,1*75
$GBGSV,3,2,11,06,58,209,41,20,50,013,31,29,44,244,43,37,34,084,43,1*73
$GBGSV,3,3,11,46,32,153,37,30,21,183,34,32,17,068,19,1*4A
$GBGSV,2,1,08,38,70,030,43,39,70,216,44,20,50,013,31,29,44,244,41,4*73
$GBGSV,2,2,08,37,34,084,43,46,32,153,36,30,21,183,26,32,17,068,17,4*73
$GNGGA,100151.000,2500.7829484,N,12132.4668158,E,4,46,0.62,15.841,M,15.25,M,3,3335*42
$GNRMC,100151.000,A,2500.7829484,N,12132.4668158,E,0.06,178.84,260623,,,R,V*12
$GPHDT,,T*1B
$GNGGA,100151.200,2500.7829488,N,12132.4668097,E,4,46,0.62,15.882,M,15.25,M,3,3335*41
$GNRMC,100151.200,A,2500.7829488,N,12132.4668097,E,0.03,178.84,260623,,,R,V*1B
$GPHDT,,T*1B
$GNGGA,100151.400,2500.7829495,N,12132.4668105,E,4,46,0.62,15.873,M,15.25,M,3,3335*4F
$GNRMC,100151.400,A,2500.7829495,N,12132.4668105,E,0.02,178.84,260623,,,R,V*1A
$GPHDT,,T*1B
$GNGGA,100151.600,2500.7829472,N,12132.4668121,E,4,46,0.62,15.831,M,15.25,M,1,3335*46
$GNRMC,100151.600,A,2500.7829472,N,12132.4668121,E,0.01,178.84,260623,,,R,V*14
$GPHDT,,T*1B
$GNGGA,100151.800,2500.7829468,N,12132.4668163,E,4,46,0.62,15.837,M,15.25,M,0,3335*42
$GNRMC,100151.800,A,2500.7829468,N,12132.4668163,E,0.04,178.84,260623,,,R,V*12
$GPHDT,,T*1B
$GNGSA,A,3,196,199,24,15,195,05,13,29,194,,,,0.94,0.62,0.71,1*0E
$GNGSA,A,3,84,69,79,,,,,,,,,,0.94,0.62,0.71,2*00
$GNGSA,A,3,08,13,15,07,03,,,,,,,,0.94,0.62,0.71,3*06
$GNGSA,A,3,38,39,08,16,06,20,29,37,46,30,32,,0.94,0.62,0.71,4*0E
$GPGSV,3,1,11,196,72,048,42,199,60,167,34,24,58,176,42,15,58,359,43,1*6B
$GPGSV,3,2,11,195,49,175,39,05,39,078,44,41,38,242,36,13,35,034,38,1*5B
$GPGSV,3,3,11,29,22,226,43,20,21,102,20,194,18,147,20,1*6B
$GPGSV,2,1,05,196,72,048,43,199,60,167,45,24,58,176,46,195,49,175,42,8*51
$GPGSV,2,2,05,194,18,147,23,8*6E
$GLGSV,1,1,03,84,52,208,31,69,28,031,30,79,26,074,37,1*41
$GAGSV,2,1,05,08,62,341,39,13,61,305,34,15,57,168,39,07,34,262,35,7*72
$GAGSV,2,2,05,03,28,041,27,7*4F
$GAGSV,2,1,05,08,62,341,43,13,61,305,34,15,57,168,45,07,34,262,38,1*7F
$GAGSV,2,2,05,03,28,041,30,1*4F
$GBGSV,3,1,11,38,70,030,43,39,70,216,44,08,61,004,42,16,60,209,42,1*75
$GBGSV,3,2,11,06,58,209,41,20,50,013,31,29,44,244,43,37,34,084,44,1*74
$GBGSV,3,3,11,46,32,153,40,30,21,183,35,32,17,068,17,1*45
$GBGSV,2,1,08,38,70,030,43,39,70,216,44,20,50,013,31,29,44,244,41,4*73
$GBGSV,2,2,08,37,34,084,44,46,32,153,40,30,21,183,25,32,17,068,18,4*79
$GNGGA,100152.000,2500.7829489,N,12132.4668120,E,4,46,0.62,15.848,M,15.25,M,1,3335*48
$GNRMC,100152.000,A,2500.7829489,N,12132.4668120,E,0.02,178.84,260623,,,R,V*17
$GPHDT,,T*1B
$GNGGA,100152.200,2500.7829482,N,12132.4668128,E,4,46,0.62,15.852,M,15.25,M,1,3335*42
$GNRMC,100152.200,A,2500.7829482,N,12132.4668128,E,0.03,178.84,260623,,,R,V*17
$GPHDT,,T*1B
$GNGGA,100152.400,2500.7829467,N,12132.4668144,E,4,46,0.62,15.845,M,15.25,M,1,3335*43
$GNRMC,100152.400,A,2500.7829467,N,12132.4668144,E,0.01,178.84,260623,,,R,V*12
$GPHDT,,T*1B
$GNGGA,100152.600,2500.7829523,N,12132.4668112,E,4,46,0.62,15.879,M,15.25,M,1,3335*4C
$GNRMC,100152.600,A,2500.7829523,N,12132.4668112,E,0.02,178.84,260623,,,R,V*11
$GPHDT,,T*1B
$GNGGA,100152.800,2500.7829504,N,12132.4668124,E,4,44,0.64,15.884,M,15.25,M,1,3335*44
$GNRMC,100152.800,A,2500.7829504,N,12132.4668124,E,0.04,178.84,260623,,,R,V*19
$GPHDT,,T*1B
$GNGSA,A,3,196,199,24,15,195,05,13,29,194,,,,0.94,0.62,0.71,1*0E
$GNGSA,A,3,84,69,79,,,,,,,,,,0.94,0.62,0.71,2*00
$GNGSA,A,3,08,13,15,07,03,,,,,,,,0.94,0.62,0.71,3*06
$GNGSA,A,3,38,39,08,16,06,20,29,37,46,30,32,,0.94,0.62,0.71,4*0E
$GPGSV,3,1,11,196,72,048,42,199,60,167,35,24,58,176,43,15,58,359,44,1*6C
$GPGSV,3,2,11,195,49,175,40,05,39,078,44,41,38,242,36,13,35,034,37,1*5A
$GPGSV,3,3,11,29,22,225,43,20,21,102,22,194,18,147,19,1*60
$GPGSV,2,1,05,196,72,048,43,199,60,167,46,24,58,176,46,195,49,175,43,8*53
$GPGSV,2,2,05,194,18,147,25,8*68
$GLGSV,1,1,03,84,52,208,31,69,28,031,28,79,26,074,37,1*48
$GAGSV,2,1,05,08,62,341,39,13,61,305,34,15,57,168,40,07,34,262,35,7*7C
$GAGSV,2,2,05,03,28,041,25,7*4D
$GAGSV,2,1,05,08,62,341,43,13,61,305,35,15,57,168,45,07,34,262,37,1*71
$GAGSV,2,2,05,03,28,041,29,1*47
$GBGSV,3,1,11,38,70,030,43,39,70,216,44,08,61,004,42,16,60,209,42,1*75
$GBGSV,3,2,11,06,58,209,42,20,50,013,31,29,44,244,43,37,34,084,45,1*76
$GBGSV,3,3,11,46,32,153,40,30,21,183,35,32,17,068,20,1*41
$GBGSV,2,1,08,38,70,030,43,39,70,216,44,20,50,013,32,29,44,244,41,4*70
$GBGSV,2,2,08,37,34,084,44,46,32,153,42,30,21,183,25,32,17,068,17,4*74
$GNGGA,100153.000,2500.7829446,N,12132.4668169,E,4,45,0.62,15.865,M,15.25,M,2,3335*48
$GNRMC,100153.000,A,2500.7829446,N,12132.4668169,E,0.06,178.84,260623,,,R,V*1C
$GPHDT,,T*1B
$GNGGA,100153.200,2500.7829480,N,12132.4668142,E,4,45,0.62,15.851,M,15.25,M,2,3335*4E
$GNRMC,100153.200,A,2500.7829480,N,12132.4668142,E,0.04,178.84,260623,,,R,V*1F
$GPHDT,,T*1B
$GNGGA,100153.400,2500.7829491,N,12132.4668138,E,4,45,0.62,15.860,M,15.25,M,2,3335*47
$GNRMC,100153.400,A,2500.7829491,N,12132.4668138,E,0.03,178.84,260623,,,R,V*13
$GPHDT,,T*1B
$GNGGA,100153.600,2500.7829467,N,12132.4668158,E,4,45,0.62,15.859,M,15.25,M,2,3335*40
$GNRMC,100153.600,A,2500.7829467,N,12132.4668158,E,0.02,178.84,260623,,,R,V*1F
$GPHDT,,T*1B
$GNGGA,100153.800,2500.7829469,N,12132.4668154,E,4,45,0.62,15.857,M,15.25,M,2,3335*42
$GNRMC,100153.800,A,2500.7829469,N,12132.4668154,E,0.01,178.84,260623,,,R,V*10
$GPHDT,,T*1B
$GNGSA,A,3,196,199,24,15,195,05,13,29,194,,,,0.94,0.62,0.71,1*0E
$GNGSA,A,3,84,69,79,,,,,,,,,,0.94,0.62,0.71,2*00
$GNGSA,A,3,08,13,15,07,03,,,,,,,,0.94,0.62,0.71,3*06
$GNGSA,A,3,38,39,08,16,06,20,29,37,46,30,32,,0.94,0.62,0.71,4*0E
$GPGSV,3,1,11,196,72,048,42,199,60,167,35,24,58,176,43,15,58,359,44,1*6C
$GPGSV,3,2,11,195,49,175,41,05,39,078,44,41,38,242,36,13,35,034,38,1*54
$GPGSV,3,3,11,29,22,225,43,20,21,102,22,194,18,147,18,1*61
$GPGSV,2,1,05,196,72,048,44,199,60,167,46,24,58,176,46,195,49,175,45,8*52
$GPGSV,2,2,05,194,18,147,25,8*68
$GLGSV,1,1,03,84,52,208,30,69,28,031,31,79,26,074,38,1*4E
$GAGSV,2,1,05,08,62,341,38,13,61,305,35,15,57,168,40,07,34,262,35,7*7C
$GAGSV,2,2,05,03,28,041,23,7*4B
$GAGSV,2,1,05,08,62,341,43,13,61,305,36,15,57,168,45,07,34,262,37,1*72
$GAGSV,2,2,05,03,28,041,29,1*47
$GBGSV,3,1,11,38,70,030,43,39,70,216,44,08,61,004,42,16,60,209,42,1*75
$GBGSV,3,2,11,06,58,209,42,20,50,013,29,29,44,244,43,37,34,084,45,1*7F
$GBGSV,3,3,11,46,32,153,41,30,21,183,35,32,17,068,20,1*40
$GBGSV,2,1,08,38,70,030,43,39,70,216,44,20,50,013,31,29,44,244,41,4*73
$GBGSV,2,2,08,37,34,084,44,46,32,153,44,30,21,183,25,32,17,068,19,4*7C
$GNGGA,100154.000,2500.7829462,N,12132.4668145,E,4,45,0.62,15.851,M,15.25,M,3,3335*41
$GNRMC,100154.000,A,2500.7829462,N,12132.4668145,E,0.01,178.84,260623,,,R,V*14
$GPHDT,,T*1B
$GNGGA,100154.200,2500.7829460,N,12132.4668152,E,4,45,0.62,15.867,M,15.25,M,3,3335*42
$GNRMC,100154.200,A,2500.7829460,N,12132.4668152,E,0.02,178.84,260623,,,R,V*11
$GPHDT,,T*1B
$GNGGA,100154.400,2500.7829467,N,12132.4668158,E,4,45,0.62,15.853,M,15.25,M,3,3335*4E
$GNRMC,100154.400,A,2500.7829467,N,12132.4668158,E,0.03,178.84,260623,,,R,V*1B
$GPHDT,,T*1B
$GNGGA,100154.600,2500.7829478,N,12132.4668155,E,4,45,0.62,15.885,M,15.25,M,3,3335*44
$GNRMC,100154.600,A,2500.7829478,N,12132.4668155,E,0.02,178.84,260623,,,R,V*1B
$GPHDT,,T*1B
$GNGGA,100154.800,2500.7829462,N,12132.4668155,E,4,45,0.62,15.897,M,15.25,M,3,3335*42
$GNRMC,100154.800,A,2500.7829462,N,12132.4668155,E,0.02,178.84,260623,,,R,V*1E
$GPHDT,,T*1B
$GNGSA,A,3,196,199,24,15,195,05,13,29,20,194,,,0.93,0.60,0.71,1*09
$GNGSA,A,3,84,69,79,,,,,,,,,,0.93,0.60,0.71,2*05
$GNGSA,A,3,08,13,15,07,03,,,,,,,,0.93,0.60,0.71,3*03
$GNGSA,A,3,38,39,08,16,06,20,29,37,46,30,32,,0.93,0.60,0.71,4*0B
$GPGSV,3,1,11,196,72,049,42,199,60,167,37,24,58,176,43,15,58,359,44,1*6F
$GPGSV,3,2,11,195,49,175,41,05,39,078,44,41,38,242,36,13,35,034,38,1*54
$GPGSV,3,3,11,29,22,225,43,20,21,102,26,194,18,147,17,1*6A
$GPGSV,2,1,05,196,72,049,44,199,60,167,47,24,58,176,47,195,49,175,45,8*53
$GPGSV,2,2,05,194,18,147,24,8*69
$GLGSV,1,1,03,84,52,208,32,69,28,031,32,79,26,074,38,1*4F
$GAGSV,2,1,05,08,62,341,38,13,61,305,36,15,57,168,41,07,34,262,36,7*7D
$GAGSV,2,2,05,03,28,041,23,7*4B
$GAGSV,2,1,05,08,62,341,43,13,61,305,37,15,57,168,46,07,34,262,37,1*70
$GAGSV,2,2,05,03,28,041,29,1*47
$GBGSV,3,1,11,38,70,030,43,39,70,216,44,08,61,004,42,16,60,209,42,1*75
$GBGSV,3,2,11,06,58,209,42,20,50,013,29,29,44,244,43,37,34,084,44,1*7E
$GBGSV,3,3,11,46,32,153,41,30,21,183,35,32,17,068,20,1*40
$GBGSV,2,1,08,38,70,030,43,39,70,216,44,20,50,013,32,29,44,244,42,4*73
$GBGSV,2,2,08,37,34,084,44,46,32,153,43,30,21,183,24,32,17,068,23,4*73
$GNGGA,100155.000,2500.7829465,N,12132.4668156,E,4,46,0.60,15.902,M,15.25,M,4,3335*44
$GNRMC,100155.000,A,2500.7829465,N,12132.4668156,E,0.01,178.84,260623,,,R,V*10
$GPHDT,,T*1B
$GNGGA,100155.200,2500.7829456,N,12132.4668150,E,4,46,0.60,15.906,M,15.25,M,4,3335*44
$GNRMC,100155.200,A,2500.7829456,N,12132.4668150,E,0.01,178.84,260623,,,R,V*14
$GPHDT,,T*1B
$GNGGA,100155.400,2500.7829460,N,12132.4668143,E,4,46,0.60,15.905,M,15.25,M,4,3335*46
$GNRMC,100155.400,A,2500.7829460,N,12132.4668143,E,0.01,178.84,260623,,,R,V*15
$GPHDT,,T*1B
$GNGGA,100155.600,2500.7829464,N,12132.4668178,E,4,46,0.60,15.905,M,15.25,M,4,3335*48
$GNRMC,100155.600,A,2500.7829464,N,12132.4668178,E,0.01,178.84,260623,,,R,V*1B
$GPHDT,,T*1B
$GNGGA,100155.800,2500.7829472,N,12132.4668173,E,4,45,0.62,15.896,M,15.25,M,4,3335*40
$GNRMC,100155.800,A,2500.7829472,N,12132.4668173,E,0.06,178.84,260623,,,R,V*1E
$GPHDT,,T*1B
$GNGSA,A,3,196,199,24,15,195,05,13,29,20,,,,0.95,0.62,0.72,1*32
$GNGSA,A,3,84,69,79,,,,,,,,,,0.95,0.62,0.72,2*02
$GNGSA,A,3,08,13,15,07,03,,,,,,,,0.95,0.62,0.72,3*04
$GNGSA,A,3,38,39,08,16,06,20,29,37,46,30,32,,0.95,0.62,0.72,4*0C
$GPGSV,3,1,11,196,72,049,42,199,60,167,36,24,58,176,43,15,58,359,44,1*6E
$GPGSV,3,2,11,195,49,175,43,05,39,078,44,41,38,242,36,13,35,034,39,1*57
$GPGSV,3,3,11,29,22,225,43,20,21,102,30,194,18,147,18,1*62
$GPGSV,1,1,04,196,72,049,44,199,60,167,46,24,58,176,47,195,49,175,45,8*50
$GLGSV,1,1,03,84,52,208,31,69,28,031,34,79,26,074,38,1*4A
$GAGSV,2,1,05,08,62,341,38,13,61,305,36,15,57,168,41,07,34,262,36,7*7D
$GAGSV,2,2,05,03,28,041,21,7*49
$GAGSV,2,1,05,08,62,341,43,13,61,305,36,15,57,168,46,07,34,262,36,1*70
$GAGSV,2,2,05,03,28,041,30,1*4F
$GBGSV,3,1,11,38,70,030,43,39,70,216,44,08,61,004,42,16,60,209,42,1*75
$GBGSV,3,2,11,06,58,209,42,20,50,013,29,29,44,244,43,37,34,084,42,1*78
$GBGSV,3,3,11,46,32,153,39,30,21,183,35,32,17,068,20,1*4F
$GBGSV,2,1,08,38,70,030,43,39,70,216,44,20,50,013,32,29,44,244,42,4*73
$GBGSV,2,2,08,37,34,084,43,46,32,153,41,30,21,183,24,32,17,068,22,4*77
$GNGGA,100156.000,2500.7829488,N,12132.4668174,E,4,45,0.62,15.894,M,15.25,M,5,3335*4A
$GNRMC,100156.000,A,2500.7829488,N,12132.4668174,E,0.04,178.84,260623,,,R,V*15
$GPHDT,,T*1B
$GNGGA,100156.200,2500.7829481,N,12132.4668170,E,4,45,0.62,15.886,M,15.25,M,5,3335*46
$GNRMC,100156.200,A,2500.7829481,N,12132.4668170,E,0.05,178.84,260623,,,R,V*1B
$GPHDT,,T*1B
$GNGGA,100156.400,2500.7829480,N,12132.4668160,E,4,45,0.62,15.877,M,15.25,M,5,3335*4E
$GNRMC,100156.400,A,2500.7829480,N,12132.4668160,E,0.04,178.84,260623,,,R,V*1C
$GPHDT,,T*1B
$GNGGA,100156.600,2500.7829479,N,12132.4668164,E,4,45,0.62,15.892,M,15.25,M,5,3335*45
$GNRMC,100156.600,A,2500.7829479,N,12132.4668164,E,0.02,178.84,260623,,,R,V*1A
$GPHDT,,T*1B
$GNGGA,100156.800,2500.7829437,N,12132.4668189,E,4,46,0.60,15.874,M,15.25,M,5,3335*4B
$GNRMC,100156.800,A,2500.7829437,N,12132.4668189,E,0.04,178.84,260623,,,R,V*1B
$GPHDT,,T*1B
$GNGSA,A,3,196,199,24,15,195,05,13,29,20,194,,,0.93,0.60,0.71,1*09
$GNGSA,A,3,84,69,79,,,,,,,,,,0.93,0.60,0.71,2*05
$GNGSA,A,3,08,13,15,07,03,,,,,,,,0.93,0.60,0.71,3*03
$GNGSA,A,3,38,39,08,16,06,20,29,37,46,30,32,,0.93,0.60,0.71,4*0B
$GPGSV,3,1,11,196,72,049,41,199,60,167,36,24,58,176,43,15,58,359,44,1*6D
$GPGSV,3,2,11,195,49,175,43,05,39,078,44,41,38,242,36,13,35,034,40,1*59
$GPGSV,3,3,11,29,22,225,43,20,21,102,29,194,18,147,21,1*60
$GPGSV,1,1,04,196,72,049,45,199,60,167,46,24,58,176,47,195,49,175,45,8*51
$GLGSV,1,1,03,84,52,208,32,69,28,031,36,79,26,074,38,1*4B
$GAGSV,2,1,05,08,62,341,38,13,61,305,36,15,57,168,41,07,34,262,35,7*7E
$GAGSV,2,2,05,03,28,041,19,7*42
$GAGSV,2,1,05,08,62,341,43,13,61,305,36,15,57,168,46,07,34,262,36,1*70
$GAGSV,2,2,05,03,28,041,30,1*4F
$GBGSV,3,1,11,38,70,030,43,39,70,216,44,08,61,004,42,16,60,209,42,1*75
$GBGSV,3,2,11,06,58,209,42,20,50,013,29,29,44,244,43,37,34,084,43,1*79
$GBGSV,3,3,11,46,32,153,38,30,21,183,35,32,17,068,22,1*4C
$GBGSV,2,1,08,38,70,030,43,39,70,216,44,20,50,013,31,29,44,244,42,4*70
$GBGSV,2,2,08,37,34,084,42,46,32,153,39,30,21,183,23,32,17,068,20,4*7C
$GNGGA,100157.000,2500.7829470,N,12132.4668138,E,4,46,0.60,15.865,M,15.25,M,6,3335*48
$GNRMC,100157.000,A,2500.7829470,N,12132.4668138,E,0.00,178.84,260623,,,R,V*1F
$GPHDT,,T*1B
$GNGGA,100157.200,2500.7829448,N,12132.4668143,E,4,46,0.60,15.862,M,15.25,M,6,3335*4A
$GNRMC,100157.200,A,2500.7829448,N,12132.4668143,E,0.00,178.84,260623,,,R,V*1A
$GPHDT,,T*1B
$GNGGA,100157.400,2500.7829452,N,12132.4668158,E,4,46,0.60,15.877,M,15.25,M,6,3335*49
$GNRMC,100157.400,A,2500.7829452,N,12132.4668158,E,0.01,178.84,260623,,,R,V*1C
$GPHDT,,T*1B
$GNGGA,100157.600,2500.7829430,N,12132.4668149,E,4,46,0.60,15.878,M,15.25,M,4,3335*42
$GNRMC,100157.600,A,2500.7829430,N,12132.4668149,E,0.05,178.84,260623,,,R,V*1E
$GPHDT,,T*1B
$GNGGA,100157.800,2500.7829465,N,12132.4668113,E,4,46,0.60,15.860,M,15.25,M,1,3335*4F
$GNRMC,100157.800,A,2500.7829465,N,12132.4668113,E,0.02,178.84,260623,,,R,V*18
$GPHDT,,T*1B
$GNGSA,A,3,196,199,24,15,195,05,13,29,20,,,,0.95,0.62,0.72,1*32
$GNGSA,A,3,84,69,79,,,,,,,,,,0.95,0.62,0.72,2*02
$GNGSA,A,3,08,13,15,07,03,,,,,,,,0.95,0.62,0.72,3*04
$GNGSA,A,3,38,39,08,16,06,20,29,37,46,30,32,,0.95,0.62,0.72,4*0C
$GPGSV,3,1,11,196,72,049,41,199,60,167,36,24,58,176,43,15,58,359,44,1*6D
$GPGSV,3,2,11,195,49,175,43,05,39,078,44,41,38,242,36,13,35,034,40,1*59
$GPGSV,3,3,11,29,22,225,43,20,21,102,26,194,18,147,22,1*6C
$GPGSV,1,1,04,196,72,049,45,199,60,167,46,24,58,176,47,195,49,175,46,8*52
$GLGSV,1,1,03,84,52,208,32,69,28,031,34,79,26,074,38,1*49
$GAGSV,2,1,05,08,62,341,38,13,61,305,34,15,57,168,41,07,34,262,35,7*7C
$GAGSV,2,2,05,03,28,041,20,7*48
$GAGSV,2,1,05,08,62,341,43,13,61,305,36,15,57,168,46,07,34,262,36,1*70
$GAGSV,2,2,05,03,28,041,32,1*4D
$GBGSV,3,1,11,38,70,030,43,39,70,216,44,08,61,004,42,16,60,209,43,1*74
$GBGSV,3,2,11,06,58,209,42,20,50,013,31,29,44,244,43,37,34,084,43,1*70
$GBGSV,3,3,11,46,32,153,35,30,21,183,35,32,17,068,24,1*47
$GBGSV,2,1,08,38,70,030,43,39,70,216,44,20,50,013,31,29,44,244,42,4*70
$GBGSV,2,2,08,37,34,084,42,46,32,153,37,30,21,183,23,32,17,068,22,4*70
$GNGGA,100158.000,2500.7829397,N,12132.4668165,E,4,45,0.62,15.886,M,15.25,M,1,3335*4A
$GNRMC,100158.000,A,2500.7829397,N,12132.4668165,E,0.04,178.84,260623,,,R,V*12
$GPHDT,,T*1B
$GNGGA,100158.200,2500.7829401,N,12132.4668175,E,4,46,0.60,15.876,M,15.25,M,1,3335*4F
$GNRMC,100158.200,A,2500.7829401,N,12132.4668175,E,0.03,178.84,260623,,,R,V*1E
$GPHDT,,T*1B
$GNGGA,100158.400,2500.7829401,N,12132.4668178,E,4,46,0.60,15.886,M,15.25,M,1,3335*4B
$GNRMC,100158.400,A,2500.7829401,N,12132.4668178,E,0.02,178.84,260623,,,R,V*14
$GPHDT,,T*1B
$GNGGA,100158.600,2500.7829453,N,12132.4668150,E,4,46,0.60,15.853,M,15.25,M,0,3335*4D
$GNRMC,100158.600,A,2500.7829453,N,12132.4668150,E,0.03,178.84,260623,,,R,V*1A
$GPHDT,,T*1B
$GNGGA,100158.800,2500.7829442,N,12132.4668133,E,4,45,0.62,15.859,M,15.25,M,0,3335*4D
$GNRMC,100158.800,A,2500.7829442,N,12132.4668133,E,0.02,178.84,260623,,,R,V*10
$GPHDT,,T*1B
$GNGSA,A,3,196,199,24,15,195,05,13,29,20,194,,,0.93,0.60,0.71,1*09
$GNGSA,A,3,84,69,79,,,,,,,,,,0.93,0.60,0.71,2*05
$GNGSA,A,3,08,13,15,07,03,,,,,,,,0.93,0.60,0.71,3*03
$GNGSA,A,3,38,39,08,16,06,20,29,37,46,30,32,,0.93,0.60,0.71,4*0B
$GPGSV,3,1,11,196,72,049,41,199,60,167,36,24,58,176,43,15,58,359,44,1*6D
$GPGSV,3,2,11,195,49,175,43,05,39,078,44,41,38,242,36,13,35,034,40,1*59
$GPGSV,3,3,11,29,22,225,43,20,21,102,27,194,18,147,22,1*6D
$GPGSV,1,1,04,196,72,049,45,199,60,167,46,24,58,176,47,195,49,175,46,8*52
$GLGSV,1,1,03,84,52,208,32,69,28,031,34,79,26,074,38,1*49
$GAGSV,2,1,05,08,62,341,38,13,61,305,35,15,57,168,41,07,34,262,36,7*7E
$GAGSV,2,2,05,03,28,041,20,7*48
$GAGSV,2,1,05,08,62,341,43,13,61,305,36,15,57,168,46,07,34,262,36,1*70
$GAGSV,2,2,05,03,28,041,32,1*4D
$GBGSV,3,1,11,38,70,030,43,39,70,216,44,08,61,004,42,16,60,209,43,1*74
$GBGSV,3,2,11,06,58,209,42,20,50,013,31,29,44,244,43,37,34,084,43,1*70
$GBGSV,3,3,11,46,32,153,39,30,21,183,35,32,17,068,24,1*4B
$GBGSV,2,1,08,38,70,030,43,39,70,216,44,20,50,013,31,29,44,244,42,4*70
$GBGSV,2,2,08,37,34,084,43,46,32,153,40,30,21,183,22,32,17,068,22,4*70
$GNGGA,100159.000,2500.7829455,N,12132.4668137,E,4,46,0.60,15.857,M,15.25,M,1,3335*48
$GNRMC,100159.000,A,2500.7829455,N,12132.4668137,E,0.01,178.84,260623,,,R,V*18
$GPHDT,,T*1B
$GNGGA,100159.200,2500.7829457,N,12132.4668150,E,4,46,0.60,15.843,M,15.25,M,1,3335*4C
$GNRMC,100159.200,A,2500.7829457,N,12132.4668150,E,0.00,178.84,260623,,,R,V*18
$GPHDT,,T*1B
$GNGGA,100159.400,2500.7829421,N,12132.4668152,E,4,46,0.60,15.865,M,15.25,M,1,3335*4D
$GNRMC,100159.400,A,2500.7829421,N,12132.4668152,E,0.00,178.84,260623,,,R,V*1D
$GPHDT,,T*1B
$GNGGA,100159.600,2500.7829410,N,12132.4668150,E,4,45,0.62,15.861,M,15.25,M,1,3335*4A
$GNRMC,100159.600,A,2500.7829410,N,12132.4668150,E,0.01,178.84,260623,,,R,V*1E
$GPHDT,,T*1B
$GNGGA,100159.800,2500.7829445,N,12132.4668160,E,4,46,0.60,15.859,M,15.25,M,0,3335*4C
$GNRMC,100159.800,A,2500.7829445,N,12132.4668160,E,0.01,178.84,260623,,,R,V*13
$GPHDT,,T*1B
$GNGSA,A,3,196,199,24,15,195,05,13,29,20,194,,,0.93,0.60,0.71,1*09
$GNGSA,A,3,84,69,79,,,,,,,,,,0.93,0.60,0.71,2*05
$GNGSA,A,3,08,13,15,07,03,,,,,,,,0.93,0.60,0.71,3*03
$GNGSA,A,3,38,39,08,16,06,20,29,37,46,30,32,,0.93,0.60,0.71,4*0B
$GPGSV,3,1,11,196,72,049,41,199,60,167,36,24,58,176,43,15,58,359,44,1*6D
$GPGSV,3,2,11,195,49,175,42,05,39,078,44,41,38,242,38,13,35,034,40,1*56
$GPGSV,3,3,11,29,22,225,43,20,21,102,26,194,18,147,22,1*6C
$GPGSV,1,1,04,196,72,049,45,199,60,167,46,24,58,176,47,195,49,175,46,8*52
$GLGSV,1,1,03,84,52,208,31,69,28,031,34,79,26,074,38,1*4A
$GAGSV,2,1,05,08,62,341,38,13,61,305,34,15,57,168,41,07,34,262,36,7*7F
$GAGSV,2,2,05,03,28,041,20,7*48
$GAGSV,2,1,05,08,62,341,43,13,61,305,36,15,57,168,46,07,34,262,36,1*70
$GAGSV,2,2,05,03,28,041,32,1*4D
$GBGSV,3,1,11,38,70,030,43,39,70,216,44,08,61,004,42,16,60,209,43,1*74
$GBGSV,3,2,11,06,58,209,42,20,50,013,31,29,44,244,43,37,34,084,43,1*70
$GBGSV,3,3,11,46,32,153,39,30,21,183,35,32,17,068,24,1*4B
$GBGSV,2,1,08,38,70,030,43,39,70,216,44,20,50,013,31,29,44,244,42,4*70
$GBGSV,2,2,08,37,34,084,43,46,32,153,40,30,21,183,23,32,17,068,23,4*70
$GNGGA,100200.000,2500.7829454,N,12132.4668145,E,4,46,0.60,15.847,M,15.25,M,1,3335*42
$GNRMC,100200.000,A,2500.7829454,N,12132.4668145,E,0.05,178.84,260623,,,R,V*17
$PAIR010,0,1,2268,122538*3B
$GPHDT,,T*1B
$GNGGA,100200.200,2500.7829422,N,12132.4668165,E,4,46,0.60,15.850,M,15.25,M,1,3335*45
$GNRMC,100200.200,A,2500.7829422,N,12132.4668165,E,0.03,178.84,260623,,,R,V*10
$GPHDT,,T*1B
$GNGGA,100200.400,2500.7829469,N,12132.4668136,E,4,47,0.60,15.847,M,15.25,M,0,3335*4C
$GNRMC,100200.400,A,2500.7829469,N,12132.4668136,E,0.01,178.84,260623,,,R,V*1D
$GPHDT,,T*1B
$GNGGA,100200.600,2500.7829442,N,12132.4668128,E,4,47,0.60,15.850,M,15.25,M,0,3335*4E
$GNRMC,100200.600,A,2500.7829442,N,12132.4668128,E,0.02,178.84,260623,,,R,V*1A
$GPHDT,,T*1B
$GNGGA,100200.800,2500.7829472,N,12132.4668119,E,4,47,0.60,15.843,M,15.25,M,0,3335*43
$GNRMC,100200.800,A,2500.7829472,N,12132.4668119,E,0.04,178.84,260623,,,R,V*13
$GPHDT,,T*1B
$GNGSA,A,3,196,199,24,15,195,05,13,29,20,194,,,0.93,0.60,0.71,1*09
$GNGSA,A,3,84,69,79,,,,,,,,,,0.93,0.60,0.71,2*05
$GNGSA,A,3,08,13,15,07,03,,,,,,,,0.93,0.60,0.71,3*03
$GNGSA,A,3,38,39,08,16,06,20,29,37,46,30,32,,0.93,0.60,0.71,4*0B
$GPGSV,3,1,11,196,72,049,41,199,60,167,36,24,58,176,43,15,58,359,44,1*6D
$GPGSV,3,2,11,195,49,175,42,05,39,078,44,41,38,242,36,13,35,034,40,1*58
$GPGSV,3,3,11,29,22,225,43,20,21,102,26,194,18,147,24,1*6A
$GPGSV,2,1,05,196,72,049,45,199,60,167,46,24,58,176,47,195,49,175,46,8*50
$GPGSV,2,2,05,194,18,147,22,8*6F
$GLGSV,1,1,03,84,52,208,31,69,28,031,34,79,26,074,38,1*4A
$GAGSV,2,1,05,08,62,341,38,13,61,305,34,15,57,168,41,07,34,262,36,7*7F
$GAGSV,2,2,05,03,28,041,22,7*4A
$GAGSV,2,1,05,08,62,341,43,13,61,305,36,15,57,168,46,07,34,262,36,1*70
$GAGSV,2,2,05,03,28,041,32,1*4D
$GBGSV,3,1,11,38,70,030,43,39,70,216,44,08,61,004,42,16,60,209,43,1*74
$GBGSV,3,2,11,06,58,209,42,20,50,013,31,29,44,244,42,37,34,084,43,1*71
$GBGSV,3,3,11,46,32,153,39,30,21,183,35,32,17,068,25,1*4A
$GBGSV,2,1,08,38,70,030,43,39,70,216,44,20,50,013,31,29,44,244,42,4*70
$GBGSV,2,2,08,37,34,084,43,46,32,153,40,30,21,183,24,32,17,068,23,4*77
$GNGGA,100201.000,2500.7829463,N,12132.4668144,E,4,47,0.60,15.840,M,15.25,M,1,3335*40
$GNRMC,100201.000,A,2500.7829463,N,12132.4668144,E,0.02,178.84,260623,,,R,V*14
$GPHDT,,T*1B
$GNGGA,100201.200,2500.7829422,N,12132.4668133,E,4,47,0.60,15.866,M,15.25,M,1,3335*43
$GNRMC,100201.200,A,2500.7829422,N,12132.4668133,E,0.03,178.84,260623,,,R,V*12
$GPHDT,,T*1B
$GNGGA,100201.400,2500.7829483,N,12132.4668128,E,4,46,0.60,15.886,M,15.25,M,1,3335*4B
$GNRMC,100201.400,A,2500.7829483,N,12132.4668128,E,0.03,178.84,260623,,,R,V*15
