$FW : RTK35X,V1.1X0314AS,Lib20210517,1*54
$Tool : LOCOSYS , GNSS Firebird , v1.0.0.19*39
$---------------------------------------------------*2D
$GPHDT,,T*1B
$GNGGA,100018.600,2500.7829450,N,12132.4668140,E,4,42,0.65,15.856,M,15.25,M,1,3335*4F
$GNRMC,100018.600,A,2500.7829450,N,12132.4668140,E,0.01,291.25,260623,,,R,V*10
$GPHDT,,T*1B
$GNGGA,100018.800,2500.7829418,N,12132.4668173,E,4,42,0.65,15.870,M,15.25,M,0,3335*48
$GNRMC,100018.800,A,2500.7829418,N,12132.4668173,E,0.00,291.25,260623,,,R,V*13
$GPHDT,,T*1B
$GNGSA,A,3,196,199,15,24,195,05,13,29,20,194,,,1.22,0.65,1.03,1*03
$GNGSA,A,3,84,69,79,,,,,,,,,,1.22,0.65,1.03,2*0F
$GNGSA,A,3,08,15,07,,,,,,,,,,1.22,0.65,1.03,3*08
$GNGSA,A,3,38,39,08,16,06,20,29,37,46,30,32,,1.22,0.65,1.03,4*01
$GPGSV,3,1,11,196,72,048,43,199,60,167,31,15,58,357,45,24,57,176,43,1*69
$GPGSV,3,2,11,195,50,175,43,05,40,078,47,41,38,241,34,13,36,033,41,1*58
$GPGSV,3,3,11,29,23,226,38,20,22,102,38,194,18,148,17,1*67
$GPGSV,2,1,05,196,72,048,45,199,60,167,44,24,57,176,45,195,50,175,43,8*53
$GPGSV,2,2,05,194,18,148,22,8*60
$GLGSV,1,1,03,84,53,209,31,69,28,030,32,79,25,074,40,1*41
$GAGSV,1,1,03,08,62,340,40,15,58,167,36,07,34,262,32,7*44
$GAGSV,1,1,03,08,62,340,44,15,58,167,44,07,34,262,41,1*47
$GBGSV,3,1,11,38,70,029,43,39,70,215,41,08,60,004,43,16,60,209,41,1*78
$GBGSV,3,2,11,06,57,209,40,20,50,012,33,29,44,245,43,37,34,084,44,1*78
$GBGSV,3,3,11,46,32,153,38,30,22,184,34,32,17,067,29,1*4D
$GBGSV,2,1,08,38,70,029,46,39,70,215,45,20,50,012,33,29,44,245,43,4*7C
$GBGSV,2,2,08,37,34,084,41,46,32,153,32,30,22,184,24,32,17,067,17,4*7C
$GNGGA,100019.000,2500.7829430,N,12132.4668192,E,4,42,0.65,15.874,M,15.25,M,1,3335*41
$GNRMC,100019.000,A,2500.7829430,N,12132.4668192,E,0.01,291.25,260623,,,R,V*1E
$GPHDT,,T*1B
$GNGGA,100019.200,2500.7829445,N,12132.4668177,E,4,42,0.65,15.879,M,15.25,M,1,3335*47
$GNRMC,100019.200,A,2500.7829445,N,12132.4668177,E,0.01,291.25,260623,,,R,V*15
$GPHDT,,T*1B
$GNGGA,100019.400,2500.7829457,N,12132.4668160,E,4,42,0.65,15.857,M,15.25,M,1,3335*48
$GNRMC,100019.400,A,2500.7829457,N,12132.4668160,E,0.01,291.25,260623,,,R,V*16
$GPHDT,,T*1B
$GNGGA,100019.600,2500.7829491,N,12132.4668153,E,4,42,0.65,15.863,M,15.25,M,1,3335*47
$GNRMC,100019.600,A,2500.7829491,N,12132.4668153,E,0.01,291.25,260623,,,R,V*1E
$GPHDT,,T*1B
$GNGGA,100019.800,2500.7829481,N,12132.4668156,E,4,42,0.65,15.840,M,15.25,M,1,3335*4C
$GNRMC,100019.800,A,2500.7829481,N,12132.4668156,E,0.02,291.25,260623,,,R,V*17
$GPHDT,,T*1B
$GNGSA,A,3,196,199,15,24,195,05,13,29,20,194,,,1.22,0.65,1.03,1*03
$GNGSA,A,3,84,69,79,,,,,,,,,,1.22,0.65,1.03,2*0F
$GNGSA,A,3,08,15,07,,,,,,,,,,1.22,0.65,1.03,3*08
$GNGSA,A,3,38,39,08,16,06,20,29,37,46,30,32,,1.22,0.65,1.03,4*01
$GPGSV,3,1,11,196,72,048,43,199,60,167,31,15,58,357,45,24,57,176,41,1*6B
$GPGSV,3,2,11,195,50,175,40,05,40,078,47,41,38,241,33,13,36,033,39,1*53
$GPGSV,3,3,11,29,23,226,38,20,22,102,38,194,18,148,20,1*63
$GPGSV,2,1,05,196,72,048,45,199,60,167,44,24,57,176,45,195,50,175,43,8*53
$GPGSV,2,2,05,194,18,148,19,8*68
$GLGSV,1,1,03,84,53,209,31,69,28,030,30,79,25,074,38,1*4C
$GAGSV,1,1,03,08,62,340,39,15,58,167,37,07,34,262,32,7*4B
$GAGSV,1,1,03,08,62,340,44,15,58,167,44,07,34,262,40,1*46
$GBGSV,3,1,11,38,70,029,43,39,70,215,42,08,60,004,43,16,60,209,41,1*7B
$GBGSV,3,2,11,06,57,209,40,20,50,012,32,29,44,245,43,37,34,084,44,1*79
$GBGSV,3,3,11,46,32,153,38,30,22,184,34,32,17,067,29,1*4D
$GBGSV,2,1,08,38,70,029,46,39,70,215,45,20,50,012,33,29,44,245,43,4*7C
$GBGSV,2,2,08,37,34,084,43,46,32,153,36,30,22,184,23,32,17,067,16,4*7C
$GNGGA,100020.000,2500.7829538,N,12132.4668125,E,4,42,0.65,15.859,M,15.25,M,2,3335*42
$GNRMC,100020.000,A,2500.7829538,N,12132.4668125,E,0.01,291.25,260623,,,R,V*11
$GPHDT,,T*1B
$GNGGA,100020.200,2500.7829497,N,12132.4668131,E,4,42,0.65,15.858,M,15.25,M,1,3335*43
$GNRMC,100020.200,A,2500.7829497,N,12132.4668131,E,0.01,291.25,260623,,,R,V*12
$GPHDT,,T*1B
$GNGGA,100020.400,2500.7829517,N,12132.4668121,E,4,42,0.65,15.841,M,15.25,M,1,3335*45
$GNRMC,100020.400,A,2500.7829517,N,12132.4668121,E,0.01,291.25,260623,,,R,V*1C
$GPHDT,,T*1B
$GNGGA,100020.600,2500.7829515,N,12132.4668125,E,4,42,0.65,15.835,M,15.25,M,1,3335*42
$GNRMC,100020.600,A,2500.7829515,N,12132.4668125,E,0.00,291.25,260623,,,R,V*19
$GPHDT,,T*1B
$GNGGA,100020.800,2500.7829470,N,12132.4668149,E,4,42,0.65,15.859,M,15.25,M,1,3335*4E
$GNRMC,100020.800,A,2500.7829470,N,12132.4668149,E,0.00,291.25,260623,,,R,V*1F
$GPHDT,,T*1B
$GNGSA,A,3,196,199,15,24,195,05,13,29,20,194,,,1.22,0.65,1.03,1*03
$GNGSA,A,3,84,69,79,,,,,,,,,,1.22,0.65,1.03,2*0F
$GNGSA,A,3,08,15,07,,,,,,,,,,1.22,0.65,1.03,3*08
$GNGSA,A,3,38,39,08,16,06,20,29,37,46,30,32,,1.22,0.65,1.03,4*01
$GPGSV,3,1,11,196,72,048,43,199,60,167,32,15,58,357,45,24,57,176,41,1*68
$GPGSV,3,2,11,195,50,175,40,05,40,078,47,41,38,241,34,13,36,033,37,1*5A
$GPGSV,3,3,11,29,23,226,38,20,22,102,38,194,18,148,23,1*60
$GPGSV,2,1,05,196,72,048,44,199,60,167,44,24,57,176,45,195,50,175,42,8*53
$GPGSV,2,2,05,194,18,148,19,8*68
$GLGSV,1,1,03,84,53,209,31,69,28,030,30,79,25,074,38,1*4C
$GAGSV,1,1,03,08,62,340,39,15,57,167,38,07,34,262,32,7*4B
$GAGSV,1,1,03,08,62,340,44,15,57,167,44,07,34,262,40,1*49
$GBGSV,3,1,11,38,70,029,43,39,70,215,42,08,60,004,43,16,60,209,41,1*7B
$GBGSV,3,2,11,06,57,209,40,20,50,012,32,29,44,245,43,37,34,084,44,1*79
$GBGSV,3,3,11,46,32,153,36,30,22,184,35,32,17,067,29,1*42
$GBGSV,2,1,08,38,70,029,46,39,70,215,45,20,50,012,33,29,44,245,43,4*7C
$GBGSV,2,2,08,37,34,084,42,46,32,153,34,30,22,184,23,32,17,067,15,4*7C
$GNGGA,100021.000,2500.7829465,N,12132.4668138,E,4,42,0.65,15.860,M,15.25,M,2,3335*4C
$GNRMC,100021.000,A,2500.7829465,N,12132.4668138,E,0.00,291.25,260623,,,R,V*14
$GPHDT,,T*1B
$GNGGA,100021.200,2500.7829404,N,12132.4668188,E,4,42,0.65,15.852,M,15.25,M,2,3335*43
$GNRMC,100021.200,A,2500.7829404,N,12132.4668188,E,0.00,291.25,260623,,,R,V*1A
$GPHDT,,T*1B
$GNGGA,100021.400,2500.7829433,N,12132.4668160,E,4,42,0.65,15.850,M,15.25,M,2,3335*45
$GNRMC,100021.400,A,2500.7829433,N,12132.4668160,E,0.00,291.25,260623,,,R,V*1E
$GPHDT,,T*1B
$GNGGA,100021.600,2500.7829414,N,12132.4668174,E,4,43,0.65,15.853,M,15.25,M,2,3335*45
$GNRMC,100021.600,A,2500.7829414,N,12132.4668174,E,0.00,291.25,260623,,,R,V*1C
$GPHDT,,T*1B
$GNGGA,100021.800,2500.7829439,N,12132.4668165,E,4,42,0.65,15.844,M,15.25,M,2,3335*43
$GNRMC,100021.800,A,2500.7829439,N,12132.4668165,E,0.01,291.25,260623,,,R,V*1C
$GPHDT,,T*1B
$GNGSA,A,3,196,199,15,24,195,05,13,29,20,194,,,1.22,0.65,1.03,1*03
$GNGSA,A,3,84,69,79,,,,,,,,,,1.22,0.65,1.03,2*0F
$GNGSA,A,3,08,15,07,,,,,,,,,,1.22,0.65,1.03,3*08
$GNGSA,A,3,38,39,08,16,06,20,29,37,46,30,32,,1.22,0.65,1.03,4*01
$GPGSV,3,1,11,196,72,048,43,199,60,167,34,15,58,357,45,24,57,176,44,1*6B
$GPGSV,3,2,11,195,50,175,43,05,40,078,47,41,38,241,34,13,36,033,37,1*59
$GPGSV,3,3,11,29,23,226,38,20,22,102,37,194,18,148,22,1*6E
$GPGSV,2,1,05,196,72,048,44,199,60,167,46,24,57,176,47,195,50,175,45,8*54
$GPGSV,2,2,05,194,18,148,19,8*68
$GLGSV,1,1,03,84,53,209,30,69,28,030,28,79,25,074,38,1*44
$GAGSV,1,1,03,08,62,340,39,15,57,167,39,07,34,262,33,7*4B
$GAGSV,1,1,03,08,62,340,44,15,57,167,45,07,34,262,40,1*48
$GBGSV,3,1,11,38,70,029,43,39,70,215,42,08,60,004,43,16,60,209,41,1*7B
$GBGSV,3,2,11,06,57,209,40,20,50,012,33,29,44,245,43,37,34,084,44,1*78
$GBGSV,3,3,11,46,32,153,36,30,22,184,35,32,17,067,28,1*43
$GBGSV,2,1,08,38,70,029,46,39,70,215,45,20,50,012,33,29,44,245,42,4*7D
$GBGSV,2,2,08,37,34,084,42,46,32,153,36,30,22,184,24,32,17,067,14,4*78
$GNGGA,100022.000,2500.7829475,N,12132.4668166,E,4,42,0.65,15.864,M,15.25,M,3,3335*40
$GNRMC,100022.000,A,2500.7829475,N,12132.4668166,E,0.01,291.25,260623,,,R,V*1C
$GPHDT,,T*1B
$GNGGA,100022.200,2500.7829489,N,12132.4668167,E,4,41,0.67,15.863,M,15.25,M,3,3335*46
$GNRMC,100022.200,A,2500.7829489,N,12132.4668167,E,0.00,291.25,260623,,,R,V*1D
$GPHDT,,T*1B
$GNGGA,100022.400,2500.7829472,N,12132.4668142,E,4,42,0.65,15.858,M,15.25,M,1,3335*48
$GNRMC,100022.400,A,2500.7829472,N,12132.4668142,E,0.00,291.25,260623,,,R,V*18
$GPHDT,,T*1B
$GNGGA,100022.600,2500.7829454,N,12132.4668174,E,4,43,0.65,15.846,M,15.25,M,1,3335*45
$GNRMC,100022.600,A,2500.7829454,N,12132.4668174,E,0.00,291.25,260623,,,R,V*1B
$GPHDT,,T*1B
$GNGGA,100022.800,2500.7829457,N,12132.4668187,E,4,43,0.65,15.836,M,15.25,M,1,3335*43
$GNRMC,100022.800,A,2500.7829457,N,12132.4668187,E,0.07,291.25,260623,,,R,V*1D
$GPHDT,,T*1B
$GNGSA,A,3,196,199,15,24,195,05,13,29,20,,,,1.24,0.67,1.05,1*3D
$GNGSA,A,3,84,69,79,,,,,,,,,,1.24,0.67,1.05,2*0D
$GNGSA,A,3,08,15,07,,,,,,,,,,1.24,0.67,1.05,3*0A
$GNGSA,A,3,38,39,08,16,06,20,29,37,46,30,32,,1.24,0.67,1.05,4*03
$GPGSV,3,1,11,196,72,048,43,199,60,167,35,15,58,357,45,24,57,176,45,1*6B
$GPGSV,3,2,11,195,50,175,44,05,40,078,47,41,38,241,32,13,36,033,36,1*59
$GPGSV,3,3,11,29,23,226,38,20,22,102,38,194,18,148,23,1*60
$GPGSV,2,1,05,196,72,048,44,199,60,167,46,24,57,176,48,195,50,175,46,8*58
$GPGSV,2,2,05,194,18,148,19,8*68
$GLGSV,1,1,03,84,53,209,30,69,28,030,25,79,25,074,38,1*49
$GAGSV,1,1,03,08,62,340,39,15,57,167,41,07,34,262,34,7*43
$GAGSV,1,1,03,08,62,340,44,15,57,167,46,07,34,262,40,1*4B
$GBGSV,3,1,11,38,70,029,43,39,70,215,42,08,60,004,43,16,60,209,41,1*7B
$GBGSV,3,2,11,06,57,209,40,20,50,012,32,29,44,245,43,37,34,084,44,1*79
$GBGSV,3,3,11,46,32,153,39,30,22,184,34,32,17,067,28,1*4D
$GBGSV,2,1,08,38,70,029,45,39,70,215,45,20,50,012,33,29,44,245,42,4*7E
$GBGSV,2,2,08,37,34,084,42,46,32,153,32,30,22,184,24,32,17,067,12,4*7A
$GNGGA,100023.000,2500.7829458,N,12132.4668201,E,4,41,0.67,15.839,M,15.25,M,2,3335*44
$GNRMC,100023.000,A,2500.7829458,N,12132.4668201,E,0.02,291.25,260623,,,R,V*13
$GPHDT,,T*1B
$GNGGA,100023.200,2500.7829476,N,12132.4668173,E,4,41,0.67,15.831,M,15.25,M,2,3335*44
$GNRMC,100023.200,A,2500.7829476,N,12132.4668173,E,0.02,291.25,260623,,,R,V*1B
$GPHDT,,T*1B
$GNGGA,100023.400,2500.7829486,N,12132.4668173,E,4,43,0.65,15.836,M,15.25,M,2,3335*4A
$GNRMC,100023.400,A,2500.7829486,N,12132.4668173,E,0.01,291.25,260623,,,R,V*11
$GPHDT,,T*1B
$GNGGA,100023.600,2500.7829473,N,12132.4668190,E,4,43,0.65,15.844,M,15.25,M,2,3335*4A
$GNRMC,100023.600,A,2500.7829473,N,12132.4668190,E,0.01,291.25,260623,,,R,V*14
$GPHDT,,T*1B
$GNGGA,100023.800,2500.7829466,N,12132.4668187,E,4,42,0.65,15.848,M,15.25,M,2,3335*4B
$GNRMC,100023.800,A,2500.7829466,N,12132.4668187,E,0.01,291.25,260623,,,R,V*18
$GPHDT,,T*1B
$GNGSA,A,3,196,199,15,24,195,05,13,29,20,,,,1.24,0.67,1.05,1*3D
$GNGSA,A,3,84,69,79,,,,,,,,,,1.24,0.67,1.05,2*0D
$GNGSA,A,3,08,15,07,,,,,,,,,,1.24,0.67,1.05,3*0A
$GNGSA,A,3,38,39,08,16,06,20,29,37,46,30,32,,1.24,0.67,1.05,4*03
$GPGSV,3,1,11,196,72,048,42,199,60,167,35,15,58,357,45,24,57,176,44,1*6B
$GPGSV,3,2,11,195,50,175,44,05,40,078,47,41,38,241,32,13,36,033,37,1*58
$GPGSV,3,3,11,29,23,226,38,20,22,102,39,194,18,148,21,1*63
$GPGSV,2,1,05,196,72,048,44,199,60,167,47,24,57,176,48,195,50,175,46,8*59
$GPGSV,2,2,05,194,18,148,18,8*69
$GLGSV,1,1,03,84,53,209,30,69,28,030,28,79,25,074,38,1*44
$GAGSV,1,1,03,08,62,340,39,15,57,167,41,07,34,262,34,7*43
$GAGSV,1,1,03,08,62,340,44,15,57,167,46,07,34,262,40,1*4B
$GBGSV,3,1,11,38,70,029,43,39,70,215,42,08,60,004,43,16,60,209,41,1*7B
$GBGSV,3,2,11,06,57,209,40,20,50,012,30,29,44,245,42,37,34,084,44,1*7A
$GBGSV,3,3,11,46,32,153,44,30,22,184,34,32,17,067,28,1*47
$GBGSV,2,1,08,38,70,029,45,39,70,215,45,20,50,012,33,29,44,245,42,4*7E
$GBGSV,2,2,08,37,34,084,41,46,32,153,41,30,22,184,24,32,17,067,14,4*7B
$GNGGA,100024.000,2500.7829481,N,12132.4668180,E,4,41,0.67,15.833,M,15.25,M,3,3335*46
$GNRMC,100024.000,A,2500.7829481,N,12132.4668180,E,0.00,291.25,260623,,,R,V*18
$GPHDT,,T*1B
$GNGGA,100024.200,2500.7829486,N,12132.4668196,E,4,41,0.67,15.833,M,15.25,M,3,3335*44
$GNRMC,100024.200,A,2500.7829486,N,12132.4668196,E,0.00,291.25,260623,,,R,V*1A
$GPHDT,,T*1B
$GNGGA,100024.400,2500.7829500,N,12132.4668185,E,4,41,0.67,15.833,M,15.25,M,3,3335*4F
$GNRMC,100024.400,A,2500.7829500,N,12132.4668185,E,0.00,291.25,260623,,,R,V*11
$GPHDT,,T*1B
$GNGGA,100024.600,2500.7829456,N,12132.4668221,E,4,40,0.67,15.858,M,15.25,M,3,3335*4E
$GNRMC,100024.600,A,2500.7829456,N,12132.4668221,E,0.00,291.25,260623,,,R,V*1C
$GPHDT,,T*1B
$GNGGA,100024.800,2500.7829415,N,12132.4668214,E,4,40,0.67,15.873,M,15.25,M,3,3335*48
$GNRMC,100024.800,A,2500.7829415,N,12132.4668214,E,0.02,291.25,260623,,,R,V*11
$GPHDT,,T*1B
$GNGSA,A,3,196,199,15,24,195,05,13,29,20,,,,1.24,0.67,1.05,1*3D
$GNGSA,A,3,84,69,79,,,,,,,,,,1.24,0.67,1.05,2*0D
$GNGSA,A,3,08,15,07,,,,,,,,,,1.24,0.67,1.05,3*0A
$GNGSA,A,3,38,39,08,16,06,20,29,37,46,30,32,,1.24,0.67,1.05,4*03
$GPGSV,3,1,11,196,72,048,42,199,60,167,34,15,58,357,45,24,57,176,44,1*6A
$GPGSV,3,2,11,195,50,175,44,05,40,078,47,41,38,241,31,13,36,033,37,1*5B
$GPGSV,3,3,11,29,23,226,38,20,22,102,39,194,18,148,22,1*60
$GPGSV,1,1,04,196,72,048,44,199,60,167,47,24,57,176,48,195,50,175,46,8*5B
$GLGSV,1,1,03,84,53,209,30,69,28,030,32,79,25,074,38,1*4F
$GAGSV,1,1,03,08,62,340,39,15,57,167,41,07,34,262,34,7*43
$GAGSV,1,1,03,08,62,340,44,15,57,167,46,07,34,262,40,1*4B
$GBGSV,3,1,11,38,70,029,43,39,70,215,42,08,60,004,43,16,60,209,41,1*7B
$GBGSV,3,2,11,06,57,209,39,20,50,012,31,29,44,245,42,37,34,084,44,1*75
$GBGSV,3,3,11,46,32,153,44,30,22,184,33,32,17,067,26,1*4E
$GBGSV,2,1,07,38,70,029,45,39,70,215,45,20,50,012,33,29,44,245,42,4*71
$GBGSV,2,2,07,37,34,084,41,46,32,153,42,30,22,184,25,4*45
$GNGGA,100025.000,2500.7829508,N,12132.4668199,E,4,40,0.67,15.834,M,15.25,M,4,3335*4E
$GNRMC,100025.000,A,2500.7829508,N,12132.4668199,E,0.00,291.25,260623,,,R,V*11
$GPHDT,,T*1B
$GNGGA,100025.200,2500.7829521,N,12132.4668158,E,4,40,0.67,15.808,M,15.25,M,4,3335*45
$GNRMC,100025.200,A,2500.7829521,N,12132.4668158,E,0.01,291.25,260623,,,R,V*14
$GPHDT,,T*1B
$GNGGA,100025.400,2500.7829471,N,12132.4668181,E,4,40,0.67,15.850,M,15.25,M,1,3335*4B
$GNRMC,100025.400,A,2500.7829471,N,12132.4668181,E,0.01,291.25,260623,,,R,V*12
$GPHDT,,T*1B
$GNGGA,100025.600,2500.7829433,N,12132.4668167,E,4,40,0.67,15.855,M,15.25,M,0,3335*43
$GNRMC,100025.600,A,2500.7829433,N,12132.4668167,E,0.01,291.25,260623,,,R,V*1E
$GPHDT,,T*1B
$GNGGA,100025.800,2500.7829460,N,12132.4668167,E,4,41,0.65,15.849,M,15.25,M,0,3335*45
$GNRMC,100025.800,A,2500.7829460,N,12132.4668167,E,0.04,291.25,260623,,,R,V*13
$GPHDT,,T*1B
$GNGSA,A,3,196,199,15,24,195,05,13,29,20,194,,,1.22,0.65,1.03,1*03
$GNGSA,A,3,84,69,79,,,,,,,,,,1.22,0.65,1.03,2*0F
$GNGSA,A,3,08,15,07,,,,,,,,,,1.22,0.65,1.03,3*08
$GNGSA,A,3,38,39,08,16,06,20,29,37,46,30,32,,1.22,0.65,1.03,4*01
$GPGSV,3,1,11,196,72,048,42,199,60,167,35,15,58,357,45,24,57,176,44,1*6B
$GPGSV,3,2,11,195,50,175,44,05,40,078,47,41,38,241,31,13,36,033,37,1*5B
$GPGSV,3,3,11,29,23,226,38,20,22,102,39,194,18,148,21,1*63
$GPGSV,2,1,05,196,72,048,44,199,60,167,46,24,57,176,48,195,50,175,46,8*58
$GPGSV,2,2,05,194,18,148,21,8*63
$GLGSV,1,1,03,84,53,209,30,69,28,030,34,79,25,074,38,1*49
$GAGSV,1,1,03,08,62,340,39,15,57,167,41,07,34,262,33,7*44
$GAGSV,1,1,03,08,62,340,43,15,57,167,46,07,34,262,40,1*4C
$GBGSV,3,1,11,38,70,029,43,39,70,215,42,08,60,004,43,16,60,209,41,1*7B
$GBGSV,3,2,11,06,57,209,39,20,50,012,31,29,44,245,41,37,34,084,44,1*76
$GBGSV,3,3,11,46,32,153,44,30,22,184,33,32,17,067,24,1*4C
$GBGSV,2,1,07,38,70,029,44,39,70,215,45,20,50,012,33,29,44,245,42,4*70
$GBGSV,2,2,07,37,34,084,41,46,32,153,42,30,22,184,25,4*45
$GNGGA,100026.000,2500.7829461,N,12132.4668162,E,4,41,0.65,15.848,M,15.25,M,1,3335*4A
$GNRMC,100026.000,A,2500.7829461,N,12132.4668162,E,0.01,291.25,260623,,,R,V*19
$GPHDT,,T*1B
$GNGGA,100026.200,2500.7829467,N,12132.4668149,E,4,41,0.65,15.842,M,15.25,M,1,3335*4D
$GNRMC,100026.200,A,2500.7829467,N,12132.4668149,E,0.02,291.25,260623,,,R,V*17
$GPHDT,,T*1B
$GNGGA,100026.400,2500.7829477,N,12132.4668131,E,4,41,0.65,15.832,M,15.25,M,1,3335*42
$GNRMC,100026.400,A,2500.7829477,N,12132.4668131,E,0.01,291.25,260623,,,R,V*1C
$GPHDT,,T*1B
$GNGGA,100026.600,2500.7829460,N,12132.4668152,E,4,41,0.65,15.834,M,15.25,M,1,3335*45
$GNRMC,100026.600,A,2500.7829460,N,12132.4668152,E,0.03,291.25,260623,,,R,V*1F
$GPHDT,,T*1B
$GNGGA,100026.800,2500.7829442,N,12132.4668177,E,4,41,0.65,15.855,M,15.25,M,1,3335*4B
$GNRMC,100026.800,A,2500.7829442,N,12132.4668177,E,0.08,291.25,260623,,,R,V*1D
$GPHDT,,T*1B
$GNGSA,A,3,196,199,15,24,195,05,13,29,20,194,,,1.22,0.65,1.03,1*03
$GNGSA,A,3,84,69,79,,,,,,,,,,1.22,0.65,1.03,2*0F
$GNGSA,A,3,08,15,07,,,,,,,,,,1.22,0.65,1.03,3*08
$GNGSA,A,3,38,39,08,16,06,20,29,37,46,30,32,,1.22,0.65,1.03,4*01
$GPGSV,3,1,11,196,72,048,42,199,60,167,33,15,58,357,45,24,57,176,44,1*6D
$GPGSV,3,2,11,195,50,175,44,05,40,078,47,41,38,241,33,13,36,033,39,1*57
$GPGSV,3,3,11,29,23,226,37,20,22,102,40,194,18,148,21,1*62
$GPGSV,2,1,05,196,72,048,45,199,60,167,46,24,57,176,47,195,50,175,46,8*56
$GPGSV,2,2,05,194,18,148,22,8*60
$GLGSV,1,1,03,84,53,209,30,69,28,030,34,79,25,074,38,1*49
$GAGSV,1,1,03,08,62,340,39,15,57,167,40,07,34,262,33,7*45
$GAGSV,1,1,03,08,62,340,42,15,57,167,46,07,34,262,40,1*4D
$GBGSV,3,1,11,38,70,029,43,39,70,215,42,08,60,004,43,16,60,209,41,1*7B
$GBGSV,3,2,11,06,57,209,39,20,50,012,31,29,44,245,41,37,34,084,44,1*76
$GBGSV,3,3,11,46,32,153,44,30,22,184,34,32,17,067,20,1*4F
$GBGSV,2,1,07,38,70,029,44,39,70,215,44,20,50,012,33,29,44,245,42,4*71
$GBGSV,2,2,07,37,34,084,41,46,32,153,42,30,22,184,25,4*45
$GNGGA,100027.000,2500.7829483,N,12132.4668163,E,4,41,0.65,15.862,M,15.25,M,2,3335*4D
$GNRMC,100027.000,A,2500.7829483,N,12132.4668163,E,0.00,291.25,260623,,,R,V*14
$GPHDT,,T*1B
$GNGGA,100027.200,2500.7829495,N,12132.4668154,E,4,41,0.65,15.834,M,15.25,M,2,3335*4F
$GNRMC,100027.200,A,2500.7829495,N,12132.4668154,E,0.01,291.25,260623,,,R,V*14
$GPHDT,,T*1B
$GNGGA,100027.400,2500.7829478,N,12132.4668174,E,4,41,0.65,15.834,M,15.25,M,2,3335*48
$GNRMC,100027.400,A,2500.7829478,N,12132.4668174,E,0.01,291.25,260623,,,R,V*13
$GPHDT,,T*1B
$GNGGA,100027.600,2500.7829414,N,12132.4668195,E,4,40,0.67,15.867,M,15.25,M,2,3335*4A
$GNRMC,100027.600,A,2500.7829414,N,12132.4668195,E,0.01,291.25,260623,,,R,V*14
$GPHDT,,T*1B
$GNGGA,100027.800,2500.7829469,N,12132.4668188,E,4,41,0.65,15.832,M,15.25,M,2,3335*41
$GNRMC,100027.800,A,2500.7829469,N,12132.4668188,E,0.02,291.25,260623,,,R,V*1F
$GPHDT,,T*1B
$GNGSA,A,3,196,199,15,24,195,05,13,29,20,,,,1.24,0.67,1.05,1*3D
$GNGSA,A,3,84,69,79,,,,,,,,,,1.24,0.67,1.05,2*0D
$GNGSA,A,3,08,15,07,,,,,,,,,,1.24,0.67,1.05,3*0A
$GNGSA,A,3,38,39,08,16,06,20,29,37,46,30,32,,1.24,0.67,1.05,4*03
$GPGSV,3,1,11,196,72,048,42,199,60,167,35,15,58,357,45,24,57,176,44,1*6B
$GPGSV,3,2,11,195,50,175,44,05,40,078,47,41,38,241,33,13,36,033,40,1*59
$GPGSV,3,3,11,29,23,226,37,20,22,102,39,194,18,148,25,1*68
$GPGSV,2,1,05,196,72,048,45,199,60,167,46,24,57,176,47,195,50,175,46,8*56
$GPGSV,2,2,05,194,18,148,17,8*66
$GLGSV,1,1,03,84,53,209,30,69,28,030,35,79,26,074,38,1*4B
$GAGSV,1,1,03,08,62,340,38,15,57,167,41,07,34,262,34,7*42
$GAGSV,1,1,03,08,62,340,42,15,57,167,46,07,34,262,40,1*4D
$GBGSV,3,1,11,38,70,029,43,39,70,215,42,08,60,004,43,16,60,209,40,1*7A
$GBGSV,3,2,11,06,57,209,39,20,50,012,30,29,44,245,41,37,34,084,45,1*76
$GBGSV,3,3,11,46,32,153,44,30,22,184,34,32,17,067,21,1*4E
$GBGSV,2,1,07,38,70,029,44,39,70,215,44,20,50,012,32,29,44,245,42,4*70
$GBGSV,2,2,07,37,34,084,41,46,32,153,31,30,22,184,25,4*41
$GNGGA,100028.000,2500.7829483,N,12132.4668158,E,4,40,0.67,15.830,M,15.25,M,3,3335*4F
$GNRMC,100028.000,A,2500.7829483,N,12132.4668158,E,0.02,291.25,260623,,,R,V*11
$GPHDT,,T*1B
$GNGGA,100028.200,2500.7829476,N,12132.4668180,E,4,40,0.67,15.830,M,15.25,M,3,3335*42
$GNRMC,100028.200,A,2500.7829476,N,12132.4668180,E,0.01,291.25,260623,,,R,V*1F
$GPHDT,,T*1B
$GNGGA,100028.400,2500.7829451,N,12132.4668205,E,4,41,0.65,15.838,M,15.25,M,3,3335*44
$GNRMC,100028.400,A,2500.7829451,N,12132.4668205,E,0.01,291.25,260623,,,R,V*12
$GPHDT,,T*1B
$GNGGA,100028.600,2500.7829484,N,12132.4668199,E,4,41,0.65,15.850,M,15.25,M,3,3335*46
$GNRMC,100028.600,A,2500.7829484,N,12132.4668199,E,0.00,291.25,260623,,,R,V*1F
$GPHDT,,T*1B
$GNGGA,100028.800,2500.7829478,N,12132.4668186,E,4,41,0.65,15.843,M,15.25,M,3,3335*47
$GNRMC,100028.800,A,2500.7829478,N,12132.4668186,E,0.00,291.25,260623,,,R,V*1C
$GPHDT,,T*1B
$GNGSA,A,3,196,199,15,24,195,05,13,29,20,194,,,1.22,0.65,1.03,1*03
$GNGSA,A,3,84,69,79,,,,,,,,,,1.22,0.65,1.03,2*0F
$GNGSA,A,3,08,15,07,,,,,,,,,,1.22,0.65,1.03,3*08
$GNGSA,A,3,38,39,08,16,06,20,29,37,46,30,32,,1.22,0.65,1.03,4*01
$GPGSV,3,1,11,196,72,048,42,199,60,167,35,15,58,357,45,24,57,176,44,1*6B
$GPGSV,3,2,11,195,50,175,44,05,40,078,47,41,38,241,34,13,36,033,40,1*5E
$GPGSV,3,3,11,29,23,226,38,20,22,102,39,194,18,148,25,1*67
$GPGSV,2,1,05,196,72,048,45,199,60,167,46,24,57,176,47,195,50,175,47,8*57
$GPGSV,2,2,05,194,18,148,18,8*69
$GLGSV,1,1,03,84,53,209,30,69,28,030,36,79,26,074,37,1*47
$GAGSV,1,1,03,08,62,340,38,15,57,167,41,07,34,262,33,7*45
$GAGSV,1,1,03,08,62,340,42,15,57,167,45,07,34,262,40,1*4E
$GBGSV,3,1,11,38,70,029,43,39,70,215,42,08,60,004,43,16,60,209,40,1*7A
$GBGSV,3,2,11,06,57,209,40,20,50,012,31,29,44,245,42,37,34,084,45,1*7A
$GBGSV,3,3,11,46,32,153,40,30,22,184,34,32,17,067,20,1*4B
$GBGSV,2,1,07,38,70,029,45,39,70,215,44,20,50,012,33,29,44,245,42,4*70
$GBGSV,2,2,07,37,34,084,41,46,32,153,32,30,22,184,25,4*42
$GNGGA,100029.000,2500.7829458,N,12132.4668176,E,4,41,0.65,15.835,M,15.25,M,4,3335*45
$GNRMC,100029.000,A,2500.7829458,N,12132.4668176,E,0.01,291.25,260623,,,R,V*19
