$FW : RTK35X,V1.1X0314AS,Lib20210517,1*54
$Tool : LOCOSYS , GNSS Firebird , v1.0.0.19*39
$---------------------------------------------------*2D
$GNGGA,100218.600,2500.7829370,N,12132.4668090,E,4,46,0.62,15.897,M,15.25,M,0,3335*4B
$GNRMC,100218.600,A,2500.7829370,N,12132.4668090,E,0.01,178.84,260623,,,R,V*14
$GPHDT,,T*1B
$GNGGA,100218.800,2500.7829403,N,12132.4668100,E,4,46,0.62,15.901,M,15.25,M,0,3335*40
$GNRMC,100218.800,A,2500.7829403,N,12132.4668100,E,0.01,178.84,260623,,,R,V*11
$GPHDT,,T*1B
$GNGSA,A,3,196,199,24,15,195,05,13,29,20,194,,,1.18,0.62,1.00,1*0E
$GNGSA,A,3,84,69,79,,,,,,,,,,1.18,0.62,1.00,2*02
$GNGSA,A,3,08,13,15,07,03,,,,,,,,1.18,0.62,1.00,3*04
$GNGSA,A,3,38,39,08,16,06,20,29,37,46,30,32,,1.18,0.62,1.00,4*0C
$GPGSV,3,1,11,196,72,049,42,199,60,167,37,24,58,176,43,15,58,359,44,1*6F
$GPGSV,3,2,11,195,49,175,42,05,39,078,41,41,38,242,38,13,35,034,35,1*51
$GPGSV,3,3,11,29,22,225,44,20,21,102,30,194,18,147,27,1*69
$GPGSV,2,1,05,196,72,049,45,199,60,167,46,24,58,176,46,195,49,175,43,8*54
$GPGSV,2,2,05,194,18,147,23,8*6E
$GLGSV,1,1,03,84,52,208,32,69,28,031,30,79,26,073,35,1*47
$GAGSV,2,1,05,08,62,341,37,13,61,305,31,15,57,168,43,07,34,262,35,7*74
$GAGSV,2,2,05,03,28,041,28,7*40
$GAGSV,2,1,05,08,62,341,41,13,61,305,33,15,57,168,44,07,34,262,39,1*7A
$GAGSV,2,2,05,03,28,041,29,1*47
$GBGSV,3,1,11,38,70,030,41,39,70,216,44,08,61,004,41,16,60,210,43,1*7D
$GBGSV,3,2,11,06,58,210,43,20,50,014,32,29,44,244,40,37,34,083,38,1*75
$GBGSV,3,3,11,46,32,153,42,30,21,183,34,32,17,068,26,1*44
$GBGSV,2,1,07,38,70,030,43,39,70,216,45,20,50,014,35,29,44,244,43,4*7C
$GBGSV,2,2,07,37,34,083,41,46,32,153,42,32,17,068,20,4*40
$GNGGA,100219.000,2500.7829402,N,12132.4668116,E,4,46,0.62,15.891,M,15.25,M,1,3335*46
$GNRMC,100219.000,A,2500.7829402,N,12132.4668116,E,0.01,178.84,260623,,,R,V*1E
$GPHDT,,T*1B
$GNGGA,100219.200,2500.7829398,N,12132.4668102,E,4,46,0.62,15.902,M,15.25,M,1,3335*4E
$GNRMC,100219.200,A,2500.7829398,N,12132.4668102,E,0.02,178.84,260623,,,R,V*1E
$GPHDT,179.149,T*36
$GNGGA,100219.400,2500.7829450,N,12132.4668084,E,4,46,0.62,15.893,M,15.25,M,1,3335*4D
$GNRMC,100219.400,A,2500.7829450,N,12132.4668084,E,0.02,178.84,260623,,,R,V*14
$GPHDT,179.196,T*34
$GNGGA,100219.600,2500.7829429,N,12132.4668108,E,4,46,0.62,15.891,M,15.25,M,1,3335*46
$GNRMC,100219.600,A,2500.7829429,N,12132.4668108,E,0.02,178.84,260623,,,R,V*1D
$GPHDT,179.170,T*3C
$GNGGA,100219.800,2500.7829409,N,12132.4668117,E,4,46,0.62,15.892,M,15.25,M,1,3335*47
$GNRMC,100219.800,A,2500.7829409,N,12132.4668117,E,0.02,178.84,260623,,,R,V*1F
$GPHDT,179.211,T*38
$GNGSA,A,3,196,199,24,15,195,05,13,29,20,194,,,1.18,0.62,1.00,1*0E
$GNGSA,A,3,84,69,79,,,,,,,,,,1.18,0.62,1.00,2*02
$GNGSA,A,3,08,13,15,07,03,,,,,,,,1.18,0.62,1.00,3*04
$GNGSA,A,3,38,39,08,16,06,20,29,37,46,30,32,,1.18,0.62,1.00,4*0C
$GPGSV,3,1,11,196,72,049,42,199,60,167,37,24,58,176,43,15,58,359,44,1*6F
$GPGSV,3,2,11,195,49,175,42,05,39,078,41,41,38,242,37,13,35,034,34,1*5F
$GPGSV,3,3,11,29,22,225,44,20,21,102,32,194,18,147,27,1*6B
$GPGSV,2,1,05,196,72,049,45,199,60,167,46,24,58,176,46,195,49,175,43,8*54
$GPGSV,2,2,05,194,18,147,26,8*6B
$GLGSV,1,1,04,84,52,208,32,85,41,309,,69,28,031,33,79,26,073,35,1*71
$GAGSV,2,1,06,08,62,341,37,13,61,305,32,15,57,168,43,07,34,262,36,7*77
$GAGSV,2,2,06,03,28,041,28,30,05,164,,7*76
$GAGSV,2,1,05,08,62,341,41,13,61,305,33,15,57,168,44,07,34,262,39,1*7A
$GAGSV,2,2,05,03,28,041,30,1*4F
$GBGSV,3,1,12,38,70,030,41,39,70,216,44,08,61,004,41,16,60,210,43,1*7E
$GBGSV,3,2,12,06,58,210,43,20,50,014,33,29,44,244,40,37,34,083,38,1*77
$GBGSV,3,3,12,46,32,153,43,30,21,183,34,32,17,068,26,23,04,042,,1*75
$GBGSV,2,1,07,38,70,030,43,39,70,216,45,20,50,014,35,29,44,244,43,4*7C
$GBGSV,2,2,07,37,34,083,41,46,32,153,43,32,17,068,21,4*40
$GNGGA,100220.000,2500.7829397,N,12132.4668119,E,4,46,0.62,15.889,M,15.25,M,2,3335*42
$GNRMC,100220.000,A,2500.7829397,N,12132.4668119,E,0.02,178.84,260623,,,R,V*13
$GPHDT,179.085,T*37
$GNGGA,100220.200,2500.7829407,N,12132.4668104,E,4,46,0.62,15.903,M,15.25,M,1,3335*42
$GNRMC,100220.200,A,2500.7829407,N,12132.4668104,E,0.02,178.84,260623,,,R,V*13
$GPHDT,178.892,T*38
$GNGGA,100220.400,2500.7829386,N,12132.4668115,E,4,46,0.62,15.913,M,15.25,M,1,3335*4B
$GNRMC,100220.400,A,2500.7829386,N,12132.4668115,E,0.02,178.84,260623,,,R,V*1B
$GPHDT,179.263,T*3D
$GNGGA,100220.600,2500.7829429,N,12132.4668096,E,4,46,0.62,15.897,M,15.25,M,1,3335*4C
$GNRMC,100220.600,A,2500.7829429,N,12132.4668096,E,0.03,178.84,260623,,,R,V*10
$GPHDT,178.935,T*34
$GNGGA,100220.800,2500.7829390,N,12132.4668133,E,4,46,0.62,15.904,M,15.25,M,1,3335*42
$GNRMC,100220.800,A,2500.7829390,N,12132.4668133,E,0.03,178.84,260623,,,R,V*15
$GPHDT,179.177,T*3B
$GNGSA,A,3,196,199,24,15,195,05,13,29,20,194,,,1.18,0.62,1.00,1*0E
$GNGSA,A,3,84,69,79,,,,,,,,,,1.18,0.62,1.00,2*02
$GNGSA,A,3,08,13,15,07,03,,,,,,,,1.18,0.62,1.00,3*04
$GNGSA,A,3,38,39,08,16,06,20,29,37,46,30,32,,1.18,0.62,1.00,4*0C
$GPGSV,3,1,11,196,72,049,42,199,60,167,37,24,58,176,43,15,58,359,44,1*6F
$GPGSV,3,2,11,195,49,175,42,05,39,079,41,41,38,242,37,13,35,034,34,1*5E
$GPGSV,3,3,11,29,22,225,44,20,21,102,31,194,18,147,27,1*68
$GPGSV,2,1,05,196,72,049,45,199,60,167,46,24,58,176,46,195,49,175,44,8*53
$GPGSV,2,2,05,194,18,147,26,8*6B
$GLGSV,1,1,03,84,52,208,32,69,28,031,34,79,26,073,35,1*43
$GAGSV,2,1,06,08,62,341,36,13,61,305,32,15,57,168,43,07,34,262,36,7*76
$GAGSV,2,2,06,03,28,041,28,30,05,164,,7*76
$GAGSV,2,1,05,08,62,341,41,13,61,305,33,15,57,168,45,07,34,262,39,1*7B
$GAGSV,2,2,05,03,28,041,30,1*4F
$GBGSV,3,1,11,38,70,030,41,39,70,216,44,08,61,004,41,16,60,210,43,1*7D
$GBGSV,3,2,11,06,58,210,43,20,50,014,33,29,44,244,40,37,34,083,38,1*74
$GBGSV,3,3,11,46,32,153,43,30,21,183,34,32,17,068,27,1*44
$GBGSV,2,1,07,38,70,030,43,39,70,216,46,20,50,014,35,29,44,244,43,4*7F
$GBGSV,2,2,07,37,34,083,42,46,32,153,44,32,17,068,21,4*44
$GNGGA,100221.000,2500.7829399,N,12132.4668128,E,4,46,0.62,15.892,M,15.25,M,2,3335*45
$GNRMC,100221.000,A,2500.7829399,N,12132.4668128,E,0.03,178.84,260623,,,R,V*1F
$GPHDT,178.921,T*31
$GNGGA,100221.200,2500.7829410,N,12132.4668129,E,4,46,0.62,15.895,M,15.25,M,2,3335*47
$GNRMC,100221.200,A,2500.7829410,N,12132.4668129,E,0.03,178.84,260623,,,R,V*1A
$GPHDT,179.065,T*39
$GNGGA,100221.400,2500.7829384,N,12132.4668138,E,4,46,0.62,15.907,M,15.25,M,2,3335*41
$GNRMC,100221.400,A,2500.7829384,N,12132.4668138,E,0.03,178.84,260623,,,R,V*16
$GPHDT,179.119,T*33
$GNGGA,100221.600,2500.7829428,N,12132.4668137,E,4,46,0.62,15.897,M,15.25,M,2,3335*45
$GNRMC,100221.600,A,2500.7829428,N,12132.4668137,E,0.03,178.84,260623,,,R,V*1A
$GPHDT,179.171,T*3D
$GNGGA,100221.800,2500.7829409,N,12132.4668129,E,4,46,0.62,15.897,M,15.25,M,2,3335*47
$GNRMC,100221.800,A,2500.7829409,N,12132.4668129,E,0.04,178.84,260623,,,R,V*1F
$GPHDT,179.168,T*35
$GNGSA,A,3,196,199,24,15,195,05,13,29,20,194,,,1.18,0.62,1.00,1*0E
$GNGSA,A,3,84,69,79,,,,,,,,,,1.18,0.62,1.00,2*02
$GNGSA,A,3,08,13,15,07,03,,,,,,,,1.18,0.62,1.00,3*04
$GNGSA,A,3,39,38,08,16,06,20,29,37,46,30,32,,1.18,0.62,1.00,4*0C
$GPGSV,3,1,11,196,72,049,42,199,60,167,37,24,58,176,43,15,58,359,44,1*6F
$GPGSV,3,2,11,195,49,175,42,05,39,079,41,41,38,242,37,13,35,034,33,1*59
$GPGSV,3,3,11,29,22,225,44,20,21,102,32,194,18,147,26,1*6A
$GPGSV,2,1,05,196,72,049,45,199,60,167,46,24,58,176,46,195,49,175,44,8*53
$GPGSV,2,2,05,194,18,147,26,8*6B
$GLGSV,1,1,04,84,52,208,32,69,28,031,34,79,26,073,35,86,03,334,,1*7D
$GAGSV,2,1,07,08,62,341,36,13,61,305,31,15,57,168,43,07,34,262,36,7*74
$GAGSV,2,2,07,03,28,041,28,30,05,164,,25,03,070,,7*44
$GAGSV,2,1,05,08,62,341,41,13,61,305,32,15,57,168,45,07,34,262,39,1*7A
$GAGSV,2,2,05,03,28,041,29,1*47
$GBGSV,3,1,11,39,70,216,44,38,70,030,41,08,61,004,41,16,60,210,43,1*7D
$GBGSV,3,2,11,06,58,210,43,20,50,014,33,29,44,244,40,37,34,083,38,1*74
$GBGSV,3,3,11,46,32,153,43,30,21,183,34,32,17,068,27,1*44
$GBGSV,2,1,07,38,70,030,43,39,70,216,46,20,50,014,35,29,44,244,43,4*7F
$GBGSV,2,2,07,37,34,083,42,46,32,153,44,32,17,068,22,4*47
$GNGGA,100222.000,2500.7829362,N,12132.4668150,E,4,46,0.62,15.912,M,15.25,M,1,3335*47
$GNRMC,100222.000,A,2500.7829362,N,12132.4668150,E,0.04,178.84,260623,,,R,V*10
$GPHDT,179.204,T*3C
$GNGGA,100222.200,2500.7829403,N,12132.4668131,E,4,46,0.62,15.900,M,15.25,M,1,3335*41
$GNRMC,100222.200,A,2500.7829403,N,12132.4668131,E,0.04,178.84,260623,,,R,V*15
$GPHDT,179.328,T*33
$GNGGA,100222.400,2500.7829405,N,12132.4668134,E,4,46,0.62,15.894,M,15.25,M,1,3335*48
$GNRMC,100222.400,A,2500.7829405,N,12132.4668134,E,0.04,178.84,260623,,,R,V*10
$GPHDT,179.167,T*3A
$GNGGA,100222.600,2500.7829416,N,12132.4668151,E,4,46,0.62,15.889,M,15.25,M,1,3335*47
$GNRMC,100222.600,A,2500.7829416,N,12132.4668151,E,0.04,178.84,260623,,,R,V*13
$GPHDT,179.418,T*37
$GNGGA,100222.800,2500.7829389,N,12132.4668138,E,4,46,0.62,15.892,M,15.25,M,1,3335*4D
$GNRMC,100222.800,A,2500.7829389,N,12132.4668138,E,0.04,178.84,260623,,,R,V*13
$GPHDT,179.183,T*30
$GNGSA,A,3,196,199,24,15,195,05,13,29,20,194,,,1.18,0.62,1.00,1*0E
$GNGSA,A,3,84,69,79,,,,,,,,,,1.18,0.62,1.00,2*02
$GNGSA,A,3,08,13,15,07,03,,,,,,,,1.18,0.62,1.00,3*04
$GNGSA,A,3,38,39,08,16,06,20,29,37,46,30,32,,1.18,0.62,1.00,4*0C
$GPGSV,3,1,11,196,72,049,42,199,60,167,36,24,58,176,43,15,58,359,44,1*6E
$GPGSV,3,2,11,195,49,175,42,05,39,079,41,41,38,242,37,13,35,034,33,1*59
$GPGSV,3,3,11,29,22,225,44,20,21,102,32,194,18,147,26,1*6A
$GPGSV,2,1,05,196,72,049,45,199,60,167,46,24,58,176,46,195,49,175,44,8*53
$GPGSV,2,2,05,194,18,147,25,8*68
$GLGSV,1,1,03,84,52,208,32,69,28,031,30,79,26,073,35,1*47
$GAGSV,2,1,06,08,62,341,35,13,61,305,30,15,57,168,43,07,34,262,36,7*77
$GAGSV,2,2,06,03,28,041,28,30,05,164,,7*76
$GAGSV,2,1,05,08,62,341,41,13,61,305,32,15,57,168,45,07,34,262,39,1*7A
$GAGSV,2,2,05,03,28,041,29,1*47
$GBGSV,3,1,11,38,70,030,41,39,70,216,44,08,61,004,41,16,60,210,43,1*7D
$GBGSV,3,2,11,06,58,210,43,20,50,014,33,29,44,244,40,37,34,083,38,1*74
$GBGSV,3,3,11,46,32,153,43,30,21,183,34,32,17,068,26,1*45
$GBGSV,2,1,07,38,70,030,43,39,70,216,46,20,50,014,35,29,44,244,43,4*7F
$GBGSV,2,2,07,37,34,083,42,46,32,153,44,32,17,068,22,4*47
$GNGGA,100223.000,2500.7829399,N,12132.4668133,E,4,46,0.62,15.891,M,15.25,M,2,3335*4E
$GNRMC,100223.000,A,2500.7829399,N,12132.4668133,E,0.04,178.84,260623,,,R,V*10
$GPHDT,179.193,T*31
$GNGGA,100223.200,2500.7829383,N,12132.4668121,E,4,46,0.62,15.884,M,15.25,M,2,3335*40
$GNRMC,100223.200,A,2500.7829383,N,12132.4668121,E,0.04,178.84,260623,,,R,V*1A
$GPHDT,179.032,T*3B
$GNGGA,100223.400,2500.7829383,N,12132.4668119,E,4,46,0.62,15.906,M,15.25,M,1,3335*45
$GNRMC,100223.400,A,2500.7829383,N,12132.4668119,E,0.05,178.84,260623,,,R,V*16
$GPHDT,179.132,T*3A
$GNGGA,100223.600,2500.7829408,N,12132.4668113,E,4,46,0.62,15.896,M,15.25,M,1,3335*41
$GNRMC,100223.600,A,2500.7829408,N,12132.4668113,E,0.05,178.84,260623,,,R,V*1A
$GPHDT,179.189,T*3A
$GNGGA,100223.800,2500.7829427,N,12132.4668116,E,4,46,0.62,15.881,M,15.25,M,1,3335*41
$GNRMC,100223.800,A,2500.7829427,N,12132.4668116,E,0.05,178.84,260623,,,R,V*1C
$GPHDT,179.102,T*39
$GNGSA,A,3,196,199,24,15,195,05,13,29,20,194,,,1.18,0.62,1.00,1*0E
$GNGSA,A,3,84,69,79,,,,,,,,,,1.18,0.62,1.00,2*02
$GNGSA,A,3,08,13,15,07,03,,,,,,,,1.18,0.62,1.00,3*04
$GNGSA,A,3,39,38,08,16,06,20,29,37,46,30,32,,1.18,0.62,1.00,4*0C
$GPGSV,3,1,11,196,72,049,42,199,60,167,36,24,58,176,43,15,58,359,44,1*6E
$GPGSV,3,2,11,195,49,175,42,05,39,079,41,41,38,242,37,13,35,034,34,1*5E
$GPGSV,3,3,11,29,22,225,44,20,21,103,34,194,18,147,26,1*6D
$GPGSV,2,1,05,196,72,049,45,199,60,167,46,24,58,176,46,195,49,175,44,8*53
$GPGSV,2,2,05,194,18,147,25,8*68
$GLGSV,1,1,03,84,52,208,31,69,28,031,23,79,26,073,35,1*46
$GAGSV,2,1,07,08,62,341,35,13,61,305,31,15,57,168,43,07,34,262,36,7*77
$GAGSV,2,2,07,03,28,041,28,30,05,164,,25,03,070,,7*44
$GAGSV,2,1,05,08,62,341,41,13,61,305,33,15,57,168,45,07,34,262,39,1*7B
$GAGSV,2,2,05,03,28,041,30,1*4F
$GBGSV,3,1,11,39,70,216,44,38,70,030,41,08,61,004,41,16,60,210,43,1*7D
$GBGSV,3,2,11,06,58,210,43,20,50,014,33,29,44,244,40,37,34,083,38,1*74
$GBGSV,3,3,11,46,32,153,44,30,21,183,34,32,17,068,24,1*40
$GBGSV,2,1,07,38,70,030,43,39,70,216,46,20,50,014,35,29,44,244,43,4*7F
$GBGSV,2,2,07,37,34,083,41,46,32,153,44,32,17,068,22,4*44
$GNGGA,100224.000,2500.7829405,N,12132.4668112,E,4,46,0.62,15.900,M,15.25,M,2,3335*41
$GNRMC,100224.000,A,2500.7829405,N,12132.4668112,E,0.05,178.84,260623,,,R,V*17
$GPHDT,179.207,T*3F
$GNGGA,100224.200,2500.7829415,N,12132.4668104,E,4,46,0.62,15.896,M,15.25,M,2,3335*4B
$GNRMC,100224.200,A,2500.7829415,N,12132.4668104,E,0.05,178.84,260623,,,R,V*13
$GPHDT,179.001,T*3B
$GNGGA,100224.400,2500.7829406,N,12132.4668104,E,4,46,0.62,15.904,M,15.25,M,2,3335*45
$GNRMC,100224.400,A,2500.7829406,N,12132.4668104,E,0.05,178.84,260623,,,R,V*17
$GPHDT,178.775,T*3E
$GNGGA,100224.600,2500.7829432,N,12132.4668102,E,4,46,0.62,15.893,M,15.25,M,2,3335*49
$GNRMC,100224.600,A,2500.7829432,N,12132.4668102,E,0.06,178.84,260623,,,R,V*17
$GPHDT,178.911,T*32
$GNGGA,100224.800,2500.7829402,N,12132.4668126,E,4,46,0.62,15.894,M,15.25,M,2,3335*45
$GNRMC,100224.800,A,2500.7829402,N,12132.4668126,E,0.06,178.84,260623,,,R,V*1C
$GPHDT,179.152,T*3C
$GNGSA,A,3,196,199,24,15,195,05,13,29,20,194,,,1.18,0.62,1.00,1*0E
$GNGSA,A,3,84,69,79,,,,,,,,,,1.18,0.62,1.00,2*02
$GNGSA,A,3,08,13,15,07,03,,,,,,,,1.18,0.62,1.00,3*04
$GNGSA,A,3,38,39,08,16,06,20,29,37,46,30,32,,1.18,0.62,1.00,4*0C
$GPGSV,3,1,11,196,72,049,42,199,60,167,36,24,58,175,43,15,58,359,44,1*6D
$GPGSV,3,2,11,195,49,175,42,05,39,079,42,41,38,242,37,13,35,034,37,1*5E
$GPGSV,3,3,11,29,22,225,44,20,21,103,35,194,18,147,27,1*6D
$GPGSV,2,1,05,196,72,049,44,199,60,167,46,24,58,175,46,195,49,175,44,8*51
$GPGSV,2,2,05,194,18,147,24,8*69
$GLGSV,1,1,04,84,52,208,31,69,28,031,26,79,26,073,35,78,01,030,,1*79
$GAGSV,2,1,06,08,62,341,36,13,61,305,31,15,57,168,43,07,34,262,36,7*75
$GAGSV,2,2,06,03,28,041,28,30,05,164,,7*76
$GAGSV,2,1,05,08,62,341,41,13,61,305,34,15,57,168,45,07,34,262,39,1*7C
$GAGSV,2,2,05,03,28,041,28,1*46
$GBGSV,3,1,12,38,70,030,41,39,70,216,44,08,61,004,41,16,60,210,43,1*7E
$GBGSV,3,2,12,06,58,210,43,20,50,014,33,29,44,244,40,37,34,083,39,1*76
$GBGSV,3,3,12,46,32,153,44,30,21,183,34,32,17,068,23,40,03,193,,1*78
$GBGSV,2,1,07,38,70,030,43,39,70,216,46,20,50,014,35,29,44,244,43,4*7F
$GBGSV,2,2,07,37,34,083,41,46,32,153,44,32,17,068,21,4*47
$GNGGA,100225.000,2500.7829393,N,12132.4668132,E,4,46,0.62,15.898,M,15.25,M,3,3335*4B
$GNRMC,100225.000,A,2500.7829393,N,12132.4668132,E,0.06,178.84,260623,,,R,V*1F
$GPHDT,179.112,T*38
$GNGGA,100225.200,2500.7829413,N,12132.4668177,E,4,46,0.62,15.871,M,15.25,M,3,3335*40
$GNRMC,100225.200,A,2500.7829413,N,12132.4668177,E,0.06,178.84,260623,,,R,V*13
$GPHDT,179.018,T*33
$GNGGA,100225.400,2500.7829428,N,12132.4668184,E,4,46,0.62,15.871,M,15.25,M,3,3335*42
$GNRMC,100225.400,A,2500.7829428,N,12132.4668184,E,0.06,178.84,260623,,,R,V*11
$GPHDT,179.187,T*34
$GNGGA,100225.600,2500.7829421,N,12132.4668188,E,4,46,0.62,15.868,M,15.25,M,3,3335*4D
$GNRMC,100225.600,A,2500.7829421,N,12132.4668188,E,0.06,178.84,260623,,,R,V*16
$GPHDT,179.217,T*3E
$GNGGA,100225.800,2500.7829431,N,12132.4668182,E,4,46,0.62,15.871,M,15.25,M,3,3335*40
$GNRMC,100225.800,A,2500.7829431,N,12132.4668182,E,0.06,178.84,260623,,,R,V*13
$GPHDT,179.105,T*3E
$GNGSA,A,3,196,199,24,15,195,05,13,29,20,194,,,1.18,0.62,1.00,1*0E
$GNGSA,A,3,84,69,79,,,,,,,,,,1.18,0.62,1.00,2*02
$GNGSA,A,3,08,13,15,07,03,,,,,,,,1.18,0.62,1.00,3*04
$GNGSA,A,3,39,38,08,16,06,20,29,37,46,30,32,,1.18,0.62,1.00,4*0C
$GPGSV,3,1,11,196,72,049,42,199,60,167,36,24,58,175,43,15,58,359,44,1*6D
$GPGSV,3,2,11,195,49,175,42,05,39,079,43,41,38,242,37,13,35,034,39,1*51
$GPGSV,3,3,11,29,22,225,44,20,21,103,35,194,18,147,28,1*62
$GPGSV,2,1,05,196,72,049,44,199,60,167,46,24,58,175,46,195,49,175,44,8*51
$GPGSV,2,2,05,194,18,147,25,8*68
$GLGSV,1,1,03,84,52,208,31,69,28,031,22,79,26,073,35,1*47
$GAGSV,2,1,07,08,62,341,36,13,61,305,31,15,57,168,43,07,34,262,36,7*74
$GAGSV,2,2,07,03,28,041,25,02,11,116,,30,05,164,,7*4E
$GAGSV,2,1,05,08,62,341,41,13,61,305,35,15,57,168,45,07,34,262,39,1*7D
$GAGSV,2,2,05,03,28,041,29,1*47
$GBGSV,3,1,11,39,70,216,44,38,70,030,41,08,61,004,41,16,60,210,44,1*7A
$GBGSV,3,2,11,06,58,210,43,20,50,014,34,29,44,244,40,37,34,083,39,1*72
$GBGSV,3,3,11,46,32,153,44,30,21,183,34,32,17,068,23,1*47
$GBGSV,2,1,07,38,70,030,43,39,70,216,46,20,50,014,35,29,44,244,43,4*7F
$GBGSV,2,2,07,37,34,083,42,46,32,153,44,32,17,068,20,4*45
$GNGGA,100226.000,2500.7829398,N,12132.4668196,E,4,46,0.62,15.878,M,15.25,M,4,3335*44
$GNRMC,100226.000,A,2500.7829398,N,12132.4668196,E,0.06,178.84,260623,,,R,V*19
$GPHDT,179.205,T*3D
$GNGGA,100226.200,2500.7829423,N,12132.4668205,E,4,46,0.62,15.885,M,15.25,M,4,3335*4A
$GNRMC,100226.200,A,2500.7829423,N,12132.4668205,E,0.07,178.84,260623,,,R,V*14
$GPHDT,179.307,T*3E
$GNGGA,100226.400,2500.7829394,N,12132.4668184,E,4,46,0.62,15.888,M,15.25,M,2,3335*46
$GNRMC,100226.400,A,2500.7829394,N,12132.4668184,E,0.07,178.84,260623,,,R,V*13
$GPHDT,179.325,T*3E
$GNGGA,100226.600,2500.7829442,N,12132.4668164,E,4,46,0.62,15.850,M,15.25,M,1,3335*40
$GNRMC,100226.600,A,2500.7829442,N,12132.4668164,E,0.07,178.84,260623,,,R,V*13
$GPHDT,179.270,T*3F
$GNGGA,100226.800,2500.7829483,N,12132.4668169,E,4,46,0.62,15.839,M,15.25,M,1,3335*41
$GNRMC,100226.800,A,2500.7829483,N,12132.4668169,E,0.07,178.84,260623,,,R,V*1D
$GPHDT,179.324,T*3F
$GNGSA,A,3,196,199,24,15,195,05,13,29,20,194,,,1.18,0.62,1.00,1*0E
$GNGSA,A,3,84,69,79,,,,,,,,,,1.18,0.62,1.00,2*02
$GNGSA,A,3,08,13,15,07,03,,,,,,,,1.18,0.62,1.00,3*04
$GNGSA,A,3,39,38,08,16,06,20,29,37,46,30,32,,1.18,0.62,1.00,4*0C
$GPGSV,3,1,11,196,72,049,42,199,60,167,36,24,58,175,43,15,58,359,44,1*6D
$GPGSV,3,2,11,195,49,175,42,05,39,079,43,41,38,242,37,13,35,034,39,1*51
$GPGSV,3,3,11,29,22,225,44,20,21,103,35,194,19,147,27,1*6C
$GPGSV,2,1,05,196,72,049,44,199,60,167,46,24,58,175,47,195,49,175,44,8*50
$GPGSV,2,2,05,194,19,147,25,8*69
$GLGSV,1,1,03,84,52,208,31,69,28,031,25,79,26,073,35,1*40
$GAGSV,2,1,07,08,62,341,37,13,61,305,31,15,57,168,43,07,34,262,36,7*75
$GAGSV,2,2,07,03,28,041,27,02,11,116,,30,05,164,,7*4C
$GAGSV,2,1,05,08,62,341,42,13,61,305,35,15,57,168,45,07,34,262,39,1*7E
$GAGSV,2,2,05,03,28,041,28,1*46
$GBGSV,3,1,11,39,70,216,44,38,70,030,41,08,61,004,41,16,60,210,44,1*7A
$GBGSV,3,2,11,06,58,210,43,20,50,014,35,29,44,244,40,37,34,083,39,1*73
$GBGSV,3,3,11,46,32,153,44,30,21,183,34,32,17,068,21,1*45
$GBGSV,2,1,07,38,70,030,43,39,70,216,46,20,50,014,36,29,44,244,43,4*7C
$GBGSV,2,2,07,37,34,083,43,46,32,153,44,32,17,068,19,4*4E
$GNGGA,100227.000,2500.7829440,N,12132.4668166,E,4,46,0.62,15.852,M,15.25,M,2,3335*46
$GNRMC,100227.000,A,2500.7829440,N,12132.4668166,E,0.07,178.84,260623,,,R,V*14
$GPHDT,179.137,T*3F
$GNGGA,100227.200,2500.7829474,N,12132.4668160,E,4,46,0.62,15.845,M,15.25,M,2,3335*43
$GNRMC,100227.200,A,2500.7829474,N,12132.4668160,E,0.07,178.84,260623,,,R,V*17
$GPHDT,179.271,T*3E
$GNGGA,100227.400,2500.7829466,N,12132.4668090,E,4,46,0.62,15.872,M,15.25,M,2,3335*4C
$GNRMC,100227.400,A,2500.7829466,N,12132.4668090,E,0.07,178.84,260623,,,R,V*1C
$GPHDT,179.152,T*3C
$GNGGA,100227.600,2500.7829477,N,12132.4668113,E,4,46,0.62,15.863,M,15.25,M,2,3335*44
$GNRMC,100227.600,A,2500.7829477,N,12132.4668113,E,0.07,178.84,260623,,,R,V*14
$GPHDT,179.361,T*3E
$GNGGA,100227.800,2500.7829457,N,12132.4668138,E,4,46,0.62,15.888,M,15.25,M,2,3335*44
$GNRMC,100227.800,A,2500.7829457,N,12132.4668138,E,0.07,178.84,260623,,,R,V*11
$GPHDT,179.424,T*38
$GNGSA,A,3,196,199,24,15,195,05,13,29,20,194,,,1.18,0.62,1.00,1*0E
$GNGSA,A,3,84,69,79,,,,,,,,,,1.18,0.62,1.00,2*02
$GNGSA,A,3,08,13,15,07,03,,,,,,,,1.18,0.62,1.00,3*04
$GNGSA,A,3,39,38,08,16,06,20,29,37,46,30,32,,1.18,0.62,1.00,4*0C
$GPGSV,3,1,11,196,72,049,42,199,60,167,36,24,58,175,43,15,58,359,44,1*6D
$GPGSV,3,2,11,195,49,175,42,05,39,079,43,41,38,242,37,13,35,034,37,1*5F
$GPGSV,3,3,11,29,22,225,44,20,21,103,35,194,19,147,24,1*6F
$GPGSV,2,1,05,196,72,049,44,199,60,167,46,24,58,175,47,195,49,175,44,8*50
$GPGSV,2,2,05,194,19,147,25,8*69
$GLGSV,1,1,03,84,52,208,31,69,28,031,28,79,26,073,35,1*4D
$GAGSV,2,1,07,08,62,341,37,13,61,305,31,15,57,168,43,07,34,262,36,7*75
$GAGSV,2,2,07,03,27,042,27,02,11,116,,30,05,164,,7*40
$GAGSV,2,1,05,08,62,341,42,13,61,305,34,15,57,168,45,07,34,262,39,1*7F
$GAGSV,2,2,05,03,27,042,29,1*4B
$GBGSV,3,1,11,39,70,216,44,38,70,030,41,08,61,004,41,16,60,210,44,1*7A
$GBGSV,3,2,11,06,58,210,43,20,50,014,35,29,44,244,41,37,34,083,39,1*72
$GBGSV,3,3,11,46,32,153,44,30,21,183,34,32,17,068,21,1*45
$GBGSV,2,1,07,38,70,030,43,39,70,216,46,20,50,014,35,29,44,244,43,4*7F
$GBGSV,2,2,07,37,34,083,42,46,32,153,44,32,17,068,19,4*4F
$GNGGA,100228.000,2500.7829442,N,12132.4668151,E,4,46,0.62,15.863,M,15.25,M,3,3335*4C
$GNRMC,100228.000,A,2500.7829442,N,12132.4668151,E,0.07,178.84,260623,,,R,V*1D
$GPHDT,179.591,T*37
$GNGGA,100228.200,2500.7829463,N,12132.4668159,E,4,46,0.62,15.863,M,15.25,M,3,3335*45
$GNRMC,100228.200,A,2500.7829463,N,12132.4668159,E,0.07,178.84,260623,,,R,V*14
$GPHDT,179.533,T*3F
$GNGGA,100228.400,2500.7829402,N,12132.4668161,E,4,46,0.62,15.863,M,15.25,M,3,3335*4F
$GNRMC,100228.400,A,2500.7829402,N,12132.4668161,E,0.07,178.84,260623,,,R,V*1E
$GPHDT,179.635,T*3A
$GNGGA,100228.600,2500.7829464,N,12132.4668120,E,4,46,0.62,15.855,M,15.25,M,3,3335*4D
$GNRMC,100228.600,A,2500.7829464,N,12132.4668120,E,0.01,178.84,260623,,,R,V*1F
$GPHDT,179.164,T*39
$GNGGA,100228.800,2500.7829446,N,12132.4668117,E,4,46,0.62,15.874,M,15.25,M,3,3335*44
$GNRMC,100228.800,A,2500.7829446,N,12132.4668117,E,0.01,178.84,260623,,,R,V*15
$GPHDT,178.960,T*34
