$FW : RTK35X,V1.1X0314AS,Lib20210517,1*54
$Tool : LOCOSYS , GNSS Firebird , v1.0.0.19*39
$---------------------------------------------------*2D
$GNGGA,100317.400,2500.7829976,N,12132.4667704,E,2,46,0.63,15.824,M,15.25,M,5,3335*44
$GNRMC,100317.400,A,2500.7829976,N,12132.4667704,E,0.00,178.84,260623,,,D,V*06
$GPHDT,,T*1B
$GNGGA,100317.600,2500.7829976,N,12132.4667704,E,2,44,0.63,15.824,M,15.25,M,5,3335*44
$GNRMC,100317.600,A,2500.7829976,N,12132.4667704,E,0.00,178.84,260623,,,D,V*04
$GPHDT,,T*1B
$GNGGA,100317.800,2500.7829976,N,12132.4667704,E,2,44,0.63,15.824,M,15.25,M,5,3335*4A
$GNRMC,100317.800,A,2500.7829976,N,12132.4667704,E,0.01,178.84,260623,,,D,V*0B
$GPHDT,,T*1B
$GNGSA,A,3,196,199,24,15,195,05,29,20,194,,,,1.18,0.63,1.00,1*0D
$GNGSA,A,3,84,69,79,,,,,,,,,,1.18,0.63,1.00,2*03
$GNGSA,A,3,13,08,15,07,03,,,,,,,,1.18,0.63,1.00,3*05
$GNGSA,A,3,38,39,08,16,06,20,29,37,46,30,32,,1.18,0.63,1.00,4*0D
$GPGSV,3,1,12,196,72,049,42,199,60,167,36,24,58,175,45,15,58,359,41,1*6D
$GPGSV,3,2,12,195,49,176,44,05,39,079,44,41,38,242,34,13,35,034,20,1*5B
$GPGSV,3,3,12,29,22,225,43,20,21,103,31,194,19,147,22,11,10,148,,1*55
$GPGSV,2,1,05,196,72,049,43,199,60,167,46,24,58,175,48,195,49,176,46,8*59
$GPGSV,2,2,05,194,19,147,23,8*6F
$GLGSV,1,1,03,84,51,208,34,69,28,032,32,79,26,073,30,1*46
$GAGSV,2,1,05,13,62,304,29,08,62,342,37,15,56,168,43,07,34,263,35,7*7C
$GAGSV,2,2,05,03,27,042,22,7*46
$GAGSV,2,1,05,08,62,342,42,13,62,304,34,15,56,168,45,07,34,263,36,1*71
$GAGSV,2,2,05,03,27,042,26,1*44
$GBGSV,3,1,11,38,70,030,42,39,70,217,41,08,61,004,37,16,60,210,44,1*7C
$GBGSV,3,2,11,06,58,210,42,20,50,014,31,29,43,243,45,37,34,083,44,1*79
$GBGSV,3,3,11,46,33,153,45,30,20,183,23,32,16,068,19,1*48
$GBGSV,2,1,08,38,70,030,41,39,70,217,45,20,50,014,31,29,43,243,40,4*77
$GBGSV,2,2,08,37,34,083,43,46,33,153,44,30,20,183,17,32,16,068,19,4*7C
$GNGGA,100318.000,2500.7829976,N,12132.4667704,E,2,44,0.63,15.824,M,15.25,M,6,3335*4E
$GNRMC,100318.000,A,2500.7829976,N,12132.4667704,E,0.01,178.84,260623,,,D,V*0C
$GPHDT,,T*1B
$GNGGA,100318.200,2500.7829976,N,12132.4667704,E,2,43,0.63,15.824,M,15.25,M,6,3335*4B
$GNRMC,100318.200,A,2500.7829976,N,12132.4667704,E,0.04,178.84,260623,,,D,V*0B
$GPHDT,,T*1B
$GNGGA,100318.400,2500.7829976,N,12132.4667704,E,2,44,0.63,15.821,M,15.25,M,5,3335*4C
$GNRMC,100318.400,A,2500.7829976,N,12132.4667704,E,0.01,178.84,260623,,,D,V*08
$GPHDT,,T*1B
$GNGGA,100318.600,2500.7830036,N,12132.4667704,E,2,44,0.63,15.819,M,15.25,M,5,3335*40
$GNRMC,100318.600,A,2500.7830036,N,12132.4667704,E,0.00,178.84,260623,,,D,V*0E
$GPHDT,,T*1B
$GNGGA,100318.800,2500.7830036,N,12132.4667704,E,2,44,0.63,15.819,M,15.25,M,3,3335*48
$GNRMC,100318.800,A,2500.7830036,N,12132.4667704,E,0.02,178.84,260623,,,D,V*02
$GPHDT,,T*1B
$GNGSA,A,3,196,199,24,15,195,05,29,20,194,,,,1.18,0.63,1.00,1*0D
$GNGSA,A,3,84,69,79,,,,,,,,,,1.18,0.63,1.00,2*03
$GNGSA,A,3,13,08,15,07,03,,,,,,,,1.18,0.63,1.00,3*05
$GNGSA,A,3,38,39,08,16,06,20,29,37,46,30,32,,1.18,0.63,1.00,4*0D
$GPGSV,3,1,12,196,72,049,42,199,60,167,36,24,58,175,45,15,58,359,41,1*6D
$GPGSV,3,2,12,195,49,176,44,05,39,079,44,41,38,242,36,13,35,034,,1*5B
$GPGSV,3,3,12,29,22,225,43,20,21,103,31,194,19,147,22,11,10,148,,1*55
$GPGSV,2,1,05,196,72,049,43,199,60,167,46,24,58,175,48,195,49,176,46,8*59
$GPGSV,2,2,05,194,19,147,23,8*6F
$GLGSV,1,1,03,84,51,208,34,69,28,032,32,79,26,073,29,1*4E
$GAGSV,2,1,05,13,62,304,27,08,62,342,37,15,56,168,43,07,34,263,35,7*72
$GAGSV,2,2,05,03,27,042,23,7*47
$GAGSV,2,1,05,08,62,342,42,13,62,304,36,15,56,168,45,07,34,263,38,1*7D
$GAGSV,2,2,05,03,27,042,28,1*4A
$GBGSV,3,1,11,38,70,030,41,39,70,217,41,08,61,004,37,16,60,210,44,1*7F
$GBGSV,3,2,11,06,58,210,42,20,50,014,31,29,43,243,45,37,34,083,44,1*79
$GBGSV,3,3,11,46,33,153,45,30,20,183,21,32,16,069,16,1*44
$GBGSV,2,1,08,38,70,030,41,39,70,217,46,20,50,014,31,29,43,243,40,4*74
$GBGSV,2,2,08,37,34,083,45,46,33,153,45,30,20,183,17,32,16,069,19,4*7A
$GNGGA,100319.000,2500.7830036,N,12132.4667704,E,2,44,0.63,15.819,M,15.25,M,1,3335*43
$GNRMC,100319.000,A,2500.7830036,N,12132.4667704,E,0.01,178.84,260623,,,D,V*08
$GPHDT,,T*1B
$GNGGA,100319.200,2500.7830036,N,12132.4667704,E,2,44,0.63,15.818,M,15.25,M,1,3335*40
$GNRMC,100319.200,A,2500.7830036,N,12132.4667704,E,0.01,178.84,260623,,,D,V*0A
$GPHDT,,T*1B
$GNGGA,100319.400,2500.7830036,N,12132.4667704,E,2,45,0.63,15.818,M,15.25,M,1,3335*47
$GNRMC,100319.400,A,2500.7830036,N,12132.4667704,E,0.00,178.84,260623,,,D,V*0D
$GPHDT,,T*1B
$GNGGA,100319.600,2500.7830036,N,12132.4667704,E,2,44,0.63,15.818,M,15.25,M,1,3335*44
$GNRMC,100319.600,A,2500.7830036,N,12132.4667704,E,0.01,178.84,260623,,,D,V*0E
$GPHDT,,T*1B
$GNGGA,100319.800,2500.7830036,N,12132.4667704,E,2,44,0.63,15.818,M,15.25,M,0,3335*4B
$GNRMC,100319.800,A,2500.7830036,N,12132.4667704,E,0.00,178.84,260623,,,D,V*01
$GPHDT,,T*1B
$GNGSA,A,3,196,199,24,15,195,05,29,20,194,,,,1.18,0.63,1.00,1*0D
$GNGSA,A,3,84,69,79,,,,,,,,,,1.18,0.63,1.00,2*03
$GNGSA,A,3,13,08,15,07,03,,,,,,,,1.18,0.63,1.00,3*05
$GNGSA,A,3,38,39,08,16,06,20,29,37,46,30,32,,1.18,0.63,1.00,4*0D
$GPGSV,3,1,12,196,72,049,41,199,60,167,37,24,58,175,45,15,58,359,41,1*6F
$GPGSV,3,2,12,195,49,176,44,05,39,079,44,41,38,242,36,13,35,034,,1*5B
$GPGSV,3,3,12,29,22,225,44,20,21,103,31,194,19,147,24,11,10,148,,1*54
$GPGSV,2,1,05,196,72,049,43,199,60,167,46,24,58,175,48,195,49,176,46,8*59
$GPGSV,2,2,05,194,19,147,23,8*6F
$GLGSV,1,1,03,84,51,208,34,69,28,032,31,79,26,073,31,1*44
$GAGSV,2,1,05,13,62,304,29,08,62,342,37,15,56,168,43,07,34,263,35,7*7C
$GAGSV,2,2,05,03,27,042,23,7*47
$GAGSV,2,1,05,08,62,342,43,13,62,304,35,15,56,168,45,07,34,263,38,1*7F
$GAGSV,2,2,05,03,27,042,28,1*4A
$GBGSV,3,1,11,38,70,030,41,39,70,217,41,08,61,004,37,16,60,210,44,1*7F
$GBGSV,3,2,11,06,58,210,42,20,50,014,30,29,43,243,45,37,34,083,44,1*78
$GBGSV,3,3,11,46,33,153,45,30,20,183,21,32,16,069,16,1*44
$GBGSV,2,1,08,38,70,030,41,39,70,217,46,20,50,014,30,29,43,243,40,4*75
$GBGSV,2,2,08,37,34,083,45,46,33,153,45,30,20,183,15,32,16,069,20,4*72
$GNGGA,100320.000,2500.7830036,N,12132.4667704,E,2,45,0.63,15.820,M,15.25,M,1,3335*42
$GNRMC,100320.000,A,2500.7830036,N,12132.4667704,E,0.01,178.84,260623,,,D,V*02
$GPHDT,,T*1B
$GNGGA,100320.200,2500.7830036,N,12132.4667704,E,2,45,0.63,15.821,M,15.25,M,1,3335*41
$GNRMC,100320.200,A,2500.7830036,N,12132.4667704,E,0.02,178.84,260623,,,D,V*03
$GPHDT,,T*1B
$GNGGA,100320.400,2500.7830036,N,12132.4667704,E,2,44,0.63,15.822,M,15.25,M,1,3335*45
$GNRMC,100320.400,A,2500.7830036,N,12132.4667704,E,0.01,178.84,260623,,,D,V*06
$GPHDT,,T*1B
$GNGGA,100320.600,2500.7830036,N,12132.4667704,E,2,44,0.63,15.822,M,15.25,M,1,3335*47
$GNRMC,100320.600,A,2500.7830036,N,12132.4667704,E,0.01,178.84,260623,,,D,V*04
$GPHDT,,T*1B
$GNGGA,100320.800,2500.7830036,N,12132.4667704,E,2,44,0.63,15.822,M,15.25,M,1,3335*49
$GNRMC,100320.800,A,2500.7830036,N,12132.4667704,E,0.01,178.84,260623,,,D,V*0A
$GPHDT,,T*1B
$GNGSA,A,3,196,199,24,15,195,05,29,20,194,,,,1.18,0.63,1.00,1*0D
$GNGSA,A,3,84,69,79,,,,,,,,,,1.18,0.63,1.00,2*03
$GNGSA,A,3,13,08,15,07,03,,,,,,,,1.18,0.63,1.00,3*05
$GNGSA,A,3,38,39,08,16,06,20,29,37,46,30,32,,1.18,0.63,1.00,4*0D
$GPGSV,3,1,12,196,72,049,41,199,60,167,37,24,58,175,45,15,58,359,41,1*6F
$GPGSV,3,2,12,195,49,176,44,05,39,079,44,41,38,242,36,13,35,034,25,1*5C
$GPGSV,3,3,12,29,22,225,44,20,21,103,32,194,19,147,23,11,10,148,,1*50
$GPGSV,2,1,05,196,72,049,43,199,60,167,46,24,58,175,48,195,49,176,46,8*59
$GPGSV,2,2,05,194,19,147,26,8*6A
$GLGSV,1,1,03,84,51,208,34,69,28,032,32,79,26,073,30,1*46
$GAGSV,2,1,05,13,62,304,29,08,62,342,38,15,56,168,43,07,34,263,35,7*73
$GAGSV,2,2,05,03,27,042,22,7*46
$GAGSV,2,1,05,08,62,342,43,13,62,304,35,15,56,168,45,07,34,263,37,1*70
$GAGSV,2,2,05,03,27,042,26,1*44
$GBGSV,3,1,11,38,70,030,41,39,70,217,41,08,61,004,38,16,60,210,44,1*70
$GBGSV,3,2,11,06,58,210,42,20,50,014,30,29,43,243,45,37,34,083,44,1*78
$GBGSV,3,3,11,46,33,152,45,30,20,183,20,32,16,069,16,1*44
$GBGSV,2,1,08,38,70,030,41,39,70,217,46,20,50,014,30,29,43,243,40,4*75
$GBGSV,2,2,08,37,34,083,44,46,33,152,45,30,20,183,14,32,16,069,21,4*72
$GNGGA,100321.000,2500.7830036,N,12132.4667704,E,2,44,0.63,15.822,M,15.25,M,2,3335*43
$GNRMC,100321.000,A,2500.7830036,N,12132.4667704,E,0.00,178.84,260623,,,D,V*02
$GPHDT,,T*1B
$GNGGA,100321.200,2500.7830036,N,12132.4667704,E,2,45,0.62,15.821,M,15.25,M,2,3335*42
$GNRMC,100321.200,A,2500.7830036,N,12132.4667704,E,0.00,178.84,260623,,,D,V*00
$GPHDT,,T*1B
$GNGGA,100321.400,2500.7830036,N,12132.4667704,E,2,45,0.62,15.822,M,15.25,M,2,3335*47
$GNRMC,100321.400,A,2500.7830036,N,12132.4667704,E,0.00,178.84,260623,,,D,V*06
$GPHDT,,T*1B
$GNGGA,100321.600,2500.7830036,N,12132.4667704,E,2,45,0.62,15.821,M,15.25,M,2,3335*46
$GNRMC,100321.600,A,2500.7830036,N,12132.4667704,E,0.01,178.84,260623,,,D,V*05
$GPHDT,,T*1B
$GNGGA,100321.800,2500.7830036,N,12132.4667704,E,2,45,0.62,15.821,M,15.25,M,2,3335*48
$GNRMC,100321.800,A,2500.7830036,N,12132.4667704,E,0.06,178.84,260623,,,D,V*0C
$GPHDT,,T*1B
$GNGSA,A,3,196,199,24,15,195,05,29,20,194,,,,1.18,0.63,1.00,1*0D
$GNGSA,A,3,84,69,79,,,,,,,,,,1.18,0.63,1.00,2*03
$GNGSA,A,3,13,08,15,07,03,,,,,,,,1.18,0.63,1.00,3*05
$GNGSA,A,3,38,39,08,16,06,20,29,37,46,30,32,,1.18,0.63,1.00,4*0D
$GPGSV,3,1,12,196,72,049,41,199,60,167,36,24,58,175,45,15,58,359,41,1*6E
$GPGSV,3,2,12,195,49,176,44,05,39,079,44,41,38,242,35,13,35,034,,1*58
$GPGSV,3,3,12,29,22,225,44,20,21,103,31,194,19,147,22,11,10,148,,1*52
$GPGSV,2,1,05,196,72,049,43,199,60,167,46,24,58,175,48,195,49,176,46,8*59
$GPGSV,2,2,05,194,19,147,25,8*69
$GLGSV,1,1,03,84,51,208,34,69,28,032,32,79,26,073,28,1*4F
$GAGSV,2,1,05,13,62,304,29,08,62,342,38,15,56,168,43,07,34,263,35,7*73
$GAGSV,2,2,05,03,27,042,22,7*46
$GAGSV,2,1,05,08,62,342,43,13,62,304,34,15,56,168,45,07,34,263,37,1*71
$GAGSV,2,2,05,03,27,042,25,1*47
$GBGSV,3,1,11,38,70,030,41,39,70,217,41,08,61,004,38,16,60,210,44,1*70
$GBGSV,3,2,11,06,58,210,42,20,50,014,31,29,43,243,45,37,34,083,45,1*78
$GBGSV,3,3,11,46,33,152,45,30,20,183,20,32,16,069,15,1*47
$GBGSV,2,1,08,38,70,030,41,39,70,217,46,20,50,014,32,29,43,243,40,4*77
$GBGSV,2,2,08,37,34,083,43,46,33,152,45,30,20,183,12,32,16,069,20,4*72
$GNGGA,100322.000,2500.7830036,N,12132.4667704,E,2,44,0.63,15.822,M,15.25,M,3,3335*41
$GNRMC,100322.000,A,2500.7830036,N,12132.4667704,E,0.01,178.84,260623,,,D,V*00
$GPHDT,,T*1B
$GNGGA,100322.200,2500.7830036,N,12132.4667704,E,2,44,0.63,15.822,M,15.25,M,3,3335*43
$GNRMC,100322.200,A,2500.7830036,N,12132.4667704,E,0.01,178.84,260623,,,D,V*02
$GPHDT,,T*1B
$GNGGA,100322.400,2500.7830036,N,12132.4667704,E,2,44,0.63,15.822,M,15.25,M,3,3335*45
$GNRMC,100322.400,A,2500.7830036,N,12132.4667704,E,0.02,178.84,260623,,,D,V*07
$GPHDT,,T*1B
$GNGGA,100322.600,2500.7830036,N,12132.4667704,E,2,44,0.63,15.823,M,15.25,M,3,3335*46
$GNRMC,100322.600,A,2500.7830036,N,12132.4667704,E,0.01,178.84,260623,,,D,V*06
$GPHDT,,T*1B
$GNGGA,100322.800,2500.7830036,N,12132.4667704,E,2,43,0.63,15.822,M,15.25,M,3,3335*4E
$GNRMC,100322.800,A,2500.7830036,N,12132.4667704,E,0.02,178.84,260623,,,D,V*0B
$GPHDT,,T*1B
$GNGSA,A,3,196,199,24,15,195,05,29,20,194,,,,1.18,0.63,1.00,1*0D
$GNGSA,A,3,84,69,79,,,,,,,,,,1.18,0.63,1.00,2*03
$GNGSA,A,3,13,08,15,07,03,,,,,,,,1.18,0.63,1.00,3*05
$GNGSA,A,3,38,39,08,16,06,20,29,37,46,30,32,,1.18,0.63,1.00,4*0D
$GPGSV,3,1,12,196,72,049,41,199,60,167,36,24,58,175,45,15,58,359,39,1*61
$GPGSV,3,2,12,195,49,176,44,05,39,079,44,41,38,242,35,13,35,034,34,1*5F
$GPGSV,3,3,12,29,22,225,44,20,21,103,33,194,19,147,24,11,10,148,,1*56
$GPGSV,2,1,05,196,72,049,43,199,60,167,46,24,58,175,48,195,49,176,46,8*59
$GPGSV,2,2,05,194,19,147,24,8*68
$GLGSV,1,1,03,84,51,208,34,69,28,032,32,79,26,073,30,1*46
$GAGSV,2,1,05,13,62,304,31,08,62,342,38,15,56,168,43,07,34,263,35,7*7A
$GAGSV,2,2,05,03,27,042,21,7*45
$GAGSV,2,1,05,08,62,342,43,13,62,304,32,15,56,168,45,07,34,263,37,1*77
$GAGSV,2,2,05,03,27,042,25,1*47
$GBGSV,3,1,11,38,70,030,42,39,70,217,41,08,61,004,38,16,60,210,44,1*73
$GBGSV,3,2,11,06,58,210,42,20,50,014,32,29,43,243,45,37,34,083,45,1*7B
$GBGSV,3,3,11,46,33,152,45,30,20,183,21,32,16,069,17,1*44
$GBGSV,2,1,07,38,70,030,41,39,70,217,46,20,50,014,32,29,43,243,40,4*78
$GBGSV,2,2,07,37,34,083,42,46,33,152,44,32,16,069,20,4*45
$GNGGA,100323.000,2500.7830036,N,12132.4667704,E,2,44,0.63,15.824,M,15.25,M,4,3335*41
$GNRMC,100323.000,A,2500.7830036,N,12132.4667704,E,0.01,178.84,260623,,,D,V*01
$GPHDT,,T*1B
$GNGGA,100323.200,2500.7830036,N,12132.4667764,E,2,44,0.63,15.824,M,15.25,M,4,3335*45
$GNRMC,100323.200,A,2500.7830036,N,12132.4667764,E,0.02,178.84,260623,,,D,V*06
$GPHDT,,T*1B
$GNGGA,100323.400,2500.7830036,N,12132.4667704,E,2,43,0.63,15.825,M,15.25,M,4,3335*43
$GNRMC,100323.400,A,2500.7830036,N,12132.4667704,E,0.01,178.84,260623,,,D,V*05
$GPHDT,,T*1B
$GNGGA,100323.600,2500.7830036,N,12132.4667764,E,2,44,0.62,15.824,M,15.25,M,4,3335*40
$GNRMC,100323.600,A,2500.7830036,N,12132.4667764,E,0.06,178.84,260623,,,D,V*06
$GPHDT,,T*1B
$GNGGA,100323.800,2500.7830036,N,12132.4667764,E,2,44,0.62,15.825,M,15.25,M,4,3335*4F
$GNRMC,100323.800,A,2500.7830036,N,12132.4667764,E,0.04,178.84,260623,,,D,V*0A
$GPHDT,,T*1B
$GNGSA,A,3,196,199,24,15,195,05,13,29,20,194,,,1.17,0.62,0.99,1*00
$GNGSA,A,3,84,69,79,,,,,,,,,,1.17,0.62,0.99,2*0C
$GNGSA,A,3,13,08,15,07,03,,,,,,,,1.17,0.62,0.99,3*0A
$GNGSA,A,3,38,39,08,16,06,29,37,46,30,32,20,,1.17,0.62,0.99,4*02
$GPGSV,3,1,12,196,72,049,41,199,60,167,36,24,58,175,45,15,58,359,40,1*6F
$GPGSV,3,2,12,195,49,176,44,05,39,079,44,41,38,242,36,13,35,034,37,1*5F
$GPGSV,3,3,12,29,22,225,44,20,21,103,33,194,19,147,25,11,10,148,,1*57
$GPGSV,2,1,05,196,72,049,43,199,60,167,46,24,58,175,48,195,49,176,46,8*59
$GPGSV,2,2,05,194,19,147,24,8*68
$GLGSV,1,1,03,84,51,208,34,69,28,032,34,79,26,073,28,1*49
$GAGSV,2,1,05,13,62,304,30,08,62,342,37,15,56,168,43,07,34,263,35,7*74
$GAGSV,2,2,05,03,27,042,21,7*45
$GAGSV,2,1,05,08,62,342,41,13,62,304,33,15,56,168,45,07,34,263,37,1*74
$GAGSV,2,2,05,03,27,042,25,1*47
$GBGSV,3,1,11,38,70,030,43,39,70,217,41,08,61,004,38,16,60,210,44,1*72
$GBGSV,3,2,11,06,58,210,42,20,50,014,,29,43,243,45,37,34,083,45,1*7A
$GBGSV,3,3,11,46,33,152,45,30,20,183,24,32,16,069,17,1*41
$GBGSV,2,1,07,38,70,030,42,39,70,217,46,20,50,014,33,29,43,243,40,4*7A
$GBGSV,2,2,07,37,34,083,41,46,33,152,44,32,16,069,20,4*46
$GNGGA,100324.000,2500.7830036,N,12132.4667704,E,2,45,0.62,15.827,M,15.25,M,5,3335*44
$GNRMC,100324.000,A,2500.7830036,N,12132.4667704,E,0.02,178.84,260623,,,D,V*05
$GPHDT,,T*1B
$GNGGA,100324.200,2500.7830036,N,12132.4667764,E,2,45,0.62,15.827,M,15.25,M,5,3335*40
$GNRMC,100324.200,A,2500.7830036,N,12132.4667764,E,0.00,178.84,260623,,,D,V*03
$GPHDT,,T*1B
$GNGGA,100324.400,2500.7830036,N,12132.4667764,E,2,45,0.62,15.827,M,15.25,M,5,3335*46
$GNRMC,100324.400,A,2500.7830036,N,12132.4667764,E,0.00,178.84,260623,,,D,V*05
$GPHDT,,T*1B
$GNGGA,100324.600,2500.7830036,N,12132.4667764,E,2,45,0.62,15.827,M,15.25,M,5,3335*44
$GNRMC,100324.600,A,2500.7830036,N,12132.4667764,E,0.00,178.84,260623,,,D,V*07
$GPHDT,,T*1B
$GNGGA,100324.800,2500.7830036,N,12132.4667764,E,2,45,0.62,15.827,M,15.25,M,5,3335*4A
$GNRMC,100324.800,A,2500.7830036,N,12132.4667764,E,0.01,178.84,260623,,,D,V*08
$GPHDT,,T*1B
$GNGSA,A,3,196,199,24,15,195,05,13,29,20,194,,,1.17,0.62,0.99,1*00
$GNGSA,A,3,84,69,79,,,,,,,,,,1.17,0.62,0.99,2*0C
$GNGSA,A,3,13,08,15,07,03,,,,,,,,1.17,0.62,0.99,3*0A
$GNGSA,A,3,38,39,08,16,06,29,37,46,30,32,20,,1.17,0.62,0.99,4*02
$GPGSV,3,1,12,196,72,049,42,199,60,167,36,24,58,175,45,15,58,359,40,1*6C
$GPGSV,3,2,12,195,49,176,44,05,39,079,42,41,38,242,36,13,35,034,41,1*58
$GPGSV,3,3,12,29,22,225,44,20,21,103,32,194,19,147,26,11,10,148,,1*55
$GPGSV,2,1,05,196,72,049,43,199,60,167,46,24,58,175,48,195,49,176,46,8*59
$GPGSV,2,2,05,194,19,147,24,8*68
$GLGSV,1,1,03,84,51,208,34,69,28,032,36,79,26,073,30,1*42
$GAGSV,2,1,05,13,62,304,30,08,62,342,37,15,56,168,43,07,34,263,35,7*74
$GAGSV,2,2,05,03,27,042,19,7*4E
$GAGSV,2,1,05,08,62,342,41,13,62,304,33,15,56,168,45,07,34,263,37,1*74
$GAGSV,2,2,05,03,27,042,24,1*46
$GBGSV,3,1,11,38,70,030,43,39,70,217,41,08,61,004,38,16,60,210,44,1*72
$GBGSV,3,2,11,06,58,210,42,20,50,014,,29,43,243,45,37,34,083,45,1*7A
$GBGSV,3,3,11,46,33,152,45,30,20,183,25,32,16,069,19,1*4E
$GBGSV,2,1,07,38,70,030,42,39,70,217,46,20,50,014,34,29,43,243,40,4*7D
$GBGSV,2,2,07,37,34,083,41,46,33,152,44,32,16,069,20,4*46
$GNGGA,100325.000,2500.7830036,N,12132.4667764,E,2,45,0.62,15.827,M,15.25,M,6,3335*40
$GNRMC,100325.000,A,2500.7830036,N,12132.4667764,E,0.01,178.84,260623,,,D,V*01
$GPHDT,,T*1B
$GNGGA,100325.200,2500.7830036,N,12132.4667764,E,2,45,0.62,15.827,M,15.25,M,6,3335*42
$GNRMC,100325.200,A,2500.7830036,N,12132.4667764,E,0.00,178.84,260623,,,D,V*02
$GPHDT,,T*1B
$GNGGA,100325.400,2500.7830036,N,12132.4667764,E,2,45,0.62,15.826,M,15.25,M,6,3335*45
$GNRMC,100325.400,A,2500.7830036,N,12132.4667764,E,0.02,178.84,260623,,,D,V*06
$GPHDT,,T*1B
$GNGGA,100325.600,2500.7830036,N,12132.4667764,E,2,45,0.62,15.826,M,15.25,M,4,3335*45
$GNRMC,100325.600,A,2500.7830036,N,12132.4667764,E,0.01,178.84,260623,,,D,V*07
$GPHDT,,T*1B
$GNGGA,100325.800,2500.7830096,N,12132.4667764,E,2,45,0.62,15.826,M,15.25,M,3,3335*46
$GNRMC,100325.800,A,2500.7830096,N,12132.4667764,E,0.02,178.84,260623,,,D,V*00
$GPHDT,,T*1B
$GNGSA,A,3,196,199,24,15,195,05,13,29,20,194,,,1.17,0.62,0.99,1*00
$GNGSA,A,3,84,69,79,,,,,,,,,,1.17,0.62,0.99,2*0C
$GNGSA,A,3,13,08,15,07,03,,,,,,,,1.17,0.62,0.99,3*0A
$GNGSA,A,3,38,39,08,16,06,20,29,37,46,30,32,,1.17,0.62,0.99,4*02
$GPGSV,3,1,12,196,72,049,42,199,60,167,36,24,58,175,45,15,58,359,40,1*6C
$GPGSV,3,2,12,195,49,176,44,05,39,079,42,41,38,242,36,13,35,034,40,1*59
$GPGSV,3,3,12,29,22,225,44,20,21,103,32,194,19,147,26,11,10,148,,1*55
$GPGSV,2,1,05,196,72,049,43,199,60,167,47,24,58,175,48,195,49,176,46,8*58
$GPGSV,2,2,05,194,19,147,23,8*6F
$GLGSV,1,1,03,84,51,208,34,69,28,032,36,79,26,073,31,1*43
$GAGSV,2,1,05,13,62,304,30,08,62,342,37,15,56,168,43,07,34,263,35,7*74
$GAGSV,2,2,05,03,27,042,19,7*4E
$GAGSV,2,1,05,08,62,342,41,13,62,304,33,15,56,168,45,07,34,263,37,1*74
$GAGSV,2,2,05,03,27,042,22,1*40
$GBGSV,3,1,11,38,70,030,43,39,70,217,41,08,61,004,38,16,60,210,44,1*72
$GBGSV,3,2,11,06,58,210,42,20,50,014,31,29,43,243,45,37,34,083,45,1*78
$GBGSV,3,3,11,46,33,152,45,30,20,183,27,32,16,069,18,1*4D
$GBGSV,2,1,07,38,70,030,43,39,70,217,46,20,50,014,34,29,43,243,40,4*7C
$GBGSV,2,2,07,37,34,083,41,46,33,152,44,32,16,069,20,4*46
$GNGGA,100326.000,2500.7830096,N,12132.4667764,E,2,46,0.62,15.830,M,15.25,M,1,3335*4B
$GNRMC,100326.000,A,2500.7830096,N,12132.4667764,E,0.01,178.84,260623,,,D,V*08
$GPHDT,,T*1B
$GNGGA,100326.200,2500.7830096,N,12132.4667764,E,2,46,0.62,15.835,M,15.25,M,1,3335*4C
$GNRMC,100326.200,A,2500.7830096,N,12132.4667764,E,0.01,178.84,260623,,,D,V*0A
$GPHDT,,T*1B
$GNGGA,100326.400,2500.7830096,N,12132.4667764,E,2,46,0.62,15.836,M,15.25,M,1,3335*49
$GNRMC,100326.400,A,2500.7830096,N,12132.4667764,E,0.01,178.84,260623,,,D,V*0C
$GPHDT,,T*1B
$GNGGA,100326.600,2500.7830156,N,12132.4667764,E,2,46,0.62,15.839,M,15.25,M,0,3335*48
$GNRMC,100326.600,A,2500.7830156,N,12132.4667764,E,0.01,178.84,260623,,,D,V*03
$GPHDT,,T*1B
$GNGGA,100326.800,2500.7830156,N,12132.4667764,E,2,46,0.62,15.837,M,15.25,M,0,3335*48
$GNRMC,100326.800,A,2500.7830156,N,12132.4667764,E,0.00,178.84,260623,,,D,V*0C
$GPHDT,,T*1B
$GNGSA,A,3,196,199,24,15,195,05,13,29,20,194,,,1.17,0.62,0.99,1*00
$GNGSA,A,3,84,69,79,,,,,,,,,,1.17,0.62,0.99,2*0C
$GNGSA,A,3,13,08,15,07,03,,,,,,,,1.17,0.62,0.99,3*0A
$GNGSA,A,3,38,39,08,16,06,20,29,37,46,30,32,,1.17,0.62,0.99,4*02
$GPGSV,3,1,12,196,72,049,42,199,60,167,36,24,58,175,45,15,58,359,40,1*6C
$GPGSV,3,2,12,195,49,176,44,05,39,079,41,41,38,242,35,13,35,034,40,1*59
$GPGSV,3,3,12,29,22,225,44,20,21,103,31,194,19,147,26,11,10,148,,1*56
$GPGSV,2,1,05,196,72,049,43,199,60,167,47,24,58,175,48,195,49,176,46,8*58
$GPGSV,2,2,05,194,19,147,23,8*6F
$GLGSV,1,1,03,84,51,208,34,69,28,032,36,79,26,073,32,1*40
$GAGSV,2,1,05,13,62,304,30,08,62,342,37,15,56,168,43,07,34,263,35,7*74
$GAGSV,2,2,05,03,27,042,19,7*4E
$GAGSV,2,1,05,08,62,342,41,13,62,304,34,15,56,168,45,07,34,263,37,1*73
$GAGSV,2,2,05,03,27,042,22,1*40
$GBGSV,3,1,11,38,70,030,43,39,70,217,41,08,61,004,38,16,60,210,44,1*72
$GBGSV,3,2,11,06,58,210,42,20,50,014,31,29,43,243,45,37,34,083,45,1*78
$GBGSV,3,3,11,46,33,152,45,30,20,183,26,32,16,069,17,1*43
$GBGSV,2,1,07,38,70,030,43,39,70,217,46,20,50,014,34,29,43,243,40,4*7C
$GBGSV,2,2,07,37,34,083,42,46,33,152,44,32,16,069,20,4*45
$GNGGA,100327.000,2500.7830156,N,12132.4667764,E,2,46,0.62,15.839,M,15.25,M,1,3335*4E
$GNRMC,100327.000,A,2500.7830156,N,12132.4667764,E,0.00,178.84,260623,,,D,V*05
$GPHDT,,T*1B
$GNGGA,100327.200,2500.7830216,N,12132.4667824,E,2,45,0.62,15.837,M,15.25,M,1,3335*4D
$GNRMC,100327.200,A,2500.7830216,N,12132.4667824,E,0.00,178.84,260623,,,D,V*0B
$GPHDT,,T*1B
$GNGGA,100327.400,2500.7830216,N,12132.4667824,E,2,46,0.62,15.839,M,15.25,M,1,3335*46
$GNRMC,100327.400,A,2500.7830216,N,12132.4667824,E,0.00,178.84,260623,,,D,V*0D
$GPHDT,,T*1B
$GNGGA,100327.600,2500.7830276,N,12132.4667884,E,2,46,0.62,15.839,M,15.25,M,1,3335*48
$GNRMC,100327.600,A,2500.7830276,N,12132.4667884,E,0.00,178.84,260623,,,D,V*03
$GPHDT,,T*1B
$GNGGA,100327.800,2500.7830336,N,12132.4667884,E,2,45,0.62,15.836,M,15.25,M,0,3335*4E
$GNRMC,100327.800,A,2500.7830336,N,12132.4667884,E,0.01,178.84,260623,,,D,V*09
