$FW : RTK35X,V1.1X0314AS,Lib20210517,1*54
$Tool : LOCOSYS , GNSS Firebird , v1.0.0.19*39
$---------------------------------------------------*2D
$GPHDT,,T*1B
$GNGGA,095923.800,2500.7829404,N,12132.4668146,E,4,34,0.73,15.881,M,15.25,M,0,3335*47
$GNRMC,095923.800,A,2500.7829404,N,12132.4668146,E,0.02,316.85,260623,,,R,V*12
$GPHDT,,T*1B
$GNGSA,A,3,196,199,15,24,195,05,13,29,20,194,,,1.07,0.73,0.78,1*0E
$GNGSA,A,3,84,79,,,,,,,,,,,1.07,0.73,0.78,2*0D
$GNGSA,A,3,08,15,,,,,,,,,,,1.07,0.73,0.78,3*02
$GNGSA,A,3,38,39,08,16,06,29,37,46,30,,,,1.07,0.73,0.78,4*0F
$GPGSV,3,1,11,196,72,048,42,199,60,167,37,15,59,357,42,24,56,176,43,1*69
$GPGSV,3,2,11,195,50,175,44,05,40,077,43,41,38,241,32,13,36,033,38,1*5C
$GPGSV,3,3,11,29,23,226,42,20,22,101,36,194,18,148,23,1*60
$GPGSV,2,1,05,196,72,048,45,199,60,167,46,24,56,176,46,195,50,175,44,8*54
$GPGSV,2,2,05,194,18,148,29,8*6B
$GLGSV,1,1,03,84,54,209,34,79,25,075,38,69,,,27,1*70
$GAGSV,1,1,03,08,63,339,37,15,58,167,41,07,,,31,7*79
$GAGSV,1,1,03,08,63,339,42,15,58,167,45,07,,,39,1*71
$GBGSV,3,1,11,38,70,029,43,39,69,214,44,08,60,003,43,16,60,208,43,1*70
$GBGSV,3,2,11,06,57,208,42,29,44,246,39,37,34,085,45,46,31,154,45,1*70
$GBGSV,3,3,11,30,22,184,30,35,20,306,,32,17,067,35,1*4A
$GBGSV,2,1,07,38,70,029,44,39,69,214,43,29,44,246,34,37,34,085,43,4*70
$GBGSV,2,2,07,46,31,154,44,30,22,184,27,32,17,067,21,4*4A
$GNGGA,095924.000,2500.7829385,N,12132.4668168,E,4,34,0.73,15.895,M,15.25,M,1,3335*4E
$GNRMC,095924.000,A,2500.7829385,N,12132.4668168,E,0.01,316.85,260623,,,R,V*1C
$GPHDT,,T*1B
$GNGGA,095924.200,2500.7829428,N,12132.4668140,E,4,34,0.73,15.870,M,15.25,M,1,3335*4D
$GNRMC,095924.200,A,2500.7829428,N,12132.4668140,E,0.01,316.85,260623,,,R,V*14
$GPHDT,,T*1B
$GNGGA,095924.400,2500.7829464,N,12132.4668122,E,4,34,0.73,15.855,M,15.25,M,1,3335*40
$GNRMC,095924.400,A,2500.7829464,N,12132.4668122,E,0.00,316.85,260623,,,R,V*1F
$GPHDT,,T*1B
$GNGGA,095924.600,2500.7829416,N,12132.4668147,E,4,34,0.73,15.876,M,15.25,M,1,3335*45
$GNRMC,095924.600,A,2500.7829416,N,12132.4668147,E,0.00,316.85,260623,,,R,V*1B
$GPHDT,,T*1B
$GNGGA,095924.800,2500.7829437,N,12132.4668145,E,4,34,0.73,15.862,M,15.25,M,1,3335*4F
$GNRMC,095924.800,A,2500.7829437,N,12132.4668145,E,0.01,316.85,260623,,,R,V*15
$GPHDT,,T*1B
$GNGSA,A,3,196,199,15,24,195,05,13,29,20,194,,,1.07,0.73,0.78,1*0E
$GNGSA,A,3,84,79,,,,,,,,,,,1.07,0.73,0.78,2*0D
$GNGSA,A,3,08,15,,,,,,,,,,,1.07,0.73,0.78,3*02
$GNGSA,A,3,38,39,08,16,06,29,37,46,30,,,,1.07,0.73,0.78,4*0F
$GPGSV,3,1,11,196,72,048,42,199,60,167,37,15,59,357,42,24,56,176,43,1*69
$GPGSV,3,2,11,195,50,175,44,05,40,077,43,41,38,241,32,13,36,033,36,1*52
$GPGSV,3,3,11,29,23,226,43,20,22,101,36,194,18,148,24,1*66
$GPGSV,2,1,05,196,72,048,45,199,60,167,46,24,56,176,45,195,50,175,44,8*57
$GPGSV,2,2,05,194,18,148,28,8*6A
$GLGSV,1,1,03,84,53,209,34,79,25,075,38,69,,,27,1*77
$GAGSV,1,1,03,08,63,339,37,15,58,167,41,07,,,32,7*7A
$GAGSV,1,1,03,08,63,339,42,15,58,167,45,07,,,37,1*7F
$GBGSV,3,1,11,38,70,029,43,39,69,214,44,08,60,003,43,16,60,208,44,1*77
$GBGSV,3,2,11,06,57,208,42,29,44,246,38,37,34,085,45,46,31,154,45,1*71
$GBGSV,3,3,11,30,22,184,30,35,20,306,,32,17,067,35,1*4A
$GBGSV,2,1,07,38,70,029,44,39,69,214,43,29,44,246,34,37,34,085,43,4*70
$GBGSV,2,2,07,46,31,154,44,30,22,184,27,32,17,067,21,4*4A
$GNGGA,095925.000,2500.7829460,N,12132.4668121,E,4,35,0.73,15.853,M,15.25,M,2,3335*46
$GNRMC,095925.000,A,2500.7829460,N,12132.4668121,E,0.01,316.85,260623,,,R,V*1C
$GPHDT,,T*1B
$GNGGA,095925.200,2500.7829444,N,12132.4668089,E,4,35,0.73,15.845,M,15.25,M,2,3335*46
$GNRMC,095925.200,A,2500.7829444,N,12132.4668089,E,0.00,316.85,260623,,,R,V*1A
$GPHDT,,T*1B
$GNGGA,095925.400,2500.7829409,N,12132.4668135,E,4,35,0.73,15.866,M,15.25,M,2,3335*4E
$GNRMC,095925.400,A,2500.7829409,N,12132.4668135,E,0.02,316.85,260623,,,R,V*11
$GPHDT,,T*1B
$GNGGA,095925.600,2500.7829413,N,12132.4668180,E,4,34,0.73,15.884,M,15.25,M,2,3335*44
$GNRMC,095925.600,A,2500.7829413,N,12132.4668180,E,0.01,316.85,260623,,,R,V*15
$GPHDT,,T*1B
$GNGGA,095925.800,2500.7829444,N,12132.4668140,E,4,34,0.73,15.878,M,15.25,M,2,3335*47
$GNRMC,095925.800,A,2500.7829444,N,12132.4668140,E,0.04,316.85,260623,,,R,V*10
$GPHDT,,T*1B
$GNGSA,A,3,196,199,15,24,195,05,13,29,20,194,,,1.07,0.73,0.78,1*0E
$GNGSA,A,3,84,79,,,,,,,,,,,1.07,0.73,0.78,2*0D
$GNGSA,A,3,08,15,,,,,,,,,,,1.07,0.73,0.78,3*02
$GNGSA,A,3,38,39,08,16,06,29,37,46,30,,,,1.07,0.73,0.78,4*0F
$GPGSV,3,1,11,196,72,048,42,199,60,167,36,15,59,357,42,24,56,176,43,1*68
$GPGSV,3,2,11,195,50,175,44,05,40,077,43,41,38,241,33,13,36,033,36,1*53
$GPGSV,3,3,11,29,23,226,43,20,22,101,36,194,18,148,22,1*60
$GPGSV,2,1,05,196,72,048,45,199,60,167,46,24,56,176,46,195,50,175,44,8*54
$GPGSV,2,2,05,194,18,148,28,8*6A
$GLGSV,1,1,03,84,53,209,34,79,25,075,39,69,,,25,1*74
$GAGSV,1,1,03,08,63,339,37,15,58,167,40,07,,,30,7*79
$GAGSV,1,1,03,08,63,339,42,15,58,167,45,07,,,36,1*7E
$GBGSV,3,1,10,38,70,029,43,39,69,214,44,08,60,003,43,16,60,208,44,1*76
$GBGSV,3,2,10,06,57,208,42,29,44,246,37,37,34,085,45,46,31,154,45,1*7F
$GBGSV,3,3,10,30,22,184,31,32,17,067,36,1*78
$GBGSV,2,1,08,38,70,029,44,39,69,214,44,29,44,246,36,37,34,085,43,4*7A
$GBGSV,2,2,08,46,31,154,44,30,22,184,26,32,17,067,21,20,,,25,4*41
$GNGGA,095926.000,2500.7829492,N,12132.4668137,E,4,34,0.73,15.853,M,15.25,M,3,3335*4F
$GNRMC,095926.000,A,2500.7829492,N,12132.4668137,E,0.04,316.85,260623,,,R,V*10
$GPHDT,,T*1B
$GNGGA,095926.200,2500.7829438,N,12132.4668135,E,4,34,0.73,15.863,M,15.25,M,3,3335*4C
$GNRMC,095926.200,A,2500.7829438,N,12132.4668135,E,0.03,316.85,260623,,,R,V*17
$GPHDT,,T*1B
$GNGGA,095926.400,2500.7829446,N,12132.4668125,E,4,34,0.73,15.864,M,15.25,M,3,3335*45
$GNRMC,095926.400,A,2500.7829446,N,12132.4668125,E,0.03,316.85,260623,,,R,V*19
$GPHDT,,T*1B
$GNGGA,095926.600,2500.7829432,N,12132.4668130,E,4,34,0.73,15.883,M,15.25,M,3,3335*49
$GNRMC,095926.600,A,2500.7829432,N,12132.4668130,E,0.02,316.85,260623,,,R,V*1D
$GPHDT,,T*1B
$GNGGA,095926.800,2500.7829435,N,12132.4668131,E,4,34,0.73,15.875,M,15.25,M,3,3335*48
$GNRMC,095926.800,A,2500.7829435,N,12132.4668131,E,0.01,316.85,260623,,,R,V*16
$GPHDT,,T*1B
$GNGSA,A,3,196,199,15,24,195,05,13,29,20,194,,,1.07,0.73,0.78,1*0E
$GNGSA,A,3,84,79,,,,,,,,,,,1.07,0.73,0.78,2*0D
$GNGSA,A,3,08,15,,,,,,,,,,,1.07,0.73,0.78,3*02
$GNGSA,A,3,38,39,08,16,06,29,37,46,30,,,,1.07,0.73,0.78,4*0F
$GPGSV,3,1,11,196,72,048,42,199,60,167,36,15,59,357,42,24,56,176,43,1*68
$GPGSV,3,2,11,195,50,175,44,05,40,077,43,41,38,241,31,13,36,033,36,1*51
$GPGSV,3,3,11,29,23,226,42,20,22,101,36,194,18,148,22,1*61
$GPGSV,2,1,05,196,72,048,45,199,60,167,46,24,56,176,46,195,50,175,44,8*54
$GPGSV,2,2,05,194,18,148,27,8*65
$GLGSV,1,1,03,84,53,209,34,79,25,075,39,69,,,26,1*77
$GAGSV,1,1,03,08,63,339,37,15,58,167,40,07,,,32,7*7B
$GAGSV,1,1,03,08,63,339,42,15,58,167,45,07,,,38,1*70
$GBGSV,3,1,10,38,70,029,43,39,69,214,44,08,60,003,43,16,60,208,44,1*76
$GBGSV,3,2,10,06,57,208,42,29,44,246,41,37,34,085,45,46,31,154,45,1*7E
$GBGSV,3,3,10,30,22,184,31,32,17,067,36,1*78
$GBGSV,2,1,08,38,70,029,44,39,69,214,43,29,44,246,37,37,34,085,43,4*7C
$GBGSV,2,2,08,46,31,154,44,30,22,184,25,32,17,067,21,20,,,25,4*42
$GNGGA,095927.000,2500.7829477,N,12132.4668124,E,4,34,0.73,15.843,M,15.25,M,4,3335*41
$GNRMC,095927.000,A,2500.7829477,N,12132.4668124,E,0.01,316.85,260623,,,R,V*1D
$GPHDT,,T*1B
$GNGGA,095927.200,2500.7829452,N,12132.4668128,E,4,34,0.73,15.852,M,15.25,M,4,3335*48
$GNRMC,095927.200,A,2500.7829452,N,12132.4668128,E,0.02,316.85,260623,,,R,V*17
$GPHDT,,T*1B
$GNGGA,095927.400,2500.7829445,N,12132.4668125,E,4,34,0.73,15.869,M,15.25,M,4,3335*4D
$GNRMC,095927.400,A,2500.7829445,N,12132.4668125,E,0.01,316.85,260623,,,R,V*19
$GPHDT,,T*1B
$GNGGA,095927.600,2500.7829457,N,12132.4668136,E,4,34,0.73,15.866,M,15.25,M,4,3335*41
$GNRMC,095927.600,A,2500.7829457,N,12132.4668136,E,0.01,316.85,260623,,,R,V*1A
$GPHDT,,T*1B
$GNGGA,095927.800,2500.7829466,N,12132.4668115,E,4,34,0.73,15.863,M,15.25,M,4,3335*49
$GNRMC,095927.800,A,2500.7829466,N,12132.4668115,E,0.01,316.85,260623,,,R,V*17
$GPHDT,,T*1B
$GNGSA,A,3,196,199,15,24,195,05,13,29,20,194,,,1.07,0.73,0.78,1*0E
$GNGSA,A,3,84,79,,,,,,,,,,,1.07,0.73,0.78,2*0D
$GNGSA,A,3,08,15,,,,,,,,,,,1.07,0.73,0.78,3*02
$GNGSA,A,3,38,39,08,16,06,29,37,46,30,,,,1.07,0.73,0.78,4*0F
$GPGSV,3,1,11,196,72,048,42,199,60,167,36,15,59,357,42,24,56,176,43,1*68
$GPGSV,3,2,11,195,50,175,44,05,40,077,43,41,38,241,34,13,36,033,36,1*54
$GPGSV,3,3,11,29,23,226,42,20,22,101,37,194,18,148,23,1*61
$GPGSV,2,1,05,196,72,048,45,199,60,167,46,24,56,176,46,195,50,175,44,8*54
$GPGSV,2,2,05,194,18,148,27,8*65
$GLGSV,1,1,03,84,53,209,34,79,25,075,39,69,,,25,1*74
$GAGSV,1,1,03,08,63,339,37,15,58,167,40,07,,,33,7*7A
$GAGSV,1,1,03,08,63,339,42,15,58,167,45,07,,,40,1*7F
$GBGSV,3,1,10,38,70,029,43,39,69,214,44,08,60,003,43,16,60,208,44,1*76
$GBGSV,3,2,10,06,57,208,41,29,44,246,43,37,34,085,45,46,31,154,45,1*7F
$GBGSV,3,3,10,30,22,184,29,32,17,067,36,1*71
$GBGSV,2,1,08,38,70,029,44,39,69,214,43,29,44,246,40,37,34,085,43,4*7C
$GBGSV,2,2,08,46,31,154,44,30,22,184,24,32,17,067,21,20,,,25,4*43
$GNGGA,095928.000,2500.7829442,N,12132.4668125,E,4,34,0.73,15.863,M,15.25,M,5,3335*4A
$GNRMC,095928.000,A,2500.7829442,N,12132.4668125,E,0.01,316.85,260623,,,R,V*15
$GPHDT,,T*1B
$GNGGA,095928.200,2500.7829441,N,12132.4668136,E,4,34,0.73,15.869,M,15.25,M,5,3335*43
$GNRMC,095928.200,A,2500.7829441,N,12132.4668136,E,0.02,316.85,260623,,,R,V*15
$GPHDT,,T*1B
$GNGGA,095928.400,2500.7829451,N,12132.4668083,E,4,34,0.73,15.882,M,15.25,M,5,3335*4E
$GNRMC,095928.400,A,2500.7829451,N,12132.4668083,E,0.01,316.85,260623,,,R,V*1E
$GPHDT,,T*1B
$GNGGA,095928.600,2500.7829461,N,12132.4668099,E,4,34,0.73,15.886,M,15.25,M,5,3335*40
$GNRMC,095928.600,A,2500.7829461,N,12132.4668099,E,0.02,316.85,260623,,,R,V*17
$GPHDT,,T*1B
$GNGGA,095928.800,2500.7829448,N,12132.4668126,E,4,34,0.73,15.873,M,15.25,M,5,3335*4A
$GNRMC,095928.800,A,2500.7829448,N,12132.4668126,E,0.02,316.85,260623,,,R,V*17
$GPHDT,,T*1B
$GNGSA,A,3,196,199,15,24,195,05,13,29,20,194,,,1.07,0.73,0.78,1*0E
$GNGSA,A,3,84,79,,,,,,,,,,,1.07,0.73,0.78,2*0D
$GNGSA,A,3,08,15,,,,,,,,,,,1.07,0.73,0.78,3*02
$GNGSA,A,3,38,39,08,16,06,29,37,46,30,,,,1.07,0.73,0.78,4*0F
$GPGSV,3,1,11,196,72,048,42,199,60,167,36,15,59,357,42,24,56,176,43,1*68
$GPGSV,3,2,11,195,50,175,44,05,40,077,43,41,38,241,36,13,36,033,35,1*55
$GPGSV,3,3,11,29,23,226,41,20,22,101,36,194,18,148,23,1*63
$GPGSV,2,1,05,196,72,048,45,199,60,167,46,24,56,176,46,195,50,175,44,8*54
$GPGSV,2,2,05,194,18,148,26,8*64
$GLGSV,1,1,03,84,53,209,32,79,25,075,39,69,,,22,1*75
$GAGSV,1,1,03,08,63,339,37,15,58,167,41,07,,,34,7*7C
$GAGSV,1,1,03,08,63,339,42,15,58,167,45,07,,,41,1*7E
$GBGSV,3,1,10,38,70,029,43,39,69,214,44,08,60,003,43,16,60,208,44,1*76
$GBGSV,3,2,10,06,57,208,41,29,44,246,43,37,34,085,45,46,31,154,45,1*7F
$GBGSV,3,3,10,30,22,184,29,32,17,067,36,1*71
$GBGSV,2,1,08,38,70,029,44,39,69,214,43,29,44,246,41,37,34,085,43,4*7D
$GBGSV,2,2,08,46,31,154,44,30,22,184,24,32,17,067,22,20,,,26,4*43
$GNGGA,095929.000,2500.7829452,N,12132.4668136,E,4,34,0.73,15.872,M,15.25,M,6,3335*4B
$GNRMC,095929.000,A,2500.7829452,N,12132.4668136,E,0.03,316.85,260623,,,R,V*15
$GPHDT,,T*1B
$GNGGA,095929.200,2500.7829465,N,12132.4668129,E,4,36,0.77,15.863,M,15.25,M,6,3335*45
$GNRMC,095929.200,A,2500.7829465,N,12132.4668129,E,0.00,316.85,260623,,,R,V*1E
$GPHDT,,T*1B
$GNGGA,095929.400,2500.7829450,N,12132.4668144,E,4,36,0.77,15.872,M,15.25,M,6,3335*4E
$GNRMC,095929.400,A,2500.7829450,N,12132.4668144,E,0.00,316.85,260623,,,R,V*15
$GPHDT,,T*1B
$GNGGA,095929.600,2500.7829477,N,12132.4668123,E,4,36,0.77,15.856,M,15.25,M,4,3335*4C
$GNRMC,095929.600,A,2500.7829477,N,12132.4668123,E,0.01,316.85,260623,,,R,V*12
$GPHDT,,T*1B
$GNGGA,095929.800,2500.7829422,N,12132.4668141,E,4,36,0.77,15.893,M,15.25,M,2,3335*49
$GNRMC,095929.800,A,2500.7829422,N,12132.4668141,E,0.00,316.85,260623,,,R,V*19
$GPHDT,,T*1B
$GNGSA,A,3,196,199,15,24,195,05,13,29,20,194,,,1.46,0.77,1.24,1*07
$GNGSA,A,3,84,79,,,,,,,,,,,1.46,0.77,1.24,2*04
$GNGSA,A,3,08,15,,,,,,,,,,,1.46,0.77,1.24,3*0B
$GNGSA,A,3,38,39,16,08,06,29,37,46,30,20,,,1.46,0.77,1.24,4*04
$GPGSV,3,1,11,196,72,048,42,199,60,167,36,15,59,357,42,24,56,176,43,1*68
$GPGSV,3,2,11,195,50,175,44,05,40,077,43,41,38,241,37,13,36,033,33,1*52
$GPGSV,3,3,11,29,23,226,41,20,22,101,35,194,18,148,22,1*61
$GPGSV,2,1,05,196,72,048,45,199,60,167,46,24,56,176,46,195,50,175,44,8*54
$GPGSV,2,2,05,194,18,148,27,8*65
$GLGSV,1,1,03,84,53,209,32,79,25,075,40,69,,,18,1*72
$GAGSV,1,1,03,08,63,339,37,15,58,167,41,07,,,35,7*7D
$GAGSV,1,1,03,08,63,339,42,15,58,167,45,07,,,41,1*7E
$GBGSV,3,1,11,38,70,029,43,39,69,214,44,16,60,208,44,08,60,003,43,1*77
$GBGSV,3,2,11,06,57,208,41,20,50,012,,29,44,246,43,37,34,085,45,1*7B
$GBGSV,3,3,11,46,31,154,45,30,22,184,29,32,17,067,36,1*41
$GBGSV,2,1,08,38,70,029,44,39,69,214,43,20,50,012,26,29,44,246,41,4*74
$GBGSV,2,2,08,37,34,085,43,46,31,154,44,30,22,184,24,32,17,067,22,4*7C
$GNGGA,095930.000,2500.7829480,N,12132.4668130,E,4,36,0.77,15.845,M,15.25,M,1,3335*4F
$GNRMC,095930.000,A,2500.7829480,N,12132.4668130,E,0.00,316.85,260623,,,R,V*17
$GPHDT,,T*1B
$GNGGA,095930.200,2500.7829456,N,12132.4668144,E,4,36,0.77,15.864,M,15.25,M,1,3335*46
$GNRMC,095930.200,A,2500.7829456,N,12132.4668144,E,0.00,316.85,260623,,,R,V*1D
$GPHDT,,T*1B
$GNGGA,095930.400,2500.7829452,N,12132.4668163,E,4,36,0.77,15.856,M,15.25,M,1,3335*40
$GNRMC,095930.400,A,2500.7829452,N,12132.4668163,E,0.01,316.85,260623,,,R,V*1B
$GPHDT,,T*1B
$GNGGA,095930.600,2500.7829438,N,12132.4668147,E,4,36,0.77,15.868,M,15.25,M,1,3335*45
$GNRMC,095930.600,A,2500.7829438,N,12132.4668147,E,0.00,316.85,260623,,,R,V*12
$GPHDT,,T*1B
$GNGGA,095930.800,2500.7829444,N,12132.4668154,E,4,37,0.77,15.857,M,15.25,M,0,3335*4E
$GNRMC,095930.800,A,2500.7829444,N,12132.4668154,E,0.02,316.85,260623,,,R,V*17
$GPHDT,,T*1B
$GNGSA,A,3,196,199,15,24,195,05,13,29,20,194,,,1.46,0.77,1.24,1*07
$GNGSA,A,3,84,79,,,,,,,,,,,1.46,0.77,1.24,2*04
$GNGSA,A,3,08,15,,,,,,,,,,,1.46,0.77,1.24,3*0B
$GNGSA,A,3,38,39,16,08,06,20,29,37,46,30,,,1.46,0.77,1.24,4*04
$GPGSV,3,1,11,196,72,048,42,199,60,167,36,15,59,357,42,24,56,176,43,1*68
$GPGSV,3,2,11,195,50,175,44,05,40,077,43,41,38,241,37,13,36,033,33,1*52
$GPGSV,3,3,11,29,23,226,41,20,22,101,35,194,18,148,20,1*63
$GPGSV,2,1,05,196,72,048,45,199,60,167,46,24,56,176,46,195,50,175,44,8*54
$GPGSV,2,2,05,194,18,148,27,8*65
$GLGSV,1,1,03,84,53,209,32,79,25,075,40,69,,,18,1*72
$GAGSV,1,1,03,08,63,339,37,15,58,167,41,07,,,35,7*7D
$GAGSV,1,1,03,08,63,339,42,15,58,167,45,07,,,41,1*7E
$GBGSV,3,1,11,38,70,029,43,39,69,214,44,16,60,208,44,08,60,003,43,1*77
$GBGSV,3,2,11,06,57,208,41,20,50,012,34,29,44,245,43,37,34,085,45,1*7F
$GBGSV,3,3,11,46,31,154,45,30,22,184,29,32,17,067,36,1*41
$GBGSV,2,1,08,38,70,029,44,39,69,214,43,20,50,012,26,29,44,245,41,4*77
$GBGSV,2,2,08,37,34,085,43,46,31,154,44,30,22,184,24,32,17,067,21,4*7F
$GNGGA,095931.000,2500.7829463,N,12132.4668144,E,4,37,0.77,15.857,M,15.25,M,1,3335*42
$GNRMC,095931.000,A,2500.7829463,N,12132.4668144,E,0.02,316.85,260623,,,R,V*1A
$GPHDT,,T*1B
$GNGGA,095931.200,2500.7829465,N,12132.4668147,E,4,37,0.77,15.866,M,15.25,M,1,3335*47
$GNRMC,095931.200,A,2500.7829465,N,12132.4668147,E,0.01,316.85,260623,,,R,V*1E
$GPHDT,,T*1B
$GNGGA,095931.400,2500.7829435,N,12132.4668168,E,4,37,0.77,15.867,M,15.25,M,1,3335*48
$GNRMC,095931.400,A,2500.7829435,N,12132.4668168,E,0.01,316.85,260623,,,R,V*10
$GPHDT,,T*1B
$GNGGA,095931.600,2500.7829469,N,12132.4668159,E,4,37,0.77,15.856,M,15.25,M,1,3335*43
$GNRMC,095931.600,A,2500.7829469,N,12132.4668159,E,0.00,316.85,260623,,,R,V*18
$GPHDT,,T*1B
$GNGGA,095931.800,2500.7829449,N,12132.4668154,E,4,37,0.77,15.873,M,15.25,M,1,3335*45
$GNRMC,095931.800,A,2500.7829449,N,12132.4668154,E,0.00,316.85,260623,,,R,V*19
$GPHDT,,T*1B
$GNGSA,A,3,196,199,15,24,195,05,13,29,20,194,,,1.46,0.77,1.24,1*07
$GNGSA,A,3,84,79,,,,,,,,,,,1.46,0.77,1.24,2*04
$GNGSA,A,3,08,15,,,,,,,,,,,1.46,0.77,1.24,3*0B
$GNGSA,A,3,38,39,16,08,06,20,29,37,46,30,,,1.46,0.77,1.24,4*04
$GPGSV,3,1,11,196,72,048,42,199,60,167,36,15,59,357,42,24,56,176,43,1*68
$GPGSV,3,2,11,195,50,175,44,05,40,077,43,41,38,241,36,13,36,033,34,1*54
$GPGSV,3,3,11,29,23,226,42,20,22,101,34,194,18,148,20,1*61
$GPGSV,2,1,05,196,72,048,45,199,60,167,46,24,56,176,46,195,50,175,44,8*54
$GPGSV,2,2,05,194,18,148,26,8*64
$GLGSV,1,1,03,84,53,209,32,79,25,075,40,69,,,22,1*7B
$GAGSV,1,1,03,08,63,339,37,15,58,167,41,07,,,35,7*7D
$GAGSV,1,1,03,08,63,339,42,15,58,167,45,07,,,41,1*7E
$GBGSV,3,1,11,38,70,029,43,39,69,214,44,16,60,208,44,08,60,003,43,1*77
$GBGSV,3,2,11,06,57,208,41,20,50,012,35,29,44,245,43,37,34,085,45,1*7E
$GBGSV,3,3,11,46,31,154,45,30,22,184,29,32,17,067,36,1*41
$GBGSV,2,1,08,38,70,029,44,39,69,214,43,20,50,012,27,29,44,245,41,4*76
$GBGSV,2,2,08,37,34,085,43,46,31,154,44,30,22,184,24,32,17,067,21,4*7F
$GNGGA,095932.000,2500.7829467,N,12132.4668149,E,4,37,0.77,15.857,M,15.25,M,2,3335*4B
$GNRMC,095932.000,A,2500.7829467,N,12132.4668149,E,0.00,316.85,260623,,,R,V*12
$GPHDT,,T*1B
$GNGGA,095932.200,2500.7829429,N,12132.4668174,E,4,36,0.77,15.880,M,15.25,M,2,3335*46
$GNRMC,095932.200,A,2500.7829429,N,12132.4668174,E,0.00,316.85,260623,,,R,V*14
$GPHDT,,T*1B
$GNGGA,095932.400,2500.7829456,N,12132.4668146,E,4,36,0.77,15.860,M,15.25,M,2,3335*47
$GNRMC,095932.400,A,2500.7829456,N,12132.4668146,E,0.00,316.85,260623,,,R,V*1B
$GPHDT,,T*1B
$GNGGA,095932.600,2500.7829462,N,12132.4668117,E,4,36,0.77,15.857,M,15.25,M,2,3335*42
$GNRMC,095932.600,A,2500.7829462,N,12132.4668117,E,0.00,316.85,260623,,,R,V*1A
$GPHDT,,T*1B
$GNGGA,095932.800,2500.7829442,N,12132.4668153,E,4,36,0.77,15.866,M,15.25,M,2,3335*4C
$GNRMC,095932.800,A,2500.7829442,N,12132.4668153,E,0.01,316.85,260623,,,R,V*17
$GPHDT,,T*1B
$GNGSA,A,3,196,199,15,24,195,05,13,29,20,194,,,1.46,0.77,1.24,1*07
$GNGSA,A,3,84,79,,,,,,,,,,,1.46,0.77,1.24,2*04
$GNGSA,A,3,08,15,,,,,,,,,,,1.46,0.77,1.24,3*0B
$GNGSA,A,3,38,39,16,08,06,20,29,37,46,30,,,1.46,0.77,1.24,4*04
$GPGSV,3,1,11,196,72,048,42,199,60,167,36,15,59,357,42,24,56,176,44,1*6F
$GPGSV,3,2,11,195,50,175,44,05,40,077,43,41,38,241,36,13,36,033,35,1*55
$GPGSV,3,3,11,29,23,226,42,20,22,101,34,194,18,148,20,1*61
$GPGSV,2,1,05,196,72,048,45,199,60,167,46,24,56,176,46,195,50,175,44,8*54
$GPGSV,2,2,05,194,18,148,26,8*64
$GLGSV,1,1,03,84,53,209,32,79,25,075,40,69,,,26,1*7F
$GAGSV,1,1,03,08,63,339,37,15,58,167,41,07,,,32,7*7A
$GAGSV,1,1,03,08,63,339,42,15,58,167,45,07,,,39,1*71
$GBGSV,3,1,11,38,70,029,43,39,69,215,44,16,60,208,44,08,60,003,43,1*76
$GBGSV,3,2,11,06,57,208,41,20,50,012,34,29,44,245,41,37,34,085,45,1*7D
$GBGSV,3,3,11,46,31,154,45,30,22,184,30,32,17,067,36,1*49
$GBGSV,2,1,08,38,70,029,44,39,69,215,43,20,50,012,27,29,44,245,39,4*78
$GBGSV,2,2,08,37,34,085,43,46,31,154,44,30,22,184,25,32,17,067,20,4*7F
$GNGGA,095933.000,2500.7829430,N,12132.4668163,E,4,36,0.77,15.883,M,15.25,M,3,3335*49
$GNRMC,095933.000,A,2500.7829430,N,12132.4668163,E,0.00,316.85,260623,,,R,V*19
$GPHDT,,T*1B
$GNGGA,095933.200,2500.7829453,N,12132.4668166,E,4,36,0.77,15.861,M,15.25,M,3,3335*47
$GNRMC,095933.200,A,2500.7829453,N,12132.4668166,E,0.00,316.85,260623,,,R,V*1B
$GPHDT,,T*1B
$GNGGA,095933.400,2500.7829462,N,12132.4668161,E,4,36,0.77,15.868,M,15.25,M,3,3335*4D
$GNRMC,095933.400,A,2500.7829462,N,12132.4668161,E,0.00,316.85,260623,,,R,V*18
$GPHDT,,T*1B
$GNGGA,095933.600,2500.7829461,N,12132.4668151,E,4,36,0.77,15.861,M,15.25,M,3,3335*46
$GNRMC,095933.600,A,2500.7829461,N,12132.4668151,E,0.00,316.85,260623,,,R,V*1A
$GPHDT,,T*1B
$GNGGA,095933.800,2500.7829464,N,12132.4668154,E,4,36,0.77,15.861,M,15.25,M,3,3335*48
$GNRMC,095933.800,A,2500.7829464,N,12132.4668154,E,0.00,316.85,260623,,,R,V*14
$GPHDT,,T*1B
$GNGSA,A,3,196,199,15,24,195,05,13,29,20,194,,,1.46,0.77,1.24,1*07
$GNGSA,A,3,84,79,,,,,,,,,,,1.46,0.77,1.24,2*04
$GNGSA,A,3,08,15,,,,,,,,,,,1.46,0.77,1.24,3*0B
$GNGSA,A,3,38,39,16,08,06,20,29,37,46,30,,,1.46,0.77,1.24,4*04
$GPGSV,3,1,11,196,72,048,42,199,60,167,36,15,59,357,42,24,56,176,44,1*6F
$GPGSV,3,2,11,195,50,175,44,05,40,077,43,41,38,241,38,13,36,033,37,1*59
$GPGSV,3,3,11,29,23,226,42,20,22,101,33,194,18,148,19,1*6C
$GPGSV,2,1,05,196,72,048,45,199,60,167,46,24,56,176,46,195,50,175,44,8*54
$GPGSV,2,2,05,194,18,148,23,8*61
$GLGSV,1,1,03,84,53,209,34,79,25,075,39,69,,,29,1*78
$GAGSV,1,1,03,08,63,339,38,15,58,167,41,07,,,33,7*74
$GAGSV,1,1,03,08,63,339,42,15,58,167,45,07,,,38,1*70
$GBGSV,3,1,11,38,70,029,43,39,69,215,44,16,60,208,44,08,60,003,43,1*76
$GBGSV,3,2,11,06,57,208,42,20,50,012,33,29,44,245,38,37,34,085,45,1*77
$GBGSV,3,3,11,46,31,154,45,30,22,184,29,32,17,067,36,1*41
$GBGSV,2,1,08,38,70,029,44,39,69,215,43,20,50,012,27,29,44,245,38,4*79
$GBGSV,2,2,08,37,34,085,43,46,31,154,44,30,22,184,25,32,17,067,18,4*74
$GNGGA,095934.000,2500.7829435,N,12132.4668183,E,4,36,0.77,15.884,M,15.25,M,4,3335*45
$GNRMC,095934.000,A,2500.7829435,N,12132.4668183,E,0.00,316.85,260623,,,R,V*15
$GPHDT,,T*1B
$GNGGA,095934.200,2500.7829444,N,12132.4668159,E,4,36,0.77,15.863,M,15.25,M,4,3335*4F
$GNRMC,095934.200,A,2500.7829444,N,12132.4668159,E,0.00,316.85,260623,,,R,V*16
