$FW : RTK35X,V1.1X0314AS,Lib20210517,1*54
$Tool : LOCOSYS , GNSS Firebird , v1.0.0.19*39
$---------------------------------------------------*2D
$GPHDT,,T*1B
$GNGGA,035148.400,2500.8055500,N,12132.4270800,E,2,55,0.53,13.25,M,15.25,M,2,3335*7A
$GNRMC,035148.400,A,2500.8055500,N,12132.4270800,E,0.18,258.63,270623,,,D,V*01
$GPHDT,,T*1B
$GNGGA,035148.600,2500.8055500,N,12132.4270700,E,2,55,0.53,13.24,M,15.25,M,2,3335*76
$GNRMC,035148.600,A,2500.8055500,N,12132.4270700,E,0.10,258.63,270623,,,D,V*04
$GPHDT,,T*1B
$GNGGA,035148.800,2500.8055500,N,12132.4270700,E,2,55,0.53,13.24,M,15.25,M,2,3335*78
$GNRMC,035148.800,A,2500.8055500,N,12132.4270700,E,0.13,258.63,270623,,,D,V*09
$GPHDT,,T*1B
$GNGSA,A,3,19,195,196,17,199,06,194,09,11,04,12,,0.81,0.53,0.62,1*02
$GNGSA,A,3,68,67,82,83,80,,,,,,,,0.81,0.53,0.62,2*0F
$GNGSA,A,3,10,12,11,19,04,25,33,,,,,,0.81,0.53,0.62,3*01
$GNGSA,A,3,40,07,10,33,14,08,43,28,42,11,34,,0.81,0.53,0.62,4*0C
$GPGSV,4,1,16,19,68,026,41,195,67,044,38,196,65,126,39,17,63,082,31,1*6F
$GPGSV,4,2,16,199,60,167,37,50,60,167,40,06,50,344,38,194,40,172,21,1*65
$GPGSV,4,3,16,09,34,103,43,20,31,232,13,11,28,288,21,14,23,176,11,1*61
$GPGSV,4,4,16,04,21,070,41,12,15,316,25,03,07,038,20,05,05,222,,1*6D
$GPGSV,3,1,09,195,67,044,41,196,65,126,46,199,60,167,46,06,50,344,41,8*55
$GPGSV,3,2,09,194,40,172,18,09,34,103,45,11,28,288,29,04,21,070,40,8*5A
$GPGSV,3,3,09,03,07,038,13,8*59
$GLGSV,3,1,09,68,52,145,35,67,46,057,42,82,37,041,39,83,34,344,18,1*7C
$GLGSV,3,2,09,80,22,228,15,73,22,286,14,69,13,185,,74,04,326,,1*78
$GLGSV,3,3,09,66,04,026,16,1*46
$GAGSV,2,1,08,24,50,240,,10,49,337,32,12,47,018,35,11,35,302,21,7*7C
$GAGSV,2,2,08,19,31,084,33,04,29,152,31,25,26,305,25,33,14,066,21,7*72
$GAGSV,2,1,07,10,49,337,38,12,47,018,39,11,35,302,17,19,31,084,38,1*7E
$GAGSV,2,2,07,04,29,152,29,25,26,305,21,33,14,066,25,1*44
$GBGSV,4,1,15,40,83,142,40,07,80,241,28,10,72,286,39,33,66,146,45,1*79
$GBGSV,4,2,15,14,60,078,43,08,58,272,22,43,53,059,45,13,49,260,,1*7A
$GBGSV,4,3,15,28,39,326,33,42,38,051,44,11,32,083,41,41,24,197,,1*78
$GBGSV,4,4,15,23,17,219,14,34,16,099,27,37,16,271,,1*48
$GBGSV,2,1,06,40,83,142,46,33,66,146,48,43,53,059,44,28,39,326,27,4*7C
$GBGSV,2,2,06,42,38,051,43,34,16,099,28,4*71
$GNGGA,035149.000,2500.8055500,N,12132.4270600,E,2,55,0.53,13.23,M,15.25,M,3,3335*76
$GNRMC,035149.000,A,2500.8055500,N,12132.4270600,E,0.14,258.63,270623,,,D,V*06
$GPHDT,,T*1B
$GNGGA,035149.200,2500.8055500,N,12132.4270500,E,2,54,0.53,13.23,M,15.25,M,3,3335*76
$GNRMC,035149.200,A,2500.8055500,N,12132.4270500,E,0.12,258.63,270623,,,D,V*01
$GPHDT,,T*1B
$GNGGA,035149.400,2500.8055500,N,12132.4270500,E,2,55,0.53,13.22,M,15.25,M,3,3335*70
$GNRMC,035149.400,A,2500.8055500,N,12132.4270500,E,0.12,258.63,270623,,,D,V*07
$GPHDT,,T*1B
$GNGGA,035149.600,2500.8055500,N,12132.4270500,E,2,54,0.53,13.22,M,15.25,M,3,3335*73
$GNRMC,035149.600,A,2500.8055500,N,12132.4270500,E,0.12,258.63,270623,,,D,V*05
$GPHDT,,T*1B
$GNGGA,035149.800,2500.8055500,N,12132.4270400,E,2,55,0.53,13.21,M,15.25,M,3,3335*7E
$GNRMC,035149.800,A,2500.8055500,N,12132.4270400,E,0.12,258.63,270623,,,D,V*0A
$GPHDT,,T*1B
$GNGSA,A,3,19,195,196,17,199,06,194,09,11,04,12,,0.81,0.53,0.62,1*02
$GNGSA,A,3,68,67,82,83,80,,,,,,,,0.81,0.53,0.62,2*0F
$GNGSA,A,3,10,12,11,19,04,25,33,,,,,,0.81,0.53,0.62,3*01
$GNGSA,A,3,40,07,10,33,14,08,43,28,42,11,34,,0.81,0.53,0.62,4*0C
$GPGSV,4,1,15,19,68,026,41,195,67,044,38,196,65,126,39,17,63,082,31,1*6C
$GPGSV,4,2,15,50,60,167,39,199,60,167,37,06,50,344,39,194,40,172,20,1*68
$GPGSV,4,3,15,09,34,103,43,20,31,232,12,11,28,288,21,14,23,176,12,1*60
$GPGSV,4,4,15,04,21,070,41,12,15,316,25,03,07,038,20,1*5C
$GPGSV,3,1,09,195,67,044,41,196,65,126,46,199,60,167,45,06,50,344,41,8*56
$GPGSV,3,2,09,194,40,172,18,09,34,103,45,11,28,288,28,04,21,070,40,8*5B
$GPGSV,3,3,09,03,07,038,11,8*5B
$GLGSV,3,1,09,68,52,145,35,67,46,057,42,82,37,041,39,83,34,344,20,1*77
$GLGSV,3,2,09,80,22,228,17,73,22,286,14,69,13,185,,74,04,326,,1*7A
$GLGSV,3,3,09,66,04,026,15,1*45
$GAGSV,2,1,08,24,50,240,,10,49,337,34,12,47,018,35,11,35,302,24,7*7F
$GAGSV,2,2,08,19,31,084,33,04,30,152,31,25,26,305,24,33,14,066,21,7*7B
$GAGSV,2,1,07,10,49,337,38,12,47,018,40,11,35,302,17,19,31,084,38,1*70
$GAGSV,2,2,07,04,30,152,31,25,26,305,22,33,14,066,24,1*47
$GBGSV,4,1,16,40,83,142,40,07,80,241,28,10,72,286,39,33,66,146,45,1*7A
$GBGSV,4,2,16,14,60,078,43,08,58,272,22,43,53,059,45,13,49,260,,1*79
$GBGSV,4,3,16,28,39,326,33,42,38,051,44,11,32,083,41,41,24,197,,1*7B
$GBGSV,4,4,16,23,17,219,17,34,16,099,25,37,16,271,,39,03,178,,1*7D
$GBGSV,2,1,06,40,83,142,46,33,66,146,48,43,53,059,44,28,39,326,28,4*73
$GBGSV,2,2,06,42,38,051,43,34,16,099,27,4*7E
$GNGGA,035150.000,2500.8055500,N,12132.4270400,E,2,55,0.53,13.21,M,15.25,M,4,3335*79
$GNRMC,035150.000,A,2500.8055500,N,12132.4270400,E,0.05,258.63,270623,,,D,V*0C
$GPHDT,,T*1B
$GNGGA,035150.200,2500.8055600,N,12132.4270400,E,2,56,0.50,13.21,M,15.25,M,4,3335*78
$GNRMC,035150.200,A,2500.8055600,N,12132.4270400,E,0.05,258.63,270623,,,D,V*0D
$GPHDT,,T*1B
$GNGGA,035150.400,2500.8055600,N,12132.4270400,E,2,56,0.50,13.21,M,15.25,M,1,3335*7B
$GNRMC,035150.400,A,2500.8055600,N,12132.4270400,E,0.02,258.63,270623,,,D,V*0C
$GPHDT,,T*1B
$GNGGA,035150.600,2500.8055600,N,12132.4270400,E,2,56,0.50,13.21,M,15.25,M,0,3335*78
$GNRMC,035150.600,A,2500.8055600,N,12132.4270400,E,0.05,258.63,270623,,,D,V*09
$GPHDT,,T*1B
$GNGGA,035150.800,2500.8055600,N,12132.4270400,E,2,56,0.50,13.20,M,15.25,M,0,3335*77
$GNRMC,035150.800,A,2500.8055600,N,12132.4270400,E,0.03,258.63,270623,,,D,V*01
$GPHDT,,T*1B
$GNGSA,A,3,19,195,196,17,199,06,194,09,11,04,12,,0.78,0.50,0.60,1*05
$GNGSA,A,3,68,67,82,83,80,,,,,,,,0.78,0.50,0.60,2*08
$GNGSA,A,3,10,12,11,19,04,25,33,,,,,,0.78,0.50,0.60,3*06
$GNGSA,A,3,40,07,10,33,14,08,43,28,42,11,23,34,0.78,0.50,0.60,4*0A
$GPGSV,4,1,16,19,68,026,42,195,67,044,39,196,65,126,41,17,63,082,36,1*65
$GPGSV,4,2,16,199,60,167,36,50,60,167,39,06,50,344,40,194,40,172,20,1*64
$GPGSV,4,3,16,09,34,103,43,20,31,232,13,11,28,288,21,14,23,176,13,1*63
$GPGSV,4,4,16,04,21,070,41,12,15,316,25,03,07,038,20,05,05,222,,1*6D
$GPGSV,2,1,08,195,67,044,43,196,65,126,46,199,60,167,45,06,50,344,42,8*57
$GPGSV,2,2,08,194,40,172,18,09,34,103,45,11,28,288,28,04,21,070,40,8*5B
$GLGSV,3,1,09,68,52,145,37,67,46,057,42,82,37,041,40,83,34,344,21,1*7A
$GLGSV,3,2,09,80,22,228,19,73,22,286,10,69,13,185,,74,04,326,,1*70
$GLGSV,3,3,09,66,04,026,12,1*42
$GAGSV,2,1,08,24,50,240,,10,49,337,35,12,47,018,35,11,35,302,23,7*79
$GAGSV,2,2,08,19,31,084,32,04,30,152,30,25,26,305,25,33,14,066,22,7*79
$GAGSV,2,1,07,10,49,337,38,12,47,018,40,11,35,302,16,19,31,084,38,1*71
$GAGSV,2,2,07,04,30,152,30,25,26,305,23,33,14,066,22,1*41
$GBGSV,4,1,15,40,83,142,42,07,80,241,30,10,72,286,39,33,66,146,45,1*72
$GBGSV,4,2,15,14,60,078,43,08,58,272,25,43,53,059,46,13,49,260,,1*7E
$GBGSV,4,3,15,28,39,326,32,42,38,051,44,11,32,083,40,41,24,197,,1*78
$GBGSV,4,4,15,23,17,219,17,34,16,099,30,37,16,271,,1*4D
$GBGSV,2,1,06,40,83,142,46,33,66,146,48,43,53,059,44,28,39,326,29,4*72
$GBGSV,2,2,06,42,38,051,43,34,16,099,25,4*7C
$GNGGA,035151.000,2500.8055600,N,12132.4270300,E,2,56,0.50,13.20,M,15.25,M,1,3335*78
$GNRMC,035151.000,A,2500.8055600,N,12132.4270300,E,0.05,258.63,270623,,,D,V*09
$GPHDT,,T*1B
$GNGGA,035151.200,2500.8055600,N,12132.4270300,E,2,56,0.50,13.20,M,15.25,M,1,3335*7A
$GNRMC,035151.200,A,2500.8055600,N,12132.4270300,E,0.05,258.63,270623,,,D,V*0B
$GPHDT,,T*1B
$GNGGA,035151.400,2500.8055600,N,12132.4270300,E,2,56,0.50,13.19,M,15.25,M,1,3335*76
$GNRMC,035151.400,A,2500.8055600,N,12132.4270300,E,0.03,258.63,270623,,,D,V*0B
$GPHDT,,T*1B
$GNGGA,035151.600,2500.8055600,N,12132.4270300,E,2,56,0.50,13.19,M,15.25,M,1,3335*74
$GNRMC,035151.600,A,2500.8055600,N,12132.4270300,E,0.05,258.63,270623,,,D,V*0F
$GPHDT,,T*1B
$GNGGA,035151.800,2500.8055600,N,12132.4270300,E,2,56,0.50,13.19,M,15.25,M,1,3335*7A
$GNRMC,035151.800,A,2500.8055600,N,12132.4270300,E,0.04,258.63,270623,,,D,V*00
$GPHDT,,T*1B
$GNGSA,A,3,19,195,196,17,199,06,194,09,11,04,12,,0.78,0.50,0.60,1*05
$GNGSA,A,3,68,67,82,83,80,,,,,,,,0.78,0.50,0.60,2*08
$GNGSA,A,3,10,12,11,19,04,25,33,,,,,,0.78,0.50,0.60,3*06
$GNGSA,A,3,40,07,10,33,14,08,43,28,42,11,23,34,0.78,0.50,0.60,4*0A
$GPGSV,4,1,16,19,68,026,42,195,67,044,39,196,65,126,40,17,63,082,36,1*64
$GPGSV,4,2,16,199,60,167,36,50,60,167,38,06,50,344,39,194,40,172,21,1*6A
$GPGSV,4,3,16,09,34,103,43,20,31,232,17,11,28,288,21,14,23,176,14,1*60
$GPGSV,4,4,16,04,21,070,41,12,15,316,24,03,07,038,19,05,05,222,,1*66
$GPGSV,2,1,08,195,67,044,44,196,65,126,46,199,60,167,44,06,50,344,44,8*57
$GPGSV,2,2,08,194,40,172,18,09,34,103,45,11,28,288,29,04,21,070,39,8*54
$GLGSV,3,1,09,68,52,145,37,67,46,057,42,82,37,041,40,83,34,344,21,1*7A
$GLGSV,3,2,09,73,22,286,13,80,22,228,19,69,13,185,,74,04,326,,1*73
$GLGSV,3,3,09,66,04,026,12,1*42
$GAGSV,3,1,09,24,50,240,,10,49,337,35,12,47,018,36,11,35,302,23,7*7A
$GAGSV,3,2,09,19,31,084,32,04,30,152,29,25,26,305,25,33,14,066,24,7*77
$GAGSV,3,3,09,09,01,193,,7*49
$GAGSV,2,1,07,10,49,337,40,12,47,018,40,11,35,302,16,19,31,084,38,1*7E
$GAGSV,2,2,07,04,30,152,28,25,26,305,21,33,14,066,22,1*4A
$GBGSV,4,1,15,40,83,142,42,07,80,241,29,10,72,286,38,33,66,146,45,1*7B
$GBGSV,4,2,15,14,60,078,43,08,58,272,25,43,53,059,45,13,49,260,,1*7D
$GBGSV,4,3,15,28,39,326,32,42,38,051,43,11,32,083,40,41,24,197,,1*7F
$GBGSV,4,4,15,23,17,219,18,37,16,271,,34,16,099,30,1*42
$GBGSV,2,1,06,40,83,142,46,33,66,146,48,43,53,059,44,28,39,326,31,4*7B
$GBGSV,2,2,06,42,38,051,43,34,16,099,28,4*71
$GNGGA,035152.000,2500.8055600,N,12132.4270300,E,2,56,0.50,13.19,M,15.25,M,2,3335*72
$GNRMC,035152.000,A,2500.8055600,N,12132.4270300,E,0.05,258.63,270623,,,D,V*0A
$GPHDT,,T*1B
$GNGGA,035152.200,2500.8055700,N,12132.4270200,E,2,56,0.50,13.19,M,15.25,M,2,3335*70
$GNRMC,035152.200,A,2500.8055700,N,12132.4270200,E,0.14,258.63,270623,,,D,V*08
$GPHDT,,T*1B
$GNGGA,035152.400,2500.8055700,N,12132.4270200,E,2,57,0.50,13.18,M,15.25,M,2,3335*76
$GNRMC,035152.400,A,2500.8055700,N,12132.4270200,E,0.11,258.63,270623,,,D,V*0B
$GPHDT,,T*1B
$GNGGA,035152.600,2500.8055600,N,12132.4270200,E,2,56,0.48,13.18,M,15.25,M,2,3335*7D
$GNRMC,035152.600,A,2500.8055600,N,12132.4270200,E,0.16,258.63,270623,,,D,V*0F
$GPHDT,,T*1B
$GNGGA,035152.800,2500.8055700,N,12132.4270100,E,2,58,0.48,13.18,M,15.25,M,2,3335*7F
$GNRMC,035152.800,A,2500.8055700,N,12132.4270100,E,0.16,258.63,270623,,,D,V*03
$GPHDT,,T*1B
$GNGSA,A,3,19,195,196,17,199,06,194,09,20,04,12,11,0.77,0.48,0.60,1*01
$GNGSA,A,3,68,67,82,83,80,,,,,,,,0.77,0.48,0.60,2*0E
$GNGSA,A,3,10,12,11,19,04,25,33,,,,,,0.77,0.48,0.60,3*00
$GNGSA,A,3,40,07,10,33,14,08,43,28,42,11,23,34,0.77,0.48,0.60,4*0C
$GPGSV,4,1,16,19,68,026,42,195,67,044,39,196,65,126,40,17,63,082,36,1*64
$GPGSV,4,2,16,199,60,167,36,50,60,167,38,06,50,344,39,194,40,172,21,1*6A
$GPGSV,4,3,16,09,34,103,43,20,31,232,17,11,28,288,20,14,23,176,14,1*61
$GPGSV,4,4,16,04,21,070,41,12,15,316,20,03,07,038,19,05,05,222,,1*62
$GPGSV,2,1,08,195,67,044,43,196,65,126,46,199,60,167,43,06,50,344,43,8*50
$GPGSV,2,2,08,194,40,172,14,09,34,103,44,11,28,288,29,04,21,070,39,8*59
$GLGSV,2,1,07,68,52,145,37,67,46,057,42,82,37,041,39,83,34,344,21,1*7B
$GLGSV,2,2,07,80,22,228,19,73,22,286,16,66,04,026,13,1*4A
$GAGSV,3,1,09,24,50,240,,10,49,337,35,12,47,018,35,11,35,302,24,7*7E
$GAGSV,3,2,09,19,31,083,33,04,30,152,30,25,26,305,22,33,14,066,24,7*7E
$GAGSV,3,3,09,09,01,193,,7*49
$GAGSV,2,1,07,10,49,337,40,12,47,018,39,11,35,302,16,19,31,083,38,1*77
$GAGSV,2,2,07,04,30,152,28,25,26,305,22,33,14,066,23,1*48
$GBGSV,4,1,15,40,83,142,42,07,80,241,30,10,72,286,38,33,66,146,45,1*73
$GBGSV,4,2,15,14,60,078,43,08,58,272,25,43,53,059,45,13,49,260,,1*7D
$GBGSV,4,3,15,28,39,326,32,42,38,051,43,11,32,083,40,41,24,197,,1*7F
$GBGSV,4,4,15,23,17,219,17,34,16,099,28,37,16,271,,1*44
$GBGSV,2,1,07,40,83,142,46,33,66,146,47,43,53,059,44,28,39,326,30,4*74
$GBGSV,2,2,07,42,38,051,43,23,17,219,17,34,16,099,29,4*4A
$GNGGA,035153.000,2500.8055600,N,12132.4270100,E,2,56,0.48,13.17,M,15.25,M,3,3335*77
$GNRMC,035153.000,A,2500.8055600,N,12132.4270100,E,0.22,258.63,270623,,,D,V*0C
$GPHDT,,T*1B
$GNGGA,035153.200,2500.8055700,N,12132.4270000,E,2,57,0.48,13.16,M,15.25,M,3,3335*75
$GNRMC,035153.200,A,2500.8055700,N,12132.4270000,E,0.13,258.63,270623,,,D,V*0C
$GPHDT,,T*1B
$GNGGA,035153.400,2500.8055700,N,12132.4269900,E,2,56,0.48,13.16,M,15.25,M,3,3335*73
$GNRMC,035153.400,A,2500.8055700,N,12132.4269900,E,0.13,258.63,270623,,,D,V*0B
$GPHDT,,T*1B
$GNGGA,035153.600,2500.8055700,N,12132.4269900,E,2,56,0.48,13.15,M,15.25,M,3,3335*72
$GNRMC,035153.600,A,2500.8055700,N,12132.4269900,E,0.16,258.63,270623,,,D,V*0C
$GPHDT,,T*1B
$GNGGA,035153.800,2500.8055700,N,12132.4269900,E,2,56,0.48,13.14,M,15.25,M,3,3335*7D
$GNRMC,035153.800,A,2500.8055700,N,12132.4269900,E,0.07,258.63,270623,,,D,V*02
