$FW : RTK35X,V1.1X0314AS,Lib20210517,1*54
$Tool : LOCOSYS , GNSS Firebird , v1.0.0.19*39
$---------------------------------------------------*2D
$GNGGA,035116.800,2500.8054500,N,12132.4278900,E,2,56,0.46,13.71,M,15.25,M,2,3335*73
$GNRMC,035116.800,A,2500.8054500,N,12132.4278900,E,0.07,258.63,270623,,,D,V*00
$GPHDT,,T*1B
$GNGSA,A,3,195,19,196,17,199,06,194,09,20,11,14,04,0.76,0.47,0.60,1*09
$GNGSA,A,3,12,,,,,,,,,,,,0.76,0.47,0.60,1*06
$GNGSA,A,3,68,67,82,83,73,80,,,,,,,0.76,0.47,0.60,2*04
$GNGSA,A,3,10,12,11,19,04,25,33,,,,,,0.76,0.47,0.60,3*0E
$GNGSA,A,3,40,07,10,33,14,08,43,28,42,11,23,,0.76,0.47,0.60,4*05
$GPGSV,4,1,15,195,67,044,38,19,67,025,40,196,65,126,38,17,63,081,41,1*64
$GPGSV,4,2,15,50,60,167,37,199,60,167,34,06,50,343,43,194,40,172,22,1*6D
$GPGSV,4,3,15,09,34,103,46,20,30,232,15,11,28,288,24,14,23,176,20,1*67
$GPGSV,4,4,15,04,21,070,38,12,15,316,22,03,07,038,19,1*5F
$GPGSV,2,1,08,195,67,044,42,196,65,126,45,199,60,167,44,06,50,343,45,8*54
$GPGSV,2,2,08,09,34,103,44,11,28,288,27,04,21,070,41,03,07,038,25,8*69
$GLGSV,2,1,07,68,52,146,37,67,46,058,35,82,37,041,36,83,34,344,24,1*7D
$GLGSV,2,2,07,73,22,287,16,80,22,228,21,66,04,026,16,1*45
$GAGSV,2,1,08,24,50,240,,10,49,337,41,12,48,017,37,11,35,302,23,7*78
$GAGSV,2,2,08,19,31,084,30,04,29,152,31,25,26,305,28,33,14,066,19,7*77
$GAGSV,2,1,07,10,49,337,42,12,48,017,35,11,35,302,20,19,31,084,34,1*77
$GAGSV,2,2,07,04,29,152,20,25,26,305,17,33,14,066,28,1*45
$GBGSV,4,1,15,40,83,141,43,07,80,241,29,10,72,286,37,33,66,146,46,1*75
$GBGSV,4,2,15,14,60,078,41,08,58,272,31,43,53,059,39,13,49,260,,1*71
$GBGSV,4,3,15,28,39,326,28,42,39,051,40,11,32,083,31,41,24,197,,1*70
$GBGSV,4,4,15,23,17,219,22,34,16,099,23,37,16,271,,1*49
$GBGSV,2,1,06,40,83,141,46,33,66,146,47,43,53,059,38,28,39,326,24,4*78
$GBGSV,2,2,06,42,39,051,37,34,16,099,31,4*7B
$GNGGA,035117.000,2500.8054600,N,12132.4278900,E,2,56,0.47,13.70,M,15.25,M,3,3335*78
$GNRMC,035117.000,A,2500.8054600,N,12132.4278900,E,0.05,258.63,270623,,,D,V*08
$GPHDT,,T*1B
$GNGGA,035117.200,2500.8054600,N,12132.4278800,E,2,54,0.48,13.70,M,15.25,M,3,3335*76
$GNRMC,035117.200,A,2500.8054600,N,12132.4278800,E,0.05,258.63,270623,,,D,V*0B
$GPHDT,,T*1B
$GNGGA,035117.400,2500.8054600,N,12132.4278800,E,2,56,0.47,13.70,M,15.25,M,3,3335*7D
$GNRMC,035117.400,A,2500.8054600,N,12132.4278800,E,0.05,258.63,270623,,,D,V*0D
$GPHDT,,T*1B
$GNGGA,035117.600,2500.8054700,N,12132.4278800,E,2,56,0.47,13.70,M,15.25,M,1,3335*7C
$GNRMC,035117.600,A,2500.8054700,N,12132.4278800,E,0.04,258.63,270623,,,D,V*0F
$GPHDT,,T*1B
$GNGGA,035117.800,2500.8054700,N,12132.4278800,E,2,55,0.48,13.70,M,15.25,M,0,3335*7F
$GNRMC,035117.800,A,2500.8054700,N,12132.4278800,E,0.03,258.63,270623,,,D,V*06
$GPHDT,,T*1B
$GNGSA,A,3,195,19,196,17,199,06,09,11,14,04,12,194,0.76,0.47,0.60,1*08
$GNGSA,A,3,68,67,82,83,73,80,,,,,,,0.76,0.47,0.60,2*04
$GNGSA,A,3,10,12,11,19,04,25,33,,,,,,0.76,0.47,0.60,3*0E
$GNGSA,A,3,40,07,10,33,14,08,43,42,28,11,23,,0.76,0.47,0.60,4*05
$GPGSV,4,1,16,195,67,044,38,19,67,025,40,196,65,126,38,17,63,081,41,1*67
$GPGSV,4,2,16,199,60,167,34,50,60,167,37,06,50,343,44,194,40,172,21,1*6A
$GPGSV,4,3,16,09,34,103,46,20,30,232,13,11,28,288,24,14,23,176,19,1*68
$GPGSV,4,4,16,04,21,070,38,12,15,316,20,03,07,038,18,05,05,222,,1*6D
$GPGSV,3,1,09,195,67,044,42,196,65,126,45,199,60,167,44,06,50,343,45,8*54
$GPGSV,3,2,09,194,40,172,19,09,34,103,44,11,28,288,27,04,21,070,41,8*55
$GPGSV,3,3,09,03,07,038,26,8*5F
$GLGSV,2,1,07,68,52,146,37,67,46,058,36,82,37,041,36,83,34,344,24,1*7E
$GLGSV,2,2,07,73,22,287,15,80,22,228,19,66,04,026,18,1*43
$GAGSV,2,1,08,24,50,240,,10,49,337,41,12,48,017,37,11,35,302,23,7*78
$GAGSV,2,2,08,19,31,084,30,04,29,152,31,25,26,305,28,33,14,066,23,7*7E
$GAGSV,2,1,07,10,49,337,42,12,48,017,36,11,35,302,20,19,31,084,34,1*74
$GAGSV,2,2,07,04,29,152,23,25,26,305,17,33,14,066,28,1*46
$GBGSV,4,1,15,40,83,141,43,07,80,241,29,10,72,286,38,33,66,146,46,1*7A
$GBGSV,4,2,15,14,60,078,42,08,58,272,31,43,53,059,39,13,49,260,,1*72
$GBGSV,4,3,15,42,39,051,40,28,39,326,30,11,32,083,33,41,24,197,,1*7B
$GBGSV,4,4,15,23,17,219,22,37,16,271,,34,16,099,19,1*40
$GBGSV,2,1,06,40,83,141,46,33,66,146,47,43,53,059,38,28,39,326,25,4*79
$GBGSV,2,2,06,42,39,051,36,34,16,099,31,4*7A
$GNGGA,035118.000,2500.8054700,N,12132.4278800,E,2,55,0.47,13.70,M,15.25,M,1,3335*76
$GNRMC,035118.000,A,2500.8054700,N,12132.4278800,E,0.04,258.63,270623,,,D,V*06
$GPHDT,,T*1B
$GNGGA,035118.200,2500.8054700,N,12132.4278800,E,2,55,0.47,13.70,M,15.25,M,1,3335*74
$GNRMC,035118.200,A,2500.8054700,N,12132.4278800,E,0.04,258.63,270623,,,D,V*04
$GPHDT,,T*1B
$GNGGA,035118.400,2500.8054800,N,12132.4278800,E,2,55,0.47,13.70,M,15.25,M,1,3335*7D
$GNRMC,035118.400,A,2500.8054800,N,12132.4278800,E,0.04,258.63,270623,,,D,V*0D
$GPHDT,,T*1B
$GNGGA,035118.600,2500.8054800,N,12132.4278700,E,2,55,0.47,13.70,M,15.25,M,1,3335*70
$GNRMC,035118.600,A,2500.8054800,N,12132.4278700,E,0.07,258.63,270623,,,D,V*03
$GPHDT,,T*1B
$GNGGA,035118.800,2500.8054700,N,12132.4278600,E,2,55,0.47,13.70,M,15.25,M,1,3335*70
$GNRMC,035118.800,A,2500.8054700,N,12132.4278600,E,0.08,258.63,270623,,,D,V*0C
$GPHDT,,T*1B
$GNGSA,A,3,195,19,196,17,199,06,09,11,14,04,12,194,0.76,0.47,0.60,1*08
$GNGSA,A,3,68,67,82,83,73,80,,,,,,,0.76,0.47,0.60,2*04
$GNGSA,A,3,10,12,11,19,04,25,33,,,,,,0.76,0.47,0.60,3*0E
$GNGSA,A,3,40,07,10,33,14,08,43,42,28,11,23,,0.76,0.47,0.60,4*05
$GPGSV,4,1,16,195,67,044,38,19,67,025,41,196,65,126,38,17,63,081,41,1*66
$GPGSV,4,2,16,199,60,167,34,50,60,167,37,06,50,343,44,194,40,172,19,1*61
$GPGSV,4,3,16,09,34,103,46,20,30,232,16,11,28,288,24,14,23,176,19,1*6D
$GPGSV,4,4,16,04,21,070,39,12,15,316,20,03,07,038,18,05,05,222,,1*6C
$GPGSV,3,1,09,195,67,044,42,196,65,126,45,199,60,167,44,06,50,343,45,8*54
$GPGSV,3,2,09,194,40,172,19,09,34,103,44,11,28,288,28,04,21,070,41,8*5A
$GPGSV,3,3,09,03,07,038,25,8*5C
$GLGSV,2,1,07,68,52,146,37,67,46,058,36,82,37,041,34,83,34,344,24,1*7C
$GLGSV,2,2,07,73,22,287,18,80,22,228,17,66,04,026,19,1*41
$GAGSV,2,1,08,24,50,240,,10,49,337,41,12,47,018,36,11,35,302,23,7*79
$GAGSV,2,2,08,19,31,084,30,04,29,152,31,25,26,305,26,33,14,066,23,7*70
$GAGSV,2,1,07,10,49,337,42,12,47,018,37,11,35,302,21,19,31,084,35,1*75
$GAGSV,2,2,07,04,29,152,25,25,26,305,19,33,14,066,28,1*4E
$GBGSV,4,1,15,40,83,141,43,07,80,241,28,10,72,286,38,33,66,146,46,1*7B
$GBGSV,4,2,15,14,60,078,42,08,58,272,31,43,53,059,39,13,49,260,,1*72
$GBGSV,4,3,15,42,39,051,39,28,39,326,30,11,32,083,33,41,24,197,,1*75
$GBGSV,4,4,15,23,17,219,21,37,16,271,,34,16,099,21,1*48
$GBGSV,2,1,06,40,83,141,46,33,66,146,47,43,53,059,38,28,39,326,27,4*7B
$GBGSV,2,2,06,42,39,051,36,34,16,099,30,4*7B
$GNGGA,035119.000,2500.8054800,N,12132.4278600,E,2,55,0.47,13.70,M,15.25,M,2,3335*75
$GNRMC,035119.000,A,2500.8054800,N,12132.4278600,E,0.07,258.63,270623,,,D,V*05
$GPHDT,,T*1B
$GNGGA,035119.200,2500.8054800,N,12132.4278500,E,2,55,0.47,13.70,M,15.25,M,2,3335*74
$GNRMC,035119.200,A,2500.8054800,N,12132.4278500,E,0.06,258.63,270623,,,D,V*05
$GPHDT,,T*1B
$GNGGA,035119.400,2500.8054800,N,12132.4278500,E,2,55,0.47,13.70,M,15.25,M,2,3335*72
$GNRMC,035119.400,A,2500.8054800,N,12132.4278500,E,0.06,258.63,270623,,,D,V*03
$GPHDT,,T*1B
$GNGGA,035119.600,2500.8054900,N,12132.4278500,E,2,55,0.47,13.70,M,15.25,M,2,3335*71
$GNRMC,035119.600,A,2500.8054900,N,12132.4278500,E,0.07,258.63,270623,,,D,V*01
$GPHDT,,T*1B
$GNGGA,035119.800,2500.8054900,N,12132.4278400,E,2,55,0.47,13.70,M,15.25,M,2,3335*7E
$GNRMC,035119.800,A,2500.8054900,N,12132.4278400,E,0.06,258.63,270623,,,D,V*0F
$GPHDT,,T*1B
$GNGSA,A,3,195,19,196,17,199,06,09,11,14,04,12,194,0.76,0.47,0.60,1*08
$GNGSA,A,3,68,67,82,83,73,80,,,,,,,0.76,0.47,0.60,2*04
$GNGSA,A,3,10,12,11,19,04,25,33,,,,,,0.76,0.47,0.60,3*0E
$GNGSA,A,3,40,07,10,33,14,08,43,42,28,11,23,,0.76,0.47,0.60,4*05
$GPGSV,4,1,16,195,67,044,38,19,67,025,41,196,65,126,38,17,63,081,41,1*66
$GPGSV,4,2,16,199,60,167,35,50,60,167,37,06,50,343,45,194,40,172,19,1*61
$GPGSV,4,3,16,09,34,103,46,20,30,232,15,11,28,288,26,14,23,176,18,1*6D
$GPGSV,4,4,16,04,21,070,39,12,15,316,20,03,07,038,17,05,05,222,,1*63
$GPGSV,3,1,09,195,67,044,42,196,65,126,45,199,60,167,44,06,50,343,45,8*54
$GPGSV,3,2,09,194,40,172,18,09,34,103,44,11,28,288,28,04,21,070,41,8*5B
$GPGSV,3,3,09,03,07,038,25,8*5C
$GLGSV,2,1,07,68,52,146,37,67,46,058,36,82,37,041,35,83,34,344,24,1*7D
$GLGSV,2,2,07,73,22,287,18,80,22,228,17,66,04,026,21,1*4A
$GAGSV,2,1,08,24,50,240,,10,49,337,40,12,47,018,36,11,35,302,21,7*7A
$GAGSV,2,2,08,19,31,084,30,04,29,152,31,25,26,305,27,33,14,066,24,7*76
$GAGSV,2,1,07,10,49,337,42,12,47,018,36,11,35,302,22,19,31,084,35,1*77
$GAGSV,2,2,07,04,29,152,25,25,26,305,23,33,14,066,28,1*47
$GBGSV,4,1,15,40,83,141,43,07,80,241,26,10,72,286,38,33,66,146,45,1*76
$GBGSV,4,2,15,14,60,078,43,08,58,272,31,43,53,059,40,13,49,260,,1*7D
$GBGSV,4,3,15,42,39,051,39,28,39,326,31,11,32,083,33,41,24,197,,1*74
$GBGSV,4,4,15,23,17,219,21,37,16,271,,34,16,099,,1*4B
$GBGSV,2,1,06,40,83,141,46,33,66,146,47,43,53,059,38,28,39,326,25,4*79
$GBGSV,2,2,06,42,39,051,36,34,16,099,30,4*7B
$GNGGA,035120.000,2500.8054900,N,12132.4278300,E,2,55,0.47,13.70,M,15.25,M,3,3335*7A
$GNRMC,035120.000,A,2500.8054900,N,12132.4278300,E,0.07,258.63,270623,,,D,V*0B
$GPHDT,,T*1B
$GNGGA,035120.200,2500.8055000,N,12132.4278300,E,2,55,0.47,13.70,M,15.25,M,3,3335*70
$GNRMC,035120.200,A,2500.8055000,N,12132.4278300,E,0.05,258.63,270623,,,D,V*03
$GPHDT,,T*1B
$GNGGA,035120.400,2500.8055000,N,12132.4278200,E,2,55,0.47,13.69,M,15.25,M,3,3335*7F
$GNRMC,035120.400,A,2500.8055000,N,12132.4278200,E,0.07,258.63,270623,,,D,V*06
$GPHDT,,T*1B
$GNGGA,035120.600,2500.8055100,N,12132.4278100,E,2,56,0.47,13.69,M,15.25,M,3,3335*7C
$GNRMC,035120.600,A,2500.8055100,N,12132.4278100,E,0.05,258.63,270623,,,D,V*04
$GPHDT,,T*1B
$GNGGA,035120.800,2500.8055100,N,12132.4278000,E,2,56,0.47,13.69,M,15.25,M,3,3335*73
$GNRMC,035120.800,A,2500.8055100,N,12132.4278000,E,0.04,258.63,270623,,,D,V*0A
$GPHDT,,T*1B
$GNGSA,A,3,195,19,196,17,199,06,09,20,11,14,04,12,0.76,0.47,0.60,1*36
$GNGSA,A,3,194,,,,,,,,,,,,0.76,0.47,0.60,1*39
$GNGSA,A,3,68,67,82,83,73,80,,,,,,,0.76,0.47,0.60,2*04
$GNGSA,A,3,10,12,11,19,04,25,33,,,,,,0.76,0.47,0.60,3*0E
$GNGSA,A,3,40,07,10,33,14,08,43,42,28,11,23,,0.76,0.47,0.60,4*05
$GPGSV,4,1,16,195,67,044,39,19,67,025,42,196,65,126,39,17,63,081,40,1*64
$GPGSV,4,2,16,199,60,167,34,50,60,167,35,06,50,343,45,194,40,172,19,1*62
$GPGSV,4,3,16,09,34,103,46,20,30,232,17,11,28,288,26,14,23,176,18,1*6F
$GPGSV,4,4,16,04,21,070,39,12,15,316,21,03,07,038,16,05,05,222,,1*63
$GPGSV,3,1,09,195,67,044,42,196,65,126,45,199,60,167,44,06,50,343,45,8*54
$GPGSV,3,2,09,194,40,172,20,09,34,103,43,11,28,288,28,04,21,070,40,8*56
$GPGSV,3,3,09,03,07,038,23,8*5A
$GLGSV,2,1,07,68,52,146,37,67,46,058,37,82,37,041,38,83,34,344,25,1*70
$GLGSV,2,2,07,73,22,287,17,80,22,228,18,66,04,026,21,1*4A
$GAGSV,2,1,08,24,50,240,,10,49,337,40,12,47,018,37,11,35,302,21,7*7B
$GAGSV,2,2,08,19,31,084,28,04,29,152,29,25,26,305,27,33,14,066,21,7*73
$GAGSV,2,1,07,10,49,337,42,12,47,018,38,11,35,302,21,19,31,084,34,1*7B
$GAGSV,2,2,07,04,29,152,28,25,26,305,25,33,14,066,26,1*42
$GBGSV,4,1,14,40,83,141,42,07,80,241,28,10,72,286,38,33,66,146,46,1*7B
$GBGSV,4,2,14,14,60,078,41,08,58,272,30,43,53,059,40,42,39,051,39,1*76
$GBGSV,4,3,14,28,39,326,31,11,32,083,30,41,24,197,,23,17,219,21,1*7A
$GBGSV,4,4,14,34,16,099,,37,16,271,,1*74
$GBGSV,2,1,06,40,83,141,46,33,66,146,47,43,53,059,38,28,39,326,25,4*79
$GBGSV,2,2,06,42,39,051,38,34,16,099,29,4*7D
$GNGGA,035121.000,2500.8055100,N,12132.4278000,E,2,56,0.47,13.69,M,15.25,M,4,3335*7D
$GNRMC,035121.000,A,2500.8055100,N,12132.4278000,E,0.06,258.63,270623,,,D,V*01
$GPHDT,,T*1B
$GNGGA,035121.200,2500.8055100,N,12132.4277800,E,2,56,0.47,13.69,M,15.25,M,4,3335*78
$GNRMC,035121.200,A,2500.8055100,N,12132.4277800,E,0.07,258.63,270623,,,D,V*05
$GPHDT,316.197,T*3E
$GNGGA,035121.400,2500.8055100,N,12132.4277700,E,2,56,0.47,13.69,M,15.25,M,4,3335*71
$GNRMC,035121.400,A,2500.8055100,N,12132.4277700,E,0.06,258.63,270623,,,D,V*0D
$GPHDT,316.623,T*36
$GNGGA,035121.600,2500.8055200,N,12132.4277700,E,2,56,0.47,13.69,M,15.25,M,4,3335*70
$GNRMC,035121.600,A,2500.8055200,N,12132.4277700,E,0.07,258.63,270623,,,D,V*0D
$GPHDT,315.976,T*3A
$GNGGA,035121.800,2500.8055200,N,12132.4277600,E,2,56,0.47,13.69,M,15.25,M,4,3335*7F
$GNRMC,035121.800,A,2500.8055200,N,12132.4277600,E,0.05,258.63,270623,,,D,V*00
$GPHDT,316.092,T*3A
$GNGSA,A,3,195,19,196,17,199,06,09,20,11,14,04,12,0.76,0.47,0.60,1*36
$GNGSA,A,3,194,,,,,,,,,,,,0.76,0.47,0.60,1*39
$GNGSA,A,3,68,67,82,83,73,80,,,,,,,0.76,0.47,0.60,2*04
$GNGSA,A,3,10,12,11,19,04,25,33,,,,,,0.76,0.47,0.60,3*0E
$GNGSA,A,3,40,07,10,33,14,08,43,28,42,11,23,,0.76,0.47,0.60,4*05
$GPGSV,4,1,15,195,67,044,40,19,67,025,42,196,65,126,39,17,63,081,39,1*67
$GPGSV,4,2,15,50,60,167,35,199,60,167,34,06,50,343,45,194,40,172,20,1*6B
$GPGSV,4,3,15,09,34,103,46,20,30,232,18,11,28,288,26,14,23,176,18,1*63
$GPGSV,4,4,15,04,21,070,39,12,15,316,22,03,07,038,14,1*53
$GPGSV,3,1,09,195,67,044,43,196,65,126,45,199,60,167,44,06,50,343,45,8*55
$GPGSV,3,2,09,194,40,172,19,09,34,103,43,11,28,288,28,04,21,070,39,8*52
$GPGSV,3,3,09,03,07,038,22,8*5B
$GLGSV,2,1,07,68,52,146,37,67,46,058,38,82,37,041,39,83,34,344,25,1*7E
$GLGSV,2,2,07,73,22,287,17,80,22,228,18,66,04,026,21,1*4A
$GAGSV,2,1,08,24,50,240,,10,49,337,40,12,47,018,37,11,35,302,22,7*78
$GAGSV,2,2,08,19,31,084,27,04,29,152,29,25,26,305,26,33,14,066,19,7*76
$GAGSV,2,1,07,10,49,337,42,12,47,018,38,11,35,302,21,19,31,084,34,1*7B
$GAGSV,2,2,07,04,29,152,27,25,26,305,24,33,14,066,24,1*4E
$GBGSV,4,1,15,40,83,141,42,07,80,241,28,10,72,286,38,33,66,146,46,1*7A
$GBGSV,4,2,15,14,60,078,41,08,58,272,31,43,53,059,40,13,49,260,,1*7F
$GBGSV,4,3,15,28,39,326,33,42,39,051,39,11,32,083,27,41,24,197,,1*73
$GBGSV,4,4,15,23,17,219,21,34,16,099,,37,16,271,,1*4B
$GBGSV,2,1,06,40,83,141,46,33,66,146,47,43,53,059,38,28,39,326,25,4*79
$GBGSV,2,2,06,42,39,051,39,34,16,099,29,4*7C
$GNGGA,035122.000,2500.8055200,N,12132.4277500,E,2,56,0.47,13.69,M,15.25,M,5,3335*76
$GNRMC,035122.000,A,2500.8055200,N,12132.4277500,E,0.05,258.63,270623,,,D,V*08
$GPHDT,316.290,T*3A
$GNGGA,035122.200,2500.8055200,N,12132.4277600,E,2,57,0.45,13.68,M,15.25,M,5,3335*75
$GNRMC,035122.200,A,2500.8055200,N,12132.4277600,E,0.07,258.63,270623,,,D,V*0B
$GPHDT,316.490,T*3C
$GNGGA,035122.400,2500.8055200,N,12132.4277500,E,2,57,0.45,13.68,M,15.25,M,5,3335*70
$GNRMC,035122.400,A,2500.8055200,N,12132.4277500,E,0.08,258.63,270623,,,D,V*01
$GPHDT,317.035,T*36
$GNGGA,035122.600,2500.8055200,N,12132.4277500,E,2,57,0.45,13.68,M,15.25,M,5,3335*72
$GNRMC,035122.600,A,2500.8055200,N,12132.4277500,E,0.09,258.63,270623,,,D,V*02
