$FW : RTK35X,V1.1X0314AS,Lib20210517,1*54
$Tool : LOCOSYS , GNSS Firebird , v1.0.0.19*39
$---------------------------------------------------*2D
$GPHDT,,T*1B
$GNGGA,035133.600,2500.8055100,N,12132.4274700,E,2,57,0.47,13.52,M,15.25,M,1,3335*7F
$GNRMC,035133.600,A,2500.8055100,N,12132.4274700,E,0.10,258.63,270623,,,D,V*08
$GPHDT,,T*1B
$GNGGA,035133.800,2500.8055100,N,12132.4274600,E,2,57,0.47,13.52,M,15.25,M,1,3335*70
$GNRMC,035133.800,A,2500.8055100,N,12132.4274600,E,0.12,258.63,270623,,,D,V*05
$GPHDT,,T*1B
$GNGSA,A,3,195,19,196,17,199,06,194,09,11,14,04,12,0.76,0.47,0.60,1*08
$GNGSA,A,3,68,67,82,83,73,80,,,,,,,0.76,0.47,0.60,2*04
$GNGSA,A,3,10,12,11,19,04,25,33,,,,,,0.76,0.47,0.60,3*0E
$GNGSA,A,3,40,07,10,33,14,08,43,28,42,11,23,,0.76,0.47,0.60,4*05
$GPGSV,4,1,15,195,67,044,40,19,67,025,42,196,65,126,40,17,63,081,36,1*66
$GPGSV,4,2,15,50,60,167,37,199,60,167,36,06,50,343,38,194,40,172,20,1*61
$GPGSV,4,3,15,09,34,103,44,20,30,232,15,11,28,288,22,14,23,176,17,1*67
$GPGSV,4,4,15,04,21,070,40,12,15,316,27,03,07,038,13,1*5F
$GPGSV,3,1,09,195,67,044,43,196,65,126,45,199,60,167,45,06,50,343,43,8*52
$GPGSV,3,2,09,194,40,172,18,09,34,103,42,11,28,288,26,04,21,070,40,8*52
$GPGSV,3,3,09,03,07,038,17,8*5D
$GLGSV,2,1,07,68,52,145,36,67,46,057,43,82,37,041,35,83,34,344,24,1*72
$GLGSV,2,2,07,73,22,286,21,80,22,228,17,66,04,026,17,1*44
$GAGSV,2,1,08,24,50,240,,10,49,337,36,12,47,018,35,11,35,302,26,7*7F
$GAGSV,2,2,08,19,31,084,34,04,29,152,28,25,26,305,25,33,14,066,25,7*79
$GAGSV,2,1,07,10,49,337,41,12,47,018,33,11,35,302,17,19,31,084,35,1*77
$GAGSV,2,2,07,04,29,152,20,25,26,305,27,33,14,066,24,1*4A
$GBGSV,4,1,15,40,83,141,43,07,80,241,31,10,72,286,39,33,66,146,45,1*71
$GBGSV,4,2,15,14,60,078,44,08,58,272,27,43,53,059,47,13,49,260,,1*7A
$GBGSV,4,3,15,28,39,326,30,42,39,051,45,11,32,083,41,41,24,197,,1*7B
$GBGSV,4,4,15,23,17,219,19,34,16,099,,37,16,271,,1*40
$GBGSV,2,1,06,40,83,141,45,33,66,146,46,43,53,059,42,28,39,326,30,4*72
$GBGSV,2,2,06,42,39,051,44,23,17,219,12,4*73
$GNGGA,035134.000,2500.8055100,N,12132.4274600,E,2,57,0.47,13.52,M,15.25,M,2,3335*7C
$GNRMC,035134.000,A,2500.8055100,N,12132.4274600,E,0.10,258.63,270623,,,D,V*08
$GPHDT,,T*1B
$GNGGA,035134.200,2500.8055100,N,12132.4274600,E,2,57,0.47,13.53,M,15.25,M,2,3335*7F
$GNRMC,035134.200,A,2500.8055100,N,12132.4274600,E,0.08,258.63,270623,,,D,V*03
$GPHDT,,T*1B
$GNGGA,035134.400,2500.8055100,N,12132.4274500,E,2,59,0.46,13.53,M,15.25,M,2,3335*75
$GNRMC,035134.400,A,2500.8055100,N,12132.4274500,E,0.08,258.63,270623,,,D,V*06
$GPHDT,,T*1B
$GNGGA,035134.600,2500.8055100,N,12132.4274400,E,2,59,0.46,13.53,M,15.25,M,2,3335*76
$GNRMC,035134.600,A,2500.8055100,N,12132.4274400,E,0.09,258.63,270623,,,D,V*04
$GPHDT,,T*1B
$GNGGA,035134.800,2500.8055100,N,12132.4274300,E,2,61,0.45,13.53,M,15.25,M,2,3335*77
$GNRMC,035134.800,A,2500.8055100,N,12132.4274300,E,0.06,258.63,270623,,,D,V*02
$GPHDT,,T*1B
$GNGSA,A,3,195,19,196,17,199,06,194,09,20,11,14,04,0.74,0.45,0.59,1*03
$GNGSA,A,3,12,,,,,,,,,,,,0.74,0.45,0.59,1*0C
$GNGSA,A,3,68,67,82,83,73,80,,,,,,,0.74,0.45,0.59,2*0E
$GNGSA,A,3,10,12,11,19,04,25,33,,,,,,0.74,0.45,0.59,3*04
$GNGSA,A,3,40,07,10,33,14,08,43,28,42,11,23,34,0.74,0.45,0.59,4*08
$GPGSV,4,1,15,195,67,044,40,19,67,025,43,196,65,126,40,17,63,081,36,1*67
$GPGSV,4,2,15,50,60,167,37,199,60,167,35,06,50,343,40,194,40,172,20,1*6D
$GPGSV,4,3,15,09,34,103,44,20,30,232,16,11,28,288,21,14,23,176,18,1*68
$GPGSV,4,4,15,04,21,070,40,12,15,316,27,03,07,038,13,1*5F
$GPGSV,3,1,10,195,67,044,43,196,65,126,45,199,60,167,45,06,50,343,43,8*5A
$GPGSV,3,2,10,194,40,172,18,09,34,103,42,11,28,288,27,14,23,176,16,8*5C
$GPGSV,3,3,10,04,21,070,40,03,07,038,17,8*61
$GLGSV,2,1,07,68,52,145,36,67,46,057,43,82,37,041,33,83,34,344,24,1*74
$GLGSV,2,2,07,73,22,286,21,80,22,228,17,66,04,026,17,1*44
$GAGSV,2,1,08,24,50,240,,10,49,337,36,12,47,018,35,11,35,302,26,7*7F
$GAGSV,2,2,08,19,31,084,34,04,29,152,28,25,26,305,25,33,14,066,29,7*75
$GAGSV,2,1,07,10,49,337,41,12,47,018,34,11,35,302,17,19,31,084,35,1*70
$GAGSV,2,2,07,04,29,152,20,25,26,305,27,33,14,066,23,1*4D
$GBGSV,4,1,15,40,83,141,43,07,80,241,32,10,72,286,39,33,66,146,45,1*72
$GBGSV,4,2,15,14,60,078,43,08,58,272,28,43,53,059,47,13,49,260,,1*72
$GBGSV,4,3,15,28,39,326,30,42,39,051,45,11,32,083,41,41,24,197,,1*7B
$GBGSV,4,4,15,23,17,219,19,34,16,099,31,37,16,271,,1*42
$GBGSV,2,1,07,40,83,141,45,33,66,146,46,43,53,059,42,28,39,326,29,4*7B
$GBGSV,2,2,07,42,39,051,44,23,17,219,12,34,16,099,25,4*45
$GNGGA,035135.000,2500.8055100,N,12132.4274300,E,2,61,0.45,13.54,M,15.25,M,3,3335*78
$GNRMC,035135.000,A,2500.8055100,N,12132.4274300,E,0.06,258.63,270623,,,D,V*0B
$GPHDT,,T*1B
$GNGGA,035135.200,2500.8055100,N,12132.4274200,E,2,61,0.45,13.54,M,15.25,M,3,3335*7B
$GNRMC,035135.200,A,2500.8055100,N,12132.4274200,E,0.06,258.63,270623,,,D,V*08
$GPHDT,,T*1B
$GNGGA,035135.400,2500.8055100,N,12132.4274100,E,2,61,0.45,13.54,M,15.25,M,3,3335*7E
$GNRMC,035135.400,A,2500.8055100,N,12132.4274100,E,0.04,258.63,270623,,,D,V*0F
$GPHDT,,T*1B
$GNGGA,035135.600,2500.8055100,N,12132.4274100,E,2,61,0.45,13.54,M,15.25,M,3,3335*7C
$GNRMC,035135.600,A,2500.8055100,N,12132.4274100,E,0.04,258.63,270623,,,D,V*0D
$GPHDT,,T*1B
$GNGGA,035135.800,2500.8055100,N,12132.4274100,E,2,61,0.45,13.54,M,15.25,M,3,3335*72
$GNRMC,035135.800,A,2500.8055100,N,12132.4274100,E,0.04,258.63,270623,,,D,V*03
$GPHDT,,T*1B
$GNGSA,A,3,195,19,196,17,199,06,194,09,20,11,14,04,0.74,0.45,0.59,1*03
$GNGSA,A,3,12,,,,,,,,,,,,0.74,0.45,0.59,1*0C
$GNGSA,A,3,68,67,82,83,73,80,,,,,,,0.74,0.45,0.59,2*0E
$GNGSA,A,3,10,12,11,19,04,25,33,,,,,,0.74,0.45,0.59,3*04
$GNGSA,A,3,40,07,10,33,14,08,43,28,42,11,23,34,0.74,0.45,0.59,4*08
$GPGSV,4,1,15,195,67,044,39,19,67,025,43,196,65,126,40,17,63,081,36,1*69
$GPGSV,4,2,15,50,60,167,37,199,60,167,35,06,50,343,41,194,40,172,20,1*6C
$GPGSV,4,3,15,09,34,103,44,20,30,232,15,11,28,288,22,14,23,176,19,1*69
$GPGSV,4,4,15,04,21,070,40,12,15,316,28,03,07,038,15,1*56
$GPGSV,3,1,10,195,67,044,43,196,65,126,45,199,60,167,45,06,50,343,43,8*5A
$GPGSV,3,2,10,194,40,172,18,09,34,103,42,11,28,288,26,14,23,176,14,8*5F
$GPGSV,3,3,10,04,21,070,40,03,07,038,17,8*61
$GLGSV,2,1,07,68,52,145,37,67,46,057,43,82,37,041,29,83,34,344,25,1*7F
$GLGSV,2,2,07,73,22,286,21,80,22,228,16,66,04,026,17,1*45
$GAGSV,2,1,08,24,50,240,,10,49,337,37,12,47,018,35,11,35,302,26,7*7E
$GAGSV,2,2,08,19,31,084,34,04,29,152,28,25,26,305,25,33,14,066,29,7*75
$GAGSV,2,1,07,10,49,337,41,12,47,018,34,11,35,302,17,19,31,084,35,1*70
$GAGSV,2,2,07,04,29,152,20,25,26,305,25,33,14,066,25,1*49
$GBGSV,4,1,15,40,83,141,43,07,80,241,30,10,72,286,39,33,66,146,45,1*70
$GBGSV,4,2,15,14,60,078,43,08,58,272,27,43,53,059,48,13,49,260,,1*72
$GBGSV,4,3,15,28,39,326,28,42,39,051,46,11,32,083,41,41,24,197,,1*71
$GBGSV,4,4,15,23,17,219,19,34,16,099,31,37,16,271,,1*42
$GBGSV,2,1,07,40,83,141,45,33,66,146,46,43,53,059,43,28,39,326,29,4*7A
$GBGSV,2,2,07,42,39,051,44,23,17,219,11,34,16,099,26,4*45
$GNGGA,035136.000,2500.8055100,N,12132.4274000,E,2,61,0.45,13.55,M,15.25,M,4,3335*7E
$GNRMC,035136.000,A,2500.8055100,N,12132.4274000,E,0.05,258.63,270623,,,D,V*08
$GPHDT,,T*1B
$GNGGA,035136.200,2500.8055100,N,12132.4274000,E,2,60,0.45,13.55,M,15.25,M,1,3335*78
$GNRMC,035136.200,A,2500.8055100,N,12132.4274000,E,0.07,258.63,270623,,,D,V*08
$GPHDT,,T*1B
$GNGGA,035136.400,2500.8055100,N,12132.4273800,E,2,60,0.45,13.55,M,15.25,M,1,3335*71
$GNRMC,035136.400,A,2500.8055100,N,12132.4273800,E,0.07,258.63,270623,,,D,V*01
$GPHDT,,T*1B
$GNGGA,035136.600,2500.8055100,N,12132.4273700,E,2,59,0.47,13.56,M,15.25,M,1,3335*77
$GNRMC,035136.600,A,2500.8055100,N,12132.4273700,E,0.08,258.63,270623,,,D,V*03
$GPHDT,,T*1B
$GNGGA,035136.800,2500.8055100,N,12132.4273800,E,2,59,0.47,13.55,M,15.25,M,1,3335*75
$GNRMC,035136.800,A,2500.8055100,N,12132.4273800,E,0.08,258.63,270623,,,D,V*02
$GPHDT,,T*1B
$GNGSA,A,3,195,19,196,17,199,06,194,09,20,11,14,04,0.75,0.47,0.59,1*00
$GNGSA,A,3,12,,,,,,,,,,,,0.75,0.47,0.59,1*0F
$GNGSA,A,3,68,67,82,83,73,,,,,,,,0.75,0.47,0.59,2*05
$GNGSA,A,3,10,12,11,19,04,25,33,,,,,,0.75,0.47,0.59,3*07
$GNGSA,A,3,40,07,10,33,14,08,43,28,42,11,23,34,0.75,0.47,0.59,4*0B
$GPGSV,4,1,16,195,67,044,39,19,67,025,43,196,65,126,40,17,63,081,36,1*6A
$GPGSV,4,2,16,199,60,167,34,50,60,167,36,06,50,343,41,194,40,172,20,1*6F
$GPGSV,4,3,16,09,34,103,44,20,30,232,13,11,28,288,20,14,23,176,18,1*6F
$GPGSV,4,4,16,04,21,070,40,12,15,316,28,03,07,038,14,05,05,222,,1*66
$GPGSV,3,1,09,195,67,044,43,196,65,126,45,199,60,167,45,06,50,343,43,8*52
$GPGSV,3,2,09,194,40,172,19,09,34,103,42,11,28,288,26,04,21,070,40,8*53
$GPGSV,3,3,09,03,07,038,17,8*5D
$GLGSV,2,1,07,68,52,145,37,67,46,057,43,82,37,041,31,83,34,344,26,1*75
$GLGSV,2,2,07,73,22,286,23,80,22,228,14,66,04,026,17,1*45
$GAGSV,2,1,08,24,50,240,,10,49,337,37,12,47,018,35,11,35,302,26,7*7E
$GAGSV,2,2,08,19,31,084,34,04,29,152,28,25,26,305,25,33,14,066,25,7*79
$GAGSV,2,1,07,10,49,337,41,12,47,018,35,11,35,302,17,19,31,084,36,1*72
$GAGSV,2,2,07,04,29,152,20,25,26,305,29,33,14,066,23,1*43
$GBGSV,4,1,15,40,83,142,44,07,80,241,30,10,72,286,39,33,66,146,45,1*74
$GBGSV,4,2,15,14,60,078,43,08,58,272,27,43,53,059,48,13,49,260,,1*72
$GBGSV,4,3,15,28,39,326,27,42,38,051,46,11,32,083,41,41,24,197,,1*7F
$GBGSV,4,4,15,23,17,219,18,37,16,271,,34,16,099,31,1*43
$GBGSV,2,1,07,40,83,142,45,33,66,146,47,43,53,059,43,28,39,326,29,4*78
$GBGSV,2,2,07,42,38,051,44,23,17,219,12,34,16,099,29,4*48
$GNGGA,035137.000,2500.8055100,N,12132.4273700,E,2,59,0.47,13.55,M,15.25,M,2,3335*70
$GNRMC,035137.000,A,2500.8055100,N,12132.4273700,E,0.07,258.63,270623,,,D,V*0B
$GPHDT,,T*1B
$GNGGA,035137.200,2500.8055100,N,12132.4273700,E,2,59,0.47,13.55,M,15.25,M,2,3335*72
$GNRMC,035137.200,A,2500.8055100,N,12132.4273700,E,0.09,258.63,270623,,,D,V*07
$GPHDT,,T*1B
$GNGGA,035137.400,2500.8055100,N,12132.4273700,E,2,58,0.48,13.54,M,15.25,M,2,3335*7B
$GNRMC,035137.400,A,2500.8055100,N,12132.4273700,E,0.10,258.63,270623,,,D,V*09
$GPHDT,,T*1B
$GNGGA,035137.600,2500.8055100,N,12132.4273600,E,2,58,0.48,13.54,M,15.25,M,2,3335*78
$GNRMC,035137.600,A,2500.8055100,N,12132.4273600,E,0.03,258.63,270623,,,D,V*08
$GPHDT,,T*1B
$GNGGA,035137.800,2500.8055100,N,12132.4273600,E,2,58,0.48,13.53,M,15.25,M,2,3335*71
$GNRMC,035137.800,A,2500.8055100,N,12132.4273600,E,0.04,258.63,270623,,,D,V*01
$GPHDT,,T*1B
$GNGSA,A,3,195,19,196,17,199,06,194,09,11,14,04,12,0.76,0.48,0.59,1*0D
$GNGSA,A,3,68,67,82,83,73,,,,,,,,0.76,0.48,0.59,2*09
$GNGSA,A,3,10,12,11,19,04,25,33,,,,,,0.76,0.48,0.59,3*0B
$GNGSA,A,3,40,07,10,33,14,08,43,28,42,11,23,34,0.76,0.48,0.59,4*07
$GPGSV,4,1,16,195,67,044,39,19,67,025,43,196,65,126,40,17,63,081,35,1*69
$GPGSV,4,2,16,50,60,167,36,199,60,167,34,06,50,343,41,194,40,172,21,1*6E
$GPGSV,4,3,16,09,34,103,44,20,30,232,15,11,28,288,20,14,23,176,18,1*69
$GPGSV,4,4,16,04,21,070,40,12,15,316,28,03,07,038,16,05,05,222,,1*64
$GPGSV,3,1,09,195,67,044,43,196,65,126,45,199,60,167,45,06,50,343,43,8*52
$GPGSV,3,2,09,194,40,172,18,09,34,103,42,11,28,288,26,04,21,070,40,8*52
$GPGSV,3,3,09,03,07,038,17,8*5D
$GLGSV,3,1,09,68,52,145,37,67,46,057,44,82,37,041,32,83,34,344,26,1*7E
$GLGSV,3,2,09,73,22,286,24,80,22,228,13,69,13,185,,74,04,326,,1*7D
$GLGSV,3,3,09,66,04,026,16,1*46
$GAGSV,2,1,08,24,50,240,,10,49,337,37,12,47,018,35,11,35,302,27,7*7F
$GAGSV,2,2,08,19,31,084,34,04,29,152,28,25,26,305,25,33,14,066,25,7*79
$GAGSV,2,1,07,10,49,337,41,12,47,018,36,11,35,302,17,19,31,084,36,1*71
$GAGSV,2,2,07,04,29,152,18,25,26,305,27,33,14,066,20,1*45
$GBGSV,4,1,16,40,83,142,44,07,80,241,29,10,72,286,39,33,66,146,45,1*7F
$GBGSV,4,2,16,14,60,078,43,08,58,272,27,43,53,059,48,13,49,260,,1*71
$GBGSV,4,3,16,28,39,326,27,42,38,051,46,11,32,083,41,23,17,219,18,1*74
$GBGSV,4,4,16,34,16,099,31,37,16,271,,27,01,299,,06,01,188,,1*74
$GBGSV,2,1,07,40,83,142,45,33,66,146,47,43,53,059,43,28,39,326,29,4*78
$GBGSV,2,2,07,42,38,051,44,23,17,219,10,34,16,099,27,4*44
$GNGGA,035138.000,2500.8055100,N,12132.4273600,E,2,58,0.48,13.53,M,15.25,M,3,3335*77
$GNRMC,035138.000,A,2500.8055100,N,12132.4273600,E,0.04,258.63,270623,,,D,V*06
$GPHDT,,T*1B
$GNGGA,035138.200,2500.8055100,N,12132.4273600,E,2,58,0.48,13.53,M,15.25,M,3,3335*75
$GNRMC,035138.200,A,2500.8055100,N,12132.4273600,E,0.06,258.63,270623,,,D,V*06
$GPHDT,,T*1B
$GNGGA,035138.400,2500.8055100,N,12132.4273500,E,2,57,0.48,13.52,M,15.25,M,3,3335*7E
$GNRMC,035138.400,A,2500.8055100,N,12132.4273500,E,0.03,258.63,270623,,,D,V*06
$GPHDT,,T*1B
$GNGGA,035138.600,2500.8055100,N,12132.4273500,E,2,57,0.48,13.52,M,15.25,M,3,3335*7C
$GNRMC,035138.600,A,2500.8055100,N,12132.4273500,E,0.08,258.63,270623,,,D,V*0F
$GPHDT,,T*1B
$GNGGA,035138.800,2500.8055100,N,12132.4273500,E,2,57,0.48,13.52,M,15.25,M,3,3335*72
$GNRMC,035138.800,A,2500.8055100,N,12132.4273500,E,0.06,258.63,270623,,,D,V*0F
$GPHDT,,T*1B
$GNGSA,A,3,195,19,196,17,199,06,194,09,11,14,04,12,0.76,0.48,0.59,1*0D
$GNGSA,A,3,68,67,82,83,73,,,,,,,,0.76,0.48,0.59,2*09
$GNGSA,A,3,10,12,11,19,04,25,33,,,,,,0.76,0.48,0.59,3*0B
$GNGSA,A,3,40,07,10,33,14,08,43,28,42,11,23,34,0.76,0.48,0.59,4*07
$GPGSV,4,1,16,195,67,044,38,19,67,025,43,196,65,126,40,17,63,081,38,1*65
$GPGSV,4,2,16,199,60,167,35,50,60,167,36,06,50,343,39,194,40,172,21,1*60
$GPGSV,4,3,16,09,34,103,44,20,30,232,14,11,28,288,22,14,23,176,18,1*6A
$GPGSV,4,4,16,04,21,070,41,12,15,316,28,03,07,038,16,05,05,222,,1*65
$GPGSV,3,1,09,195,67,044,43,196,65,126,45,199,60,167,45,06,50,343,43,8*52
$GPGSV,3,2,09,194,40,172,18,09,34,103,42,11,28,288,25,04,21,070,42,8*53
$GPGSV,3,3,09,03,07,038,17,8*5D
$GLGSV,3,1,09,68,52,145,37,67,46,057,41,82,37,041,39,83,34,344,26,1*70
$GLGSV,3,2,09,80,22,228,14,73,22,286,23,69,13,185,,74,04,326,,1*7D
$GLGSV,3,3,09,66,04,026,14,1*44
$GAGSV,2,1,08,24,50,240,,10,49,337,33,12,47,018,25,11,35,302,26,7*7B
$GAGSV,2,2,08,19,31,084,33,04,29,152,28,25,26,305,22,33,14,066,26,7*7A
$GAGSV,2,1,07,10,49,337,41,12,47,018,32,11,35,302,16,19,31,084,35,1*77
$GAGSV,2,2,07,04,29,152,18,25,26,305,25,33,14,066,19,1*4D
$GBGSV,4,1,15,40,83,142,44,07,80,241,30,10,72,286,39,33,66,146,45,1*74
$GBGSV,4,2,15,14,60,078,45,08,58,272,26,43,53,059,46,13,49,260,,1*7B
$GBGSV,4,3,15,28,39,326,26,42,38,051,43,11,32,083,40,41,24,197,,1*7A
$GBGSV,4,4,15,23,17,219,18,34,16,099,31,37,16,271,,1*43
$GBGSV,2,1,06,40,83,142,45,33,66,146,47,43,53,059,39,28,39,326,30,4*7C
$GBGSV,2,2,06,42,38,051,35,34,16,099,28,4*70
$GNGGA,035139.000,2500.8055100,N,12132.4273600,E,2,57,0.48,13.52,M,15.25,M,4,3335*7F
$GNRMC,035139.000,A,2500.8055100,N,12132.4273600,E,0.02,258.63,270623,,,D,V*01
$GPHDT,,T*1B
$GNGGA,035139.200,2500.8055100,N,12132.4273600,E,2,57,0.48,13.52,M,15.25,M,2,3335*7B
$GNRMC,035139.200,A,2500.8055100,N,12132.4273600,E,0.01,258.63,270623,,,D,V*00
