$FW : RTK35X,V1.1X0314AS,Lib20210517,1*54
$Tool : LOCOSYS , GNSS Firebird , v1.0.0.19*39
$---------------------------------------------------*2D
$GPHDT,91.180,T*04
$GNGGA,035232.400,2500.8055500,N,12132.4261700,E,2,54,0.48,12.38,M,15.25,M,7,3335*78
$GNRMC,035232.400,A,2500.8055500,N,12132.4261700,E,0.01,258.63,270623,,,D,V*08
$GPHDT,90.519,T*01
$GNGGA,035232.600,2500.8055500,N,12132.4261700,E,2,53,0.49,12.38,M,15.25,M,7,3335*7C
$GNRMC,035232.600,A,2500.8055500,N,12132.4261700,E,0.01,258.63,270623,,,D,V*0A
$GPHDT,90.484,T*04
$GNGGA,035232.800,2500.8055500,N,12132.4261700,E,2,55,0.46,12.38,M,15.25,M,7,3335*7B
$GNRMC,035232.800,A,2500.8055500,N,12132.4261700,E,0.02,258.63,270623,,,D,V*07
$GPHDT,90.031,T*0E
$GNGSA,A,3,19,195,196,17,199,06,194,09,11,14,04,12,0.85,0.46,0.72,1*06
$GNGSA,A,3,68,67,82,83,73,80,,,,,,,0.85,0.46,0.72,2*0A
$GNGSA,A,3,10,12,11,19,04,25,33,,,,,,0.85,0.46,0.72,3*00
$GNGSA,A,3,40,07,10,33,14,08,43,28,42,11,34,23,0.85,0.46,0.72,4*0C
$GPGSV,4,1,16,19,68,027,42,195,67,044,41,196,65,126,40,17,63,083,41,1*6B
$GPGSV,4,2,16,199,60,167,34,50,60,167,36,06,50,344,46,194,40,172,24,1*6B
$GPGSV,4,3,16,09,34,102,45,20,31,233,16,11,29,288,30,14,23,176,15,1*67
$GPGSV,4,4,16,04,21,070,40,12,15,316,21,03,07,038,19,05,05,222,,1*62
$GPGSV,2,1,08,195,67,044,45,196,65,126,43,199,60,167,44,06,50,344,47,8*50
$GPGSV,2,2,08,09,34,102,45,11,29,288,34,04,21,070,38,03,07,038,16,8*64
$GLGSV,2,1,07,68,53,145,34,67,45,056,42,82,37,042,40,83,34,345,27,1*71
$GLGSV,2,2,07,73,22,286,23,80,22,227,22,66,03,026,,1*4E
$GAGSV,2,1,08,24,50,239,,10,49,338,38,12,47,018,36,11,35,303,22,7*76
$GAGSV,2,2,08,19,31,083,30,04,30,152,27,25,26,305,19,33,14,066,27,7*70
$GAGSV,2,1,06,10,49,338,43,12,47,018,42,19,31,083,36,04,30,152,28,1*73
$GAGSV,2,2,06,25,26,305,21,33,14,066,28,1*7A
$GBGSV,4,1,13,40,83,143,44,07,80,241,27,10,72,286,38,33,66,145,43,1*71
$GBGSV,4,2,13,14,60,077,44,08,58,273,23,43,53,059,46,28,39,327,23,1*7B
$GBGSV,4,3,13,42,38,051,44,11,32,083,42,23,17,219,15,34,16,099,25,1*78
$GBGSV,4,4,13,37,16,270,,1*42
$GBGSV,2,1,06,40,83,143,46,33,66,145,47,43,53,059,44,28,39,327,30,4*76
$GBGSV,2,2,06,42,38,051,44,23,17,219,14,4*74
$GNGGA,035233.000,2500.8055500,N,12132.4261700,E,2,55,0.46,12.38,M,15.25,M,8,3335*7D
$GNRMC,035233.000,A,2500.8055500,N,12132.4261700,E,0.03,258.63,270623,,,D,V*0F
$GPHDT,90.059,T*00
$GNGGA,035233.200,2500.8055500,N,12132.4261700,E,2,54,0.47,12.38,M,15.25,M,8,3335*7F
$GNRMC,035233.200,A,2500.8055500,N,12132.4261700,E,0.02,258.63,270623,,,D,V*0C
$GPHDT,90.452,T*0F
$GNGGA,035233.400,2500.8055500,N,12132.4261700,E,2,55,0.46,12.38,M,15.25,M,8,3335*79
$GNRMC,035233.400,A,2500.8055500,N,12132.4261700,E,0.01,258.63,270623,,,D,V*09
$GPHDT,90.043,T*0B
$GNGGA,035233.600,2500.8055500,N,12132.4261700,E,2,55,0.46,12.38,M,15.25,M,8,3335*7B
$GNRMC,035233.600,A,2500.8055500,N,12132.4261700,E,0.02,258.63,270623,,,D,V*08
$GPHDT,90.374,T*0C
$GNGGA,035233.800,2500.8055500,N,12132.4261700,E,2,55,0.46,12.38,M,15.25,M,8,3335*75
$GNRMC,035233.800,A,2500.8055500,N,12132.4261700,E,0.10,258.63,270623,,,D,V*05
$GPHDT,89.840,T*08
$GNGSA,A,3,19,195,196,17,199,06,194,09,11,14,04,12,0.85,0.46,0.72,1*06
$GNGSA,A,3,68,67,82,83,73,80,,,,,,,0.85,0.46,0.72,2*0A
$GNGSA,A,3,10,12,11,19,04,25,33,,,,,,0.85,0.46,0.72,3*00
$GNGSA,A,3,40,07,10,33,14,08,43,28,42,11,34,23,0.85,0.46,0.72,4*0C
$GPGSV,4,1,16,19,68,027,42,195,67,044,41,196,65,126,40,17,63,083,42,1*68
$GPGSV,4,2,16,199,60,167,34,50,60,167,36,06,50,344,46,194,40,172,23,1*6C
$GPGSV,4,3,16,09,34,102,45,20,31,233,16,11,29,288,30,14,23,176,16,1*64
$GPGSV,4,4,16,04,21,070,40,12,15,316,22,03,07,038,20,05,05,222,,1*6B
$GPGSV,2,1,08,195,67,044,45,196,65,126,43,199,60,167,43,06,50,344,47,8*57
$GPGSV,2,2,08,09,34,102,45,11,29,288,34,04,21,070,38,03,07,038,13,8*61
$GLGSV,2,1,07,68,53,145,35,67,45,056,42,82,37,042,40,83,34,345,26,1*71
$GLGSV,2,2,07,73,22,286,23,80,22,227,21,66,03,026,,1*4D
$GAGSV,2,1,08,24,50,239,,10,49,338,38,12,47,018,37,11,35,303,23,7*76
$GAGSV,2,2,08,19,31,083,30,04,30,152,27,25,26,305,19,33,14,066,26,7*71
$GAGSV,2,1,06,10,49,338,43,12,47,018,42,19,31,083,35,04,30,152,27,1*7F
$GAGSV,2,2,06,25,26,305,22,33,14,066,27,1*76
$GBGSV,4,1,14,40,83,143,44,07,80,241,28,10,72,286,38,33,66,145,43,1*79
$GBGSV,4,2,14,14,60,077,44,08,58,273,23,43,53,059,46,28,39,327,23,1*7C
$GBGSV,4,3,14,42,38,051,44,11,32,083,42,41,24,197,,23,17,219,17,1*76
$GBGSV,4,4,14,34,16,099,24,37,16,270,,1*73
$GBGSV,2,1,06,40,83,143,45,33,66,145,47,43,53,059,43,28,39,327,30,4*72
$GBGSV,2,2,06,42,38,051,44,23,17,219,14,4*74
$GNGGA,035234.000,2500.8055500,N,12132.4261700,E,2,55,0.46,12.37,M,15.25,M,9,3335*74
$GNRMC,035234.000,A,2500.8055500,N,12132.4261700,E,0.03,258.63,270623,,,D,V*08
$GPHDT,90.438,T*03
$GNGGA,035234.200,2500.8055500,N,12132.4261700,E,2,55,0.46,12.37,M,15.25,M,9,3335*76
$GNRMC,035234.200,A,2500.8055500,N,12132.4261700,E,0.02,258.63,270623,,,D,V*0B
$GPHDT,90.941,T*00
$GNGGA,035234.400,2500.8055500,N,12132.4261700,E,2,55,0.46,12.37,M,15.25,M,9,3335*70
$GNRMC,035234.400,A,2500.8055500,N,12132.4261700,E,0.01,258.63,270623,,,D,V*0E
$GPHDT,90.225,T*09
$GNGGA,035234.600,2500.8055500,N,12132.4261700,E,2,56,0.46,12.37,M,15.25,M,9,3335*71
$GNRMC,035234.600,A,2500.8055500,N,12132.4261700,E,0.01,258.63,270623,,,D,V*0C
$GPHDT,90.219,T*06
$GNGGA,035234.800,2500.8055500,N,12132.4261700,E,2,56,0.46,12.37,M,15.25,M,9,3335*7F
$GNRMC,035234.800,A,2500.8055500,N,12132.4261700,E,0.06,258.63,270623,,,D,V*05
$GPHDT,90.047,T*0F
$GNGSA,A,3,19,195,196,17,199,06,194,09,11,14,04,12,0.85,0.46,0.72,1*06
$GNGSA,A,3,68,67,82,83,73,80,,,,,,,0.85,0.46,0.72,2*0A
$GNGSA,A,3,10,12,11,19,04,25,33,,,,,,0.85,0.46,0.72,3*00
$GNGSA,A,3,40,07,10,33,14,08,43,28,42,11,34,23,0.85,0.46,0.72,4*0C
$GPGSV,4,1,16,19,68,027,42,195,67,044,41,196,65,126,40,17,63,083,42,1*68
$GPGSV,4,2,16,199,60,167,34,50,60,167,37,06,50,344,46,194,40,172,23,1*6D
$GPGSV,4,3,16,09,34,102,45,20,31,233,16,11,29,288,30,14,23,176,17,1*65
$GPGSV,4,4,16,04,21,070,40,12,15,316,21,03,07,038,20,05,05,222,,1*68
$GPGSV,3,1,09,195,67,044,45,196,65,126,43,199,60,167,42,06,50,344,47,8*56
$GPGSV,3,2,09,09,34,102,44,11,29,288,33,14,23,176,18,04,21,070,38,8*67
$GPGSV,3,3,09,03,07,038,15,8*5F
$GLGSV,2,1,07,68,53,145,35,67,45,056,43,82,37,042,40,83,34,345,27,1*71
$GLGSV,2,2,07,73,22,286,24,80,22,227,21,66,03,026,,1*4A
$GAGSV,2,1,08,24,50,239,,10,49,338,39,12,47,018,37,11,35,303,23,7*77
$GAGSV,2,2,08,19,31,083,32,04,30,152,26,25,26,305,19,33,14,066,26,7*72
$GAGSV,2,1,06,10,49,338,43,12,47,018,42,19,31,083,35,04,30,152,27,1*7F
$GAGSV,2,2,06,25,26,305,23,33,14,066,25,1*75
$GBGSV,4,1,15,40,83,143,44,07,80,240,26,10,72,285,38,33,66,145,43,1*74
$GBGSV,4,2,15,14,60,077,44,08,58,273,24,43,53,059,46,13,49,260,,1*76
$GBGSV,4,3,15,28,39,327,24,42,38,051,44,11,32,083,42,41,24,197,,1*7C
$GBGSV,4,4,15,23,17,219,16,37,16,270,,34,16,099,27,1*4B
$GBGSV,2,1,07,40,83,143,45,33,66,145,46,43,53,059,43,28,39,327,32,4*70
$GBGSV,2,2,07,42,38,051,45,23,17,219,14,34,16,099,26,4*40
$GNGGA,035235.000,2500.8055500,N,12132.4261700,E,2,57,0.46,12.37,M,15.25,M,10,3335*4F
$GNRMC,035235.000,A,2500.8055500,N,12132.4261700,E,0.04,258.63,270623,,,D,V*0E
$GPHDT,90.278,T*01
$GNGGA,035235.200,2500.8055500,N,12132.4261700,E,2,58,0.46,12.37,M,15.25,M,10,3335*42
$GNRMC,035235.200,A,2500.8055500,N,12132.4261700,E,0.06,258.63,270623,,,D,V*0E
$GPHDT,90.201,T*0F
$GNGGA,035235.400,2500.8055500,N,12132.4261700,E,2,57,0.46,12.37,M,15.25,M,10,3335*4B
$GNRMC,035235.400,A,2500.8055500,N,12132.4261700,E,0.08,258.63,270623,,,D,V*06
$GPHDT,90.057,T*0E
$GNGGA,035235.600,2500.8055500,N,12132.4261700,E,2,57,0.46,12.37,M,15.25,M,10,3335*49
$GNRMC,035235.600,A,2500.8055500,N,12132.4261700,E,0.05,258.63,270623,,,D,V*09
$GPHDT,90.089,T*0D
$GNGGA,035235.800,2500.8055500,N,12132.4261700,E,2,57,0.46,12.37,M,15.25,M,10,3335*47
$GNRMC,035235.800,A,2500.8055500,N,12132.4261700,E,0.05,258.63,270623,,,D,V*07
$GPHDT,90.104,T*09
$GNGSA,A,3,19,195,196,17,199,06,194,09,11,04,12,14,0.85,0.46,0.72,1*06
$GNGSA,A,3,68,67,82,83,73,80,,,,,,,0.85,0.46,0.72,2*0A
$GNGSA,A,3,10,12,11,19,04,25,33,,,,,,0.85,0.46,0.72,3*00
$GNGSA,A,3,40,07,10,33,14,08,43,28,42,11,23,34,0.85,0.46,0.72,4*0C
$GPGSV,4,1,16,19,68,027,42,195,67,044,41,196,65,126,40,17,63,083,41,1*6B
$GPGSV,4,2,16,199,60,167,34,50,60,167,37,06,50,344,46,194,40,172,25,1*6B
$GPGSV,4,3,16,09,34,102,45,20,31,233,12,11,29,288,30,14,23,176,19,1*6F
$GPGSV,4,4,16,04,21,070,39,12,15,316,20,03,07,038,20,05,05,222,,1*67
$GPGSV,3,1,09,195,67,044,45,196,65,126,42,199,60,167,43,06,50,344,47,8*56
$GPGSV,3,2,09,09,34,102,44,11,29,288,33,14,23,176,17,04,21,070,38,8*68
$GPGSV,3,3,09,03,07,038,16,8*5C
$GLGSV,2,1,07,68,53,145,35,67,45,056,43,82,37,042,40,83,34,345,27,1*71
$GLGSV,2,2,07,73,22,286,24,80,22,227,21,66,03,026,,1*4A
$GAGSV,2,1,08,24,50,239,,10,49,338,39,12,47,018,37,11,35,303,23,7*77
$GAGSV,2,2,08,19,31,083,32,04,30,152,25,25,26,305,15,33,14,066,25,7*7E
$GAGSV,2,1,06,10,49,338,43,12,47,018,42,19,31,083,35,04,30,152,28,1*70
$GAGSV,2,2,06,25,26,305,23,33,14,066,28,1*78
$GBGSV,4,1,15,40,83,143,44,07,80,240,27,10,72,285,38,33,66,145,43,1*75
$GBGSV,4,2,15,14,60,077,43,08,58,273,23,43,53,059,46,13,49,260,,1*76
$GBGSV,4,3,15,28,39,327,23,42,38,051,44,11,32,083,42,41,24,197,,1*7B
$GBGSV,4,4,15,23,17,219,14,37,16,270,,34,16,099,31,1*4E
$GBGSV,2,1,07,40,83,143,45,33,66,145,46,43,53,059,43,28,39,327,31,4*73
$GBGSV,2,2,07,42,38,051,45,23,17,219,13,34,16,099,23,4*42
$GNGGA,035236.000,2500.8055500,N,12132.4261700,E,2,57,0.46,12.37,M,15.25,M,11,3335*4D
$GNRMC,035236.000,A,2500.8055500,N,12132.4261700,E,0.09,258.63,270623,,,D,V*00
$GPHDT,89.831,T*0E
$GNGGA,035236.200,2500.8055500,N,12132.4261700,E,2,57,0.46,12.37,M,15.25,M,11,3335*4F
$GNRMC,035236.200,A,2500.8055500,N,12132.4261700,E,0.11,258.63,270623,,,D,V*0B
$GPHDT,90.277,T*0E
$GNGGA,035236.400,2500.8055500,N,12132.4261700,E,2,57,0.46,12.37,M,15.25,M,11,3335*49
$GNRMC,035236.400,A,2500.8055500,N,12132.4261700,E,0.03,258.63,270623,,,D,V*0E
$GPHDT,89.985,T*00
$GNGGA,035236.600,2500.8055500,N,12132.4261700,E,2,58,0.46,12.37,M,15.25,M,11,3335*44
$GNRMC,035236.600,A,2500.8055500,N,12132.4261700,E,0.09,258.63,270623,,,D,V*06
$GPHDT,89.930,T*0E
$GNGGA,035236.800,2500.8055500,N,12132.4261700,E,2,58,0.46,12.37,M,15.25,M,11,3335*4A
$GNRMC,035236.800,A,2500.8055500,N,12132.4261700,E,0.16,258.63,270623,,,D,V*06
$GPHDT,90.075,T*0E
$GNGSA,A,3,19,195,196,17,199,06,194,09,11,14,04,12,0.85,0.46,0.72,1*06
$GNGSA,A,3,68,67,82,83,73,80,,,,,,,0.85,0.46,0.72,2*0A
$GNGSA,A,3,10,12,11,19,04,25,33,,,,,,0.85,0.46,0.72,3*00
$GNGSA,A,3,40,07,10,33,14,08,43,28,42,11,23,34,0.85,0.46,0.72,4*0C
$GPGSV,4,1,16,19,68,027,42,195,67,044,41,196,65,126,40,17,63,083,40,1*6A
$GPGSV,4,2,16,199,60,167,34,50,60,167,37,06,50,344,45,194,40,172,25,1*68
$GPGSV,4,3,16,09,34,102,45,20,31,233,14,11,29,288,29,14,23,176,18,1*60
$GPGSV,4,4,16,04,21,070,39,12,15,316,23,03,07,038,19,05,05,222,,1*6E
$GPGSV,3,1,09,195,67,044,45,196,65,126,42,199,60,167,43,06,50,344,46,8*57
$GPGSV,3,2,09,09,34,102,44,11,29,288,33,14,23,176,17,04,21,070,38,8*68
$GPGSV,3,3,09,03,07,038,15,8*5F
$GLGSV,2,1,07,68,53,145,35,67,45,056,44,82,37,042,40,83,34,345,27,1*76
$GLGSV,2,2,07,73,22,286,23,80,22,227,23,66,03,026,,1*4F
$GAGSV,2,1,08,24,50,239,,10,49,338,39,12,47,018,37,11,35,303,22,7*76
$GAGSV,2,2,08,19,31,083,32,04,30,152,26,25,26,305,16,33,14,066,25,7*7E
$GAGSV,2,1,06,10,49,338,43,12,47,018,42,19,31,083,35,04,30,152,29,1*71
$GAGSV,2,2,06,25,26,305,22,33,14,066,28,1*79
$GBGSV,4,1,15,40,83,143,44,07,80,240,26,10,72,285,38,33,66,145,43,1*74
$GBGSV,4,2,15,14,60,077,43,08,58,273,24,43,53,059,46,13,49,260,,1*71
$GBGSV,4,3,15,28,39,327,21,42,38,051,44,11,32,083,42,41,24,197,,1*79
$GBGSV,4,4,15,23,17,219,17,37,16,270,,34,16,099,30,1*4C
$GBGSV,2,1,07,40,83,143,45,33,66,145,46,43,53,059,42,28,39,327,30,4*73
$GBGSV,2,2,07,42,38,051,44,23,17,219,14,34,16,099,23,4*44
$GNGGA,035237.000,2500.8055500,N,12132.4261700,E,2,58,0.46,12.36,M,15.25,M,12,3335*41
$GNRMC,035237.000,A,2500.8055500,N,12132.4261700,E,0.03,258.63,270623,,,D,V*0B
$GPHDT,91.021,T*0E
$GNGGA,035237.200,2500.8055500,N,12132.4261700,E,2,58,0.46,12.36,M,15.25,M,12,3335*43
$GNRMC,035237.200,A,2500.8055500,N,12132.4261700,E,0.06,258.63,270623,,,D,V*0C
$GPHDT,90.570,T*0E
$GNGGA,035237.400,2500.8055500,N,12132.4261700,E,2,57,0.46,12.36,M,15.25,M,12,3335*4A
$GNRMC,035237.400,A,2500.8055500,N,12132.4261700,E,0.02,258.63,270623,,,D,V*0E
$GPHDT,90.421,T*0B
$GNGGA,035237.600,2500.8055500,N,12132.4261700,E,2,57,0.46,12.36,M,15.25,M,12,3335*48
$GNRMC,035237.600,A,2500.8055500,N,12132.4261700,E,0.09,258.63,270623,,,D,V*07
$GPHDT,90.514,T*0C
$GNGGA,035237.800,2500.8055500,N,12132.4261700,E,2,57,0.48,12.36,M,15.25,M,12,3335*48
$GNRMC,035237.800,A,2500.8055500,N,12132.4261700,E,0.08,258.63,270623,,,D,V*08
$GPHDT,90.123,T*0C
$GNGSA,A,3,19,195,196,17,199,06,194,09,11,14,04,12,0.85,0.46,0.72,1*06
$GNGSA,A,3,68,67,82,83,80,73,,,,,,,0.85,0.46,0.72,2*0A
$GNGSA,A,3,10,12,11,19,04,25,33,,,,,,0.85,0.46,0.72,3*00
$GNGSA,A,3,40,07,10,33,14,08,43,28,42,11,23,34,0.85,0.46,0.72,4*0C
$GPGSV,4,1,16,19,68,027,43,195,67,044,41,196,65,126,40,17,63,083,40,1*6B
$GPGSV,4,2,16,199,60,167,34,50,60,167,37,06,50,344,45,194,40,172,24,1*69
$GPGSV,4,3,16,09,34,102,45,20,31,233,14,11,29,288,29,14,23,176,17,1*6F
$GPGSV,4,4,16,04,21,070,38,12,15,316,24,03,07,038,18,05,05,222,,1*69
$GPGSV,3,1,09,195,67,044,45,196,65,126,42,199,60,167,43,06,50,344,46,8*57
$GPGSV,3,2,09,09,34,102,44,11,29,288,33,14,23,176,17,04,21,070,37,8*67
$GPGSV,3,3,09,03,07,038,14,8*5E
$GLGSV,3,1,09,68,53,145,35,67,45,056,44,82,37,042,40,83,34,345,27,1*79
$GLGSV,3,2,09,80,22,227,23,73,22,286,23,69,13,185,,74,04,325,,1*75
$GLGSV,3,3,09,66,03,026,,1*46
$GAGSV,2,1,08,24,50,239,,10,49,338,39,12,47,018,38,11,35,303,22,7*79
$GAGSV,2,2,08,19,31,083,32,04,30,152,26,25,26,305,16,33,14,066,25,7*7E
$GAGSV,2,1,06,10,49,338,43,12,47,018,42,19,31,0