$FW : RTK35X,V1.1X0314AS,Lib20210517,1*54
$Tool : LOCOSYS , GNSS Firebird , v1.0.0.19*39
$---------------------------------------------------*2D
04,21,070,42,12,14,316,24,03,07,038,17,05,05,222,,1*6A
$GPGSV,3,1,09,195,67,044,44,196,64,126,44,199,60,167,43,06,50,343,47,8*57
$GPGSV,3,2,09,194,40,172,15,09,34,103,38,11,28,287,30,04,21,070,40,8*5A
$GPGSV,3,3,09,03,07,038,23,8*5A
$GLGSV,2,1,08,68,52,146,30,67,46,058,43,82,37,040,42,83,34,343,20,1*75
$GLGSV,2,2,08,80,23,228,19,73,22,287,15,69,12,185,,66,04,026,17,1*72
$GAGSV,2,1,08,24,50,240,,10,49,337,39,12,48,017,37,11,35,302,19,7*7E
$GAGSV,2,2,08,19,31,084,34,04,29,153,15,25,26,306,25,33,14,065,18,7*78
$GAGSV,2,1,07,10,49,337,42,12,48,017,38,11,35,302,24,19,31,084,37,1*7D
$GAGSV,2,2,07,04,29,153,17,25,26,306,25,33,14,065,28,1*41
$GBGSV,4,1,15,40,83,140,43,07,80,242,30,10,72,287,37,33,65,146,44,1*7F
$GBGSV,4,2,15,14,60,079,41,08,58,272,28,43,53,058,47,13,49,260,,1*70
$GBGSV,4,3,15,28,39,326,18,42,39,052,46,11,32,082,40,41,24,197,,1*71
$GBGSV,4,4,15,23,17,219,26,34,16,099,25,37,16,271,,1*4B
$GBGSV,2,1,05,40,83,140,47,33,65,146,45,43,53,058,44,28,39,326,18,4*7F
$GBGSV,2,2,05,42,39,052,44,4*4D
$GNGGA,035048.000,2500.8057800,N,12132.4288700,E,2,55,0.48,16.05,M,15.25,M,1,3335*76
$GNRMC,035048.000,A,2500.8057800,N,12132.4288700,E,0.12,17.95,270623,,,D,V*39
$GPHDT,48.667,T*0E
$GNGGA,035048.200,2500.8057800,N,12132.4288600,E,2,56,0.48,16.02,M,15.25,M,1,3335*71
$GNRMC,035048.200,A,2500.8057800,N,12132.4288600,E,0.11,17.95,270623,,,D,V*39
$GPHDT,48.664,T*0D
$GNGGA,035048.400,2500.8057800,N,12132.4288500,E,2,57,0.47,16.00,M,15.25,M,1,3335*78
$GNRMC,035048.400,A,2500.8057800,N,12132.4288500,E,0.08,17.95,270623,,,D,V*34
$GPHDT,48.811,T*01
$GNGGA,035048.600,2500.8057800,N,12132.4288500,E,2,56,0.47,15.97,M,15.25,M,0,3335*77
$GNRMC,035048.600,A,2500.8057800,N,12132.4288500,E,0.08,17.95,270623,,,D,V*36
$GPHDT,48.390,T*03
$GNGGA,035048.800,2500.8057800,N,12132.4288500,E,2,56,0.47,15.96,M,15.25,M,0,3335*78
$GNRMC,035048.800,A,2500.8057800,N,12132.4288500,E,0.12,17.95,270623,,,D,V*33
$GPHDT,48.547,T*0F
$GNGSA,A,3,195,19,196,17,199,06,194,09,20,11,14,04,0.76,0.47,0.60,1*09
$GNGSA,A,3,12,,,,,,,,,,,,0.76,0.47,0.60,1*06
$GNGSA,A,3,68,67,82,83,80,73,,,,,,,0.76,0.47,0.60,2*04
$GNGSA,A,3,10,12,11,19,04,25,33,,,,,,0.76,0.47,0.60,3*0E
$GNGSA,A,3,40,07,10,33,14,08,43,42,28,11,34,,0.76,0.47,0.60,4*03
$GPGSV,4,1,16,195,67,044,40,19,67,025,45,196,64,126,40,17,63,081,43,1*61
$GPGSV,4,2,16,199,60,167,34,50,60,167,36,06,50,343,42,194,40,172,22,1*6E
$GPGSV,4,3,16,09,34,103,36,20,30,232,17,11,28,287,25,14,24,176,18,1*63
$GPGSV,4,4,16,04,21,070,42,12,14,316,24,03,07,038,17,05,05,222,,1*6A
$GPGSV,3,1,09,195,67,044,44,196,64,126,44,199,60,167,43,06,50,343,47,8*57
$GPGSV,3,2,09,194,40,172,14,09,34,103,38,11,28,287,30,04,21,070,39,8*55
$GPGSV,3,3,09,03,07,038,21,8*58
$GLGSV,2,1,07,68,52,146,31,67,46,058,43,82,37,040,42,83,34,343,21,1*7A
$GLGSV,2,2,07,80,23,228,18,73,22,287,16,66,04,026,17,1*4F
$GAGSV,2,1,08,24,50,240,,10,49,337,39,12,48,017,38,11,35,302,19,7*71
$GAGSV,2,2,08,19,31,084,34,04,29,153,14,25,26,305,25,33,14,065,18,7*7A
$GAGSV,2,1,07,10,49,337,42,12,48,017,37,11,35,302,24,19,31,084,37,1*72
$GAGSV,2,2,07,04,29,153,15,25,26,305,25,33,14,065,27,1*4F
$GBGSV,4,1,15,40,83,140,43,07,80,242,30,10,72,287,37,33,65,146,45,1*7E
$GBGSV,4,2,15,14,60,079,41,08,58,272,28,43,53,058,47,13,49,260,,1*70
$GBGSV,4,3,15,42,39,052,46,28,39,326,21,11,32,082,40,41,24,197,,1*7B
$GBGSV,4,4,15,23,17,219,25,37,16,271,,34,16,099,26,1*4B
$GBGSV,2,1,05,40,83,140,47,33,65,146,45,43,53,058,44,42,39,052,44,4*7A
$GBGSV,2,2,05,34,16,099,23,4*47
$GNGGA,035049.000,2500.8057800,N,12132.4288400,E,2,56,0.47,15.94,M,15.25,M,1,3335*73
$GNRMC,035049.000,A,2500.8057800,N,12132.4288400,E,0.21,17.95,270623,,,D,V*3B
$GPHDT,48.413,T*0F
$GNGGA,035049.200,2500.8057700,N,12132.4288400,E,2,56,0.47,15.92,M,15.25,M,1,3335*78
$GNRMC,035049.200,A,2500.8057700,N,12132.4288400,E,0.16,17.95,270623,,,D,V*32
$GPHDT,48.503,T*0F
$GNGGA,035049.400,2500.8057700,N,12132.4288400,E,2,56,0.47,15.89,M,15.25,M,1,3335*74
$GNRMC,035049.400,A,2500.8057700,N,12132.4288400,E,0.11,17.95,270623,,,D,V*33
$GPHDT,48.630,T*0C
$GNGGA,035049.600,2500.8057600,N,12132.4288300,E,2,54,0.48,15.86,M,15.25,M,0,3335*73
$GNRMC,035049.600,A,2500.8057600,N,12132.4288300,E,0.14,17.95,270623,,,D,V*32
$GPHDT,48.648,T*03
$GNGGA,035049.800,2500.8057600,N,12132.4288200,E,2,56,0.47,15.84,M,15.25,M,0,3335*73
$GNRMC,035049.800,A,2500.8057600,N,12132.4288200,E,0.12,17.95,270623,,,D,V*3B
$GPHDT,48.680,T*07
$GNGSA,A,3,195,19,196,17,199,06,194,09,20,11,14,04,0.88,0.47,0.74,1*0D
$GNGSA,A,3,12,,,,,,,,,,,,0.88,0.47,0.74,1*02
$GNGSA,A,3,68,67,82,83,80,73,,,,,,,0.88,0.47,0.74,2*00
$GNGSA,A,3,10,12,11,19,04,25,33,,,,,,0.88,0.47,0.74,3*0A
$GNGSA,A,3,40,07,10,33,14,08,43,42,28,11,34,,0.88,0.47,0.74,4*07
$GPGSV,4,1,16,195,67,044,40,19,67,025,45,196,64,126,40,17,63,081,43,1*61
$GPGSV,4,2,16,199,60,167,34,50,60,167,36,06,50,343,42,194,40,172,23,1*6F
$GPGSV,4,3,16,09,34,103,37,20,30,232,17,11,28,287,25,14,24,176,18,1*62
$GPGSV,4,4,16,04,21,070,42,12,14,316,24,03,07,038,17,05,05,222,,1*6A
$GPGSV,3,1,10,195,67,044,44,196,64,126,44,199,60,167,43,06,50,343,47,8*5F
$GPGSV,3,2,10,194,40,172,13,09,34,103,38,11,28,287,28,14,24,176,15,8*5E
$GPGSV,3,3,10,04,21,070,39,03,07,038,19,8*61
$GLGSV,2,1,07,68,52,146,31,67,46,058,43,82,37,040,42,83,34,343,21,1*7A
$GLGSV,2,2,07,80,23,228,17,73,22,287,15,66,04,026,17,1*43
$GAGSV,2,1,08,24,50,240,,10,49,337,39,12,48,017,38,11,35,302,20,7*7B
$GAGSV,2,2,08,19,31,084,34,04,29,153,12,25,26,305,25,33,14,065,18,7*7C
$GAGSV,2,1,06,10,49,337,42,12,48,017,37,11,35,302,24,19,31,084,37,1*73
$GAGSV,2,2,06,25,26,305,24,33,14,065,26,1*72
$GBGSV,4,1,14,40,83,140,43,07,80,242,30,10,72,287,37,33,65,146,45,1*7F
$GBGSV,4,2,14,14,60,079,41,08,58,272,28,43,53,058,47,13,49,260,,1*71
$GBGSV,4,3,14,42,39,052,46,28,39,326,24,11,32,082,41,41,24,197,,1*7E
$GBGSV,4,4,14,23,17,219,25,34,16,099,26,1*7D
$GBGSV,2,1,05,40,83,140,47,33,65,146,45,43,53,058,44,42,39,052,44,4*7A
$GBGSV,2,2,05,34,16,099,21,4*45
$GNGGA,035050.000,2500.8057600,N,12132.4288200,E,2,56,0.47,15.81,M,15.25,M,1,3335*77
$GNRMC,035050.000,A,2500.8057600,N,12132.4288200,E,0.18,17.95,270623,,,D,V*31
$GPHDT,48.769,T*01
$GNGGA,035050.200,2500.8057600,N,12132.4288100,E,2,56,0.47,15.79,M,15.25,M,1,3335*71
$GNRMC,035050.200,A,2500.8057600,N,12132.4288100,E,0.14,17.95,270623,,,D,V*3C
$GPHDT,48.595,T*00
$GNGGA,035050.400,2500.8057600,N,12132.4288100,E,2,56,0.47,15.78,M,15.25,M,1,3335*76
$GNRMC,035050.400,A,2500.8057600,N,12132.4288100,E,0.11,17.95,270623,,,D,V*3F
$GPHDT,48.672,T*0A
$GNGGA,035050.600,2500.8057600,N,12132.4288000,E,2,56,0.47,15.76,M,15.25,M,0,3335*7A
$GNRMC,035050.600,A,2500.8057600,N,12132.4288000,E,0.11,17.95,270623,,,D,V*3C
$GPHDT,48.896,T*0E
$GNGGA,035050.800,2500.8057600,N,12132.4287900,E,2,56,0.47,15.73,M,15.25,M,0,3335*77
$GNRMC,035050.800,A,2500.8057600,N,12132.4287900,E,0.12,17.95,270623,,,D,V*37
$GPHDT,48.823,T*00
$GNGSA,A,3,195,19,196,17,199,06,194,09,20,11,14,04,0.88,0.47,0.74,1*0D
$GNGSA,A,3,12,,,,,,,,,,,,0.88,0.47,0.74,1*02
$GNGSA,A,3,68,67,82,83,80,73,,,,,,,0.88,0.47,0.74,2*00
$GNGSA,A,3,10,12,11,19,04,25,33,,,,,,0.88,0.47,0.74,3*0A
$GNGSA,A,3,40,07,10,33,14,08,43,42,28,11,34,,0.88,0.47,0.74,4*07
$GPGSV,4,1,16,195,67,044,40,19,67,025,45,196,64,126,40,17,63,081,43,1*61
$GPGSV,4,2,16,199,60,167,34,50,60,167,36,06,50,343,42,194,40,172,24,1*68
$GPGSV,4,3,16,09,34,103,37,20,30,232,16,11,28,287,24,14,24,176,18,1*62
$GPGSV,4,4,16,04,21,070,42,12,14,316,24,03,07,038,15,05,05,222,,1*68
$GPGSV,3,1,10,195,67,044,44,196,64,126,44,199,60,167,43,06,50,343,47,8*5F
$GPGSV,3,2,10,194,40,172,14,09,34,103,38,11,28,287,27,14,24,176,17,8*54
$GPGSV,3,3,10,04,21,070,39,03,07,038,19,8*61
$GLGSV,2,1,07,68,52,146,31,67,46,058,43,82,37,040,42,83,34,343,21,1*7A
$GLGSV,2,2,07,80,23,228,17,73,22,287,15,66,04,026,16,1*42
$GAGSV,2,1,08,24,50,240,,10,49,337,39,12,48,017,38,11,35,302,19,7*71
$GAGSV,2,2,08,19,31,084,34,04,29,153,11,25,26,305,24,33,14,066,17,7*72
$GAGSV,2,1,06,10,49,337,42,12,48,017,37,11,35,302,24,19,31,084,37,1*73
$GAGSV,2,2,06,25,26,305,25,33,14,066,26,1*70
$GBGSV,4,1,14,40,83,140,43,07,80,242,29,10,72,287,37,33,65,146,45,1*77
$GBGSV,4,2,14,14,60,079,41,08,58,272,28,43,53,058,47,13,49,260,,1*71
$GBGSV,4,3,14,42,39,052,46,28,39,326,23,11,32,082,41,41,24,197,,1*79
$GBGSV,4,4,14,23,17,219,25,34,16,099,25,1*7E
$GBGSV,2,1,05,40,83,140,47,33,65,146,45,43,53,058,44,42,39,052,44,4*7A
$GBGSV,2,2,05,34,16,099,23,4*47
$GNGGA,035051.000,2500.8057500,N,12132.4287900,E,2,56,0.47,15.71,M,15.25,M,1,3335*7E
$GNRMC,035051.000,A,2500.8057500,N,12132.4287900,E,0.13,17.95,270623,,,D,V*3C
$GPHDT,49.227,T*0F
$GNGGA,035051.200,2500.8057500,N,12132.4287900,E,2,55,0.48,15.67,M,15.25,M,1,3335*77
$GNRMC,035051.200,A,2500.8057500,N,12132.4287900,E,0.24,17.95,270623,,,D,V*3A
$GPHDT,48.875,T*03
$GNGGA,035051.400,2500.8057400,N,12132.4287800,E,2,56,0.47,15.64,M,15.25,M,1,3335*7E
$GNRMC,035051.400,A,2500.8057400,N,12132.4287800,E,0.21,17.95,270623,,,D,V*39
$GPHDT,48.933,T*00
$GNGGA,035051.600,2500.8057400,N,12132.4287600,E,2,56,0.47,15.61,M,15.25,M,0,3335*76
$GNRMC,035051.600,A,2500.8057400,N,12132.4287600,E,0.23,17.95,270623,,,D,V*37
$GPHDT,49.014,T*0D
$GNGGA,035051.800,2500.8057300,N,12132.4287600,E,2,56,0.47,15.59,M,15.25,M,0,3335*74
$GNRMC,035051.800,A,2500.8057300,N,12132.4287600,E,0.23,17.95,270623,,,D,V*3E
$GPHDT,48.791,T*06
$GNGSA,A,3,195,19,196,17,199,06,194,09,20,11,14,04,0.87,0.47,0.73,1*05
$GNGSA,A,3,12,,,,,,,,,,,,0.87,0.47,0.73,1*0A
$GNGSA,A,3,68,67,82,83,80,73,,,,,,,0.87,0.47,0.73,2*08
$GNGSA,A,3,10,12,11,19,25,33,,,,,,,0.87,0.47,0.73,3*06
$GNGSA,A,3,40,07,10,33,14,08,43,42,28,11,23,34,0.87,0.47,0.73,4*0E
$GPGSV,4,1,16,195,67,044,40,19,67,025,45,196,64,126,40,17,63,081,43,1*61
$GPGSV,4,2,16,199,60,167,34,50,60,167,37,06,50,343,43,194,40,172,24,1*68
$GPGSV,4,3,16,09,34,103,37,20,30,232,15,11,28,287,24,14,24,176,18,1*61
$GPGSV,4,4,16,04,21,070,42,12,14,316,24,03,07,038,12,05,05,222,,1*6F
$GPGSV,3,1,10,195,67,044,44,196,64,126,44,199,60,167,43,06,50,343,47,8*5F
$GPGSV,3,2,10,194,40,172,12,09,34,103,38,11,28,287,27,14,24,176,16,8*53
$GPGSV,3,3,10,04,21,070,39,03,07,038,19,8*61
$GLGSV,2,1,07,68,52,146,31,67,46,058,43,82,37,040,42,83,34,343,21,1*7A
$GLGSV,2,2,07,80,23,228,17,73,22,287,14,66,04,026,16,1*43
$GAGSV,2,1,08,24,50,240,,10,49,337,39,12,48,017,38,11,35,302,19,7*71
$GAGSV,2,2,08,19,31,084,34,04,29,153,,25,26,305,25,33,14,066,17,7*73
$GAGSV,2,1,06,10,49,337,42,12,48,017,37,11,35,302,25,19,31,084,37,1*72
$GAGSV,2,2,06,25,26,305,26,33,14,066,26,1*73
$GBGSV,4,1,15,40,83,140,43,07,80,242,30,10,72,287,37,33,65,146,45,1*7E
$GBGSV,4,2,15,14,60,079,41,08,58,272,29,43,53,058,47,13,49,260,,1*71
$GBGSV,4,3,15,42,39,052,46,28,39,326,25,11,32,082,41,41,24,197,,1*7E
$GBGSV,4,4,15,23,17,219,25,37,16,271,,34,16,099,27,1*4A
$GBGSV,2,1,05,40,83,140,47,33,65,146,45,43,53,058,44,42,39,052,44,4*7A
$GBGSV,2,2,05,34,16,099,21,4*45
$GNGGA,035052.000,2500.8057300,N,12132.4287500,E,2,56,0.47,15.55,M,15.25,M,1,3335*71
$GNRMC,035052.000,A,2500.8057300,N,12132.4287500,E,0.26,17.95,270623,,,D,V*33
$GPHDT,48.619,T*07
$GNGGA,035052.200,2500.8057200,N,12132.4287300,E,2,56,0.47,15.52,M,15.25,M,1,3335*73
$GNRMC,035052.200,A,2500.8057200,N,12132.4287300,E,0.21,17.95,270623,,,D,V*31
$GPHDT,49.197,T*07
$GNGGA,035052.400,2500.8057200,N,12132.4287300,E,2,55,0.48,15.50,M,15.25,M,1,3335*7B
$GNRMC,035052.400,A,2500.8057200,N,12132.4287300,E,0.18,17.95,270623,,,D,V*3D
$GPHDT,48.808,T*09
$GNGGA,035052.600,2500.8057200,N,12132.4287200,E,2,55,0.48,15.47,M,15.25,M,1,3335*7E
$GNRMC,035052.600,A,2500.8057200,N,12132.4287200,E,0.17,17.95,270623,,,D,V*31
$GPHDT,49.223,T*0B
$GNGGA,035052.800,2500.8057100,N,12132.4287200,E,2,55,0.48,15.45,M,15.25,M,0,3335*70
$GNRMC,035052.800,A,2500.8057100,N,12132.4287200,E,0.20,17.95,270623,,,D,V*38
$GPHDT,49.276,T*0B
$GNGSA,A,3,195,19,196,17,199,06,194,09,11,14,04,12,0.87,0.48,0.73,1*0B
$GNGSA,A,3,68,67,82,83,80,73,,,,,,,0.87,0.48,0.73,2*07
$GNGSA,A,3,10,12,11,19,25,33,,,,,,,0.87,0.48,0.73,3*09
$GNGSA,A,3,40,07,10,33,14,08,43,42,28,11,23,34,0.87,0.48,0.73,4*01
$GPGSV,4,1,16,195,67,044,40,19,67,025,45,196,64,126,40,17,63,081,43,1*61
$GPGSV,4,2,16,199,60,167,34,50,60,167,36,06,50,343,43,194,40,172,24,1*69
$GPGSV,4,3,16,09,34,103,37,20,30,232,13,11,28,287,23,14,24,176,18,1*60
$GPGSV,4,4,16,04,21,070,42,12,14,316,22,03,07,038,13,05,05,222,,1*68
$GPGSV,3,1,09,195,67,044,44,196,64,126,44,199,60,167,43,06,50,343,47,8*57
$GPGSV,3,2,09,09,34,103,38,11,28,287,27,14,24,176,16,04,21,070,39,8*6E
$GPGSV,3,3,09,03,07,038,20,8*59
$GLGSV,2,1,07,68,52,146,31,67,46,058,43,82,37,040,42,83,34,343,22,1*79
$GLGSV,2,2,07,80,23,228,16,73,22,287,13,66,04,026,17,1*44
$GAGSV,2,1,08,24,50,240,,10,49,337,39,12,48,017,38,11,35,302,19,7*71
$GAGSV,2,2,08,19,31,084,34,04,29,153,,25,26,305,26,33,14,066,17,7*70
$GAGSV,2,1,06,10,49,337,42,12,48,017,37,11,35,302,24,19,31,084,37,1*73
$GAGSV,2,2,06,25,26,305,26,33,14,066,26,1*73
$GBGSV,4,1,15,40,83,140,43,07,80,242,30,10,72,287,37,33,65,146,45,1*7E
$GBGSV,4,2,15,14,60,079,41,08,58,272,30,43,53,058,47,13,49,260,,1*79
$GBGSV,4,3,15,42,39,052,46,28,39,326,25,11,32,082,41,41,24,197,,1*7E
$GBGSV,4,4,15,23,17,219,25,37,16,271,,34,16,099,29,1*44
$GBGSV,2,1,05,40,83,140,47,33,65,146,45,43,53,058,44,42,39,052,44,4*7A
$GBGSV,2,2,05,34,16,099,21,4*45
$GNGGA,035053.000,2500.8057000,N,12132.4287000,E,2,55,0.48,15.43,M,15.25,M,1,3335*7D
$GNRMC,035053.000,A,2500.8057000,N,12132.4287000,E,0.17,17.95,270623,,,D,V*36
$GPHDT,48.647,T*0C
$GNGGA,035053.200,2500.8057000,N,12132.4287000,E,2,55,0.48,15.41,M,15.25,M,1,3335*7D
$GNRMC,035053.200,A,2500.8057000,N,12132.4287000,E,0.17,17.95,270623,,,D,V*34
$GPHDT,48.994,T*0D
$GNGGA,035053.400,2500.8057000,N,12132.4286900,E,2,55,0.49,15.39,M,15.25,M,0,3335*7C
$GNRMC,035053.400,A,2500.8057000,N,12132.4286900,E,0.19,17.95,270623,,,D,V*34
$GPHDT,49.055,T*08
$GNGGA,035053.600,2500.8057000,N,12132.4286900,E,2,52,0.59,15.36,M,15.25,M,0,3335*77
$GNRMC,035053.600,A,2500.8057000,N,12132.4286900,E,0.12,17.95,270623,,,D,V*3D
$GPHDT,48.139,T*02
$GNGGA,035053.800,2500.8056900,N,12132.4286800,E,2,52,0.59,15.33,M,15.25,M,0,3335*75
$GNRMC,035053.800,A,2500.8056900,N,12132.4286800,E,0.10,17.95,270623,,,D,V*38
$GPHDT,47.655,T*00
$GNGSA,A,3,195,19,196,17,199,06,09,11,14,04,12,,1.01,0.59,0.82,1*36
$GNGSA,A,3,68,67,82,83,,,,,,,,,1.01,0.59,0.82,2*0A
$GNGSA,A,3,10,12,11,19,25,33,,,,,,,1.01,0.59,0.82,3*08
$GNGSA,A,3,40,07,10,33,14,08,43,42,28,11,34,,1.01,0.59,0.82,4*01
$GPGSV,4,1,16,195,67,044,40,19,67,025,44,196,64,126,41,17,63,081,43,1*61
$GPGSV,4,2,16,199,60,167,32,50,60,167,35,06,50,343,43,194,40,172,20,1*68
$GPGSV,4,3,16,09,34,103,34,20,30,232,12,11,28,287,24,14,24,176,19,1*64
$GPGSV,4,4,16,04,21,070,42,12,14,316,23,03,07,038,11,05,05,222,,1*6B
$GPGSV,3,1,09,195,67,044,44,196,64,126,45,199,60,167,43,06,50,343,47,8*56
$GPGSV,3,2,09,09,34,103,39,11,28,287,28,14,24,176,15,04,21,070,39,8*6