$FW : RTK35X,V1.1X0314AS,Lib20210517,1*54
$Tool : LOCOSYS , GNSS Firebird , v1.0.0.19*39
$---------------------------------------------------*2D
31,67,46,058,38,82,37,041,43,83,34,344,24,1*74
$GLGSV,2,2,07,73,22,287,17,80,22,228,15,66,04,026,18,1*4D
$GAGSV,2,1,08,24,50,240,,10,49,337,39,12,48,017,37,11,35,302,23,7*77
$GAGSV,2,2,08,19,31,084,32,04,29,153,,25,26,305,23,33,14,066,19,7*7D
$GAGSV,2,1,06,10,49,337,42,12,48,017,40,11,35,302,21,19,31,084,33,1*72
$GAGSV,2,2,06,25,26,305,20,33,14,066,30,1*72
$GBGSV,4,1,15,40,83,140,43,07,80,241,29,10,72,286,37,33,65,146,44,1*75
$GBGSV,4,2,15,14,60,078,39,08,58,272,28,43,53,058,42,13,49,260,,1*7B
$GBGSV,4,3,15,42,39,052,44,28,39,326,26,11,32,083,37,41,24,197,,1*7F
$GBGSV,4,4,15,23,17,219,23,37,16,271,,34,16,099,29,1*42
$GBGSV,2,1,06,40,83,140,46,33,65,146,46,43,53,058,39,28,39,326,25,4*7A
$GBGSV,2,2,06,42,39,052,44,34,16,099,29,4*75
$GNGGA,035101.000,2500.8055400,N,12132.4282700,E,2,54,0.50,14.05,M,15.25,M,1,3335*74
$GNRMC,035101.000,A,2500.8055400,N,12132.4282700,E,0.49,17.95,270623,,,D,V*3F
$GPHDT,,T*1B
$GNGGA,035101.200,2500.8055300,N,12132.4282500,E,2,53,0.51,13.97,M,15.25,M,1,3335*79
$GNRMC,035101.200,A,2500.8055300,N,12132.4282500,E,0.51,17.95,270623,,,D,V*31
$GPHDT,,T*1B
$GNGGA,035101.400,2500.8055400,N,12132.4282500,E,2,53,0.52,13.99,M,15.25,M,1,3335*75
$GNRMC,035101.400,A,2500.8055400,N,12132.4282500,E,0.69,258.63,270623,,,D,V*0B
$GPHDT,,T*1B
$GNGGA,035101.600,2500.8055300,N,12132.4282200,E,2,53,0.52,13.93,M,15.25,M,0,3335*7C
$GNRMC,035101.600,A,2500.8055300,N,12132.4282200,E,0.45,258.63,270623,,,D,V*07
$GPHDT,,T*1B
$GNGGA,035101.800,2500.8055300,N,12132.4282200,E,2,53,0.52,13.93,M,15.25,M,0,3335*72
$GNRMC,035101.800,A,2500.8055300,N,12132.4282200,E,0.48,258.63,270623,,,D,V*04
$GPHDT,,T*1B
$GNGSA,A,3,195,19,196,17,199,06,09,20,11,04,12,,0.79,0.51,0.60,1*3B
$GNGSA,A,3,68,67,82,83,73,80,,,,,,,0.79,0.51,0.60,2*0C
$GNGSA,A,3,10,12,11,19,25,33,,,,,,,0.79,0.51,0.60,3*02
$GNGSA,A,3,40,07,10,33,14,08,43,42,28,11,23,34,0.79,0.51,0.60,4*0A
$GPGSV,4,1,16,195,67,044,42,19,67,025,44,196,64,126,40,17,63,081,40,1*61
$GPGSV,4,2,16,199,60,167,34,50,60,167,36,06,50,343,41,194,40,172,20,1*6F
$GPGSV,4,3,16,09,34,103,37,20,30,232,16,11,28,287,25,14,24,176,,1*6A
$GPGSV,4,4,16,04,21,070,35,12,14,316,22,03,07,038,15,05,05,222,,1*6E
$GPGSV,2,1,08,195,67,044,44,196,64,126,46,199,60,167,43,06,50,343,45,8*57
$GPGSV,2,2,08,09,34,103,30,11,28,287,28,04,21,070,38,03,07,038,20,8*61
$GLGSV,2,1,07,68,52,146,36,67,46,058,35,82,37,041,42,83,34,344,24,1*7F
$GLGSV,2,2,07,73,22,287,17,80,22,228,16,66,04,026,16,1*40
$GAGSV,2,1,08,24,50,240,,10,49,337,39,12,48,017,37,11,35,302,21,7*75
$GAGSV,2,2,08,19,31,084,26,04,29,153,,25,26,305,22,33,14,066,19,7*79
$GAGSV,2,1,06,10,49,337,42,12,48,017,39,11,35,302,23,19,31,084,33,1*7E
$GAGSV,2,2,06,25,26,305,20,33,14,066,28,1*7B
$GBGSV,4,1,15,40,83,140,43,07,80,241,31,10,72,286,37,33,65,146,46,1*7E
$GBGSV,4,2,15,14,60,078,42,08,58,272,27,43,53,058,43,13,49,260,,1*79
$GBGSV,4,3,15,42,39,052,44,28,39,326,21,11,32,083,32,41,24,197,,1*7D
$GBGSV,4,4,15,23,17,219,22,37,16,271,,34,16,099,30,1*4B
$GBGSV,2,1,06,40,83,140,46,33,65,146,47,43,53,058,41,28,39,326,24,4*75
$GBGSV,2,2,06,42,39,052,43,34,16,099,27,4*7C
$GNGGA,035102.000,2500.8055300,N,12132.4282100,E,2,54,0.51,13.91,M,15.25,M,1,3335*7D
$GNRMC,035102.000,A,2500.8055300,N,12132.4282100,E,0.52,258.63,270623,,,D,V*07
$GPHDT,,T*1B
$GNGGA,035102.200,2500.8055300,N,12132.4282000,E,2,54,0.51,13.91,M,15.25,M,1,3335*7E
$GNRMC,035102.200,A,2500.8055300,N,12132.4282000,E,0.48,258.63,270623,,,D,V*0F
$GPHDT,,T*1B
$GNGGA,035102.400,2500.8055200,N,12132.4281900,E,2,54,0.51,13.89,M,15.25,M,1,3335*7A
$GNRMC,035102.400,A,2500.8055200,N,12132.4281900,E,0.37,258.63,270623,,,D,V*0A
$GPHDT,,T*1B
$GNGGA,035102.600,2500.8055200,N,12132.4281700,E,2,54,0.50,13.88,M,15.25,M,1,3335*76
$GNRMC,035102.600,A,2500.8055200,N,12132.4281700,E,0.30,258.63,270623,,,D,V*01
$GPHDT,,T*1B
$GNGGA,035102.800,2500.8055200,N,12132.4281600,E,2,53,0.50,13.87,M,15.25,M,1,3335*71
$GNRMC,035102.800,A,2500.8055200,N,12132.4281600,E,0.33,258.63,270623,,,D,V*0D
$GPHDT,,T*1B
$GNGSA,A,3,195,19,196,17,199,06,09,20,11,14,04,12,0.77,0.50,0.59,1*3B
$GNGSA,A,3,68,67,82,83,73,,,,,,,,0.77,0.50,0.59,2*01
$GNGSA,A,3,10,12,11,19,33,25,,,,,,,0.77,0.50,0.59,3*07
$GNGSA,A,3,40,07,10,33,14,08,43,28,42,11,23,34,0.77,0.50,0.59,4*0F
$GPGSV,4,1,16,195,67,044,42,19,67,025,43,196,64,126,40,17,63,081,40,1*66
$GPGSV,4,2,16,199,60,167,33,50,60,167,35,06,50,343,41,194,40,172,18,1*60
$GPGSV,4,3,16,09,34,103,38,20,30,232,15,11,28,287,26,14,24,176,21,1*66
$GPGSV,4,4,16,04,21,070,36,12,14,316,24,03,07,038,15,05,05,222,,1*6B
$GPGSV,2,1,08,195,67,044,44,196,64,126,46,199,60,167,44,06,50,343,45,8*50
$GPGSV,2,2,08,09,34,103,38,11,28,287,28,04,21,070,38,03,07,038,21,8*68
$GLGSV,3,1,09,68,52,146,37,67,46,058,33,82,37,041,42,83,34,344,24,1*77
$GLGSV,3,2,09,73,22,287,17,80,22,228,17,69,13,185,,74,04,326,,1*78
$GLGSV,3,3,09,66,04,026,16,1*46
$GAGSV,2,1,08,24,50,240,,10,49,337,39,12,48,017,38,11,35,302,21,7*7A
$GAGSV,2,2,08,19,31,084,29,04,29,153,,25,26,305,,33,14,066,19,7*76
$GAGSV,2,1,06,10,49,337,42,12,48,017,40,11,35,302,21,19,31,084,33,1*72
$GAGSV,2,2,06,25,26,305,19,33,14,066,26,1*7F
$GBGSV,4,1,15,40,83,140,43,07,80,241,31,10,72,286,37,33,66,146,46,1*7D
$GBGSV,4,2,15,14,60,078,42,08,58,272,26,43,53,058,42,13,49,260,,1*79
$GBGSV,4,3,15,28,39,326,20,42,39,052,39,11,32,083,32,41,24,197,,1*76
$GBGSV,4,4,15,23,17,219,21,34,16,099,28,39,03,178,,1*41
$GBGSV,2,1,06,40,83,140,46,33,66,146,46,43,53,058,40,28,39,326,25,4*77
$GBGSV,2,2,06,42,39,052,36,34,16,099,30,4*78
$GNGGA,035103.000,2500.8055200,N,12132.4281500,E,2,53,0.50,13.86,M,15.25,M,2,3335*79
$GNRMC,035103.000,A,2500.8055200,N,12132.4281500,E,0.21,258.63,270623,,,D,V*04
$GPHDT,,T*1B
$GNGGA,035103.200,2500.8055200,N,12132.4281400,E,2,53,0.50,13.84,M,15.25,M,1,3335*7B
$GNRMC,035103.200,A,2500.8055200,N,12132.4281400,E,0.22,258.63,270623,,,D,V*04
$GPHDT,,T*1B
$GNGGA,035103.400,2500.8055200,N,12132.4281300,E,2,54,0.48,13.84,M,15.25,M,1,3335*74
$GNRMC,035103.400,A,2500.8055200,N,12132.4281300,E,0.13,258.63,270623,,,D,V*07
$GPHDT,,T*1B
$GNGGA,035103.600,2500.8055200,N,12132.4281300,E,2,54,0.48,13.83,M,15.25,M,1,3335*71
$GNRMC,035103.600,A,2500.8055200,N,12132.4281300,E,0.07,258.63,270623,,,D,V*00
$GPHDT,,T*1B
$GNGGA,035103.800,2500.8055200,N,12132.4281200,E,2,55,0.48,13.83,M,15.25,M,1,3335*7F
$GNRMC,035103.800,A,2500.8055200,N,12132.4281200,E,0.05,258.63,270623,,,D,V*0D
$GPHDT,,T*1B
$GNGSA,A,3,195,19,196,17,199,06,194,09,20,11,14,04,0.76,0.48,0.59,1*0C
$GNGSA,A,3,12,,,,,,,,,,,,0.76,0.48,0.59,1*03
$GNGSA,A,3,68,67,82,83,73,,,,,,,,0.76,0.48,0.59,2*09
$GNGSA,A,3,10,12,11,19,25,33,,,,,,,0.76,0.48,0.59,3*0F
$GNGSA,A,3,40,07,10,33,14,08,43,42,28,11,23,34,0.76,0.48,0.59,4*07
$GPGSV,4,1,16,195,67,044,42,19,67,025,43,196,64,126,40,17,63,081,41,1*67
$GPGSV,4,2,16,199,60,167,33,50,60,167,35,06,50,343,41,194,40,172,18,1*60
$GPGSV,4,3,16,09,34,103,37,20,30,232,14,11,28,287,25,14,24,176,23,1*69
$GPGSV,4,4,16,04,21,070,36,12,14,316,20,03,07,038,13,05,05,222,,1*69
$GPGSV,2,1,08,195,67,044,44,196,64,126,46,199,60,167,44,06,50,343,45,8*50
$GPGSV,2,2,08,09,34,103,39,11,28,287,28,04,21,070,37,03,07,038,20,8*67
$GLGSV,2,1,07,68,52,146,37,67,46,058,33,82,37,041,42,83,34,344,22,1*7E
$GLGSV,2,2,07,80,22,228,17,73,22,287,18,66,04,026,17,1*4F
$GAGSV,2,1,08,24,50,240,,10,49,337,38,12,48,017,38,11,35,302,23,7*79
$GAGSV,2,2,08,19,31,084,30,04,29,153,29,25,26,305,22,33,14,066,19,7*75
$GAGSV,2,1,06,10,49,337,42,12,48,017,40,11,35,302,21,19,31,084,34,1*75
$GAGSV,2,2,06,25,26,305,18,33,14,066,27,1*7F
$GBGSV,4,1,14,40,83,141,42,07,80,241,31,10,72,286,37,33,66,146,46,1*7C
$GBGSV,4,2,14,14,60,078,42,08,58,272,28,43,53,058,42,42,39,052,37,1*72
$GBGSV,4,3,14,28,39,326,24,11,32,083,34,23,17,219,21,34,16,099,29,1*7D
$GBGSV,4,4,14,37,16,271,,39,03,178,,1*73
$GBGSV,2,1,06,40,83,141,46,33,66,146,46,43,53,058,40,28,39,326,26,4*75
$GBGSV,2,2,06,42,39,052,34,34,16,099,29,4*72
$GNGGA,035104.000,2500.8055200,N,12132.4281200,E,2,55,0.48,13.83,M,15.25,M,2,3335*73
$GNRMC,035104.000,A,2500.8055200,N,12132.4281200,E,0.04,258.63,270623,,,D,V*03
$GPHDT,,T*1B
$GNGGA,035104.200,2500.8055200,N,12132.4281200,E,2,55,0.48,13.82,M,15.25,M,2,3335*70
$GNRMC,035104.200,A,2500.8055200,N,12132.4281200,E,0.09,258.63,270623,,,D,V*0C
$GPHDT,0.344,T*36
$GNGGA,035104.400,2500.8055200,N,12132.4281200,E,2,56,0.47,13.82,M,15.25,M,2,3335*7A
$GNRMC,035104.400,A,2500.8055200,N,12132.4281200,E,0.10,258.63,270623,,,D,V*02
$GPHDT,0.482,T*3B
$GNGGA,035104.600,2500.8055200,N,12132.4281200,E,2,56,0.47,13.81,M,15.25,M,2,3335*7B
$GNRMC,035104.600,A,2500.8055200,N,12132.4281200,E,0.05,258.63,270623,,,D,V*04
$GPHDT,0.788,T*32
$GNGGA,035104.800,2500.8055200,N,12132.4281200,E,2,57,0.47,13.81,M,15.25,M,2,3335*74
$GNRMC,035104.800,A,2500.8055200,N,12132.4281200,E,0.09,258.63,270623,,,D,V*06
$GPHDT,0.479,T*3F
$GNGSA,A,3,195,19,196,17,199,06,194,09,20,11,14,04,0.75,0.47,0.59,1*00
$GNGSA,A,3,12,,,,,,,,,,,,0.75,0.47,0.59,1*0F
$GNGSA,A,3,68,67,82,83,73,,,,,,,,0.75,0.47,0.59,2*05
$GNGSA,A,3,10,12,11,19,04,25,33,,,,,,0.75,0.47,0.59,3*07
$GNGSA,A,3,40,07,10,33,14,08,43,42,28,11,23,34,0.75,0.47,0.59,4*0B
$GPGSV,4,1,16,195,67,044,42,19,67,025,43,196,64,126,41,17,63,081,41,1*66
$GPGSV,4,2,16,199,60,167,33,50,60,167,36,06,50,343,41,194,40,172,19,1*62
$GPGSV,4,3,16,09,34,103,37,20,30,232,15,11,28,287,26,14,24,176,23,1*6B
$GPGSV,4,4,16,04,21,070,37,12,14,316,19,03,07,038,13,05,05,222,,1*62
$GPGSV,2,1,08,195,67,044,44,196,64,126,46,199,60,167,44,06,50,343,46,8*53
$GPGSV,2,2,08,09,34,103,40,11,28,287,28,04,21,070,37,03,07,038,20,8*69
$GLGSV,2,1,07,68,52,146,37,67,46,058,28,82,37,041,42,83,34,344,22,1*74
$GLGSV,2,2,07,73,22,287,18,80,22,228,15,66,04,026,18,1*42
$GAGSV,2,1,08,24,50,240,,10,49,337,39,12,48,017,38,11,35,302,23,7*78
$GAGSV,2,2,08,19,31,084,28,04,29,153,30,25,26,305,22,33,14,066,20,7*7E
$GAGSV,2,1,07,10,49,337,42,12,48,017,40,11,35,302,21,19,31,084,34,1*74
$GAGSV,2,2,07,04,29,153,27,25,26,305,19,33,14,066,26,1*43
$GBGSV,4,1,15,40,83,141,43,07,80,241,30,10,72,286,37,33,66,146,46,1*7D
$GBGSV,4,2,15,14,60,078,41,08,58,272,28,43,53,059,41,13,49,260,,1*76
$GBGSV,4,3,15,42,39,051,40,28,39,326,21,11,32,083,31,41,24,197,,1*79
$GBGSV,4,4,15,23,17,219,21,37,16,271,,34,16,099,29,1*40
$GBGSV,2,1,06,40,83,141,46,33,66,146,46,43,53,059,39,28,39,326,25,4*79
$GBGSV,2,2,06,42,39,051,34,34,16,099,31,4*78
$GNGGA,035105.000,2500.8055200,N,12132.4281100,E,2,57,0.47,13.80,M,15.25,M,3,3335*7E
$GNRMC,035105.000,A,2500.8055200,N,12132.4281100,E,0.11,258.63,270623,,,D,V*05
$GPHDT,0.195,T*38
$GNGGA,035105.200,2500.8055200,N,12132.4281000,E,2,58,0.45,13.79,M,15.25,M,3,3335*76
$GNRMC,035105.200,A,2500.8055200,N,12132.4281000,E,0.11,258.63,270623,,,D,V*06
$GPHDT,0.931,T*3E
$GNGGA,035105.400,2500.8055200,N,12132.4281000,E,2,58,0.45,13.79,M,15.25,M,3,3335*70
$GNRMC,035105.400,A,2500.8055200,N,12132.4281000,E,0.08,258.63,270623,,,D,V*08
$GPHDT,0.228,T*3D
$GNGGA,035105.600,2500.8055200,N,12132.4281000,E,2,58,0.45,13.79,M,15.25,M,3,3335*72
$GNRMC,035105.600,A,2500.8055200,N,12132.4281000,E,0.06,258.63,270623,,,D,V*04
$GPHDT,0.596,T*3F
$GNGGA,035105.800,2500.8055200,N,12132.4281000,E,2,57,0.45,13.78,M,15.25,M,3,3335*72
$GNRMC,035105.800,A,2500.8055200,N,12132.4281000,E,0.05,258.63,270623,,,D,V*09
$GPHDT,0.019,T*3D
$GNGSA,A,3,195,19,196,17,199,06,09,20,11,14,04,12,0.75,0.46,0.59,1*3E
$GNGSA,A,3,68,67,82,83,73,80,,,,,,,0.75,0.46,0.59,2*0C
$GNGSA,A,3,10,12,11,19,04,25,33,,,,,,0.75,0.46,0.59,3*06
$GNGSA,A,3,40,07,10,33,14,08,43,28,42,11,23,34,0.75,0.46,0.59,4*0A
$GPGSV,4,1,15,195,67,044,42,19,67,025,42,196,64,126,41,17,63,081,40,1*65
$GPGSV,4,2,15,50,60,167,36,199,60,167,34,06,50,343,42,194,40,172,20,1*6F
$GPGSV,4,3,15,09,34,103,36,20,30,232,15,11,28,287,24,14,24,176,23,1*6B
$GPGSV,4,4,15,04,21,070,37,12,14,316,17,03,07,038,18,1*56
$GPGSV,2,1,08,195,67,044,44,196,64,126,46,199,60,167,44,06,50,343,46,8*53
$GPGSV,2,2,08,09,34,103,40,11,28,287,28,04,21,070,37,03,07,038,23,8*6A
$GLGSV,2,1,07,68,52,146,38,67,46,058,28,82,37,041,42,83,34,344,22,1*7B
$GLGSV,2,2,07,73,22,287,18,80,22,228,15,66,04,026,18,1*42
$GAGSV,2,1,08,24,50,240,,10,49,337,39,12,48,017,38,11,35,302,23,7*78
$GAGSV,2,2,08,19,31,084,30,04,29,153,32,25,26,305,22,33,14,066,21,7*74
$GAGSV,2,1,07,10,49,337,42,12,48,017,41,11,35,302,22,19,31,084,34,1*76
$GAGSV,2,2,07,04,29,153,27,25,26,305,22,33,14,066,26,1*4B
$GBGSV,4,1,15,40,83,141,43,07,80,241,32,10,72,286,37,33,66,146,46,1*7F
$GBGSV,4,2,15,14,60,078,42,08,58,272,28,43,53,059,40,13,49,260,,1*74
$GBGSV,4,3,15,28,39,326,25,42,39,051,40,11,32,083,34,41,24,197,,1*78
$GBGSV,4,4,15,23,17,219,22,34,16,099,31,37,16,271,,1*4A
$GBGSV,2,1,06,40,83,141,46,33,66,146,46,43,53,059,39,28,39,326,27,4*7B
$GBGSV,2,2,06,42,39,051,34,34,16,099,31,4*78
$GNGGA,035106.000,2500.8055200,N,12132.4281000,E,2,57,0.46,13.78,M,15.25,M,4,3335*7D
$GNRMC,035106.000,A,2500.8055200,N,12132.4281000,E,0.05,258.63,270623,,,D,V*02
$GPHDT,0.450,T*34
$GNGGA,035106.200,2500.8055200,N,12132.4280900,E,2,57,0.46,13.78,M,15.25,M,4,3335*77
$GNRMC,035106.200,A,2500.8055200,N,12132.4280900,E,0.05,258.63,270623,,,D,V*08
$GPHDT,359.996,T*3C
$GNGGA,035106.400,2500.8055200,N,12132.4280900,E,2,57,0.46,13.78,M,15.25,M,4,3335*71
$GNRMC,035106.400,A,2500.8055200,N,12132.4280900,E,0.04,258.63,270623,,,D,V*0F
$GPHDT,0.309,T*3F
$GNGGA,035106.600,2500.8055300,N,12132.4280900,E,2,57,0.46,13.78,M,15.25,M,4,3335*72
$GNRMC,035106.600,A,2500.8055300,N,12132.4280900,E,0.03,258.63,270623,,,D,V*0B
$GPHDT,0.947,T*3F
$GNGGA,035106.800,2500.8055300,N,12132.4280900,E,2,57,0.46,13.78,M,15.25,M,4,3335*7C
$GNRMC,035106.800,A,2500.8055300,N,12132.4280900,E,0.04,258.63,270623,,,D,V*02
$GPHDT,0.328,T*3C
