$FW : RTK35X,V1.1X0314AS,Lib20210517,1*54
$Tool : LOCOSYS , GNSS Firebird , v1.0.0.19*39
$---------------------------------------------------*2D
$GPHDT,,T*1B
$GNGGA,035217.600,2500.8055300,N,12132.4262600,E,2,57,0.47,12.49,M,15.25,M,26,3335*40
$GNRMC,035217.600,A,2500.8055300,N,12132.4262600,E,0.00,258.63,270623,,,D,V*08
$GPHDT,,T*1B
$GNGGA,035217.800,2500.8055400,N,12132.4262500,E,2,57,0.47,12.50,M,15.25,M,26,3335*42
$GNRMC,035217.800,A,2500.8055400,N,12132.4262500,E,0.00,258.63,270623,,,D,V*02
$GPHDT,,T*1B
$GNGSA,A,3,19,195,196,17,199,06,194,09,20,11,14,04,0.88,0.47,0.74,1*0D
$GNGSA,A,3,12,,,,,,,,,,,,0.88,0.47,0.74,1*02
$GNGSA,A,3,68,67,82,83,80,73,,,,,,,0.88,0.47,0.74,2*00
$GNGSA,A,3,10,12,11,19,04,25,33,,,,,,0.88,0.47,0.74,3*0A
$GNGSA,A,3,40,07,10,33,14,08,43,28,42,11,34,,0.88,0.47,0.74,4*07
$GPGSV,4,1,16,19,68,027,42,195,67,044,39,196,65,126,40,17,63,083,41,1*64
$GPGSV,4,2,16,199,60,167,37,50,60,167,39,06,50,344,45,194,40,172,25,1*65
$GPGSV,4,3,16,09,34,102,43,20,31,233,19,11,29,288,26,14,23,176,17,1*6B
$GPGSV,4,4,16,04,21,070,39,12,15,316,23,03,07,038,19,05,05,222,,1*6E
$GPGSV,3,1,09,195,67,044,45,196,65,126,46,199,60,167,44,06,50,344,47,8*55
$GPGSV,3,2,09,194,40,172,18,09,34,102,42,14,23,176,10,04,21,070,44,8*5E
$GPGSV,3,3,09,03,07,038,21,8*58
$GLGSV,2,1,07,68,53,145,38,67,45,057,44,82,37,041,42,83,34,344,28,1*75
$GLGSV,2,2,07,80,22,228,18,73,22,286,22,66,03,026,,1*49
$GAGSV,3,1,09,24,50,240,,10,49,337,39,12,47,018,34,11,35,302,24,7*73
$GAGSV,3,2,09,19,31,083,30,04,30,152,28,25,26,305,18,33,14,066,27,7*7E
$GAGSV,3,3,09,09,01,193,,7*49
$GAGSV,2,1,07,10,49,337,43,12,47,018,40,11,35,302,12,19,31,083,39,1*7F
$GAGSV,2,2,07,04,30,152,25,25,26,305,23,33,14,066,31,1*47
$GBGSV,4,1,14,40,83,143,43,07,80,241,28,10,72,286,37,33,66,145,46,1*74
$GBGSV,4,2,14,14,60,077,46,08,58,273,25,43,53,059,45,28,39,327,36,1*7F
$GBGSV,4,3,14,42,38,051,44,11,32,083,41,41,24,197,,23,17,219,14,1*76
$GBGSV,4,4,14,34,16,099,28,37,16,270,,1*7F
$GBGSV,2,1,06,40,83,143,46,33,66,145,49,43,53,059,45,28,39,327,29,4*71
$GBGSV,2,2,06,42,38,051,45,34,16,099,22,4*7D
$GNGGA,035218.000,2500.8055400,N,12132.4262400,E,2,57,0.47,12.50,M,15.25,M,27,3335*45
$GNRMC,035218.000,A,2500.8055400,N,12132.4262400,E,0.00,258.63,270623,,,D,V*04
$GPHDT,,T*1B
$GNGGA,035218.200,2500.8055400,N,12132.4262300,E,2,56,0.47,12.52,M,15.25,M,27,3335*43
$GNRMC,035218.200,A,2500.8055400,N,12132.4262300,E,0.01,258.63,270623,,,D,V*00
$GPHDT,,T*1B
$GNGGA,035218.400,2500.8055500,N,12132.4262300,E,2,55,0.47,12.52,M,15.25,M,23,3335*43
$GNRMC,035218.400,A,2500.8055500,N,12132.4262300,E,0.00,258.63,270623,,,D,V*06
$GPHDT,,T*1B
$GNGGA,035218.600,2500.8055500,N,12132.4262100,E,2,55,0.47,12.52,M,15.25,M,22,3335*42
$GNRMC,035218.600,A,2500.8055500,N,12132.4262100,E,0.00,258.63,270623,,,D,V*06
$GPHDT,,T*1B
$GNGGA,035218.800,2500.8055500,N,12132.4262100,E,2,56,0.47,12.51,M,15.25,M,22,3335*4C
$GNRMC,035218.800,A,2500.8055500,N,12132.4262100,E,0.00,258.63,270623,,,D,V*08
$GPHDT,,T*1B
$GNGSA,A,3,19,195,196,17,199,06,194,09,20,11,14,04,0.88,0.47,0.74,1*0D
$GNGSA,A,3,12,,,,,,,,,,,,0.88,0.47,0.74,1*02
$GNGSA,A,3,68,67,82,83,80,73,,,,,,,0.88,0.47,0.74,2*00
$GNGSA,A,3,10,12,11,19,04,25,33,,,,,,0.88,0.47,0.74,3*0A
$GNGSA,A,3,40,07,10,33,14,08,43,28,42,11,34,,0.88,0.47,0.74,4*07
$GPGSV,4,1,16,19,68,027,42,195,67,044,39,196,65,126,40,17,63,083,41,1*64
$GPGSV,4,2,16,199,60,167,37,50,60,167,39,06,50,344,45,194,40,172,25,1*65
$GPGSV,4,3,16,09,34,102,43,20,31,233,20,11,29,288,26,14,23,176,17,1*61
$GPGSV,4,4,16,04,21,070,38,12,15,316,20,03,07,038,19,05,05,222,,1*6C
$GPGSV,3,1,09,195,67,044,45,196,65,126,46,199,60,167,44,06,50,344,47,8*55
$GPGSV,3,2,09,194,40,172,17,09,34,102,42,11,29,288,29,04,21,070,44,8*56
$GPGSV,3,3,09,03,07,038,21,8*58
$GLGSV,2,1,07,68,53,145,38,67,45,057,44,82,37,041,42,83,34,344,28,1*75
$GLGSV,2,2,07,80,22,228,16,73,22,286,20,66,03,026,,1*45
$GAGSV,3,1,09,24,50,240,,10,49,337,39,12,47,018,34,11,35,302,23,7*74
$GAGSV,3,2,09,19,31,083,31,04,30,152,29,25,26,305,18,33,14,066,26,7*7F
$GAGSV,3,3,09,09,01,193,,7*49
$GAGSV,2,1,07,10,49,337,43,12,47,018,40,11,35,302,14,19,31,083,39,1*79
$GAGSV,2,2,07,04,30,152,25,25,26,305,24,33,14,066,31,1*40
$GBGSV,4,1,14,40,83,143,43,07,80,241,27,10,72,286,37,33,66,145,46,1*7B
$GBGSV,4,2,14,14,60,077,46,08,58,273,26,43,53,059,45,13,49,260,,1*74
$GBGSV,4,3,14,28,39,327,36,42,38,051,44,11,32,083,41,41,24,197,,1*7D
$GBGSV,4,4,14,23,17,219,14,34,16,099,28,1*71
$GBGSV,2,1,06,40,83,143,46,33,66,145,49,43,53,059,45,28,39,327,30,4*79
$GBGSV,2,2,06,42,38,051,45,34,16,099,23,4*7C
$GNGGA,035219.000,2500.8055500,N,12132.4262000,E,2,57,0.47,12.51,M,15.25,M,23,3335*44
$GNRMC,035219.000,A,2500.8055500,N,12132.4262000,E,0.00,258.63,270623,,,D,V*00
$GPHDT,,T*1B
$GNGGA,035219.200,2500.8055500,N,12132.4262000,E,2,57,0.47,12.51,M,15.25,M,23,3335*46
$GNRMC,035219.200,A,2500.8055500,N,12132.4262000,E,0.00,258.63,270623,,,D,V*02
$GPHDT,,T*1B
$GNGGA,035219.400,2500.8055500,N,12132.4262000,E,2,56,0.47,12.51,M,15.25,M,23,3335*41
$GNRMC,035219.400,A,2500.8055500,N,12132.4262000,E,0.12,258.63,270623,,,D,V*07
$GPHDT,,T*1B
$GNGGA,035219.600,2500.8055500,N,12132.4262000,E,2,56,0.47,12.51,M,15.25,M,23,3335*43
$GNRMC,035219.600,A,2500.8055500,N,12132.4262000,E,0.07,258.63,270623,,,D,V*01
$GPHDT,,T*1B
$GNGGA,035219.800,2500.8055500,N,12132.4262000,E,2,56,0.47,12.51,M,15.25,M,23,3335*4D
$GNRMC,035219.800,A,2500.8055500,N,12132.4262000,E,0.03,258.63,270623,,,D,V*0B
$GPHDT,,T*1B
$GNGSA,A,3,19,195,196,17,199,06,194,09,20,11,14,04,0.88,0.47,0.74,1*0D
$GNGSA,A,3,12,,,,,,,,,,,,0.88,0.47,0.74,1*02
$GNGSA,A,3,68,67,82,83,73,80,,,,,,,0.88,0.47,0.74,2*00
$GNGSA,A,3,10,12,11,19,04,25,33,,,,,,0.88,0.47,0.74,3*0A
$GNGSA,A,3,40,07,10,33,14,08,43,28,42,11,34,,0.88,0.47,0.74,4*07
$GPGSV,4,1,15,19,68,027,42,195,67,044,39,196,65,126,40,17,63,083,41,1*67
$GPGSV,4,2,15,50,60,167,39,199,60,167,37,06,50,344,45,194,40,172,24,1*67
$GPGSV,4,3,15,09,34,102,43,20,31,233,18,11,29,288,25,14,23,176,17,1*6A
$GPGSV,4,4,15,04,21,070,38,12,15,316,18,03,07,038,19,1*56
$GPGSV,3,1,09,195,67,044,45,196,65,126,46,199,60,167,44,06,50,344,47,8*55
$GPGSV,3,2,09,194,40,172,17,09,34,102,42,11,29,288,30,04,21,070,44,8*5E
$GPGSV,3,3,09,03,07,038,20,8*59
$GLGSV,2,1,07,68,53,145,38,67,45,057,44,82,37,041,42,83,34,344,28,1*75
$GLGSV,2,2,07,73,22,286,21,80,22,228,16,66,03,026,,1*44
$GAGSV,3,1,09,24,50,240,,10,49,337,39,12,47,018,34,11,35,302,21,7*76
$GAGSV,3,2,09,19,31,083,31,04,30,152,29,25,26,305,18,33,14,066,26,7*7F
$GAGSV,3,3,09,09,01,193,,7*49
$GAGSV,2,1,07,10,49,337,43,12,47,018,40,11,35,302,14,19,31,083,39,1*79
$GAGSV,2,2,07,04,30,152,25,25,26,305,24,33,14,066,30,1*41
$GBGSV,4,1,15,40,83,143,43,07,80,241,28,10,72,286,38,33,66,145,46,1*7A
$GBGSV,4,2,15,14,60,077,46,08,58,273,26,43,53,059,45,13,49,260,,1*75
$GBGSV,4,3,15,28,39,327,36,42,38,051,44,11,32,083,41,41,24,197,,1*7C
$GBGSV,4,4,15,23,17,219,15,37,16,270,,34,16,099,30,1*4E
$GBGSV,2,1,06,40,83,143,46,33,66,145,49,43,53,059,45,28,39,327,28,4*70
$GBGSV,2,2,06,42,38,051,45,34,16,099,23,4*7C
$GNGGA,035220.000,2500.8055500,N,12132.4262000,E,2,56,0.47,12.51,M,15.25,M,24,3335*48
$GNRMC,035220.000,A,2500.8055500,N,12132.4262000,E,0.11,258.63,270623,,,D,V*0A
$GPHDT,,T*1B
$GNGGA,035220.200,2500.8055500,N,12132.4262000,E,2,56,0.47,12.51,M,15.25,M,24,3335*4A
$GNRMC,035220.200,A,2500.8055500,N,12132.4262000,E,0.03,258.63,270623,,,D,V*0B
$GPHDT,,T*1B
$GNGGA,035220.400,2500.8055500,N,12132.4262000,E,2,56,0.47,12.51,M,15.25,M,24,3335*4C
$GNRMC,035220.400,A,2500.8055500,N,12132.4262000,E,0.03,258.63,270623,,,D,V*0D
$GPHDT,,T*1B
$GNGGA,035220.600,2500.8055500,N,12132.4262000,E,2,56,0.47,12.51,M,15.25,M,24,3335*4E
$GNRMC,035220.600,A,2500.8055500,N,12132.4262000,E,0.05,258.63,270623,,,D,V*09
$GPHDT,,T*1B
$GNGGA,035220.800,2500.8055500,N,12132.4262000,E,2,57,0.47,12.51,M,15.25,M,24,3335*41
$GNRMC,035220.800,A,2500.8055500,N,12132.4262000,E,0.05,258.63,270623,,,D,V*07
$GPHDT,,T*1B
$GNGSA,A,3,19,195,196,17,199,06,194,09,20,11,14,04,0.88,0.47,0.74,1*0D
$GNGSA,A,3,12,,,,,,,,,,,,0.88,0.47,0.74,1*02
$GNGSA,A,3,68,67,82,83,73,80,,,,,,,0.88,0.47,0.74,2*00
$GNGSA,A,3,10,12,11,19,04,25,33,,,,,,0.88,0.47,0.74,3*0A
$GNGSA,A,3,40,07,10,33,14,08,43,28,42,11,34,,0.88,0.47,0.74,4*07
$GPGSV,4,1,15,19,68,027,42,195,67,044,39,196,65,126,40,17,63,083,41,1*67
$GPGSV,4,2,15,50,60,167,38,199,60,167,37,06,50,344,45,194,40,172,24,1*66
$GPGSV,4,3,15,09,34,102,43,20,31,233,19,11,29,288,25,14,23,176,16,1*6A
$GPGSV,4,4,15,04,21,070,38,12,15,316,17,03,07,038,19,1*59
$GPGSV,3,1,09,195,67,044,46,196,65,126,46,199,60,167,44,06,50,344,48,8*59
$GPGSV,3,2,09,194,40,172,17,09,34,102,42,11,29,288,31,04,21,070,45,8*5E
$GPGSV,3,3,09,03,07,038,21,8*58
$GLGSV,2,1,07,68,53,145,38,67,45,057,44,82,37,041,42,83,34,344,28,1*75
$GLGSV,2,2,07,73,22,286,21,80,22,228,16,66,03,026,,1*44
$GAGSV,3,1,09,24,50,240,,10,49,337,39,12,47,018,34,11,35,302,22,7*75
$GAGSV,3,2,09,19,31,083,31,04,30,152,29,25,26,305,18,33,14,066,26,7*7F
$GAGSV,3,3,09,09,01,193,,7*49
$GAGSV,2,1,07,10,49,337,44,12,47,018,41,11,35,302,14,19,31,083,39,1*7F
$GAGSV,2,2,07,04,30,152,27,25,26,305,23,33,14,066,30,1*44
$GBGSV,4,1,15,40,83,143,43,07,80,241,27,10,72,286,38,33,66,145,46,1*75
$GBGSV,4,2,15,14,60,077,46,08,58,273,26,43,53,059,45,13,49,260,,1*75
$GBGSV,4,3,15,28,39,327,36,42,38,051,44,11,32,083,41,41,24,197,,1*7C
$GBGSV,4,4,15,23,17,219,16,37,16,270,,34,16,099,30,1*4D
$GBGSV,2,1,06,40,83,143,46,33,66,145,49,43,53,059,45,28,39,327,29,4*71
$GBGSV,2,2,06,42,38,051,45,34,16,099,23,4*7C
$GNGGA,035221.000,2500.8055500,N,12132.4262000,E,2,57,0.47,12.51,M,15.25,M,25,3335*49
$GNRMC,035221.000,A,2500.8055500,N,12132.4262000,E,0.03,258.63,270623,,,D,V*08
$GPHDT,,T*1B
$GNGGA,035221.200,2500.8055500,N,12132.4262000,E,2,57,0.47,12.51,M,15.25,M,25,3335*4B
$GNRMC,035221.200,A,2500.8055500,N,12132.4262000,E,0.01,258.63,270623,,,D,V*08
$GPHDT,,T*1B
$GNGGA,035221.400,2500.8055500,N,12132.4262000,E,2,56,0.48,12.51,M,15.25,M,25,3335*43
$GNRMC,035221.400,A,2500.8055500,N,12132.4262000,E,0.03,258.63,270623,,,D,V*0C
$GPHDT,,T*1B
$GNGGA,035221.600,2500.8055500,N,12132.4262000,E,2,57,0.47,12.51,M,15.25,M,25,3335*4F
$GNRMC,035221.600,A,2500.8055500,N,12132.4262000,E,0.06,258.63,270623,,,D,V*0B
$GPHDT,,T*1B
$GNGGA,035221.800,2500.8055500,N,12132.4262000,E,2,58,0.47,12.51,M,15.25,M,25,3335*4E
$GNRMC,035221.800,A,2500.8055500,N,12132.4262000,E,0.06,258.63,270623,,,D,V*05
$GPHDT,,T*1B
$GNGSA,A,3,19,195,196,17,199,06,194,09,20,11,14,04,0.88,0.47,0.74,1*0D
$GNGSA,A,3,12,,,,,,,,,,,,0.88,0.47,0.74,1*02
$GNGSA,A,3,68,67,82,83,80,73,,,,,,,0.88,0.47,0.74,2*00
$GNGSA,A,3,10,12,11,19,04,25,33,,,,,,0.88,0.47,0.74,3*0A
$GNGSA,A,3,40,07,10,33,14,08,43,28,42,11,34,,0.88,0.47,0.74,4*07
$GPGSV,4,1,16,19,68,027,42,195,67,044,39,196,65,126,40,17,63,083,41,1*64
$GPGSV,4,2,16,199,60,167,37,50,60,167,39,06,50,344,45,194,40,172,23,1*63
$GPGSV,4,3,16,09,34,102,43,20,31,233,18,11,29,288,26,14,23,176,16,1*6B
$GPGSV,4,4,16,04,21,070,38,12,15,316,17,03,07,038,19,05,05,222,,1*68
$GPGSV,3,1,09,195,67,044,46,196,65,126,46,199,60,167,44,06,50,344,48,8*59
$GPGSV,3,2,09,194,40,172,17,09,34,102,42,11,29,288,29,04,21,070,45,8*57
$GPGSV,3,3,09,03,07,038,21,8*58
$GLGSV,2,1,07,68,53,145,37,67,45,057,44,82,37,041,42,83,34,344,28,1*7A
$GLGSV,2,2,07,80,22,228,17,73,22,286,21,66,03,026,,1*45
$GAGSV,3,1,09,24,50,240,,10,49,337,39,12,47,018,34,11,35,302,23,7*74
$GAGSV,3,2,09,19,31,083,31,04,30,152,29,25,26,305,17,33,14,066,27,7*71
$GAGSV,3,3,09,09,01,193,,7*49
$GAGSV,2,1,07,10,49,337,44,12,47,018,41,11,35,302,12,19,31,083,39,1*79
$GAGSV,2,2,07,04,30,152,27,25,26,305,22,33,14,066,30,1*45
$GBGSV,4,1,14,40,83,143,43,07,80,241,27,10,72,286,38,33,66,145,46,1*74
$GBGSV,4,2,14,14,60,077,46,08,58,273,27,43,53,059,45,13,49,260,,1*75
$GBGSV,4,3,14,28,39,327,36,42,38,051,44,11,32,083,41,41,24,197,,1*7D
$GBGSV,4,4,14,23,17,219,14,34,16,099,29,1*70
$GBGSV,2,1,06,40,83,143,46,33,66,145,49,43,53,059,45,28,39,327,28,4*70
$GBGSV,2,2,06,42,38,051,45,34,16,099,22,4*7D
$GNGGA,035222.000,2500.8055500,N,12132.4262000,E,2,57,0.47,12.50,M,15.25,M,26,3335*48
$GNRMC,035222.000,A,2500.8055500,N,12132.4262000,E,0.07,258.63,270623,,,D,V*0F
$GPHDT,,T*1B
$GNGGA,035222.200,2500.8055500,N,12132.4262000,E,2,55,0.48,12.50,M,15.25,M,26,3335*47
$GNRMC,035222.200,A,2500.8055500,N,12132.4262000,E,0.01,258.63,270623,,,D,V*0B
$GPHDT,,T*1B
$GNGGA,035222.400,2500.8055500,N,12132.4262000,E,2,56,0.47,12.50,M,15.25,M,26,3335*4D
$GNRMC,035222.400,A,2500.8055500,N,12132.4262000,E,0.01,258.63,270623,,,D,V*0D
$GPHDT,,T*1B
$GNGGA,035222.600,2500.8055500,N,12132.4262000,E,2,56,0.47,12.50,M,15.25,M,26,3335*4F
$GNRMC,035222.600,A,2500.8055500,N,12132.4262000,E,0.00,258.63,270623,,,D,V*0E
$GPHDT,,T*1B
$GNGGA,035222.800,2500.8055500,N,12132.4262000,E,2,55,0.48,12.50,M,15.25,M,26,3335*4D
$GNRMC,035222.800,A,2500.8055500,N,12132.4262000,E,0.08,258.63,270623,,,D,V*08
$GPHDT,,T*1B
$GNGSA,A,3,19,195,196,17,199,06,194,09,20,11,14,04,0.88,0.47,0.74,1*0D
$GNGSA,A,3,12,,,,,,,,,,,,0.88,0.47,0.74,1*02
$GNGSA,A,3,68,67,82,83,80,73,,,,,,,0.88,0.47,0.74,2*00
$GNGSA,A,3,10,12,11,19,04,25,33,,,,,,0.88,0.47,0.74,3*0A
$GNGSA,A,3,40,07,10,33,14,08,43,28,42,11,34,,0.88,0.47,0.74,4*07
$GPGSV,4,1,16,19,68,027,42,195,67,044,39,196,65,126,40,17,63,083,41,1*64
$GPGSV,4,2,16,199,60,167,37,50,60,167,39,06,50,344,45,194,40,172,22,1*62
$GPGSV,4,3,16,09,34,102,43,20,31,233,18,11,29,288,26,14,23,176,16,1*6B
$GPGSV,4,4,16,04,21,070,38,12,15,316,18,03,07,038,18,05,05,222,,1*66
$GPGSV,3,1,09,195,67,044,45,196,65,126,46,199,60,167,44,06,50,344,48,8*5A
$GPGSV,3,2,09,194,40,172,15,09,34,102,42,11,29,288,32,04,21,070,45,8*5F
$GPGSV,3,3,09,03,07,038,21,8*58
$GLGSV,2,1,07,68,53,145,37,67,45,057,45,82,37,041,43,83,34,344,28,1*7A
$GLGSV,2,2,07,80,22,228,17,73,22,286,21,66,03,026,,1*45
$GAGSV,3,1,09,24,50,240,,10,49,338,39,12,47,018,36,11,35,302,24,7*7E
$GAGSV,3,2,09,19,31,083,32,04,30,152,29,25,26,305,19,33,14,066,27,7*7C
$GAGSV,3,3,09,09,01,192,,7*48
$GAGSV,2,1,06,10,49,338,44,12,47,018,41,19,31,083,38,04,30,152,26,1*77
$GAGSV,2,2,06,25,26,305,22,33,14,066,29,1*78
$GBGSV,4,1,15,40,83,143,43,07,80,241,29,10,72,286,38,33,66,145,46,1*7B
$GBGSV,4,2,15,14,60,077,46,08,58,273,24,43,53,059,45,13,49,260,,1*77
$GBGSV,4,3,15,28,39,327,36,42,38,051,44,11,32,083,42,41,24,197,,1*7F
$GBGSV,4,4,15,23,17,219,15,34,16,099,25,37,16,270,,1*4A
$GBGSV,2,1,06,40,83,143,46,33,66,145,49,43,53,059,45,28,39,327,28,4*70
$GBGSV,2,2,06,42,38,051,45,34,16,099,23,4*7C
$GNGGA,035223.000,2500.8055500,N,12132.4262000,E,2,56,0.47,12.50,M,15.25,M,27,3335*49
$GNRMC,035223.000,A,2500.8055500,N,12132.4262000,E,0.11,258.63,270623,,,D,V*09
$GPHDT,,T*1B
$GNGGA,035223.200,2500.8055500,N,12132.4262000,E,2,54,0.49,12.50,M,15.25,M,27,3335*47
$GNRMC,035223.200,A,2500.8055500,N,12132.4262000,E,0.01,258.63,270623,,,D,V*0A
