$FW : RTK35X,V1.1X0314AS,Lib20210517,1*54
$Tool : LOCOSYS , GNSS Firebird , v1.0.0.19*39
$---------------------------------------------------*2D
$GPHDT,,T*1B
$GNGGA,035202.400,2500.8055800,N,12132.4267200,E,2,54,0.50,12.83,M,15.25,M,11,3335*4B
$GNRMC,035202.400,A,2500.8055800,N,12132.4267200,E,0.10,258.63,270623,,,D,V*05
$GPHDT,,T*1B
$GNGGA,035202.600,2500.8055800,N,12132.4267100,E,2,54,0.50,12.82,M,15.25,M,11,3335*4B
$GNRMC,035202.600,A,2500.8055800,N,12132.4267100,E,0.10,258.63,270623,,,D,V*04
$GPHDT,,T*1B
$GNGGA,035202.800,2500.8055800,N,12132.4267100,E,2,54,0.50,12.81,M,15.25,M,11,3335*46
$GNRMC,035202.800,A,2500.8055800,N,12132.4267100,E,0.10,258.63,270623,,,D,V*0A
$GPHDT,,T*1B
$GNGSA,A,3,19,195,196,17,199,06,194,09,20,11,14,04,0.91,0.48,0.77,1*09
$GNGSA,A,3,12,,,,,,,,,,,,0.91,0.48,0.77,1*06
$GNGSA,A,3,68,67,82,83,80,,,,,,,,0.91,0.48,0.77,2*00
$GNGSA,A,3,10,12,11,19,04,33,25,,,,,,0.91,0.48,0.77,3*0E
$GNGSA,A,3,40,07,10,33,14,43,28,42,11,34,,,0.91,0.48,0.77,4*0B
$GPGSV,4,1,16,19,68,026,43,195,67,044,40,196,65,126,40,17,63,082,37,1*6A
$GPGSV,4,2,16,199,60,167,36,50,60,167,38,06,50,344,41,194,40,172,26,1*62
$GPGSV,4,3,16,09,34,103,42,20,31,232,15,11,28,288,29,14,23,176,17,1*68
$GPGSV,4,4,16,04,21,070,40,12,15,316,15,03,07,038,20,05,05,222,,1*6F
$GPGSV,2,1,08,195,67,044,44,196,65,126,47,199,60,167,43,06,50,344,46,8*53
$GPGSV,2,2,08,09,34,103,44,11,28,288,31,14,23,176,15,04,21,070,43,8*64
$GLGSV,2,1,07,68,53,145,36,67,45,057,42,82,37,041,41,83,34,344,24,1*72
$GLGSV,2,2,07,73,22,286,,80,22,228,16,66,03,026,14,1*42
$GAGSV,2,1,08,24,50,240,,10,49,337,40,12,47,018,33,11,35,302,23,7*7D
$GAGSV,2,2,08,19,31,083,32,04,30,152,28,25,26,305,,33,14,066,25,7*77
$GAGSV,2,1,07,10,49,337,42,12,47,018,40,11,35,302,16,19,31,083,40,1*74
$GAGSV,2,2,07,04,30,152,26,25,26,305,24,33,14,066,30,1*42
$GBGSV,4,1,15,40,83,142,44,07,80,241,27,10,72,286,37,33,66,146,46,1*7F
$GBGSV,4,2,15,14,60,078,45,08,58,273,19,43,53,059,45,13,49,260,,1*75
$GBGSV,4,3,15,28,39,326,22,42,38,051,45,11,32,083,39,41,24,197,,1*76
$GBGSV,4,4,15,23,17,219,16,37,16,271,,34,16,099,29,1*44
$GBGSV,2,1,06,40,83,142,46,33,66,146,47,43,53,059,45,28,39,326,28,4*7D
$GBGSV,2,2,06,42,38,051,44,34,16,099,30,4*7F
$GNGGA,035203.000,2500.8055800,N,12132.4267000,E,2,55,0.48,12.80,M,15.25,M,12,3335*44
$GNRMC,035203.000,A,2500.8055800,N,12132.4267000,E,0.10,258.63,270623,,,D,V*02
$GPHDT,,T*1B
$GNGGA,035203.200,2500.8055800,N,12132.4266900,E,2,55,0.48,12.79,M,15.25,M,12,3335*48
$GNRMC,035203.200,A,2500.8055800,N,12132.4266900,E,0.10,258.63,270623,,,D,V*08
$GPHDT,,T*1B
$GNGGA,035203.400,2500.8055800,N,12132.4266900,E,2,55,0.48,12.78,M,15.25,M,12,3335*4F
$GNRMC,035203.400,A,2500.8055800,N,12132.4266900,E,0.10,258.63,270623,,,D,V*0E
$GPHDT,,T*1B
$GNGGA,035203.600,2500.8055800,N,12132.4266800,E,2,56,0.48,12.77,M,15.25,M,12,3335*40
$GNRMC,035203.600,A,2500.8055800,N,12132.4266800,E,0.10,258.63,270623,,,D,V*0D
$GPHDT,,T*1B
$GNGGA,035203.800,2500.8055900,N,12132.4266800,E,2,56,0.48,12.76,M,15.25,M,12,3335*4E
$GNRMC,035203.800,A,2500.8055900,N,12132.4266800,E,0.10,258.63,270623,,,D,V*02
$GPHDT,,T*1B
$GNGSA,A,3,19,195,196,17,199,06,194,09,20,11,14,04,0.90,0.48,0.76,1*09
$GNGSA,A,3,12,,,,,,,,,,,,0.90,0.48,0.76,1*06
$GNGSA,A,3,68,67,82,83,80,,,,,,,,0.90,0.48,0.76,2*00
$GNGSA,A,3,10,12,11,19,04,33,25,,,,,,0.90,0.48,0.76,3*0E
$GNGSA,A,3,40,07,10,33,14,08,43,28,42,11,34,,0.90,0.48,0.76,4*03
$GPGSV,4,1,16,19,68,026,43,195,67,044,40,196,65,126,40,17,63,082,35,1*68
$GPGSV,4,2,16,199,60,167,36,50,60,167,37,06,50,344,41,194,40,172,26,1*6D
$GPGSV,4,3,16,09,34,103,42,20,31,232,13,11,28,288,29,14,23,176,17,1*6E
$GPGSV,4,4,16,04,21,070,40,12,15,316,16,03,07,038,21,05,05,222,,1*6D
$GPGSV,2,1,08,195,67,044,44,196,65,126,47,199,60,167,43,06,50,344,46,8*53
$GPGSV,2,2,08,09,34,103,44,11,28,288,31,14,23,176,15,04,21,070,42,8*65
$GLGSV,2,1,07,68,53,145,35,67,45,057,42,82,37,041,41,83,34,344,26,1*73
$GLGSV,2,2,07,73,22,286,,80,22,228,16,66,03,026,15,1*43
$GAGSV,2,1,08,24,50,240,,10,49,337,39,12,47,018,32,11,35,302,23,7*72
$GAGSV,2,2,08,19,31,083,34,04,30,152,28,25,26,305,,33,14,066,25,7*71
$GAGSV,2,1,07,10,49,337,43,12,47,018,40,11,35,302,15,19,31,083,40,1*76
$GAGSV,2,2,07,04,30,152,26,25,26,305,21,33,14,066,31,1*46
$GBGSV,4,1,15,40,83,142,44,07,80,241,28,10,72,286,37,33,66,146,46,1*70
$GBGSV,4,2,15,14,60,077,45,08,58,273,23,43,53,059,45,13,49,260,,1*73
$GBGSV,4,3,15,28,39,326,33,42,38,051,45,11,32,083,40,41,24,197,,1*78
$GBGSV,4,4,15,23,17,219,17,37,16,271,,34,16,099,28,1*44
$GBGSV,2,1,06,40,83,142,46,33,66,146,48,43,53,059,45,28,39,326,33,4*78
$GBGSV,2,2,06,42,38,051,44,34,16,099,29,4*77
$GNGGA,035204.000,2500.8055900,N,12132.4266800,E,2,56,0.48,12.75,M,15.25,M,13,3335*43
$GNRMC,035204.000,A,2500.8055900,N,12132.4266800,E,0.09,258.63,270623,,,D,V*05
$GPHDT,,T*1B
$GNGGA,035204.200,2500.8055900,N,12132.4266800,E,2,56,0.48,12.74,M,15.25,M,13,3335*40
$GNRMC,035204.200,A,2500.8055900,N,12132.4266800,E,0.09,258.63,270623,,,D,V*07
$GPHDT,,T*1B
$GNGGA,035204.400,2500.8055900,N,12132.4266700,E,2,57,0.47,12.73,M,15.25,M,13,3335*40
$GNRMC,035204.400,A,2500.8055900,N,12132.4266700,E,0.09,258.63,270623,,,D,V*0E
$GPHDT,,T*1B
$GNGGA,035204.600,2500.8055900,N,12132.4266600,E,2,57,0.47,12.73,M,15.25,M,13,3335*43
$GNRMC,035204.600,A,2500.8055900,N,12132.4266600,E,0.09,258.63,270623,,,D,V*0D
$GPHDT,,T*1B
$GNGGA,035204.800,2500.8055800,N,12132.4266600,E,2,57,0.47,12.72,M,15.25,M,13,3335*4D
$GNRMC,035204.800,A,2500.8055800,N,12132.4266600,E,0.09,258.63,270623,,,D,V*02
$GPHDT,,T*1B
$GNGSA,A,3,19,195,196,17,199,06,194,09,20,11,14,04,0.87,0.47,0.73,1*05
$GNGSA,A,3,12,,,,,,,,,,,,0.87,0.47,0.73,1*0A
$GNGSA,A,3,68,67,82,83,80,,,,,,,,0.87,0.47,0.73,2*0C
$GNGSA,A,3,10,12,11,19,04,33,25,,,,,,0.87,0.47,0.73,3*02
$GNGSA,A,3,40,07,10,33,14,08,43,28,42,11,23,34,0.87,0.47,0.73,4*0E
$GPGSV,4,1,16,19,68,026,43,195,67,044,39,196,65,126,40,17,63,082,36,1*65
$GPGSV,4,2,16,199,60,167,36,50,60,167,37,06,50,344,43,194,40,172,25,1*6C
$GPGSV,4,3,16,09,34,103,42,20,31,232,13,11,28,288,29,14,23,176,17,1*6E
$GPGSV,4,4,16,04,21,070,40,12,15,316,18,03,07,038,22,05,05,222,,1*60
$GPGSV,2,1,08,195,67,044,44,196,65,126,47,199,60,167,44,06,50,344,44,8*56
$GPGSV,2,2,08,09,34,103,45,11,28,288,31,14,23,176,15,04,21,070,42,8*64
$GLGSV,2,1,07,68,53,145,35,67,45,057,42,82,37,041,41,83,34,344,27,1*72
$GLGSV,2,2,07,73,22,286,17,80,22,228,18,66,03,026,13,1*4D
$GAGSV,2,1,08,24,50,240,,10,49,337,39,12,47,018,34,11,35,302,24,7*73
$GAGSV,2,2,08,19,31,083,33,04,30,152,31,25,26,305,,33,14,066,25,7*7E
$GAGSV,2,1,07,10,49,337,43,12,47,018,40,11,35,302,16,19,31,083,40,1*75
$GAGSV,2,2,07,04,30,152,27,25,26,305,24,33,14,066,31,1*42
$GBGSV,4,1,15,40,83,142,43,07,80,241,28,10,72,286,36,33,66,146,46,1*76
$GBGSV,4,2,15,14,60,077,45,08,58,273,25,43,53,059,45,13,49,260,,1*75
$GBGSV,4,3,15,28,39,326,30,42,38,051,45,11,32,083,41,41,24,197,,1*7A
$GBGSV,4,4,15,23,17,219,17,37,16,271,,34,16,099,28,1*44
$GBGSV,2,1,06,40,83,142,46,33,66,146,48,43,53,059,44,28,39,326,30,4*7A
$GBGSV,2,2,06,42,38,051,44,34,16,099,25,4*7B
$GNGGA,035205.000,2500.8055800,N,12132.4266600,E,2,57,0.47,12.72,M,15.25,M,14,3335*43
$GNRMC,035205.000,A,2500.8055800,N,12132.4266600,E,0.09,258.63,270623,,,D,V*0B
$GPHDT,,T*1B
$GNGGA,035205.200,2500.8055800,N,12132.4266600,E,2,57,0.47,12.72,M,15.25,M,14,3335*41
$GNRMC,035205.200,A,2500.8055800,N,12132.4266600,E,0.09,258.63,270623,,,D,V*09
$GPHDT,,T*1B
$GNGGA,035205.400,2500.8055800,N,12132.4266600,E,2,56,0.47,12.71,M,15.25,M,14,3335*45
$GNRMC,035205.400,A,2500.8055800,N,12132.4266600,E,0.09,258.63,270623,,,D,V*0F
$GPHDT,,T*1B
$GNGGA,035205.600,2500.8055800,N,12132.4266600,E,2,56,0.47,12.71,M,15.25,M,14,3335*47
$GNRMC,035205.600,A,2500.8055800,N,12132.4266600,E,0.08,258.63,270623,,,D,V*0C
$GPHDT,,T*1B
$GNGGA,035205.800,2500.8055800,N,12132.4266600,E,2,56,0.47,12.70,M,15.25,M,14,3335*48
$GNRMC,035205.800,A,2500.8055800,N,12132.4266600,E,0.08,258.63,270623,,,D,V*02
$GPHDT,,T*1B
$GNGSA,A,3,19,195,196,17,199,06,194,09,11,14,04,12,0.87,0.47,0.73,1*04
$GNGSA,A,3,68,67,82,83,80,,,,,,,,0.87,0.47,0.73,2*0C
$GNGSA,A,3,10,12,11,19,04,33,25,,,,,,0.87,0.47,0.73,3*02
$GNGSA,A,3,40,07,10,33,14,08,43,28,42,11,23,34,0.87,0.47,0.73,4*0E
$GPGSV,4,1,16,19,68,026,44,195,67,044,39,196,65,126,40,17,63,082,35,1*61
$GPGSV,4,2,16,199,60,167,36,50,60,167,38,06,50,344,42,194,40,172,25,1*62
$GPGSV,4,3,16,09,34,103,43,20,31,232,14,11,28,288,30,14,23,176,18,1*6F
$GPGSV,4,4,16,04,21,070,40,12,15,316,19,03,07,038,22,05,05,222,,1*61
$GPGSV,2,1,08,195,67,044,44,196,65,126,47,199,60,167,44,06,50,344,44,8*56
$GPGSV,2,2,08,09,34,103,45,11,28,288,31,14,23,176,11,04,21,070,40,8*62
$GLGSV,2,1,07,68,53,145,36,67,45,057,42,82,37,041,41,83,34,344,27,1*71
$GLGSV,2,2,07,73,22,286,16,80,22,228,18,66,03,026,15,1*4A
$GAGSV,2,1,08,24,50,240,,10,49,337,40,12,47,018,34,11,35,302,23,7*7A
$GAGSV,2,2,08,19,31,083,34,04,30,152,31,25,26,305,,33,14,066,25,7*79
$GAGSV,2,1,07,10,49,337,43,12,47,018,40,11,35,302,16,19,31,083,39,1*7B
$GAGSV,2,2,07,04,30,152,27,25,26,305,24,33,14,066,31,1*42
$GBGSV,4,1,15,40,83,142,43,07,80,241,29,10,72,286,38,33,66,146,46,1*79
$GBGSV,4,2,15,14,60,077,45,08,58,273,27,43,53,059,45,13,49,260,,1*77
$GBGSV,4,3,15,28,39,326,31,42,38,051,45,11,32,083,41,41,24,197,,1*7B
$GBGSV,4,4,15,23,17,219,16,37,16,271,,34,16,099,27,1*4A
$GBGSV,2,1,06,40,83,142,45,33,66,146,47,43,53,059,44,28,39,326,31,4*77
$GBGSV,2,2,06,42,38,051,44,34,16,099,25,4*7B
$GNGGA,035206.000,2500.8055800,N,12132.4266700,E,2,56,0.47,12.70,M,15.25,M,15,3335*43
$GNRMC,035206.000,A,2500.8055800,N,12132.4266700,E,0.08,258.63,270623,,,D,V*08
$GPHDT,,T*1B
$GNGGA,035206.200,2500.8055900,N,12132.4266700,E,2,56,0.47,12.70,M,15.25,M,15,3335*40
$GNRMC,035206.200,A,2500.8055900,N,12132.4266700,E,0.08,258.63,270623,,,D,V*0B
$GPHDT,,T*1B
$GNGGA,035206.400,2500.8056000,N,12132.4266700,E,2,56,0.47,12.70,M,15.25,M,15,3335*4C
$GNRMC,035206.400,A,2500.8056000,N,12132.4266700,E,0.08,258.63,270623,,,D,V*07
$GPHDT,,T*1B
$GNGGA,035206.600,2500.8056000,N,12132.4266700,E,2,56,0.47,12.70,M,15.25,M,15,3335*4E
$GNRMC,035206.600,A,2500.8056000,N,12132.4266700,E,0.07,258.63,270623,,,D,V*0A
$GPHDT,,T*1B
$GNGGA,035206.800,2500.8055900,N,12132.4266600,E,2,56,0.47,12.69,M,15.25,M,15,3335*43
$GNRMC,035206.800,A,2500.8055900,N,12132.4266600,E,0.08,258.63,270623,,,D,V*00
$GPHDT,,T*1B
$GNGSA,A,3,19,195,196,17,199,06,194,09,11,14,04,12,0.85,0.46,0.72,1*06
$GNGSA,A,3,68,67,82,83,73,80,,,,,,,0.85,0.46,0.72,2*0A
$GNGSA,A,3,10,12,11,19,04,33,25,,,,,,0.85,0.46,0.72,3*00
$GNGSA,A,3,40,07,10,33,14,08,43,28,42,11,23,34,0.85,0.46,0.72,4*0C
$GPGSV,4,1,16,19,68,026,44,195,67,044,39,196,65,126,40,17,63,082,33,1*67
$GPGSV,4,2,16,199,60,167,35,50,60,167,36,06,50,344,42,194,40,172,25,1*6F
$GPGSV,4,3,16,09,34,103,43,20,31,232,18,11,28,288,30,14,23,176,18,1*63
$GPGSV,4,4,16,04,21,070,40,12,15,316,21,03,07,038,21,05,05,222,,1*69
$GPGSV,2,1,08,195,67,044,44,196,65,126,47,199,60,167,44,06,50,344,45,8*57
$GPGSV,2,2,08,09,34,103,45,11,28,288,31,14,23,176,11,04,21,070,40,8*62
$GLGSV,2,1,07,68,53,145,37,67,45,057,42,82,37,041,42,83,34,344,27,1*73
$GLGSV,2,2,07,73,22,286,17,80,22,228,18,66,03,026,12,1*4C
$GAGSV,2,1,08,24,50,240,,10,49,337,40,12,47,018,34,11,35,302,23,7*7A
$GAGSV,2,2,08,19,31,083,34,04,30,152,30,25,26,305,,33,14,066,24,7*79
$GAGSV,2,1,07,10,49,337,43,12,47,018,41,11,35,302,17,19,31,083,39,1*7B
$GAGSV,2,2,07,04,30,152,25,25,26,305,26,33,14,066,31,1*42
$GBGSV,4,1,15,40,83,142,43,07,80,241,29,10,72,286,38,33,66,146,46,1*79
$GBGSV,4,2,15,14,60,077,45,08,58,273,26,43,53,059,45,13,49,260,,1*76
$GBGSV,4,3,15,28,39,327,32,42,38,051,45,11,32,083,41,41,24,197,,1*79
$GBGSV,4,4,15,23,17,219,15,37,16,271,,34,16,099,27,1*49
$GBGSV,2,1,06,40,83,142,45,33,66,146,47,43,53,059,44,28,39,327,31,4*76
$GBGSV,2,2,06,42,38,051,44,34,16,099,27,4*79
$GNGGA,035207.000,2500.8055900,N,12132.4266600,E,2,57,0.46,12.70,M,15.25,M,16,3335*41
$GNRMC,035207.000,A,2500.8055900,N,12132.4266600,E,0.08,258.63,270623,,,D,V*09
$GPHDT,,T*1B
$GNGGA,035207.200,2500.8055800,N,12132.4266600,E,2,57,0.46,12.70,M,15.25,M,16,3335*42
$GNRMC,035207.200,A,2500.8055800,N,12132.4266600,E,0.08,258.63,270623,,,D,V*0A
$GPHDT,,T*1B
$GNGGA,035207.400,2500.8055900,N,12132.4266600,E,2,57,0.46,12.69,M,15.25,M,16,3335*4D
$GNRMC,035207.400,A,2500.8055900,N,12132.4266600,E,0.08,258.63,270623,,,D,V*0D
$GPHDT,,T*1B
$GNGGA,035207.600,2500.8055900,N,12132.4266500,E,2,57,0.46,12.70,M,15.25,M,16,3335*44
$GNRMC,035207.600,A,2500.8055900,N,12132.4266500,E,0.07,258.63,270623,,,D,V*03
$GPHDT,,T*1B
$GNGGA,035207.800,2500.8055900,N,12132.4266500,E,2,57,0.46,12.71,M,15.25,M,16,3335*4B
$GNRMC,035207.800,A,2500.8055900,N,12132.4266500,E,0.07,258.63,270623,,,D,V*0D
$GPHDT,,T*1B
$GNGSA,A,3,19,195,196,17,199,06,194,09,20,11,14,04,0.85,0.45,0.72,1*04
$GNGSA,A,3,12,,,,,,,,,,,,0.85,0.45,0.72,1*0B
$GNGSA,A,3,68,67,82,83,73,80,,,,,,,0.85,0.45,0.72,2*09
$GNGSA,A,3,10,12,11,19,04,33,25,,,,,,0.85,0.45,0.72,3*03
$GNGSA,A,3,40,07,10,33,14,08,43,28,42,11,23,34,0.85,0.45,0.72,4*0F
$GPGSV,4,1,15,19,68,026,44,195,67,044,39,196,65,126,40,17,63,082,36,1*61
$GPGSV,4,2,15,50,60,167,36,199,60,167,35,06,50,344,41,194,40,172,25,1*6F
$GPGSV,4,3,15,09,34,103,43,20,31,232,17,11,28,288,30,14,23,176,19,1*6E
$GPGSV,4,4,15,04,21,070,40,12,15,316,20,03,07,038,21,1*59
$GPGSV,2,1,08,195,67,044,44,196,65,126,47,199,60,167,44,06,50,344,45,8*57
$GPGSV,2,2,08,09,34,103,45,11,28,288,31,14,23,176,11,04,21,070,41,8*63
$GLGSV,2,1,07,68,53,145,36,67,45,057,42,82,37,041,42,83,34,344,27,1*72
$GLGSV,2,2,07,73,22,286,16,80,22,228,19,66,03,026,12,1*4C
$GAGSV,2,1,08,24,50,240,,10,49,337,40,12,47,018,34,11,35,302,23,7*7A
$GAGSV,2,2,08,19,31,083,33,04,30,152,27,25,26,305,,33,14,066,26,7*7A
$GAGSV,2,1,07,10,49,337,43,12,47,018,41,11,35,302,17,19,31,083,39,1*7B
$GAGSV,2,2,07,04,30,152,27,25,26,305,25,33,14,066,31,1*43
$GBGSV,4,1,15,40,83,142,43,07,80,241,29,10,72,286,38,33,66,145,46,1*7A
$GBGSV,4,2,15,14,60,077,45,08,58,273,25,43,53,059,45,13,49,260,,1*75
$GBGSV,4,3,15,28,39,327,33,42,38,051,45,11,32,083,41,41,24,197,,1*78
$GBGSV,4,4,15,23,17,219,15,34,16,099,27,37,16,270,,1*48
$GBGSV,2,1,06,40,83,142,45,33,66,145,47,43,53,059,44,28,39,327,33,4*77
$GBGSV,2,2,06,42,38,051,44,34,16,099,28,4*76
$GNGGA,035208.000,2500.8055900,N,12132.4266400,E,2,58,0.45,12.71,M,15.25,M,17,3335*40
$GNRMC,035208.000,A,2500.8055900,N,12132.4266400,E,0.07,258.63,270623,,,D,V*0B
$GPHDT,,T*1B
$GNGGA,035208.200,2500.8055900,N,12132.4266400,E,2,58,0.45,12.71,M,15.25,M,17,3335*42
$GNRMC,035208.200,A,2500.8055900,N,12132.4266400,E,0.07,258.63,270623,,,D,V*09
$GPHDT,,T*1B
$GNGGA,035208.400,2500.8055800,N,12132.4266300,E,2,58,0.45,12.69,M,15.25,M,17,3335*4B
$GNRMC,035208.400,A,2500.8055800,N,12132.4266300,E,0.07,258.63,270623,,,D,V*09
$GPHDT,,T*1B
