$FW : RTK35X,V1.1X0314AS,Lib20210517,1*54
$Tool : LOCOSYS , GNSS Firebird , v1.0.0.19*39
$---------------------------------------------------*2D
$GNGGA,095651.800,2500.7811037,N,12132.4646294,E,4,47,0.57,15.911,M,15.25,M,1,3335*49
$GNRMC,095651.800,A,2500.7811037,N,12132.4646294,E,0.03,215.58,260623,,,R,V*14
$GPHDT,,T*1B
$GNGSA,A,3,196,199,15,24,195,05,13,29,194,11,,,1.15,0.58,0.99,1*09
$GNGSA,A,3,84,85,69,79,80,,,,,,,,1.15,0.58,0.99,2*02
$GNGSA,A,3,08,13,15,07,03,,,,,,,,1.15,0.58,0.99,3*01
$GNGSA,A,3,38,39,16,06,13,20,29,37,46,32,,,1.15,0.58,0.99,4*00
$GPGSV,4,1,14,196,72,048,40,199,60,167,38,15,59,355,36,24,55,177,44,1*62
$GPGSV,4,2,14,195,50,175,44,18,43,316,18,05,40,076,45,41,38,242,30,1*57
$GPGSV,4,3,14,13,37,033,38,29,24,228,42,20,23,100,,23,20,311,13,1*68
$GPGSV,4,4,14,194,18,148,24,11,12,147,19,1*56
$GPGSV,2,1,05,196,72,048,44,199,60,167,48,24,55,177,46,195,50,175,46,8*5B
$GPGSV,2,2,05,11,12,147,12,8*5A
$GLGSV,2,1,05,84,55,210,33,85,40,312,18,69,29,028,28,79,25,076,39,1*77
$GLGSV,2,2,05,80,23,134,28,1*48
$GAGSV,2,1,08,08,63,337,35,13,60,308,27,15,59,167,40,07,33,260,34,7*76
$GAGSV,2,2,08,03,29,040,34,02,10,118,,34,10,151,,26,09,324,,7*70
$GAGSV,2,1,05,08,63,337,38,13,60,308,32,15,59,167,45,07,33,260,37,1*72
$GAGSV,2,2,05,03,29,040,35,1*4A
$GBGSV,4,1,14,38,69,028,44,39,69,213,44,16,59,207,45,06,57,207,42,1*75
$GBGSV,4,2,14,13,53,343,20,20,50,010,36,29,45,247,46,09,40,209,19,1*73
$GBGSV,4,3,14,19,34,302,,37,33,086,45,46,30,154,37,35,19,307,,1*7E
$GBGSV,4,4,14,32,18,066,28,07,09,201,,1*7C
$GBGSV,2,1,07,38,69,028,44,39,69,213,46,20,50,010,40,29,45,247,45,4*76
$GBGSV,2,2,07,37,33,086,43,46,30,154,31,32,18,066,35,4*44
$GNGGA,095652.000,2500.7811034,N,12132.4646291,E,4,47,0.58,15.906,M,15.25,M,2,3335*4E
$GNRMC,095652.000,A,2500.7811034,N,12132.4646291,E,0.02,215.58,260623,,,R,V*18
$GPHDT,,T*1B
$GNGGA,095652.200,2500.7811007,N,12132.4646319,E,4,47,0.58,15.916,M,15.25,M,2,3335*4C
$GNRMC,095652.200,A,2500.7811007,N,12132.4646319,E,0.01,215.58,260623,,,R,V*18
$GPHDT,,T*1B
$GNGGA,095652.400,2500.7810998,N,12132.4646323,E,4,47,0.58,15.919,M,15.25,M,2,3335*42
$GNRMC,095652.400,A,2500.7810998,N,12132.4646323,E,0.00,215.58,260623,,,R,V*18
$GPHDT,,T*1B
$GNGGA,095652.600,2500.7811023,N,12132.4646320,E,4,47,0.58,15.919,M,15.25,M,2,3335*4B
$GNRMC,095652.600,A,2500.7811023,N,12132.4646320,E,0.01,215.58,260623,,,R,V*10
$GPHDT,,T*1B
$GNGGA,095652.800,2500.7811032,N,12132.4646318,E,4,47,0.58,15.907,M,15.25,M,2,3335*41
$GNRMC,095652.800,A,2500.7811032,N,12132.4646318,E,0.04,215.58,260623,,,R,V*10
$GPHDT,,T*1B
$GNGSA,A,3,196,199,15,24,195,05,13,29,194,11,,,1.15,0.58,0.99,1*09
$GNGSA,A,3,84,85,69,79,80,,,,,,,,1.15,0.58,0.99,2*02
$GNGSA,A,3,08,13,15,07,03,,,,,,,,1.15,0.58,0.99,3*01
$GNGSA,A,3,38,39,16,06,13,20,29,37,46,32,,,1.15,0.58,0.99,4*00
$GPGSV,4,1,14,196,72,048,40,199,60,167,38,15,59,355,36,24,55,176,44,1*63
$GPGSV,4,2,14,195,50,175,44,18,43,316,18,05,40,076,45,41,38,242,32,1*55
$GPGSV,4,3,14,13,37,033,38,29,24,228,42,20,23,100,,23,20,311,12,1*69
$GPGSV,4,4,14,194,18,148,24,11,12,147,19,1*56
$GPGSV,2,1,05,196,72,048,44,199,60,167,48,24,55,176,46,195,50,175,46,8*5A
$GPGSV,2,2,05,194,18,148,24,8*66
$GLGSV,2,1,05,84,55,210,33,85,40,312,19,69,29,028,29,79,25,076,39,1*77
$GLGSV,2,2,05,80,23,134,29,1*49
$GAGSV,2,1,08,08,63,337,34,13,60,308,28,15,59,167,40,07,33,260,34,7*78
$GAGSV,2,2,08,03,29,040,34,02,10,118,,34,10,151,,26,09,324,,7*70
$GAGSV,2,1,05,08,63,337,38,13,60,308,32,15,59,167,45,07,33,260,37,1*72
$GAGSV,2,2,05,03,29,040,35,1*4A
$GBGSV,4,1,14,38,69,028,44,39,69,213,44,16,59,207,45,06,57,207,42,1*75
$GBGSV,4,2,14,13,53,343,21,20,50,010,38,29,45,247,46,09,40,209,18,1*7D
$GBGSV,4,3,14,19,34,302,,37,33,086,45,46,30,154,37,35,19,307,,1*7E
$GBGSV,4,4,14,32,18,066,29,07,09,201,,1*7D
$GBGSV,2,1,07,38,69,028,44,39,69,213,46,20,50,010,40,29,45,247,44,4*77
$GBGSV,2,2,07,37,33,086,43,46,30,154,32,32,18,066,35,4*47
$GNGGA,095653.000,2500.7811024,N,12132.4646301,E,4,47,0.58,15.918,M,15.25,M,3,3335*48
$GNRMC,095653.000,A,2500.7811024,N,12132.4646301,E,0.01,215.58,260623,,,R,V*13
$GPHDT,,T*1B
$GNGGA,095653.200,2500.7811012,N,12132.4646315,E,4,46,0.58,15.911,M,15.25,M,3,3335*42
$GNRMC,095653.200,A,2500.7811012,N,12132.4646315,E,0.06,215.58,260623,,,R,V*16
$GPHDT,,T*1B
$GNGGA,095653.400,2500.7811022,N,12132.4646297,E,4,47,0.58,15.906,M,15.25,M,3,3335*4B
$GNRMC,095653.400,A,2500.7811022,N,12132.4646297,E,0.03,215.58,260623,,,R,V*1D
$GPHDT,,T*1B
$GNGGA,095653.600,2500.7811005,N,12132.4646314,E,4,47,0.58,15.916,M,15.25,M,3,3335*47
$GNRMC,095653.600,A,2500.7811005,N,12132.4646314,E,0.05,215.58,260623,,,R,V*16
$GPHDT,,T*1B
$GNGGA,095653.800,2500.7810984,N,12132.4646320,E,4,48,0.56,15.916,M,15.25,M,3,3335*4E
$GNRMC,095653.800,A,2500.7810984,N,12132.4646320,E,0.03,215.58,260623,,,R,V*18
$GPHDT,,T*1B
$GNGSA,A,3,196,199,15,24,195,05,13,29,20,194,11,,1.13,0.56,0.98,1*02
$GNGSA,A,3,84,85,69,79,80,,,,,,,,1.13,0.56,0.98,2*0B
$GNGSA,A,3,08,13,15,07,03,,,,,,,,1.13,0.56,0.98,3*08
$GNGSA,A,3,39,38,16,06,13,20,29,37,46,32,,,1.13,0.56,0.98,4*09
$GPGSV,4,1,14,196,72,048,40,199,60,167,38,15,59,355,36,24,55,176,44,1*63
$GPGSV,4,2,14,195,50,175,44,18,43,316,18,05,40,076,45,41,38,242,32,1*55
$GPGSV,4,3,14,13,37,033,37,29,24,227,42,20,23,100,29,23,20,311,14,1*64
$GPGSV,4,4,14,194,18,148,25,11,12,147,19,1*57
$GPGSV,2,1,05,196,72,048,43,199,60,167,48,24,55,176,46,195,50,175,46,8*5D
$GPGSV,2,2,05,194,18,148,22,8*60
$GLGSV,2,1,06,84,55,210,33,85,40,312,18,69,29,028,29,79,25,076,39,1*75
$GLGSV,2,2,06,80,23,134,28,71,06,270,,1*7E
$GAGSV,3,1,09,08,63,337,34,13,60,308,28,15,59,167,40,07,33,260,34,7*78
$GAGSV,3,2,09,03,29,040,34,02,10,118,,34,10,151,,26,09,324,,7*70
$GAGSV,3,3,09,30,04,166,,7*4C
$GAGSV,2,1,05,08,63,337,39,13,60,308,33,15,59,167,45,07,33,260,37,1*72
$GAGSV,2,2,05,03,29,040,36,1*49
$GBGSV,4,1,14,39,69,213,44,38,69,028,44,16,59,207,45,06,57,207,42,1*75
$GBGSV,4,2,14,13,53,343,23,20,50,010,39,29,45,247,46,09,40,209,17,1*71
$GBGSV,4,3,14,19,34,302,,37,33,086,45,46,30,154,37,35,19,307,,1*7E
$GBGSV,4,4,14,32,18,066,29,10,09,212,,1*79
$GBGSV,2,1,07,38,69,028,44,39,69,213,46,20,50,010,40,29,45,247,44,4*77
$GBGSV,2,2,07,37,33,086,43,46,30,154,32,32,18,066,34,4*46
$GNGGA,095654.000,2500.7811024,N,12132.4646295,E,4,48,0.56,15.909,M,15.25,M,4,3335*45
$GNRMC,095654.000,A,2500.7811024,N,12132.4646295,E,0.03,215.58,260623,,,R,V*1A
$GPHDT,,T*1B
$GNGGA,095654.200,2500.7810988,N,12132.4646325,E,4,48,0.56,15.907,M,15.25,M,4,3335*4D
$GNRMC,095654.200,A,2500.7810988,N,12132.4646325,E,0.02,215.58,260623,,,R,V*1D
$GPHDT,,T*1B
$GNGGA,095654.400,2500.7811007,N,12132.4646310,E,4,48,0.56,15.918,M,15.25,M,4,3335*4C
$GNRMC,095654.400,A,2500.7811007,N,12132.4646310,E,0.01,215.58,260623,,,R,V*11
$GPHDT,,T*1B
$GNGGA,095654.600,2500.7810977,N,12132.4646306,E,4,48,0.56,15.913,M,15.25,M,4,3335*4D
$GNRMC,095654.600,A,2500.7810977,N,12132.4646306,E,0.00,215.58,260623,,,R,V*1A
$GPHDT,,T*1B
$GNGGA,095654.800,2500.7810997,N,12132.4646322,E,4,48,0.56,15.917,M,15.25,M,4,3335*4F
$GNRMC,095654.800,A,2500.7810997,N,12132.4646322,E,0.04,215.58,260623,,,R,V*18
$GPHDT,,T*1B
$GNGSA,A,3,196,199,15,24,195,05,13,29,20,194,11,,1.13,0.56,0.98,1*02
$GNGSA,A,3,84,85,69,79,80,,,,,,,,1.13,0.56,0.98,2*0B
$GNGSA,A,3,08,13,15,07,03,,,,,,,,1.13,0.56,0.98,3*08
$GNGSA,A,3,38,39,16,06,13,20,29,37,46,32,,,1.13,0.56,0.98,4*09
$GPGSV,4,1,14,196,72,048,40,199,60,167,38,15,59,355,37,24,55,176,44,1*62
$GPGSV,4,2,14,195,50,175,44,18,43,316,17,05,40,076,45,41,38,242,33,1*5B
$GPGSV,4,3,14,13,37,033,37,29,24,227,42,20,23,100,29,23,20,311,17,1*67
$GPGSV,4,4,14,194,18,148,22,11,12,147,19,1*50
$GPGSV,2,1,05,196,72,048,43,199,60,167,48,24,55,176,46,195,50,175,46,8*5D
$GPGSV,2,2,05,194,18,148,24,8*66
$GLGSV,2,1,06,84,55,210,33,85,40,312,18,69,29,028,24,79,25,076,39,1*78
$GLGSV,2,2,06,80,23,134,29,71,06,270,,1*7F
$GAGSV,3,1,09,08,63,337,34,13,60,308,29,15,59,167,40,07,33,260,34,7*79
$GAGSV,3,2,09,03,29,040,34,34,10,151,,02,10,118,,26,09,324,,7*70
$GAGSV,3,3,09,30,04,166,,7*4C
$GAGSV,2,1,05,08,63,337,39,13,60,308,33,15,59,167,45,07,33,260,38,1*7D
$GAGSV,2,2,05,03,29,040,36,1*49
$GBGSV,4,1,13,38,69,028,44,39,69,213,44,16,59,207,45,06,57,207,42,1*72
$GBGSV,4,2,13,13,53,343,23,20,50,010,39,29,45,247,46,09,40,209,17,1*76
$GBGSV,4,3,13,19,34,302,,37,33,086,45,46,30,154,37,35,19,307,,1*79
$GBGSV,4,4,13,32,18,066,31,1*4E
$GBGSV,2,1,07,38,69,028,44,39,69,213,46,20,50,010,40,29,45,247,44,4*77
$GBGSV,2,2,07,37,33,086,43,46,30,154,32,32,18,066,34,4*46
$GNGGA,095655.000,2500.7811034,N,12132.4646292,E,4,48,0.56,15.897,M,15.25,M,5,3335*45
$GNRMC,095655.000,A,2500.7811034,N,12132.4646292,E,0.02,215.58,260623,,,R,V*1C
$GPHDT,,T*1B
$GNGGA,095655.200,2500.7810999,N,12132.4646301,E,4,48,0.56,15.910,M,15.25,M,5,3335*4D
$GNRMC,095655.200,A,2500.7810999,N,12132.4646301,E,0.01,215.58,260623,,,R,V*19
$GPHDT,,T*1B
$GNGGA,095655.400,2500.7810974,N,12132.4646318,E,4,48,0.56,15.927,M,15.25,M,5,3335*44
$GNRMC,095655.400,A,2500.7810974,N,12132.4646318,E,0.02,215.58,260623,,,R,V*17
$GPHDT,,T*1B
$GNGGA,095655.600,2500.7811054,N,12132.4646343,E,4,48,0.56,15.910,M,15.25,M,5,3335*46
$GNRMC,095655.600,A,2500.7811054,N,12132.4646343,E,0.00,215.58,260623,,,R,V*13
$GPHDT,,T*1B
$GNGGA,095655.800,2500.7811083,N,12132.4646295,E,4,48,0.56,15.904,M,15.25,M,5,3335*4D
$GNRMC,095655.800,A,2500.7811083,N,12132.4646295,E,0.02,215.58,260623,,,R,V*1F
$GPHDT,,T*1B
$GNGSA,A,3,196,199,15,24,195,05,13,29,20,194,11,,1.13,0.56,0.98,1*02
$GNGSA,A,3,84,85,69,79,80,,,,,,,,1.13,0.56,0.98,2*0B
$GNGSA,A,3,08,13,15,07,03,,,,,,,,1.13,0.56,0.98,3*08
$GNGSA,A,3,39,38,16,06,13,20,29,37,46,32,,,1.13,0.56,0.98,4*09
$GPGSV,4,1,14,196,72,048,40,199,60,167,38,15,59,355,37,24,55,176,44,1*62
$GPGSV,4,2,14,195,50,175,44,18,43,316,17,05,40,076,45,41,38,242,32,1*5A
$GPGSV,4,3,14,13,37,033,34,29,24,227,41,20,23,100,30,23,20,311,15,1*6D
$GPGSV,4,4,14,194,18,148,25,11,12,147,19,1*57
$GPGSV,2,1,05,196,72,048,43,199,60,167,48,24,55,176,46,195,50,175,46,8*5D
$GPGSV,2,2,05,194,18,148,23,8*61
$GLGSV,2,1,05,84,55,210,33,85,40,312,17,69,29,028,26,79,25,076,39,1*76
$GLGSV,2,2,05,80,23,134,29,1*49
$GAGSV,2,1,08,08,63,337,34,13,60,308,29,15,59,167,40,07,33,260,34,7*79
$GAGSV,2,2,08,03,29,040,32,34,10,151,,26,09,324,,30,04,166,,7*7B
$GAGSV,2,1,05,08,63,337,39,13,60,308,33,15,59,167,45,07,33,260,38,1*7D
$GAGSV,2,2,05,03,29,040,36,1*49
$GBGSV,4,1,13,39,69,213,44,38,69,028,44,16,59,207,45,06,57,207,42,1*72
$GBGSV,4,2,13,13,53,343,23,20,50,010,40,29,45,247,46,09,40,209,17,1*78
$GBGSV,4,3,13,19,34,302,,37,33,086,45,46,30,154,37,35,19,307,,1*79
$GBGSV,4,4,13,32,18,066,31,1*4E
$GBGSV,2,1,07,38,69,028,44,39,69,213,45,20,50,010,40,29,45,247,44,4*74
$GBGSV,2,2,07,37,33,086,43,46,30,154,31,32,18,066,34,4*45
$GNGGA,095656.000,2500.7811099,N,12132.4646284,E,4,48,0.56,15.897,M,15.25,M,6,3335*45
$GNRMC,095656.000,A,2500.7811099,N,12132.4646284,E,0.01,215.58,260623,,,R,V*1C
$GPHDT,,T*1B
$GNGGA,095656.200,2500.7811089,N,12132.4646283,E,4,48,0.56,15.905,M,15.25,M,6,3335*4B
$GNRMC,095656.200,A,2500.7811089,N,12132.4646283,E,0.01,215.58,260623,,,R,V*18
$GPHDT,,T*1B
$GNGGA,095656.400,2500.7811077,N,12132.4646293,E,4,48,0.56,15.924,M,15.25,M,5,3335*4D
$GNRMC,095656.400,A,2500.7811077,N,12132.4646293,E,0.01,215.58,260623,,,R,V*1E
$GPHDT,,T*1B
$GNGGA,095656.600,2500.7811084,N,12132.4646333,E,4,48,0.56,15.921,M,15.25,M,5,3335*4D
$GNRMC,095656.600,A,2500.7811084,N,12132.4646333,E,0.00,215.58,260623,,,R,V*1A
$GPHDT,,T*1B
$GNGGA,095656.800,2500.7811084,N,12132.4646291,E,4,48,0.56,15.901,M,15.25,M,3,3335*4E
$GNRMC,095656.800,A,2500.7811084,N,12132.4646291,E,0.01,215.58,260623,,,R,V*1C
$GPHDT,,T*1B
$GNGSA,A,3,196,199,15,24,195,05,13,29,20,194,11,,1.13,0.56,0.98,1*02
$GNGSA,A,3,84,85,69,79,80,,,,,,,,1.13,0.56,0.98,2*0B
$GNGSA,A,3,08,13,15,07,03,,,,,,,,1.13,0.56,0.98,3*08
$GNGSA,A,3,39,38,16,06,13,20,29,37,46,32,,,1.13,0.56,0.98,4*09
$GPGSV,4,1,14,196,72,048,40,199,60,167,38,15,59,355,38,24,55,176,44,1*6D
$GPGSV,4,2,14,195,50,175,44,18,43,316,17,05,40,076,45,41,38,242,32,1*5A
$GPGSV,4,3,14,13,37,033,34,29,24,227,41,20,23,100,30,23,20,311,15,1*6D
$GPGSV,4,4,14,194,18,148,24,11,12,147,19,1*56
$GPGSV,2,1,05,196,72,048,43,199,60,167,48,24,55,176,46,195,50,175,46,8*5D
$GPGSV,2,2,05,194,18,148,23,8*61
$GLGSV,2,1,05,84,55,210,33,85,40,312,16,69,29,028,29,79,25,076,39,1*78
$GLGSV,2,2,05,80,23,134,30,1*41
$GAGSV,3,1,09,08,63,337,33,13,60,308,29,15,59,167,40,07,33,260,34,7*7E
$GAGSV,3,2,09,03,29,040,32,34,10,151,,26,09,324,,30,04,166,,7*7B
$GAGSV,3,3,09,25,03,072,,7*4B
$GAGSV,2,1,05,08,63,337,39,13,60,308,32,15,59,167,45,07,33,260,38,1*7C
$GAGSV,2,2,05,03,29,040,34,1*4B
$GBGSV,4,1,13,39,69,213,44,38,69,028,44,16,59,207,45,06,57,207,42,1*72
$GBGSV,4,2,13,13,53,343,23,20,50,010,39,29,45,247,46,09,40,209,18,1*79
$GBGSV,4,3,13,19,34,302,,37,33,086,45,46,30,154,37,35,19,307,,1*79
$GBGSV,4,4,13,32,18,066,30,1*4F
$GBGSV,2,1,07,38,69,028,44,39,69,213,45,20,50,010,39,29,45,247,44,4*7A
$GBGSV,2,2,07,37,33,086,43,46,30,154,30,32,18,066,33,4*43
$GNGGA,095657.000,2500.7811053,N,12132.4646291,E,4,48,0.56,15.894,M,15.25,M,1,3335*42
$GNRMC,095657.000,A,2500.7811053,N,12132.4646291,E,0.00,215.58,260623,,,R,V*1E
$GPHDT,,T*1B
$GNGGA,095657.200,2500.7811080,N,12132.4646292,E,4,48,0.56,15.898,M,15.25,M,1,3335*41
$GNRMC,095657.200,A,2500.7811080,N,12132.4646292,E,0.01,215.58,260623,,,R,V*10
$GPHDT,,T*1B
$GNGGA,095657.400,2500.7811058,N,12132.4646330,E,4,48,0.56,15.895,M,15.25,M,1,3335*46
$GNRMC,095657.400,A,2500.7811058,N,12132.4646330,E,0.01,215.58,260623,,,R,V*1A
$GPHDT,,T*1B
$GNGGA,095657.600,2500.7811044,N,12132.4646328,E,4,48,0.56,15.907,M,15.25,M,1,3335*4A
$GNRMC,095657.600,A,2500.7811044,N,12132.4646328,E,0.01,215.58,260623,,,R,V*1C
$GPHDT,,T*1B
$GNGGA,095657.800,2500.7811036,N,12132.4646317,E,4,48,0.56,15.905,M,15.25,M,0,3335*4E
$GNRMC,095657.800,A,2500.7811036,N,12132.4646317,E,0.04,215.58,260623,,,R,V*1E
$GPHDT,,T*1B
$GNGSA,A,3,196,199,15,24,195,05,13,29,20,194,11,,1.13,0.56,0.98,1*02
$GNGSA,A,3,84,85,69,79,80,,,,,,,,1.13,0.56,0.98,2*0B
$GNGSA,A,3,08,13,15,07,03,,,,,,,,1.13,0.56,0.98,3*08
$GNGSA,A,3,39,38,16,06,13,20,29,37,46,32,,,1.13,0.56,0.98,4*09
$GPGSV,4,1,14,196,72,048,40,199,60,167,38,15,59,355,38,24,55,176,44,1*6D
$GPGSV,4,2,14,195,50,175,44,18,43,316,17,05,40,076,45,41,38,242,31,1*59
$GPGSV,4,3,14,13,37,033,33,29,24,227,41,20,23,100,29,23,20,311,14,1*63
$GPGSV,4,4,14,194,18,148,24,11,12,147,19,1*56
$GPGSV,2,1,05,196,72,048,43,199,60,167,48,24,55,176,46,195,50,175,46,8*5D
$GPGSV,2,2,05,194,18,148,23,8*61
$GLGSV,2,1,05,84,55,210,33,85,40,312,16,69,29,028,29,79,25,076,39,1*78
$GLGSV,2,2,05,80,23,134,30,1*41
$GAGSV,2,1,08,08,63,338,33,13,60,308,29,15,59,167,40,07,33,260,35,7*70
$GAGSV,2,2,08,03,29,040,32,34,10,151,,30,04,166,,25,03,072,,7*72
$GAGSV,2,1,05,08,63,338,39,13,60,308,32,15,59,167,45,07,33,260,38,1*73
$GAGSV,2,2,05,03,29,040,33,1*4C
$GBGSV,4,1,13,39,69,213,44,38,69,028,44,16,59,207,45,06,57,207,42,1*72
$GBGSV,4,2,13,13,53,343,23,20,50,010,39,29,45,247,46,09,40,209,18,1*79
$GBGSV,4,3,13,19,34,302,,37,33,086,45,46,30,154,36,35,19,307,,1*78
$GBGSV,4,4,13,32,18,066,28,1*46
$GBGSV,2,1,07,38,69,028,44,39,69,213,45,20,50,010,39,29,45,247,43,4*7D
$GBGSV,2,2,07,37,33,086,43,46,30,154,30,32,18,066,33,4*43
$GNGGA,095658.000,2500.7811046,N,12132.4646317,E,4,48,0.56,15.901,M,15.25,M,1,3335*4B
$GNRMC,095658.000,A,2500.7811046,N,12132.4646317,E,0.01,215.58,260623,,,R,V*1B
$GPHDT,,T*1B
$GNGGA,095658.200,2500.7811047,N,12132.4646313,E,4,49,0.51,15.896,M,15.25,M,1,3335*45
$GNRMC,095658.200,A,2500.7811047,N,12132.4646313,E,0.01,215.58,260623,,,R,V*1C
$GPHDT,,T*1B
$GNGGA,095658.400,2500.7811035,N,12132.4646329,E,4,49,0.51,15.902,M,15.25,M,1,3335*43
$GNRMC,095658.400,A,2500.7811035,N,12132.4646329,E,0.00,215.58,260623,,,R,V*17
$GPHDT,,T*1B
$GNGGA,095658.600,2500.7811073,N,12132.4646301,E,4,49,0.51,15.896,M,15.25,M,1,3335*45
$GNRMC,095658.600,A,2500.7811073,N,12132.4646301,E,0.01,215.58,260623,,,R,V*1C
$GPHDT,,T*1B
$GNGGA,095658.800,2500.7811051,N,12132.4646328,E,4,49,0.51,15.896,M,15.25,M,1,3335*40
$GNRMC,095658.800,A,2500.7811051,N,12132.4646328,E,0.06,215.58,260623,,,R,V*1E
$GPHDT,,T*1B
$GNGSA,A,3,196,199,15,24,195,05,13,29,20,194,11,23,1.02,0.51,0.88,1*05
$GNGSA,A,3,84,85,69,79,80,,,,,,,,1.02,0.51,0.88,2*0D
$GNGSA,A,3,08,13,15,07,03,,,,,,,,1.02,0.51,0.88,3*0E
$GNGSA,A,3,39,38,16,06,13,20,29,37,46,32,,,1.02,0.51,0.88,4*0F
$GPGSV,4,1,14,196,72,048,40,199,60,167,38,15,59,355,38,24,55,176,44,1*6D
$GPGSV,4,2,14,195,50,175,44,18,43,316,17,05,40,076,45,41,38,242,31,1*59
$GPGSV,4,3,14,13,37,033,32,29,24,227,41,20,23,100,29,23,20,311,15,1*63
$GPGSV,4,4,14,194,18,148,25,11,12,147,19,1*57
$GPGSV,2,1,06,196,72,048,43,199,60,167,48,24,55,176,46,195,50,175,46,8*5E
$GPGSV,2,2,06,23,20,311,20,194,18,148,23,8*50
$GLGSV,2,1,05,84,55,210,33,85,40,312,16,69,29,028,30,79,25,076,39,1*70
$GLGSV,2,2,05,80,23,134,30,1*41
$GAGSV,2,1,08,08,63,338,33,13,60,308,30,15,59,167,40,07,33,260,35,7*78
$GAGSV,2,2,08,03,29,040,32,34,10,151,,30,04,166,,25,03,072,,7*72
$GAGSV,2,1,05,08,63,338,39,13,60,308,32,15,59,167,45,07,33,260,38,1*73
$GAGSV,2,2,05,03,29,040,33,1*4C
$GBGSV,4,1,13,39,69,213,44,38,69,028,44,16,59,207,45,06,57,207,42,1*72
$GBGSV,4,2,13,13,53,343,23,20,50,010,39,29,45,247,46,09,40,209,20,1*72
$GBGSV,4,3,13,19,34,302,,37,33,086,45,46,30,154,36,35,19,307,,1*78
$GBGSV,4,4,13,32,18,066,28,1*46
$GBGSV,2,1,07,38,69,028,44,39,69,213,45,20,50,010,39,29,45,247,43,4*7D
$GBGSV,2,2,07,37,33,086,43,46,30,154,30,32,18,066,33,4*43
$GNGGA,095659.000,2500.7811049,N,12132.4646324,E,4,49,0.51,15.901,M,15.25,M,2,3335*40
$GNRMC,095659.000,A,2500.7811049,N,12132.4646324,E,0.02,215.58,260623,,,R,V*16
$GPHDT,,T*1B
$GNGGA,095659.200,2500.7811068,N,12132.4646305,E,4,49,0.51,15.895,M,15.25,M,2,3335*4E
$GNRMC,095659.200,A,2500.7811068,N,12132.4646305,E,0.01,215.58,260623,,,R,V*17
$GPHDT,,T*1B
$GNGGA,095659.400,2500.7811070,N,12132.4646278,E,4,50,0.51,15.904,M,15.25,M,2,3335*4B
$GNRMC,095659.400,A,2500.7811070,N,12132.4646278,E,0.02,215.58,260623,,,R,V*10
$GPHDT,,T*1B
$GNGGA,095659.600,2500.7811074,N,12132.4646298,E,4,50,0.51,15.902,M,15.25,M,2,3335*45
$GNRMC,095659.600,A,2500.7811074,N,12132.4646298,E,0.03,215.58,260623,,,R,V*19
$GPHDT,,T*1B
$GNGGA,095659.800,2500.7811045,N,12132.4646314,E,4,50,0.51,15.909,M,15.25,M,2,3335*47
$GNRMC,095659.800,A,2500.7811045,N,12132.4646314,E,0.04,215.58,260623,,,R,V*17
$GPHDT,,T*1B
$GNGSA,A,3,196,199,15,24,195,05,13,29,20,194,11,23,1.02,0.51,0.88,1*05
$GNGSA,A,3,84,85,69,79,80,,,,,,,,1.02,0.51,0.88,2*0D
$GNGSA,A,3,08,13,15,07,03,,,,,,,,1.02,0.51,0.88,3*0E
$GNGSA,A,3,38,39,16,06,13,20,29,37,46,32,,,1.02,0.51,0.88,4*0F
$GPGSV,4,1,14,196,72,048,40,199,60,167,38,15,59,355,38,24,55,176,44,1*6D
$GPGSV,4,2,14,195,50,175,44,18,43,316,17,05,40,076,45,41,38,242,31,1*59
$GPGSV,4,3,14,13,37,033,32,29,24,227,41,20,23,100,29,23,20,311,14,1*62
$GPGSV,4,4,14,194,18,148,25,11,12,147,19,1*57
$GPGSV,2,1,07,196,72,048,43,199,60,167,48,24,55,176,47,195,50,175,46,8*5E
$GPGSV,2,2,07,23,20,311,19,194,18,148,25,11,12,147,18,8*65
$GLGSV,2,1,06,84,55,210,33,85,40,312,16,69,29,028,29,79,25,076,38,1*7A
$GLGSV,2,2,06,80,23,134,29,83,04,170,,1*73
$GAGSV,2,1,08,08,63,338,32,13,60,308,30,15,59,167,41,07,33,260,35,7*78
$GAGSV,2,2,08,03,29,040,33,34,10,151,,30,04,166,,25,03,072,,7*73
$GAGSV,2,1,05,08,63,338,39,13,60,308,32,15,59,167,45,07,33,260,37,1*7C
$GAGSV,2,2,05,03,29,040,34,1*4B
$GBGSV,4,1,13,38,69,028,44,39,69,213,44,16,59,207,45,06,57,207,42,1*72
$GBGSV,4,2,13,13,53,343,23,20,50,010,39,29,45,247,46,09,40,209,20,1*72
$GBGSV,4,3,13,19,34,302,,37,33,086,45,46,30,154,36,35,19,307,,1*78
$GBGSV,4,4,13,32,18,066,29,1*47
$GBGSV,2,1,07,38,69,028,44,39,69,213,45,20,50,010,39,29,45,247,43,4*7D
$GBGSV,2,2,07,37,33,086,43,46,30,154,33,32,18,066,34,4*47
$GNGGA,095700.000,2500.7811051,N,12132.4646309,E,4,50,0.51,15.906,M,15.25,M,3,3335*45
$GNRMC,095700.000,A,2500.7811051,N,12132.4646309,E,0.01,215.58,260623,,,R,V*1E
$GPHDT,,T*1B
$GNGGA,095700.200,2500.7811050,N,12132.4646305,E,4,50,0.51,15.905,M,15.25,M,3,3335*49
$GNRMC,095700.200,A,2500.7811050,N,12132.4646305,E,0.03,215.58,260623,,,R,V*13
$GPHDT,,T*1B
$GNGGA,095700.400,2500.7811075,N,12132.4646276,E,4,50,0.51,15.898,M,15.25,M,3,3335*48
$GNRMC,095700.400,A,2500.7811075,N,12132.4646276,E,0.02,215.58,260623,,,R,V*16
$GPHDT,,T*1B
$GNGGA,095700.600,2500.7811048,N,12132.4646308,E,4,49,0.52,15.904,M,15.25,M,3,3335*43
$GNRMC,095700.600,A,2500.7811048,N,12132.4646308,E,0.01,215.58,260623,,,R,V*11
$GPHDT,,T*1B
$GNGGA,095700.800,2500.7811084,N,12132.4646291,E,4,49,0.52,15.898,M,15.25,M,3,3335*48
$GNRMC,095700.800,A,2500.7811084,N,12132.4646291,E,0.09,215.58,260623,,,R,V*16
$GPHDT,,T*1B
$GNGSA,A,3,196,199,15,24,195,05,29,20,194,11,23,,1.02,0.52,0.88,1*04
$GNGSA,A,3,84,85,69,79,80,,,,,,,,1.02,0.52,0.88,2*0E
$GNGSA,A,3,08,13,15,07,03,,,,,,,,1.02,0.52,0.88,3*0D
$GNGSA,A,3,39,38,16,06,13,20,29,37,46,32,,,1.02,0.52,0.88,4*0C
$GPGSV,4,1,14,196,72,048,40,199,60,167,38,15,59,355,38,24,55,176,44,1*6D
$GPGSV,4,2,14,195,50,175,44,18,43,316,17,05,40,076,45,41,38,242,30,1*58
$GPGSV,4,3,14,13,37,033,34,29,24,227,41,20,23,100,28,23,20,311,,1*60
$GPGSV,4,4,14,194,18,148,25,11,12,147,19,1*57
$GPGSV,2,1,07,196,72,048,43,199,60,167,48,24,55,176,47,195,50,175,46,8*5E
$GPGSV,2,2,07,23,20,311,20,194,18,148,25,11,12,147,20,8*64
$GLGSV,2,1,05,84,55,210,33,85,40,312,16,69,29,028,29,79,25,076,38,1*79
$GLGSV,2,2,05,80,23,134,30,1*41
$GAGSV,2,1,08,08,63,338,32,13,60,308,30,15,59,167,41,07,33,260,35,7*78
$GAGSV,2,2,08,03,29,040,34,34,10,151,,30,04,166,,25,03,072,,7*74
$GAGSV,2,1,05,08,63,338,39,13,60,308,32,15,59,167,45,07,33,260,36,1*7D
$GAGSV,2,2,05,03,29,040,34,1*4B
$GBGSV,4,1,13,39,69,213,44,38,69,028,44,16,59,207,45,06,57,207,42,1*72
$GBGSV,4,2,13,13,53,343,22,20,50,010,39,29,45,247,47,09,40,209,20,1*72
$GBGSV,4,3,13,19,34,302,,37,33,086,45,46,30,154,36,35,19,307,,1*78
$GBGSV,4,4,13,32,18,066,29,1*47
$GBGSV,2,1,07,38,69,028,44,39,69,213,45,20,50,010,39,29,45,247,43,4*7D
$GBGSV,2,2,07,37,33,086,43,46,30,154,33,32,18,066,34,4*47
$GNGGA,095701.000,2500.7811084,N,12132.4646290,E,4,49,0.52,15.900,M,15.25,M,4,3335*47
$GNRMC,095701.000,A,2500.7811084,N,12132.4646290,E,0.01,215.58,260623,,,R,V*16
$GPHDT,,T*1B
$GNGGA,095701.200,2500.7811069,N,12132.4646301,E,4,50,0.51,15.909,M,15.25,M,4,3335*4D
$GNRMC,095701.200,A,2500.7811069,N,12132.4646301,E,0.01,215.58,260623,,,R,V*1E
$GPHDT,,T*1B
$GNGGA,095701.400,2500.7811070,N,12132.4646290,E,4,50,0.51,15.910,M,15.25,M,4,3335*42
$GNRMC,095701.400,A,2500.7811070,N,12132.4646290,E,0.00,215.58,260623,,,R,V*18
$GPHDT,,T*1B
$GNGGA,095701.600,2500.7811084,N,12132.4646297,E,4,50,0.51,15.914,M,15.25,M,4,3335*48
$GNRMC,095701.600,A,2500.7811084,N,12132.4646297,E,0.06,215.58,260623,,,R,V*10
$GPHDT,,T*1B
$GNGGA,095701.800,2500.7811078,N,12132.4646298,E,4,50,0.51,15.911,M,15.25,M,4,3335*4F
$GNRMC,095701.800,A,2500.7811078,N,12132.4646298,E,0.02,215.58,260623,,,R,V*16
$GPHDT,,T*1B
$GNGSA,A,3,196,199,15,24,195,05,29,20,194,11,23,,1.02,0.52,0.88,1*04
$GNGSA,A,3,84,85,69,79,80,,,,,,,,1.02,0.52,0.88,2*0E
$GNGSA,A,3,08,13,15,07,03,,,,,,,,1.02,0.52,0.88,3*0D
$GNGSA,A,3,38,39,16,06,13,20,29,37,46,32,,,1.02,0.52,0.88,4*0C
$GPGSV,4,1,14,196,72,048,40,199,60,167,38,15,59,355,38,24,55,176,44,1*6D
$GPGSV,4,2,14,195,50,175,44,18,43,316,17,05,40,076,45,41,38,242,31,1*59
$GPGSV,4,3,14,13,37,033,37,29,24,227,41,20,23,100,29,23,20,311,,1*62
$GPGSV,4,4,14,194,18,148,24,11,12,147,19,1*56
$GPGSV,2,1,07,196,72,048,44,199,60,167,48,24,55,176,47,195,50,175,46,8*59
$GPGSV,2,2,07,23,20,311,20,194,18,148,25,11,12,147,19,8*6E
$GLGSV,2,1,05,84,55,210,33,85,40,312,15,69,29,028,29,79,25,076,38,1*7A
$GLGSV,2,2,05,80,23,134,31,1*40
$GAGSV,2,1,08,08,63,338,32,13,60,308,30,15,59,167,41,07,33,260,36,7*7B
$GAGSV,2,2,08,03,29,040,34,34,10,151,,30,04,166,,25,03,072,,7*74
$GAGSV,2,1,05,08,63,338,39,13,60,308,32,15,59,167,45,07,33,260,36,1*7D
$GAGSV,2,2,05,03,29,040,35,1*4A
$GBGSV,4,1,14,38,69,028,44,39,69,213,44,16,59,207,45,06,57,207,42,1*75
$GBGSV,4,2,14,13,53,343,22,20,50,010,39,29,45,247,47,09,40,209,21,1*74
$GBGSV,4,3,14,19,34,302,,37,33,086,45,46,30,154,36,35,19,307,,1*7F
$GBGSV,4,4,14,32,18,066,29,36,02,193,,1*7C
$GBGSV,2,1,07,38,69,028,44,39,69,213,45,20,50,010,39,29,45,247,43,4*7D
$GBGSV,2,2,07,37,33,086,43,46,30,154,34,32,18,066,34,4*40
$GNGGA,095702.000,2500.7811090,N,12132.4646297,E,4,49,0.52,15.906,M,15.25,M,5,3335*41
$GNRMC,095702.000,A,2500.7811090,N,12132.4646297,E,0.01,215.58,260623,,,R,V*17
$GPHDT,,T*1B
$GNGGA,095702.200,2500.7811054,N,12132.4646312,E,4,49,0.52,15.912,M,15.25,M,5,3335*42
$GNRMC,095702.200,A,2500.7811054,N,12132.4646312,E,0.04,215.58,260623,,,R,V*14
$GPHDT,,T*1B
$GNGGA,095702.400,2500.7811076,N,12132.4646308,E,4,50,0.51,15.909,M,15.25,M,5,3335*4E
$GNRMC,095702.400,A,2500.7811076,N,12132.4646308,E,0.03,215.58,260623,,,R,V*1E
$GPHDT,,T*1B
$GNGGA,095702.600,2500.7811068,N,12132.4646323,E,4,50,0.51,15.911,M,15.25,M,5,3335*43
$GNRMC,095702.600,A,2500.7811068,N,12132.4646323,E,0.03,215.58,260623,,,R,V*1A
