$FW : RTK35X,V1.1X0314AS,Lib20210517,1*54
$Tool : LOCOSYS , GNSS Firebird , v1.0.0.19*39
$---------------------------------------------------*2D
$GNGSA,A,3,196,199,15,24,195,18,05,13,29,20,194,11,1.06,0.52,0.93,1*00
$GNGSA,A,3,84,85,69,79,80,,,,,,,,1.06,0.52,0.93,2*00
$GNGSA,A,3,08,15,13,07,03,,,,,,,,1.06,0.52,0.93,3*03
$GNGSA,A,3,39,38,16,06,13,20,29,37,19,46,32,,1.06,0.52,0.93,4*0A
$GPGSV,4,1,14,196,72,048,40,199,60,167,33,15,60,353,42,24,54,177,42,1*61
$GPGSV,4,2,14,195,51,175,36,18,43,317,26,05,41,074,47,13,38,032,36,1*5A
$GPGSV,4,3,14,41,38,242,33,29,24,228,43,20,23,099,37,23,20,310,11,1*68
$GPGSV,4,4,14,194,18,148,22,11,13,147,19,1*51
$GPGSV,2,1,07,196,72,048,44,199,60,167,44,24,54,177,45,195,51,175,44,8*54
$GPGSV,2,2,07,18,43,317,26,194,18,148,17,11,13,147,22,8*6B
$GLGSV,2,1,05,84,56,211,33,85,39,314,17,69,30,027,27,79,25,078,43,1*79
$GLGSV,2,2,05,80,22,135,23,1*43
$GAGSV,3,1,09,08,63,336,38,15,60,166,32,13,60,309,29,07,33,259,36,7*73
$GAGSV,3,2,09,03,29,040,38,02,10,118,,34,10,151,,26,08,324,,7*7D
$GAGSV,3,3,09,25,03,073,,7*4A
$GAGSV,2,1,05,08,63,336,38,15,60,166,40,13,60,309,34,07,33,259,39,1*7E
$GAGSV,2,2,05,03,29,040,40,1*48
$GBGSV,4,1,13,39,69,212,43,38,69,028,43,16,59,206,43,06,57,207,42,1*74
$GBGSV,4,2,13,13,52,343,28,20,50,009,39,29,45,248,43,09,40,208,14,1*7C
$GBGSV,4,3,13,37,33,087,45,19,33,301,24,46,30,155,31,35,19,308,,1*72
$GBGSV,4,4,13,32,18,065,34,1*48
$GBGSV,2,1,06,38,69,028,45,39,69,212,44,20,50,009,42,29,45,248,43,4*76
$GBGSV,2,2,06,37,33,087,43,32,18,065,31,4*70
$GNGGA,095452.000,2500.7812598,N,12132.4650327,E,2,51,0.52,16.117,M,15.25,M,3,3335*46
$GNRMC,095452.000,A,2500.7812598,N,12132.4650327,E,0.04,215.58,260623,,,D,V*01
$GPHDT,,T*1B
$GNGGA,095452.200,2500.7812538,N,12132.4650447,E,2,51,0.52,16.133,M,15.25,M,2,3335*48
$GNRMC,095452.200,A,2500.7812538,N,12132.4650447,E,0.04,215.58,260623,,,D,V*08
$GPHDT,,T*1B
$GNGGA,095452.400,2500.7812478,N,12132.4650567,E,2,51,0.52,16.139,M,15.25,M,2,3335*42
$GNRMC,095452.400,A,2500.7812478,N,12132.4650567,E,0.05,215.58,260623,,,D,V*09
$GPHDT,,T*1B
$GNGGA,095452.600,2500.7812418,N,12132.4650687,E,2,51,0.52,16.148,M,15.25,M,2,3335*4D
$GNRMC,095452.600,A,2500.7812418,N,12132.4650687,E,0.05,215.58,260623,,,D,V*00
$GPHDT,,T*1B
$GNGGA,095452.800,2500.7812358,N,12132.4650807,E,2,50,0.52,16.160,M,15.25,M,2,3335*4D
$GNRMC,095452.800,A,2500.7812358,N,12132.4650807,E,0.05,215.58,260623,,,D,V*0B
$GPHDT,,T*1B
$GNGSA,A,3,196,199,15,24,195,18,05,13,29,20,194,11,1.06,0.52,0.93,1*00
$GNGSA,A,3,84,85,69,79,80,,,,,,,,1.06,0.52,0.93,2*00
$GNGSA,A,3,08,15,13,07,03,,,,,,,,1.06,0.52,0.93,3*03
$GNGSA,A,3,39,38,16,06,13,20,29,37,19,46,32,,1.06,0.52,0.93,4*0A
$GPGSV,4,1,14,196,72,048,40,199,60,167,34,15,60,353,42,24,54,177,42,1*66
$GPGSV,4,2,14,195,51,175,37,18,43,317,28,05,41,074,47,13,38,032,36,1*55
$GPGSV,4,3,14,41,38,242,33,29,24,228,43,20,23,099,37,23,20,310,11,1*68
$GPGSV,4,4,14,194,18,148,21,11,13,147,19,1*52
$GPGSV,2,1,07,196,72,048,44,199,60,167,44,24,54,177,46,195,51,175,44,8*57
$GPGSV,2,2,07,18,43,317,27,194,18,148,17,11,13,147,22,8*6A
$GLGSV,2,1,05,84,56,211,32,85,39,314,16,69,30,027,24,79,25,078,43,1*7A
$GLGSV,2,2,05,80,22,135,26,1*46
$GAGSV,3,1,09,08,63,336,38,15,60,166,34,13,60,309,29,07,33,259,33,7*70
$GAGSV,3,2,09,03,29,040,38,02,10,118,,34,10,151,,26,08,324,,7*7D
$GAGSV,3,3,09,25,03,073,,7*4A
$GAGSV,2,1,05,08,63,336,38,15,60,166,40,13,60,309,33,07,33,259,39,1*79
$GAGSV,2,2,05,03,29,040,40,1*48
$GBGSV,4,1,13,39,69,212,43,38,69,028,43,16,59,206,43,06,57,207,42,1*74
$GBGSV,4,2,13,13,52,343,28,20,50,009,39,29,45,248,43,09,40,208,16,1*7E
$GBGSV,4,3,13,37,33,087,45,19,33,301,24,46,30,155,29,35,19,308,,1*7B
$GBGSV,4,4,13,32,18,065,34,1*48
$GBGSV,2,1,06,38,69,028,45,39,69,212,45,20,50,009,41,29,45,248,43,4*74
$GBGSV,2,2,06,37,33,087,42,32,18,065,31,4*71
$GNGGA,095453.000,2500.7812298,N,12132.4650927,E,2,51,0.52,16.178,M,15.25,M,3,3335*43
$GNRMC,095453.000,A,2500.7812298,N,12132.4650927,E,0.05,215.58,260623,,,D,V*0C
$GPHDT,,T*1B
$GNGGA,095453.200,2500.7812178,N,12132.4650987,E,2,51,0.52,16.196,M,15.25,M,3,3335*46
$GNRMC,095453.200,A,2500.7812178,N,12132.4650987,E,0.05,215.58,260623,,,D,V*09
$GPHDT,,T*1B
$GNGGA,095453.400,2500.7812118,N,12132.4651107,E,2,51,0.52,16.197,M,15.25,M,3,3335*46
$GNRMC,095453.400,A,2500.7812118,N,12132.4651107,E,0.05,215.58,260623,,,D,V*08
$GPHDT,,T*1B
$GNGGA,095453.600,2500.7811998,N,12132.4651287,E,2,52,0.52,16.217,M,15.25,M,3,3335*44
$GNRMC,095453.600,A,2500.7811998,N,12132.4651287,E,0.05,215.58,260623,,,D,V*02
$GPHDT,,T*1B
$GNGGA,095453.800,2500.7811998,N,12132.4651407,E,2,52,0.52,16.239,M,15.25,M,3,3335*48
$GNRMC,095453.800,A,2500.7811998,N,12132.4651407,E,0.05,215.58,260623,,,D,V*02
$GPHDT,,T*1B
$GNGSA,A,3,196,199,15,24,195,18,05,13,29,20,11,194,1.06,0.52,0.93,1*00
$GNGSA,A,3,84,85,69,79,80,,,,,,,,1.06,0.52,0.93,2*00
$GNGSA,A,3,08,15,13,07,03,,,,,,,,1.06,0.52,0.93,3*03
$GNGSA,A,3,39,38,16,06,13,20,29,19,37,46,32,,1.06,0.52,0.93,4*0A
$GPGSV,4,1,14,196,72,048,40,199,60,167,35,15,60,353,42,24,54,177,42,1*67
$GPGSV,4,2,14,195,51,175,37,18,43,317,28,05,41,074,47,41,38,242,34,1*55
$GPGSV,4,3,14,13,38,032,36,29,24,228,43,20,23,099,38,23,20,310,13,1*62
$GPGSV,4,4,14,194,18,148,23,11,13,147,20,1*5A
$GPGSV,2,1,07,196,72,048,44,199,60,167,44,24,54,177,46,195,51,175,45,8*56
$GPGSV,2,2,07,18,43,317,27,194,18,148,17,11,13,147,21,8*69
$GLGSV,2,1,05,84,56,211,32,85,39,314,15,69,30,027,23,79,25,078,42,1*7F
$GLGSV,2,2,05,80,22,135,23,1*43
$GAGSV,2,1,08,08,63,336,38,15,60,166,35,13,60,309,29,07,33,259,35,7*77
$GAGSV,2,2,08,03,29,040,38,34,10,151,,26,08,324,,25,03,073,,7*76
$GAGSV,2,1,05,08,63,336,38,15,60,166,40,13,60,309,34,07,33,259,39,1*7E
$GAGSV,2,2,05,03,29,040,40,1*48
$GBGSV,4,1,13,39,69,212,43,38,69,028,43,16,59,206,43,06,57,207,42,1*74
$GBGSV,4,2,13,13,52,343,29,20,50,009,39,29,45,248,44,09,40,208,19,1*77
$GBGSV,4,3,13,19,33,301,24,37,33,087,45,46,30,155,28,35,19,308,,1*7A
$GBGSV,4,4,13,32,18,065,34,1*48
$GBGSV,2,1,07,38,69,028,45,39,69,212,45,20,50,009,41,29,45,248,43,4*75
$GBGSV,2,2,07,37,33,087,42,46,30,155,29,32,18,065,32,4*48
$GNGGA,095454.000,2500.7811938,N,12132.4651527,E,2,51,0.52,16.250,M,15.25,M,4,3335*45
$GNRMC,095454.000,A,2500.7811938,N,12132.4651527,E,0.05,215.58,260623,,,D,V*04
$GPHDT,,T*1B
$GNGGA,095454.200,2500.7811878,N,12132.4651647,E,2,52,0.52,16.269,M,15.25,M,4,3335*4E
$GNRMC,095454.200,A,2500.7811878,N,12132.4651647,E,0.05,215.58,260623,,,D,V*06
$GPHDT,,T*1B
$GNGGA,095454.400,2500.7811818,N,12132.4651827,E,2,52,0.52,16.279,M,15.25,M,4,3335*47
$GNRMC,095454.400,A,2500.7811818,N,12132.4651827,E,0.05,215.58,260623,,,D,V*0E
$GPHDT,,T*1B
$GNGGA,095454.600,2500.7811818,N,12132.4651947,E,2,51,0.53,16.292,M,15.25,M,4,3335*45
$GNRMC,095454.600,A,2500.7811818,N,12132.4651947,E,0.05,215.58,260623,,,D,V*0B
$GPHDT,,T*1B
$GNGGA,095454.800,2500.7811758,N,12132.4652127,E,2,51,0.53,16.300,M,15.25,M,4,3335*47
$GNRMC,095454.800,A,2500.7811758,N,12132.4652127,E,0.05,215.58,260623,,,D,V*03
$GPHDT,,T*1B
$GNGSA,A,3,196,199,15,24,195,18,05,13,29,20,194,11,1.09,0.53,0.95,1*08
$GNGSA,A,3,84,69,79,80,,,,,,,,,1.09,0.53,0.95,2*05
$GNGSA,A,3,08,13,15,07,03,,,,,,,,1.09,0.53,0.95,3*0B
$GNGSA,A,3,38,39,16,06,13,20,29,37,19,46,32,,1.09,0.53,0.95,4*02
$GPGSV,4,1,14,196,72,048,40,199,60,167,35,15,60,353,42,24,54,177,42,1*67
$GPGSV,4,2,14,195,51,175,37,18,43,317,28,05,41,074,47,13,38,032,37,1*54
$GPGSV,4,3,14,41,38,242,34,29,24,228,43,20,23,099,38,23,20,310,13,1*62
$GPGSV,4,4,14,194,18,148,24,11,13,147,21,1*5C
$GPGSV,2,1,07,196,72,048,44,199,60,167,44,24,54,177,46,195,51,175,45,8*56
$GPGSV,2,2,07,18,43,317,27,194,18,148,19,11,13,147,21,8*67
$GLGSV,2,1,08,84,56,211,32,85,39,314,14,69,30,027,20,79,25,078,42,1*70
$GLGSV,2,2,08,80,22,135,23,71,06,269,,83,05,170,,78,03,033,,1*77
$GAGSV,3,1,09,08,63,336,38,13,60,309,29,15,60,166,35,07,33,259,35,7*77
$GAGSV,3,2,09,03,29,040,38,34,10,151,,26,08,324,,30,04,166,,7*70
$GAGSV,3,3,09,25,03,073,,7*4A
$GAGSV,2,1,05,08,63,336,38,15,60,166,40,13,60,309,34,07,33,259,39,1*7E
$GAGSV,2,2,05,03,29,040,40,1*48
$GBGSV,4,1,14,38,69,028,43,39,69,212,42,16,59,206,43,06,57,207,42,1*72
$GBGSV,4,2,14,13,52,343,29,20,50,009,39,29,45,248,44,09,40,208,19,1*70
$GBGSV,4,3,14,37,33,087,45,19,33,301,22,46,30,155,28,35,19,308,,1*7B
$GBGSV,4,4,14,32,18,065,34,40,04,194,,1*73
$GBGSV,2,1,07,38,69,028,45,39,69,212,45,20,50,009,42,29,45,248,43,4*76
$GBGSV,2,2,07,37,33,087,42,46,30,155,28,32,18,065,32,4*49
$GNGGA,095455.000,2500.7811698,N,12132.4652247,E,2,51,0.53,16.298,M,15.25,M,5,3335*47
$GNRMC,095455.000,A,2500.7811698,N,12132.4652247,E,0.05,215.58,260623,,,D,V*02
$GPHDT,,T*1B
$GNGGA,095455.200,2500.7811638,N,12132.4652427,E,2,51,0.53,16.313,M,15.25,M,3,3335*4B
$GNRMC,095455.200,A,2500.7811638,N,12132.4652427,E,0.05,215.58,260623,,,D,V*0A
$GPHDT,,T*1B
$GNGGA,095455.400,2500.7811578,N,12132.4652547,E,2,51,0.53,16.330,M,15.25,M,1,3335*4E
$GNRMC,095455.400,A,2500.7811578,N,12132.4652547,E,0.05,215.58,260623,,,D,V*0C
$GPHDT,,T*1B
$GNGGA,095455.600,2500.7811518,N,12132.4652667,E,2,51,0.53,16.340,M,15.25,M,0,3335*4D
$GNRMC,095455.600,A,2500.7811518,N,12132.4652667,E,0.05,215.58,260623,,,D,V*09
$GPHDT,,T*1B
$GNGGA,095455.800,2500.7811518,N,12132.4652727,E,2,51,0.53,16.342,M,15.25,M,0,3335*44
$GNRMC,095455.800,A,2500.7811518,N,12132.4652727,E,0.05,215.58,260623,,,D,V*02
$GPHDT,,T*1B
$GNGSA,A,3,196,199,15,24,195,18,05,13,29,20,194,11,1.09,0.53,0.95,1*08
$GNGSA,A,3,84,69,79,80,,,,,,,,,1.09,0.53,0.95,2*05
$GNGSA,A,3,08,15,13,07,03,,,,,,,,1.09,0.53,0.95,3*0B
$GNGSA,A,3,39,38,16,06,13,20,29,37,19,46,32,,1.09,0.53,0.95,4*02
$GPGSV,4,1,14,196,72,048,40,199,60,167,35,15,60,353,42,24,54,177,41,1*64
$GPGSV,4,2,14,195,51,175,37,18,43,317,28,05,41,074,47,13,38,032,37,1*54
$GPGSV,4,3,14,41,38,242,34,29,24,228,43,20,23,099,38,23,20,310,14,1*65
$GPGSV,4,4,14,194,18,148,23,11,13,147,22,1*58
$GPGSV,2,1,07,196,72,048,44,199,60,167,44,24,54,177,46,195,51,175,45,8*56
$GPGSV,2,2,07,18,43,317,27,194,18,148,20,11,13,147,21,8*6D
$GLGSV,2,1,05,84,56,211,32,85,39,314,13,69,30,027,17,79,25,078,42,1*7E
$GLGSV,2,2,05,80,22,135,23,1*43
$GAGSV,3,1,09,08,63,336,38,15,60,166,35,13,60,309,29,07,33,259,35,7*77
$GAGSV,3,2,09,03,29,040,38,34,10,151,,26,08,324,,30,04,166,,7*70
$GAGSV,3,3,09,25,03,073,,7*4A
$GAGSV,2,1,05,08,63,336,39,15,60,166,40,13,60,309,34,07,33,259,39,1*7F
$GAGSV,2,2,05,03,29,040,40,1*48
$GBGSV,4,1,13,39,69,212,42,38,69,028,43,16,59,206,43,06,57,207,42,1*75
$GBGSV,4,2,13,13,52,343,29,20,50,009,38,29,45,248,44,09,40,208,19,1*76
$GBGSV,4,3,13,37,33,087,45,19,33,301,22,46,30,155,28,35,19,308,,1*7C
$GBGSV,4,4,13,32,18,065,34,1*48
$GBGSV,2,1,07,38,69,028,45,39,69,212,45,20,50,009,42,29,45,248,43,4*76
$GBGSV,2,2,07,37,33,087,43,46,30,155,29,32,18,065,33,4*48
$GNGGA,095456.000,2500.7811518,N,12132.4652847,E,2,51,0.53,16.356,M,15.25,M,1,3335*42
$GNRMC,095456.000,A,2500.7811518,N,12132.4652847,E,0.05,215.58,260623,,,D,V*00
$GPHDT,,T*1B
$GNGGA,095456.200,2500.7811458,N,12132.4652907,E,2,51,0.53,16.376,M,15.25,M,1,3335*42
$GNRMC,095456.200,A,2500.7811458,N,12132.4652907,E,0.05,215.58,260623,,,D,V*02
$GPHDT,267.384,T*39
$GNGGA,095456.400,2500.7811458,N,12132.4653027,E,2,51,0.53,16.375,M,15.25,M,1,3335*4D
$GNRMC,095456.400,A,2500.7811458,N,12132.4653027,E,0.05,215.58,260623,,,D,V*0E
$GPHDT,267.187,T*38
$GNGGA,095456.600,2500.7811518,N,12132.4653147,E,2,51,0.53,16.375,M,15.25,M,1,3335*4D
$GNRMC,095456.600,A,2500.7811518,N,12132.4653147,E,0.00,215.58,260623,,,D,V*0B
$GPHDT,267.226,T*30
$GNGGA,095456.800,2500.7811518,N,12132.4653207,E,2,51,0.53,16.376,M,15.25,M,1,3335*47
$GNRMC,095456.800,A,2500.7811518,N,12132.4653207,E,0.00,215.58,260623,,,D,V*02
$GPHDT,267.062,T*32
$GNGSA,A,3,196,199,15,24,195,18,05,13,29,20,194,11,1.09,0.53,0.95,1*08
$GNGSA,A,3,84,69,79,80,,,,,,,,,1.09,0.53,0.95,2*05
$GNGSA,A,3,08,15,13,07,03,,,,,,,,1.09,0.53,0.95,3*0B
$GNGSA,A,3,39,38,16,06,13,20,29,37,19,46,32,,1.09,0.53,0.95,4*02
$GPGSV,4,1,14,196,72,048,40,199,60,167,35,15,60,353,42,24,54,177,40,1*65
$GPGSV,4,2,14,195,51,175,36,18,43,317,28,05,41,074,47,13,38,032,38,1*5A
$GPGSV,4,3,14,41,38,242,34,29,24,228,43,20,23,099,38,23,20,310,15,1*64
$GPGSV,4,4,14,194,18,148,20,11,13,147,22,1*5B
$GPGSV,2,1,07,196,72,048,44,199,60,167,44,24,54,177,46,195,51,175,45,8*56
$GPGSV,2,2,07,18,43,317,27,194,18,148,20,11,13,147,21,8*6D
$GLGSV,2,1,05,84,56,211,32,85,39,314,12,69,30,027,16,79,25,077,42,1*71
$GLGSV,2,2,05,80,22,135,24,1*44
$GAGSV,3,1,09,08,63,336,38,15,60,166,35,13,60,309,29,07,33,259,35,7*77
$GAGSV,3,2,09,03,29,040,38,34,10,151,,26,08,324,,30,04,166,,7*70
$GAGSV,3,3,09,25,03,073,,7*4A
$GAGSV,2,1,05,08,63,336,39,15,60,166,40,13,60,309,34,07,33,259,39,1*7F
$GAGSV,2,2,05,03,29,040,40,1*48
$GBGSV,4,1,13,39,69,212,42,38,69,028,43,16,59,206,43,06,57,207,42,1*75
$GBGSV,4,2,13,13,52,343,28,20,50,009,37,29,45,248,44,09,40,208,18,1*79
$GBGSV,4,3,13,37,33,087,45,19,33,301,21,46,30,155,27,35,19,308,,1*70
$GBGSV,4,4,13,32,18,065,34,1*48
$GBGSV,2,1,07,38,69,028,45,39,69,212,45,20,50,009,42,29,45,248,43,4*76
$GBGSV,2,2,07,37,33,087,43,46,30,155,29,32,18,065,33,4*48
$GNGGA,095457.000,2500.7811518,N,12132.4653327,E,2,51,0.53,16.390,M,15.25,M,2,3335*46
$GNRMC,095457.000,A,2500.7811518,N,12132.4653327,E,0.00,215.58,260623,,,D,V*08
$GPHDT,267.455,T*32
$GNGGA,095457.200,2500.7811458,N,12132.4653447,E,2,51,0.53,16.396,M,15.25,M,2,3335*46
$GNRMC,095457.200,A,2500.7811458,N,12132.4653447,E,0.00,215.58,260623,,,D,V*0E
$GPHDT,267.516,T*34
$GNGGA,095457.400,2500.7811458,N,12132.4653567,E,2,51,0.53,16.398,M,15.25,M,2,3335*4D
$GNRMC,095457.400,A,2500.7811458,N,12132.4653567,E,0.00,215.58,260623,,,D,V*0B
$GPHDT,267.901,T*3E
$GNGGA,095457.600,2500.7811398,N,12132.4653687,E,2,51,0.53,16.418,M,15.25,M,2,3335*46
$GNRMC,095457.600,A,2500.7811398,N,12132.4653687,E,0.00,215.58,260623,,,D,V*0F
$GPHDT,267.987,T*30
$GNGGA,095457.800,2500.7811338,N,12132.4653747,E,2,51,0.53,16.429,M,15.25,M,2,3335*4D
$GNRMC,095457.800,A,2500.7811338,N,12132.4653747,E,0.00,215.58,260623,,,D,V*06
$GPHDT,267.703,T*32
$GNGSA,A,3,196,199,15,24,195,18,05,13,29,20,194,11,1.09,0.53,0.95,1*08
$GNGSA,A,3,84,69,79,80,,,,,,,,,1.09,0.53,0.95,2*05
$GNGSA,A,3,08,15,13,07,03,,,,,,,,1.09,0.53,0.95,3*0B
$GNGSA,A,3,39,38,16,06,13,20,29,37,19,46,32,,1.09,0.53,0.95,4*02
$GPGSV,4,1,14,196,72,048,41,199,60,167,35,15,60,353,42,24,54,177,39,1*6A
$GPGSV,4,2,14,195,51,175,32,18,43,317,27,05,41,074,47,13,38,032,40,1*5E
$GPGSV,4,3,14,41,38,242,34,29,24,228,43,20,23,099,38,23,20,310,16,1*67
$GPGSV,4,4,14,194,18,148,19,11,13,147,22,1*51
$GPGSV,2,1,07,196,72,048,43,199,60,167,44,24,54,177,46,195,51,175,44,8*50
$GPGSV,2,2,07,18,43,317,27,194,18,148,20,11,13,147,21,8*6D
$GLGSV,2,1,05,84,56,211,32,85,39,313,13,69,30,027,15,79,25,077,42,1*74
$GLGSV,2,2,05,80,22,135,24,1*44
$GAGSV,3,1,09,08,63,336,38,15,60,166,35,13,60,309,28,07,33,259,35,7*76
$GAGSV,3,2,09,03,29,040,38,34,10,151,,26,08,324,,30,04,166,,7*70
$GAGSV,3,3,09,25,03,073,,7*4A
$GAGSV,2,1,05,08,63,336,39,15,60,166,40,13,60,309,34,07,33,259,40,1*71
$GAGSV,2,2,05,03,29,040,40,1*48
$GBGSV,4,1,13,39,69,212,42,38,69,028,43,16,59,206,43,06,57,207,42,1*75
$GBGSV,4,2,13,13,52,343,28,20,50,009,37,29,45,248,44,09,40,208,18,1*79
$GBGSV,4,3,13,37,33,087,45,19,33,301,20,46,30,155,27,35,19,308,,1*71
$GBGSV,4,4,13,32,18,065,34,1*48
$GBGSV,2,1,07,38,69,028,45,39,69,212,45,20,50,009,42,29,45,248,43,4*76
$GBGSV,2,2,07,37,33,087,43,46,30,155,26,32,18,065,32,4*46
$GNGGA,095458.000,2500.7811338,N,12132.4653867,E,2,51,0.53,16.423,M,15.25,M,3,3335*4C
$GNRMC,095458.000,A,2500.7811338,N,12132.4653867,E,0.00,215.58,260623,,,D,V*0C
$GPHDT,267.553,T*35
$GNGGA,095458.200,2500.7811278,N,12132.4653927,E,2,50,0.53,16.429,M,15.25,M,3,3335*45
$GNRMC,095458.200,A,2500.7811278,N,12132.4653927,E,0.00,215.58,260623,,,D,V*0E
$GPHDT,267.282,T*3E
$GNGGA,095458.400,2500.7811218,N,12132.4654047,E,2,50,0.53,16.436,M,15.25,M,3,3335*43
$GNRMC,095458.400,A,2500.7811218,N,12132.4654047,E,0.00,215.58,260623,,,D,V*06
$GPHDT,267.880,T*36
$GNGGA,095458.600,2500.7811158,N,12132.4654107,E,2,51,0.53,16.428,M,15.25,M,3,3335*4D
$GNRMC,095458.600,A,2500.7811158,N,12132.4654107,E,0.00,215.58,260623,,,D,V*06
$GPHDT,267.712,T*32
$GNGGA,095458.800,2500.7811038,N,12132.4654227,E,2,50,0.53,16.428,M,15.25,M,3,3335*44
$GNRMC,095458.800,A,2500.7811038,N,12132.4654227,E,0.00,215.58,260623,,,D,V*0E
$GPHDT,267.808,T*36
$GNGSA,A,3,196,199,15,24,195,18,05,13,29,20,11,194,1.09,0.53,0.95,1*08
$GNGSA,A,3,84,69,79,80,,,,,,,,,1.09,0.53,0.95,2*05
$GNGSA,A,3,08,15,13,07,03,,,,,,,,1.09,0.53,0.95,3*0B
$GNGSA,A,3,39,38,16,06,13,20,29,19,37,46,32,,1.09,0.53,0.95,4*02
$GPGSV,4,1,14,196,72,048,41,199,60,167,35,15,60,353,42,24,54,177,39,1*6A
$GPGSV,4,2,14,195,51,175,31,18,43,317,25,05,41,074,47,41,38,242,35,1*5F
$GPGSV,4,3,14,13,38,032,40,29,24,228,43,20,23,099,39,23,20,310,17,1*66
$GPGSV,4,4,14,194,18,148,20,11,13,147,21,1*58
$GPGSV,2,1,07,196,72,048,43,199,60,167,44,24,54,177,45,195,51,175,43,8*54
$GPGSV,2,2,07,18,43,317,27,194,18,148,20,11,13,147,21,8*6D
$GLGSV,2,1,05,84,56,211,32,85,39,313,14,69,30,027,15,79,25,077,42,1*73
$GLGSV,2,2,05,80,22,135,20,1*40
$GAGSV,2,1,08,08,63,336,38,15,60,166,33,13,60,309,28,07,33,259,35,7*70
$GAGSV,2,2,08,03,29,040,38,34,10,151,,30,04,166,,25,03,073,,7*79
$GAGSV,2,1,05,08,63,336,39,15,60,166,40,13,60,309,34,07,33,259,40,1*71
$GAGSV,2,2,05,03,29,040,40,1*48
$GBGSV,4,1,13,39,69,212,42,38,69,028,43,16,59,206,43,06,57,207,42,1*75
$GBGSV,4,2,13,13,52,343,28,20,50,009,37,29,45,248,44,09,40,208,18,1*79
$GBGSV,4,3,13,19,33,301,20,37,33,087,45,46,30,155,27,35,19,308,,1*71
$GBGSV,4,4,13,32,18,065,33,1*4F
$GBGSV,2,1,07,38,69,028,45,39,69,212,45,20,50,009,42,29,45,248,43,4*76
$GBGSV,2,2,07,37,33,087,43,46,30,155,26,32,18,065,31,4*45
$GNGGA,095459.000,2500.7810918,N,12132.4654287,E,2,50,0.53,16.444,M,15.25,M,4,3335*40
$GNRMC,095459.000,A,2500.7810918,N,12132.4654287,E,0.00,215.58,260623,,,D,V*07
$GPHDT,267.677,T*30
$GNGGA,095459.200,2500.7810798,N,12132.4654347,E,2,50,0.53,16.449,M,15.25,M,4,3335*44
$GNRMC,095459.200,A,2500.7810798,N,12132.4654347,E,0.00,215.58,260623,,,D,V*0E
$GPHDT,267.292,T*3F
$GNGGA,095459.400,2500.7810738,N,12132.4654467,E,2,51,0.53,16.449,M,15.25,M,2,3335*4A
$GNRMC,095459.400,A,2500.7810738,N,12132.4654467,E,0.00,215.58,260623,,,D,V*07
$GPHDT,267.688,T*30
$GNGGA,095459.600,2500.7810618,N,12132.4654527,E,2,51,0.53,16.444,M,15.25,M,0,3335*41
$GNRMC,095459.600,A,2500.7810618,N,12132.4654527,E,0.00,215.58,260623,,,D,V*03
$GPHDT,267.521,T*30
$GNGGA,095459.800,2500.7810498,N,12132.4654587,E,2,50,0.53,16.461,M,15.25,M,0,3335*49
$GNRMC,095459.800,A,2500.7810498,N,12132.4654587,E,0.00,215.58,260623,,,D,V*0D
$GPHDT,267.548,T*3F
$GNGSA,A,3,196,199,15,24,195,18,05,13,29,20,194,11,1.09,0.53,0.95,1*08
$GNGSA,A,3,84,69,79,80,,,,,,,,,1.09,0.53,0.95,2*05
$GNGSA,A,3,08,15,13,07,03,,,,,,,,1.09,0.53,0.95,3*0B
$GNGSA,A,3,39,38,16,06,13,20,29,19,37,46,32,,1.09,0.53,0.95,4*02
$GPGSV,4,1,14,196,72,048,41,199,60,167,35,15,60,353,42,24,54,177,39,1*6A
$GPGSV,4,2,14,195,51,175,31,18,43,317,25,05,41,074,47,41,38,242,35,1*5F
$GPGSV,4,3,14,13,38,032,40,29,24,228,43,20,23,099,39,23,20,310,18,1*69
$GPGSV,4,4,14,194,18,148,22,11,13,147,19,1*51
$GPGSV,2,1,07,196,72,048,43,199,60,167,44,24,54,177,45,195,51,175,43,8*54
$GPGSV,2,2,07,18,43,317,27,194,18,148,22,11,13,147,20,8*6E
$GLGSV,2,1,05,84,56,211,32,85,39,313,13,69,30,027,18,79,25,077,42,1*79
$GLGSV,2,2,05,80,22,135,22,1*42
$GAGSV,2,1,08,08,63,336,38,15,60,166,33,13,60,309,26,07,33,259,35,7*7E
$GAGSV,2,2,08,03,29,040,38,34,10,151,,30,04,166,,25,03,073,,7*79
$GAGSV,2,1,05,08,63,336,39,15,60,166,40,13,60,309,34,07,33,259,40,1*71
$GAGSV,2,2,05,03,29,040,40,1*48
$GBGSV,4,1,13,39,69,212,42,38,69,028,43,16,59,206,43,06,57,207,42,1*75
$GBGSV,4,2,13,13,52,343,28,20,50,009,37,29,45,248,44,09,40,208,19,1*78
$GBGSV,4,3,13,19,33,301,20,37,33,087,45,46,30,155,27,35,19,308,,1*71
$GBGSV,4,4,13,32,18,065,33,1*4F
$GBGSV,2,1,07,38,69,028,45,39,69,212,45,20,50,009,42,29,45,248,43,4*76
$GBGSV,2,2,07,37,33,087,43,46,30,155,27,32,18,065,30,4*45
$GNGGA,095500.000,2500.7810378,N,12132.4654707,E,2,51,0.53,16.478,M,15.25,M,1,3335*47
$GNRMC,095500.000,A,2500.7810378,N,12132.4654707,E,0.00,215.58,260623,,,D,V*0B
$GPHDT,267.840,T*3A
$GNGGA,095500.200,2500.7810258,N,12132.4654767,E,2,51,0.53,16.477,M,15.25,M,1,3335*4F
$GNRMC,095500.200,A,2500.7810258,N,12132.4654767,E,0.00,215.58,260623,,,D,V*0C
$GPHDT,267.908,T*37
$GNGGA,095500.400,2500.7810078,N,12132.4654887,E,2,51,0.53,16.477,M,15.25,M,1,3335*48
$GNRMC,095500.400,A,2500.7810078,N,12132.4654887,E,0.00,215.58,260623,,,D,V*0B
$GPHDT,267.411,T*32
$GNGGA,095500.600,2500.7809958,N,12132.4654947,E,2,50,0.53,16.490,M,15.25,M,1,3335*4C
$GNRMC,095500.600,A,2500.7809958,N,12132.4654947,E,0.00,215.58,260623,,,D,V*07
$GPHDT,267.418,T*3B
$GNGGA,095500.800,2500.7809778,N,12132.4655067,E,2,49,0.53,16.497,M,15.25,M,1,3335*4B
$GNRMC,095500.800,A,2500.7809778,N,12132.4655067,E,0.00,215.58,260623,,,D,V*0F
$GPHDT,267.134,T*30
$GNGSA,A,3,196,199,15,24,195,18,05,13,29,20,11,194,1.09,0.53,0.95,1*08
$GNGSA,A,3,84,69,79,80,,,,,,,,,1.09,0.53,0.95,2*05
$GNGSA,A,3,08,13,15,07,03,,,,,,,,1.09,0.53,0.95,3*0B
$GNGSA,A,3,38,39,16,06,13,20,29,37,19,46,32,,1.09,0.53,0.95,4*02
$GPGSV,4,1,14,196,72,048,41,199,60,167,35,15,60,353,42,24,54,177,38,1*6B
$GPGSV,4,2,14,195,51,175,31,18,43,317,26,05,41,074,47,13,38,032,40,1*5C
$GPGSV,4,3,14,41,38,242,35,29,24,228,43,20,23,099,39,23,20,310,19,1*68
$GPGSV,4,4,14,194,18,148,24,11,13,147,22,1*5F
$GPGSV,2,1,07,196,72,048,43,199,60,167,43,24,54,177,45,195,51,175,43,8*53
$GPGSV,2,2,07,18,43,317,27,194,18,148,23,11,13,147,20,8*6F
$GLGSV,2,1,06,84,56,211,32,85,39,313,11,69,30,027,21,79,25,077,42,1*72
$GLGSV,2,2,06,80,22,135,25,83,05,170,,1*7E
$GAGSV,2,1,08,08,63,336,39,13,60,309,26,15,60,166,34,07,33,259,35,7*78
$GAGSV,2,2,08,03,29,040,38,34,10,151,,30,04,166,,25,03,073,,7*79
$GAGSV,2,1,05,08,63,336,39,15,60,166,39,13,60,309,34,07,33,259,40,1*7F
$GAGSV,2,2,05,03,29,040,40,1*48
$GBGSV,4,1,13,38,69,028,43,39,69,212,42,16,59,206,43,06,57,207,41,1*76
$GBGSV,4,2,13,13,53,343,28,20,50,009,38,29,45,248,44,09,40,208,19,1*76
$GBGSV,4,3,13,37,33,087,44,19,33,301,19,46,30,155,28,35,19,308,,1*75
$GBGSV,4,4,13,32,18,065,32,1*4E
$GBGSV,2,1,07,38,69,028,45,39,69,212,45,20,50,009,42,29,45,248,43,4*76
$GBGSV,2,2,07,37,33,087,44,46,30,155,29,32,18,065,30,4*4C
$GNGGA,095501.000,2500.7809598,N,12132.4655187,E,2,50,0.53,16.502,M,15.25,M,2,3335*47
$GNRMC,095501.000,A,2500.7809598,N,12132.4655187,E,0.00,215.58,260623,,,D,V*05
$GPHDT,267.101,T*36
$GNGGA,095501.200,2500.7809418,N,12132.4655247,E,2,51,0.53,16.518,M,15.25,M,2,3335*49
$GNRMC,095501.200,A,2500.7809418,N,12132.4655247,E,0.00,215.58,260623,,,D,V*01
$GPHDT,266.844,T*3F
$GNGGA,095501.400,2500.7809298,N,12132.4655367,E,2,52,0.50,16.530,M,15.25,M,2,3335*48
$GNRMC,095501.400,A,2500.7809298,N,12132.4655367,E,0.00,215.58,260623,,,D,V*0A
$GPHDT,266.665,T*32
$GNGGA,095501.600,2500.7809118,N,12132.4655427,E,2,51,0.53,16.537,M,15.25,M,2,3335*45
$GNRMC,095501.600,A,2500.7809118,N,12132.4655427,E,0.00,215.58,260623,,,D,V*00
$GPHDT,266.758,T*3D
$GNGGA,095501.800,2500.7809298,N,12132.4655367,E,2,51,0.53,16.530,M,15.25,M,2,3335*44
$GNRMC,095501.800,A,2500.7809298,N,12132.4655367,E,0.04,215.58,260623,,,D,V*02
$GPHDT,266.805,T*3A
$GNGSA,A,3,196,199,15,24,195,18,05,13,29,20,194,11,1.09,0.53,0.95,1*08
$GNGSA,A,3,84,69,79,80,,,,,,,,,1.09,0.53,0.95,2*05
$GNGSA,A,3,08,15,13,07,03,,,,,,,,1.09,0.53,0.95,3*0B
$GNGSA,A,3,39,38,16,06,13,20,29,37,19,46,32,,1.09,0.53,0.95,4*02
$GPGSV,4,1,14,196,72,048,41,199,60,167,34,15,60,353,42,24,54,177,40,1*65
$GPGSV,4,2,14,195,51,175,32,18,43,317,26,05,41,074,47,13,38,032,40,1*5F
$GPGSV,4,3,14,41,38,242,35,29,24,228,43,20,23,099,39,23,20,310,17,1*66
$GPGSV,4,4,14,194,18,148,23,11,13,147,20,1*5A
$GPGSV,2,1,07,196,72,048,43,199,60,167,43,24,54,177,45,195,51,175,43,8*53
$GPGSV,2,2,07,18,43,317,27,194,18,148,23,11,13,147,18,8*64
$GLGSV,2,1,06,84,56,211,32,85,39,313,13,70,35,310,,69,30,027,22,1*7F
$GLGSV,2,2,06,79,25,077,42,80,22,135,25,1*79
$GAGSV,2,1,08,08,63,336,38,15,60,166,34,13,60,309,26,07,33,259,35,7*79
$GAGSV,2,2,08,03,29,040,38,34,10,151,,30,04,166,,25,03,073,,7*79
$GAGSV,2,1,05,08,63,336,39,15,60,166,39,13,60,309,33,07,33,259,40,1*78
$GAGSV,2,2,05,03,29,040,40,1*48
$GBGSV,4,1,15,39,69,212,42,38,69,028,43,16,59,207,43,06,57,207,41,1*71
$GBGSV,4,2,15,13,53,343,28,20,50,009,37,29,45,248,44,09,40,208,19,1*7F
$GBGSV,4,3,15,37,33,087,44,19,33,301,18,46,30,155,27,31,22,195,,1*77
$GBGSV,4,4,15,35,19,308,,32,18,065,32,40,04,194,,1*41
$GBGSV,2,1,07,38,69,028,45,39,69,212,45,20,50,009,41,29,45,248,43,4*75
$GBGSV,2,2,07,37,33,087,44,46,30,155,29,32,18,065,29,4*44
$GNGGA,095502.000,2500.7809178,N,12132.4655427,E,2,51,0.53,16.534,M,15.25,M,3,3335*44
$GNRMC,095502.000,A,2500.7809178,N,12132.4655427,E,0.04,215.58,260623,,,D,V*07
$GPHDT,266.836,T*3A
$GNGGA,095502.200,2500.7809178,N,12132.4655427,E,2,51,0.53,16.535,M,15.25,M,3,3335*47
$GNRMC,095502.200,A,2500.7809178,N,12132.4655427,E,0.01,215.58,260623,,,D,V*00
$GPHDT,266.485,T*3E
$GNGGA,095502.400,2500.7809178,N,12132.4655367,E,2,51,0.53,16.536,M,15.25,M,3,3335*41
$GNRMC,095502.400,A,2500.7809178,N,12132.4655367,E,0.01,215.58,260623,,,D,V*05
$GPHDT,266.620,T*33
