$FW : RTK35X,V1.1X0314AS,Lib20210517,1*54
$Tool : LOCOSYS , GNSS Firebird , v1.0.0.19*39
$---------------------------------------------------*2D
.4646134,E,0.01,215.58,260623,,,D,V*05
$GPHDT,,T*1B
$GNGGA,095551.600,2500.7811465,N,12132.4646074,E,2,49,0.50,15.687,M,15.25,M,6,3335*43
$GNRMC,095551.600,A,2500.7811465,N,12132.4646074,E,0.01,215.58,260623,,,D,V*02
$GPHDT,,T*1B
$GNGGA,095551.800,2500.7811525,N,12132.4646014,E,2,49,0.50,15.682,M,15.25,M,6,3335*4B
$GNRMC,095551.800,A,2500.7811525,N,12132.4646014,E,0.01,215.58,260623,,,D,V*0F
$GPHDT,,T*1B
$GNGSA,A,3,196,199,15,24,195,05,13,29,20,23,194,11,1.00,0.50,0.87,1*09
$GNGSA,A,3,18,,,,,,,,,,,,1.00,0.50,0.87,1*03
$GNGSA,A,3,84,85,69,79,80,,,,,,,,1.00,0.50,0.87,2*01
$GNGSA,A,3,08,15,13,07,03,,,,,,,,1.00,0.50,0.87,3*02
$GNGSA,A,3,39,38,16,06,13,20,29,37,46,32,,,1.00,0.50,0.87,4*03
$GPGSV,4,1,14,196,72,048,40,199,60,167,38,15,59,354,40,24,55,177,47,1*61
$GPGSV,4,2,14,195,50,175,43,18,43,316,19,05,40,075,43,41,38,242,31,1*55
$GPGSV,4,3,14,13,38,032,32,29,24,228,42,20,23,100,34,23,20,311,17,1*6F
$GPGSV,4,4,14,194,18,148,23,11,13,147,23,1*59
$GPGSV,2,1,07,196,72,048,45,199,60,167,48,24,55,177,46,195,50,175,45,8*5B
$GPGSV,2,2,07,18,43,316,20,194,18,148,24,11,13,147,22,8*6C
$GLGSV,2,1,05,84,56,211,33,85,39,313,18,69,29,028,19,79,25,077,41,1*76
$GLGSV,2,2,05,80,23,135,26,1*47
$GAGSV,2,1,07,08,63,337,36,15,60,166,43,13,60,309,22,07,33,260,36,7*74
$GAGSV,2,2,07,03,29,040,32,02,10,118,,34,10,151,,7*41
$GAGSV,2,1,05,08,63,337,41,15,60,166,44,13,60,309,36,07,33,260,39,1*7D
$GAGSV,2,2,05,03,29,040,32,1*4D
$GBGSV,4,1,13,39,69,212,42,38,69,028,43,16,59,207,44,06,57,207,43,1*72
$GBGSV,4,2,13,13,53,343,23,20,50,010,41,29,45,248,43,09,40,208,23,1*75
$GBGSV,4,3,13,19,34,301,,37,33,087,45,46,30,154,34,35,19,307,,1*78
$GBGSV,4,4,13,32,18,066,17,1*4A
$GBGSV,2,1,06,38,69,028,44,39,69,212,45,20,50,010,43,29,45,248,44,4*78
$GBGSV,2,2,06,37,33,087,42,32,18,066,31,4*72
$GNGGA,095552.000,2500.7811525,N,12132.4645894,E,2,49,0.50,15.676,M,15.25,M,5,3335*4B
$GNRMC,095552.000,A,2500.7811525,N,12132.4645894,E,0.01,215.58,260623,,,D,V*07
$GPHDT,,T*1B
$GNGGA,095552.200,2500.7811525,N,12132.4645834,E,2,49,0.50,15.668,M,15.25,M,3,3335*4A
$GNRMC,095552.200,A,2500.7811525,N,12132.4645834,E,0.01,215.58,260623,,,D,V*0F
$GPHDT,,T*1B
$GNGGA,095552.400,2500.7811525,N,12132.4645714,E,2,49,0.50,15.657,M,15.25,M,2,3335*4C
$GNRMC,095552.400,A,2500.7811525,N,12132.4645714,E,0.01,215.58,260623,,,D,V*04
$GPHDT,,T*1B
$GNGGA,095552.600,2500.7811525,N,12132.4645654,E,2,49,0.50,15.647,M,15.25,M,2,3335*4A
$GNRMC,095552.600,A,2500.7811525,N,12132.4645654,E,0.01,215.58,260623,,,D,V*03
$GPHDT,,T*1B
$GNGGA,095552.800,2500.7811525,N,12132.4645594,E,2,49,0.50,15.641,M,15.25,M,2,3335*4D
$GNRMC,095552.800,A,2500.7811525,N,12132.4645594,E,0.01,215.58,260623,,,D,V*02
$GPHDT,,T*1B
$GNGSA,A,3,196,199,15,24,195,05,13,29,20,23,194,11,1.00,0.50,0.87,1*09
$GNGSA,A,3,18,,,,,,,,,,,,1.00,0.50,0.87,1*03
$GNGSA,A,3,84,85,69,79,80,,,,,,,,1.00,0.50,0.87,2*01
$GNGSA,A,3,08,15,13,07,03,,,,,,,,1.00,0.50,0.87,3*02
$GNGSA,A,3,39,38,16,06,13,20,29,37,46,32,,,1.00,0.50,0.87,4*03
$GPGSV,4,1,14,196,72,048,40,199,60,167,38,15,59,354,40,24,55,177,47,1*61
$GPGSV,4,2,14,195,50,175,43,18,43,316,19,05,40,075,43,41,38,242,31,1*55
$GPGSV,4,3,14,13,38,032,30,29,24,228,42,20,23,100,34,23,20,311,17,1*6D
$GPGSV,4,4,14,194,18,148,23,11,13,147,21,1*5B
$GPGSV,2,1,07,196,72,048,45,199,60,167,48,24,55,177,46,195,50,175,45,8*5B
$GPGSV,2,2,07,18,43,316,20,194,18,148,20,11,13,147,23,8*69
$GLGSV,2,1,05,84,56,211,32,85,39,313,18,69,29,028,18,79,25,077,41,1*76
$GLGSV,2,2,05,80,23,135,29,1*48
$GAGSV,2,1,07,08,63,337,37,15,60,166,43,13,60,309,21,07,33,260,37,7*77
$GAGSV,2,2,07,03,29,040,33,02,10,118,,34,10,151,,7*40
$GAGSV,2,1,05,08,63,337,41,15,60,166,44,13,60,309,36,07,33,260,39,1*7D
$GAGSV,2,2,05,03,29,040,33,1*4C
$GBGSV,4,1,13,39,69,212,42,38,69,028,43,16,59,207,44,06,57,207,43,1*72
$GBGSV,4,2,13,13,53,343,23,20,50,010,40,29,45,248,43,09,40,208,22,1*75
$GBGSV,4,3,13,19,34,301,,37,33,087,46,46,30,154,35,35,19,307,,1*7A
$GBGSV,4,4,13,32,18,066,17,1*4A
$GBGSV,2,1,07,38,69,028,44,39,69,212,45,20,50,010,43,29,45,248,44,4*79
$GBGSV,2,2,07,37,33,087,43,46,30,154,22,32,18,066,31,4*43
$GNGGA,095553.000,2500.7811525,N,12132.4645534,E,2,50,0.50,15.635,M,15.25,M,3,3335*44
$GNRMC,095553.000,A,2500.7811525,N,12132.4645534,E,0.01,215.58,260623,,,D,V*01
$GPHDT,,T*1B
$GNGGA,095553.200,2500.7811465,N,12132.4645414,E,2,50,0.50,15.625,M,15.25,M,3,3335*41
$GNRMC,095553.200,A,2500.7811465,N,12132.4645414,E,0.01,215.58,260623,,,D,V*05
$GPHDT,,T*1B
$GNGGA,095553.400,2500.7811465,N,12132.4645354,E,2,50,0.50,15.617,M,15.25,M,3,3335*45
$GNRMC,095553.400,A,2500.7811465,N,12132.4645354,E,0.01,215.58,260623,,,D,V*00
$GPHDT,,T*1B
$GNGGA,095553.600,2500.7811465,N,12132.4645294,E,2,50,0.50,15.604,M,15.25,M,3,3335*48
$GNRMC,095553.600,A,2500.7811465,N,12132.4645294,E,0.01,215.58,260623,,,D,V*0F
$GPHDT,,T*1B
$GNGGA,095553.800,2500.7811465,N,12132.4645174,E,2,51,0.50,15.592,M,15.25,M,3,3335*46
$GNRMC,095553.800,A,2500.7811465,N,12132.4645174,E,0.01,215.58,260623,,,D,V*0C
$GPHDT,,T*1B
$GNGSA,A,3,196,199,15,24,195,18,05,13,29,20,23,194,1.00,0.50,0.87,1*00
$GNGSA,A,3,11,,,,,,,,,,,,1.00,0.50,0.87,1*0A
$GNGSA,A,3,84,85,69,79,80,,,,,,,,1.00,0.50,0.87,2*01
$GNGSA,A,3,08,15,13,07,03,,,,,,,,1.00,0.50,0.87,3*02
$GNGSA,A,3,39,38,16,06,13,20,29,37,46,32,,,1.00,0.50,0.87,4*03
$GPGSV,4,1,14,196,72,048,40,199,60,167,38,15,59,354,40,24,55,177,47,1*61
$GPGSV,4,2,14,195,50,175,43,18,43,316,19,05,40,075,43,41,38,242,31,1*55
$GPGSV,4,3,14,13,38,032,30,29,24,228,42,20,23,100,35,23,20,311,17,1*6C
$GPGSV,4,4,14,194,18,148,24,11,13,147,21,1*5C
$GPGSV,2,1,07,196,72,048,45,199,60,167,48,24,55,177,46,195,50,175,45,8*5B
$GPGSV,2,2,07,18,43,316,21,194,18,148,20,11,13,147,24,8*6F
$GLGSV,2,1,05,84,56,211,32,85,39,313,18,69,29,028,19,79,25,077,41,1*77
$GLGSV,2,2,05,80,23,135,29,1*48
$GAGSV,2,1,07,08,63,337,37,15,60,166,43,13,60,308,23,07,33,260,37,7*74
$GAGSV,2,2,07,03,29,040,33,02,10,118,,34,10,151,,7*40
$GAGSV,2,1,05,08,63,337,41,15,60,166,44,13,60,308,36,07,33,260,39,1*7C
$GAGSV,2,2,05,03,29,040,34,1*4B
$GBGSV,4,1,13,39,69,212,42,38,69,028,43,16,59,207,44,06,57,207,43,1*72
$GBGSV,4,2,13,13,53,343,22,20,50,010,40,29,45,248,43,09,40,208,21,1*77
$GBGSV,4,3,13,19,34,301,,37,33,087,46,46,30,154,35,35,19,307,,1*7A
$GBGSV,4,4,13,32,18,066,,1*4C
$GBGSV,2,1,07,38,69,028,45,39,69,212,45,20,50,010,43,29,45,248,44,4*78
$GBGSV,2,2,07,37,33,087,43,46,30,154,24,32,18,066,31,4*45
$GNGGA,095554.000,2500.7811465,N,12132.4645114,E,2,51,0.50,15.586,M,15.25,M,4,3335*4D
$GNRMC,095554.000,A,2500.7811465,N,12132.4645114,E,0.02,215.58,260623,,,D,V*06
$GPHDT,,T*1B
$GNGGA,095554.200,2500.7811465,N,12132.4645054,E,2,50,0.50,15.574,M,15.25,M,4,3335*46
$GNRMC,095554.200,A,2500.7811465,N,12132.4645054,E,0.01,215.58,260623,,,D,V*02
$GPHDT,,T*1B
$GNGGA,095554.400,2500.7811405,N,12132.4644994,E,2,51,0.50,15.566,M,15.25,M,4,3335*40
$GNRMC,095554.400,A,2500.7811405,N,12132.4644994,E,0.01,215.58,260623,,,D,V*06
$GPHDT,,T*1B
$GNGGA,095554.600,2500.7811405,N,12132.4644934,E,2,51,0.50,15.562,M,15.25,M,4,3335*4C
$GNRMC,095554.600,A,2500.7811405,N,12132.4644934,E,0.01,215.58,260623,,,D,V*0E
$GPHDT,,T*1B
$GNGGA,095554.800,2500.7811405,N,12132.4644874,E,2,50,0.50,15.551,M,15.25,M,4,3335*46
$GNRMC,095554.800,A,2500.7811405,N,12132.4644874,E,0.01,215.58,260623,,,D,V*05
$GPHDT,,T*1B
$GNGSA,A,3,196,199,15,24,195,05,13,29,20,23,194,11,1.00,0.50,0.87,1*09
$GNGSA,A,3,18,,,,,,,,,,,,1.00,0.50,0.87,1*03
$GNGSA,A,3,84,85,69,79,80,,,,,,,,1.00,0.50,0.87,2*01
$GNGSA,A,3,08,13,15,07,03,,,,,,,,1.00,0.50,0.87,3*02
$GNGSA,A,3,39,38,16,06,13,20,29,37,46,32,,,1.00,0.50,0.87,4*03
$GPGSV,4,1,14,196,72,048,40,199,60,167,38,15,59,354,40,24,55,177,47,1*61
$GPGSV,4,2,14,195,50,175,43,18,43,316,20,05,40,075,44,41,38,242,32,1*5B
$GPGSV,4,3,14,13,38,032,31,29,24,228,42,20,23,100,35,23,20,311,18,1*62
$GPGSV,4,4,14,194,18,148,25,11,13,147,23,1*5F
$GPGSV,2,1,07,196,72,048,45,199,60,167,48,24,55,177,46,195,50,175,45,8*5B
$GPGSV,2,2,07,18,43,316,21,194,18,148,20,11,13,147,23,8*68
$GLGSV,2,1,05,84,56,211,32,85,39,313,18,69,29,028,19,79,25,077,41,1*77
$GLGSV,2,2,05,80,23,135,29,1*48
$GAGSV,2,1,07,08,63,337,37,13,60,308,24,15,59,167,43,07,33,260,37,7*78
$GAGSV,2,2,07,03,29,040,33,02,10,118,,34,10,151,,7*40
$GAGSV,2,1,05,08,63,337,41,13,60,308,36,15,59,167,44,07,33,260,39,1*77
$GAGSV,2,2,05,03,29,040,34,1*4B
$GBGSV,4,1,13,39,69,212,42,38,69,028,43,16,59,207,44,06,57,207,43,1*72
$GBGSV,4,2,13,13,53,343,23,20,50,010,40,29,45,248,43,09,40,208,21,1*76
$GBGSV,4,3,13,19,34,301,,37,33,087,46,46,30,154,35,35,19,307,,1*7A
$GBGSV,4,4,13,32,18,066,,1*4C
$GBGSV,2,1,07,38,69,028,45,39,69,212,45,20,50,010,42,29,45,248,44,4*79
$GBGSV,2,2,07,37,33,087,43,46,30,154,23,32,18,066,31,4*42
$GNGGA,095555.000,2500.7811405,N,12132.4644814,E,2,50,0.50,15.555,M,15.25,M,5,3335*4C
$GNRMC,095555.000,A,2500.7811405,N,12132.4644814,E,0.01,215.58,260623,,,D,V*0A
$GPHDT,,T*1B
$GNGGA,095555.200,2500.7811345,N,12132.4644754,E,2,49,0.55,15.554,M,15.25,M,5,3335*4A
$GNRMC,095555.200,A,2500.7811345,N,12132.4644754,E,0.01,215.58,260623,,,D,V*00
$GPHDT,179.821,T*31
$GNGGA,095555.400,2500.7811405,N,12132.4644694,E,2,49,0.55,15.543,M,15.25,M,2,3335*43
$GNRMC,095555.400,A,2500.7811405,N,12132.4644694,E,0.01,215.58,260623,,,D,V*08
$GPHDT,179.727,T*38
$GNGGA,095555.600,2500.7811405,N,12132.4644574,E,2,49,0.55,15.525,M,15.25,M,1,3335*4F
$GNRMC,095555.600,A,2500.7811405,N,12132.4644574,E,0.01,215.58,260623,,,D,V*07
$GPHDT,179.793,T*37
$GNGGA,095555.800,2500.7811405,N,12132.4644514,E,2,49,0.55,15.511,M,15.25,M,0,3335*41
$GNRMC,095555.800,A,2500.7811405,N,12132.4644514,E,0.01,215.58,260623,,,D,V*0F
$GPHDT,179.885,T*3F
$GNGSA,A,3,196,199,15,24,195,05,13,29,20,194,11,18,1.11,0.55,0.97,1*05
$GNGSA,A,3,84,85,69,79,80,,,,,,,,1.11,0.55,0.97,2*05
$GNGSA,A,3,08,13,15,07,03,,,,,,,,1.11,0.55,0.97,3*06
$GNGSA,A,3,39,38,16,06,13,20,29,37,46,32,,,1.11,0.55,0.97,4*07
$GPGSV,4,1,14,196,72,048,40,199,60,167,38,15,59,354,39,24,55,177,47,1*6F
$GPGSV,4,2,14,195,50,175,43,18,43,316,19,05,40,075,44,41,38,242,31,1*52
$GPGSV,4,3,14,13,38,032,33,29,24,228,42,20,23,100,35,23,20,311,18,1*60
$GPGSV,4,4,14,194,18,148,24,11,13,147,23,1*5E
$GPGSV,2,1,07,196,72,048,45,199,60,167,48,24,55,177,46,195,50,175,45,8*5B
$GPGSV,2,2,07,18,43,316,20,194,18,148,20,11,13,147,24,8*6E
$GLGSV,2,1,05,84,56,211,32,85,39,313,18,69,29,028,19,79,25,077,41,1*77
$GLGSV,2,2,05,80,23,135,29,1*48
$GAGSV,2,1,07,08,63,337,37,13,60,308,21,15,59,167,43,07,33,260,37,7*7D
$GAGSV,2,2,07,03,29,040,33,02,10,118,,34,10,151,,7*40
$GAGSV,2,1,05,08,63,337,41,13,60,308,35,15,59,167,44,07,33,260,39,1*74
$GAGSV,2,2,05,03,29,040,34,1*4B
$GBGSV,4,1,13,39,69,212,42,38,69,028,43,16,59,207,44,06,57,207,43,1*72
$GBGSV,4,2,13,13,53,343,24,20,50,010,41,29,45,248,43,09,40,208,20,1*71
$GBGSV,4,3,13,19,34,301,,37,33,087,46,46,30,154,35,35,19,307,,1*7A
$GBGSV,4,4,13,32,18,066,,1*4C
$GBGSV,2,1,07,38,69,028,45,39,69,212,45,20,50,010,42,29,45,248,44,4*79
$GBGSV,2,2,07,37,33,087,43,46,30,154,24,32,18,066,31,4*45
$GNGGA,095556.000,2500.7811405,N,12132.4644514,E,2,49,0.55,15.505,M,15.25,M,1,3335*4E
$GNRMC,095556.000,A,2500.7811405,N,12132.4644514,E,0.01,215.58,260623,,,D,V*04
$GPHDT,179.820,T*30
$GNGGA,095556.200,2500.7811405,N,12132.4644394,E,2,49,0.55,15.503,M,15.25,M,1,3335*44
$GNRMC,095556.200,A,2500.7811405,N,12132.4644394,E,0.01,215.58,260623,,,D,V*08
$GPHDT,179.774,T*3E
$GNGGA,095556.400,2500.7811405,N,12132.4644274,E,2,49,0.55,15.490,M,15.25,M,1,3335*46
$GNRMC,095556.400,A,2500.7811405,N,12132.4644274,E,0.01,215.58,260623,,,D,V*01
$GPHDT,179.707,T*3A
$GNGGA,095556.600,2500.7811405,N,12132.4644154,E,2,49,0.55,15.484,M,15.25,M,1,3335*40
$GNRMC,095556.600,A,2500.7811405,N,12132.4644154,E,0.02,215.58,260623,,,D,V*01
$GPHDT,179.632,T*3D
$GNGGA,095556.800,2500.7811405,N,12132.4644034,E,2,49,0.55,15.480,M,15.25,M,1,3335*4D
$GNRMC,095556.800,A,2500.7811405,N,12132.4644034,E,0.02,215.58,260623,,,D,V*08
$GPHDT,179.724,T*3B
$GNGSA,A,3,196,199,15,24,195,05,13,29,20,194,11,18,1.11,0.55,0.97,1*05
$GNGSA,A,3,84,85,69,79,80,,,,,,,,1.11,0.55,0.97,2*05
$GNGSA,A,3,08,13,15,07,03,,,,,,,,1.11,0.55,0.97,3*06
$GNGSA,A,3,38,39,16,06,13,20,29,37,46,32,,,1.11,0.55,0.97,4*07
$GPGSV,4,1,14,196,72,048,41,199,60,167,38,15,59,354,38,24,55,177,47,1*6F
$GPGSV,4,2,14,195,50,175,43,18,43,316,19,05,40,075,42,41,38,242,32,1*57
$GPGSV,4,3,14,13,38,032,34,29,24,228,42,20,23,100,36,23,20,311,17,1*6B
$GPGSV,4,4,14,194,18,148,24,11,13,147,23,1*5E
$GPGSV,2,1,07,196,72,048,44,199,60,167,48,24,55,177,46,195,50,175,44,8*5B
$GPGSV,2,2,07,18,43,316,20,194,18,148,20,11,13,147,24,8*6E
$GLGSV,2,1,06,84,56,211,32,85,39,313,20,70,35,310,,69,29,028,21,1*7B
$GLGSV,2,2,06,79,25,077,39,80,23,135,28,1*79
$GAGSV,2,1,08,08,63,337,38,13,60,308,23,15,59,167,43,07,33,260,37,7*7F
$GAGSV,2,2,08,03,29,040,36,02,10,118,,34,10,151,,26,08,324,,7*73
$GAGSV,2,1,05,08,63,337,40,13,60,308,36,15,59,167,44,07,33,260,38,1*77
$GAGSV,2,2,05,03,29,040,36,1*49
$GBGSV,4,1,14,38,69,028,43,39,69,212,42,16,59,207,44,06,57,207,43,1*75
$GBGSV,4,2,14,13,53,343,22,20,50,010,40,29,45,248,43,09,40,208,21,1*70
$GBGSV,4,3,14,19,34,301,,37,33,087,46,46,30,154,35,30,23,184,,1*78
$GBGSV,4,4,14,35,19,307,,32,18,066,,1*71
$GBGSV,2,1,07,38,69,028,45,39,69,212,45,20,50,010,40,29,45,248,44,4*7B
$GBGSV,2,2,07,37,33,087,43,46,30,154,21,32,18,066,31,4*40
$GNGGA,095557.000,2500.7811405,N,12132.4643914,E,2,49,0.55,15.461,M,15.25,M,2,3335*44
$GNRMC,095557.000,A,2500.7811405,N,12132.4643914,E,0.02,215.58,260623,,,D,V*0D
$GPHDT,179.537,T*3B
$GNGGA,095557.200,2500.7811465,N,12132.4643734,E,2,49,0.55,15.455,M,15.25,M,2,3335*4B
$GNRMC,095557.200,A,2500.7811465,N,12132.4643734,E,0.02,215.58,260623,,,D,V*05
$GPHDT,179.531,T*3D
$GNGGA,095557.400,2500.7811405,N,12132.4643674,E,2,49,0.55,15.452,M,15.25,M,2,3335*49
$GNRMC,095557.400,A,2500.7811405,N,12132.4643674,E,0.02,215.58,260623,,,D,V*00
$GPHDT,179.383,T*32
$GNGGA,095557.600,2500.7811405,N,12132.4643494,E,2,49,0.55,15.450,M,15.25,M,2,3335*45
$GNRMC,095557.600,A,2500.7811405,N,12132.4643494,E,0.02,215.58,260623,,,D,V*0E
$GPHDT,179.393,T*33
$GNGGA,095557.800,2500.7811405,N,12132.4643374,E,2,49,0.55,15.444,M,15.25,M,2,3335*47
$GNRMC,095557.800,A,2500.7811405,N,12132.4643374,E,0.02,215.58,260623,,,D,V*09
$GPHDT,179.527,T*3A
$GNGSA,A,3,196,199,15,24,195,05,13,29,20,194,11,18,1.11,0.55,0.97,1*05
$GNGSA,A,3,84,85,69,79,80,,,,,,,,1.11,0.55,0.97,2*05
$GNGSA,A,3,08,13,15,07,03,,,,,,,,1.11,0.55,0.97,3*06
$GNGSA,A,3,38,39,16,06,13,20,29,37,46,32,,,1.11,0.55,0.97,4*07
$GPGSV,4,1,14,196,72,048,41,199,60,167,38,15,59,354,38,24,55,177,47,1*6F
$GPGSV,4,2,14,195,50,175,43,18,43,316,18,05,40,075,42,13,38,032,35,1*53
$GPGSV,4,3,14,41,38,242,32,29,24,228,42,20,23,100,37,23,20,311,17,1*6E
$GPGSV,4,4,14,194,18,148,24,11,13,147,23,1*5E
$GPGSV,2,1,07,196,72,048,44,199,60,167,48,24,55,177,46,195,50,175,44,8*5B
$GPGSV,2,2,07,18,43,316,19,194,18,148,22,11,13,147,24,8*66
$GLGSV,2,1,05,84,56,211,32,85,39,313,22,69,29,028,24,79,25,077,39,1*7F
$GLGSV,2,2,05,80,23,135,30,1*40
$GAGSV,2,1,08,08,63,337,39,13,60,308,22,15,59,167,43,07,33,260,37,7*7F
$GAGSV,2,2,08,03,29,040,38,34,10,151,,02,10,118,,26,08,324,,7*7D
$GAGSV,2,1,05,08,63,337,39,13,60,308,36,15,59,167,44,07,33,260,38,1*79
$GAGSV,2,2,05,03,29,040,38,1*47
$GBGSV,4,1,14,38,69,028,43,39,69,212,42,16,59,207,44,06,57,207,43,1*75
$GBGSV,4,2,14,13,53,343,23,20,50,010,40,29,45,248,43,09,40,208,22,1*72
$GBGSV,4,3,14,19,34,301,,37,33,087,46,46,30,154,36,30,23,184,,1*7B
$GBGSV,4,4,14,35,19,307,,32,18,066,,1*71
$GBGSV,2,1,07,38,69,028,45,39,69,212,45,20,50,010,39,29,45,248,44,4*75
$GBGSV,2,2,07,37,33,087,41,46,30,154,25,32,18,066,30,4*47
$GNGGA,095558.000,2500.7811345,N,12132.4643254,E,2,49,0.55,15.432,M,15.25,M,3,3335*40
$GNRMC,095558.000,A,2500.7811345,N,12132.4643254,E,0.01,215.58,260623,,,D,V*0D
$GPHDT,179.444,T*3E
$GNGGA,095558.200,2500.7811345,N,12132.4643074,E,2,49,0.55,15.429,M,15.25,M,3,3335*48
$GNRMC,095558.200,A,2500.7811345,N,12132.4643074,E,0.02,215.58,260623,,,D,V*0C
$GPHDT,179.600,T*3C
$GNGGA,095558.400,2500.7811345,N,12132.4642954,E,2,50,0.55,15.426,M,15.25,M,3,3335*43
$GNRMC,095558.400,A,2500.7811345,N,12132.4642954,E,0.02,215.58,260623,,,D,V*00
$GPHDT,179.651,T*38
$GNGGA,095558.600,2500.7811345,N,12132.4642774,E,2,50,0.55,15.414,M,15.25,M,3,3335*4C
$GNRMC,095558.600,A,2500.7811345,N,12132.4642774,E,0.02,215.58,260623,,,D,V*0E
$GPHDT,179.588,T*3F
$GNGGA,095558.800,2500.7811285,N,12132.4642654,E,2,50,0.55,15.408,M,15.25,M,3,3335*41
$GNRMC,095558.800,A,2500.7811285,N,12132.4642654,E,0.02,215.58,260623,,,D,V*0E
$GPHDT,179.743,T*3A
$GNGSA,A,3,196,199,15,24,195,05,13,29,20,194,11,18,1.11,0.55,0.97,1*05
$GNGSA,A,3,84,85,69,79,80,,,,,,,,1.11,0.55,0.97,2*05
$GNGSA,A,3,08,13,15,07,03,,,,,,,,1.11,0.55,0.97,3*06
$GNGSA,A,3,38,39,16,06,13,20,29,37,46,32,,,1.11,0.55,0.97,4*07
$GPGSV,4,1,14,196,72,048,41,199,60,167,38,15,59,354,38,24,55,177,47,1*6F
$GPGSV,4,2,14,195,50,175,43,18,43,316,18,05,40,075,42,13,38,032,35,1*53
$GPGSV,4,3,14,41,38,242,33,29,24,228,42,20,23,100,38,23,20,311,14,1*63
$GPGSV,4,4,14,194,18,148,25,11,13,147,23,1*5F
$GPGSV,2,1,07,196,72,048,44,199,60,167,48,24,55,177,46,195,50,175,44,8*5B
$GPGSV,2,2,07,18,43,316,19,194,18,148,23,11,13,147,24,8*67
$GLGSV,2,1,05,84,56,211,32,85,39,313,22,69,29,028,26,79,25,077,39,1*7D
$GLGSV,2,2,05,80,23,135,31,1*41
$GAGSV,2,1,08,08,63,337,39,13,60,308,22,15,59,167,43,07,33,260,37,7*7F
$GAGSV,2,2,08,03,29,040,38,34,10,151,,02,10,118,,26,08,324,,7*7D
$GAGSV,2,1,05,08,63,337,39,13,60,308,36,15,59,167,44,07,33,260,38,1*79
$GAGSV,2,2,05,03,29,040,38,1*47
$GBGSV,4,1,14,38,69,028,43,39,69,212,42,16,59,207,44,06,57,207,43,1*75
$GBGSV,4,2,14,13,53,343,23,20,50,010,40,29,45,248,43,09,40,208,22,1*72
$GBGSV,4,3,14,19,34,301,,37,33,087,45,46,30,154,36,30,23,184,,1*78
$GBGSV,4,4,14,35,19,307,,32,18,066,28,1*7B
$GBGSV,2,1,07,38,69,028,45,39,69,212,45,20,50,010,39,29,45,248,44,4*75
$GBGSV,2,2,07,37,33,087,40,46,30,154,26,32,18,066,29,4*4D
$GNGGA,095559.000,2500.7811285,N,12132.4642474,E,2,50,0.55,15.404,M,15.25,M,4,3335*43
$GNRMC,095559.000,A,2500.7811285,N,12132.4642474,E,0.02,215.58,260623,,,D,V*07
$GPHDT,179.654,T*3D
$GNGGA,095559.200,2500.7811285,N,12132.4642294,E,2,50,0.55,15.401,M,15.25,M,3,3335*4B
$GNRMC,095559.200,A,2500.7811285,N,12132.4642294,E,0.02,215.58,260623,,,D,V*0D
$GPHDT,179.603,T*3F
$GNGGA,095559.400,2500.7811225,N,12132.4642114,E,2,49,0.55,15.401,M,15.25,M,1,3335*46
$GNRMC,095559.400,A,2500.7811225,N,12132.4642114,E,0.02,215.58,260623,,,D,V*0A
$GPHDT,179.687,T*33
$GNGGA,095559.600,2500.7811225,N,12132.4641994,E,2,49,0.55,15.398,M,15.25,M,1,3335*40
$GNRMC,095559.600,A,2500.7811225,N,12132.4641994,E,0.02,215.58,260623,,,D,V*0B
$GPHDT,179.537,T*3B
$GNGGA,095559.800,2500.7811165,N,12132.4641814,E,2,50,0.55,15.397,M,15.25,M,1,3335*47
$GNRMC,095559.800,A,2500.7811165,N,12132.4641814,E,0.01,215.58,260623,,,D,V*08
$GPHDT,179.680,T*34
$GNGSA,A,3,196,199,15,24,195,05,13,29,20,194,11,18,1.11,0.55,0.97,1*05
$GNGSA,A,3,84,85,69,79,80,,,,,,,,1.11,0.55,0.97,2*05
$GNGSA,A,3,08,13,15,07,03,,,,,,,,1.11,0.55,0.97,3*06
$GNGSA,A,3,39,38,16,06,13,20,29,37,46,32,,,1.11,0.55,0.97,4*07
$GPGSV,4,1,14,196,72,048,41,199,60,167,38,15,59,354,37,24,55,177,47,1*60
$GPGSV,4,2,14,195,50,175,43,18,43,316,18,05,40,075,42,41,38,242,33,1*57
$GPGSV,4,3,14,13,38,032,36,29,24,228,42,20,23,100,38,23,20,311,14,1*64
$GPGSV,4,4,14,194,18,148,24,11,13,147,21,1*5C
$GPGSV,2,1,07,196,72,048,44,199,60,167,48,24,55,177,46,195,50,175,44,8*5B
$GPGSV,2,2,07,18,43,316,19,194,18,148,23,11,13,147,24,8*67
$GLGSV,2,1,05,84,56,211,32,85,39,313,23,69,29,028,27,79,25,077,39,1*7D
$GLGSV,2,2,05,80,23,135,31,1*41
$GAGSV,2,1,08,08,63,337,39,13,60,308,20,15,59,167,43,07,33,260,37,7*7D
$GAGSV,2,2,08,03,29,040,38,34,10,151,,02,10,118,,26,08,324,,7*7D
$GAGSV,2,1,05,08,63,337,39,13,60,308,36,15,59,167,44,07,33,260,38,1*79
$GAGSV,2,2,05,03,29,040,38,1*47
$GBGSV,3,1,12,39,69,212,42,38,69,028,43,16,59,207,44,06,57,207,43,1*74
$GBGSV,3,2,12,13,53,343,23,20,50,010,40,29,45,248,43,09,40,208,21,1*70
$GBGSV,3,3,12,37,33,087,45,46,30,154,36,35,19,307,,32,18,066,28,1*73
$GBGSV,2,1,07,38,69,028,45,39,69,212,45,20,50,010,39,29,45,248,44,4*75
$GBGSV,2,2,07,37,33,087,40,46,30,154,26,32,18,066,29,4*4D
$GNGGA,095600.000,2500.7811105,N,12132.4641634,E,2,50,0.55,15.388,M,15.25,M,2,3335*47
$GNRMC,095600.000,A,2500.7811105,N,12132.4641634,E,0.00,215.58,260623,,,D,V*04
$GPHDT,179.533,T*3F
$GNGGA,095600.200,2500.7811045,N,12132.4641454,E,2,50,0.55,15.385,M,15.25,M,2,3335*49
$GNRMC,095600.200,A,2500.7811045,N,12132.4641454,E,0.00,215.58,260623,,,D,V*07
$GPHDT,179.399,T*39
$GNGGA,095600.400,2500.7810985,N,12132.4641334,E,2,49,0.55,15.389,M,15.25,M,2,3335*4E
$GNRMC,095600.400,A,2500.7810985,N,12132.4641334,E,0.00,215.58,260623,,,D,V*04
$GPHDT,179.574,T*3C
$GNGGA,095600.600,2500.7810925,N,12132.4641094,E,2,49,0.55,15.390,M,15.25,M,2,3335*47
$GNRMC,095600.600,A,2500.7810925,N,12132.4641094,E,0.00,215.58,260623,,,D,V*05
$GPHDT,179.390,T*30
$GNGGA,095600.800,2500.7810865,N,12132.4640914,E,2,49,0.55,15.389,M,15.25,M,2,3335*44
$GNRMC,095600.800,A,2500.7810865,N,12132.4640914,E,0.00,215.58,260623,,,D,V*0E
$GPHDT,179.641,T*39
$GNGSA,A,3,196,199,15,24,195,05,13,29,20,194,11,18,1.11,0.55,0.97,1*05
$GNGSA,A,3,84,85,69,79,80,,,,,,,,1.11,0.55,0.97,2*05
$GNGSA,A,3,08,13,15,07,03,,,,,,,,1.11,0.55,0.97,3*06
$GNGSA,A,3,39,38,16,06,13,20,29,37,46,32,,,1.11,0.55,0.97,4*07
$GPGSV,4,1,14,196,72,048,41,199,60,167,38,15,59,354,37,24,55,177,47,1*60
$GPGSV,4,2,14,195,50,175,43,18,43,316,19,05,40,075,42,41,38,242,33,1*56
$GPGSV,4,3,14,13,38,032,37,29,24,228,42,20,23,100,38,23,20,311,13,1*62
$GPGSV,4,4,14,194,18,148,25,11,13,147,21,1*5D
$GPGSV,2,1,07,196,72,048,44,199,60,167,48,24,55,177,46,195,50,175,44,8*5B
$GPGSV,2,2,07,18,43,316,21,194,18,148,24,11,13,147,24,8*6B
$GLGSV,2,1,05,84,56,211,32,85,39,313,23,69,29,028,29,79,25,077,39,1*73
$GLGSV,2,2,05,80,23,135,28,1*49
$GAGSV,2,1,08,08,63,337,39,13,60,308,20,15,59,167,43,07,33,260,36,7*7C
$GAGSV,2,2,08,03,29,040,38,34,10,151,,02,10,118,,26,08,324,,7*7D
$GAGSV,2,1,05,08,63,337,39,13,60,308,36,15,59,167,44,07,33,260,40,1*76
$GAGSV,2,2,05,03,29,040,39,1*46
$GBGSV,4,1,13,39,69,212,42,38,69,028,43,16,59,207,44,06,57,207,43,1*72
$GBGSV,4,2,13,13,53,343,22,20,50,010,40,29,45,248,43,09,40,208,21,1*77
$GBGSV,4,3,13,19,34,301,,37,33,087,45,46,30,154,36,35,19,307,,1*7A
$GBGSV,4,4,13,32,18,066,28,1*46
$GBGSV,2,1,07,38,69,028,46,39,69,212,45,20,50,010,40,29,45,248,44,4*78
$GBGSV,2,2,07,37,33,087,40,46,30,154,27,32,18,066,30,4*44
$GNGGA,095601.000,2500.7810745,N,12132.4640734,E,2,49,0.55,15.389,M,15.25,M,3,3335*4D
$GNRMC,095601.000,A,2500.7810745,N,12132.4640734,E,0.00,215.58,260623,,,D,V*06
$GPHDT,179.382,T*33
$GNGGA,095601.200,2500.7810685,N,12132.4640494,E,2,49,0.55,15.389,M,15.25,M,3,3335*4B
$GNRMC,095601.200,A,2500.7810685,N,12132.4640494,E,0.00,215.58,260623,,,D,V*00
$GPHDT,179.398,T*38
$GNGGA,095601.400,2500.7810625,N,12132.4640314,E,2,49,0.55,15.385,M,15.25,M,3,3335*44
$GNRMC,095601.400,A,2500.7810625,N,12132.4640314,E,0.00,215.58,260623,,,D,V*03
$GPHDT,179.559,T*33
$GNGGA,095601.600,2500.7810505,N,12132.4640074,E,2,50,0.55,15.384,M,15.25,M,3,3335*4B
$GNRMC,095601.600,A,2500.7810505,N,12132.4640074,E,0.00,215.58,260623,,,D,V*05
