$FW : RTK35X,V1.1X0314AS,Lib20210517,1*54
$Tool : LOCOSYS , GNSS Firebird , v1.0.0.19*39
$---------------------------------------------------*2D
$GPHDT,,T*1B
$GNGGA,095323.600,2500.7812507,N,12132.4650534,E,2,50,0.50,16.049,M,15.25,M,2,3335*4B
$GNRMC,095323.600,A,2500.7812507,N,12132.4650534,E,0.04,215.58,260623,,,D,V*04
$GPHDT,,T*1B
$GNGGA,095323.800,2500.7812567,N,12132.4650654,E,2,50,0.50,16.048,M,15.25,M,2,3335*47
$GNRMC,095323.800,A,2500.7812567,N,12132.4650654,E,0.05,215.58,260623,,,D,V*08
$GPHDT,,T*1B
$GNGSA,A,3,196,15,199,24,195,18,05,13,29,20,194,11,0.85,0.50,0.69,1*0D
$GNGSA,A,3,84,85,69,79,80,,,,,,,,0.85,0.50,0.69,2*0D
$GNGSA,A,3,08,15,13,07,03,,,,,,,,0.85,0.50,0.69,3*0E
$GNGSA,A,3,38,16,06,13,20,29,19,37,46,32,,,0.85,0.50,0.69,4*0D
$GPGSV,4,1,14,196,72,048,40,15,60,352,40,199,60,167,37,24,53,177,44,1*67
$GPGSV,4,2,14,195,51,175,44,18,42,317,18,05,41,073,44,13,39,032,36,1*56
$GPGSV,4,3,14,41,38,242,32,29,25,229,42,20,24,099,39,23,19,310,13,1*69
$GPGSV,4,4,14,194,18,148,14,11,14,146,20,1*58
$GPGSV,2,1,07,196,72,048,43,199,60,167,48,24,53,177,47,195,51,175,45,8*5B
$GPGSV,2,2,07,18,42,317,22,194,18,148,26,11,14,146,26,8*6E
$GLGSV,2,1,06,84,57,212,33,85,39,314,19,70,35,309,,69,30,026,19,1*70
$GLGSV,2,2,06,79,25,078,40,80,22,135,24,1*75
$GAGSV,2,1,08,08,64,335,35,15,60,166,43,13,59,310,20,07,33,259,37,7*76
$GAGSV,2,2,08,03,30,040,36,34,11,151,,02,09,119,,25,03,073,,7*7A
$GAGSV,2,1,05,08,64,335,37,15,60,166,45,13,59,310,30,07,33,259,37,1*78
$GAGSV,2,2,05,03,30,040,38,1*4F
$GBGSV,4,1,14,38,69,027,43,39,69,211,,16,59,206,42,06,56,206,42,1*79
$GBGSV,4,2,14,13,52,343,31,20,50,008,37,29,46,249,42,09,40,208,18,1*73
$GBGSV,4,3,14,19,33,300,20,37,33,088,45,46,29,155,35,30,24,185,27,1*7A
$GBGSV,4,4,14,35,19,308,,32,18,065,40,1*79
$GBGSV,2,1,07,38,69,027,45,20,50,008,41,29,46,249,44,19,33,300,19,4*78
$GBGSV,2,2,07,37,33,088,40,46,29,155,31,32,18,065,22,4*45
$GNGGA,095324.000,2500.7812627,N,12132.4650834,E,2,49,0.50,16.046,M,15.25,M,3,3335*40
$GNRMC,095324.000,A,2500.7812627,N,12132.4650834,E,0.04,215.58,260623,,,D,V*09
$GPHDT,,T*1B
$GNGGA,095324.200,2500.7812807,N,12132.4651074,E,2,49,0.50,16.037,M,15.25,M,3,3335*45
$GNRMC,095324.200,A,2500.7812807,N,12132.4651074,E,0.05,215.58,260623,,,D,V*0B
$GPHDT,,T*1B
$GNGGA,095324.400,2500.7812867,N,12132.4651194,E,2,49,0.50,16.034,M,15.25,M,3,3335*49
$GNRMC,095324.400,A,2500.7812867,N,12132.4651194,E,0.04,215.58,260623,,,D,V*05
$GPHDT,,T*1B
$GNGGA,095324.600,2500.7812987,N,12132.4651254,E,2,50,0.50,16.033,M,15.25,M,3,3335*44
$GNRMC,095324.600,A,2500.7812987,N,12132.4651254,E,0.02,215.58,260623,,,D,V*01
$GPHDT,,T*1B
$GNGGA,095324.800,2500.7813227,N,12132.4651494,E,2,50,0.50,16.025,M,15.25,M,3,3335*47
$GNRMC,095324.800,A,2500.7813227,N,12132.4651494,E,0.00,215.58,260623,,,D,V*07
$GPHDT,,T*1B
$GNGSA,A,3,196,15,199,24,195,18,05,13,29,20,11,194,1.09,0.52,0.96,1*0A
$GNGSA,A,3,84,85,69,79,80,,,,,,,,1.09,0.52,0.96,2*0A
$GNGSA,A,3,08,15,13,07,03,,,,,,,,1.09,0.52,0.96,3*09
$GNGSA,A,3,38,16,06,13,20,29,19,37,46,32,,,1.09,0.52,0.96,4*0A
$GPGSV,4,1,14,196,72,048,40,15,60,352,40,199,60,167,37,24,53,177,44,1*67
$GPGSV,4,2,14,195,51,175,44,18,42,317,19,05,41,073,44,13,39,032,36,1*57
$GPGSV,4,3,14,41,38,242,32,29,25,229,40,20,24,099,39,23,19,310,13,1*6B
$GPGSV,4,4,14,194,18,148,14,11,14,146,22,1*5A
$GPGSV,2,1,07,196,72,048,43,199,60,167,49,24,53,177,47,195,51,175,45,8*5A
$GPGSV,2,2,07,18,42,317,25,194,18,148,27,11,14,146,28,8*66
$GLGSV,2,1,05,84,57,212,33,85,39,314,18,69,30,026,19,79,25,078,39,1*75
$GLGSV,2,2,05,80,22,135,25,1*45
$GAGSV,2,1,08,08,64,335,36,15,60,166,43,13,59,310,22,07,33,259,37,7*77
$GAGSV,2,2,08,03,30,040,36,34,11,151,,02,09,119,,25,03,073,,7*7A
$GAGSV,2,1,05,08,64,335,39,15,60,166,46,13,59,310,31,07,33,259,38,1*7B
$GAGSV,2,2,05,03,30,040,38,1*4F
$GBGSV,4,1,14,38,69,027,43,39,69,211,,16,59,206,42,06,56,206,42,1*79
$GBGSV,4,2,14,13,52,343,31,20,50,008,37,29,46,249,42,09,40,208,18,1*73
$GBGSV,4,3,14,19,33,300,20,37,33,088,45,46,29,155,35,30,24,185,26,1*7B
$GBGSV,4,4,14,35,19,308,,32,18,065,40,1*79
$GBGSV,2,1,07,38,69,027,45,20,50,008,41,29,46,249,44,19,33,300,19,4*78
$GBGSV,2,2,07,37,33,088,41,46,29,155,31,32,18,065,22,4*44
$GNGGA,095325.000,2500.7813347,N,12132.4651494,E,2,50,0.52,16.028,M,15.25,M,4,3335*41
$GNRMC,095325.000,A,2500.7813347,N,12132.4651494,E,0.01,215.58,260623,,,D,V*08
$GPHDT,,T*1B
$GNGGA,095325.200,2500.7813467,N,12132.4651614,E,2,50,0.52,16.028,M,15.25,M,4,3335*4C
$GNRMC,095325.200,A,2500.7813467,N,12132.4651614,E,0.01,215.58,260623,,,D,V*05
$GPHDT,,T*1B
$GNGGA,095325.400,2500.7813587,N,12132.4651854,E,2,50,0.52,16.023,M,15.25,M,4,3335*44
$GNRMC,095325.400,A,2500.7813587,N,12132.4651854,E,0.00,215.58,260623,,,D,V*07
$GPHDT,,T*1B
$GNGGA,095325.600,2500.7813707,N,12132.4651974,E,2,50,0.52,16.024,M,15.25,M,4,3335*48
$GNRMC,095325.600,A,2500.7813707,N,12132.4651974,E,0.00,215.58,260623,,,D,V*0C
$GPHDT,,T*1B
$GNGGA,095325.800,2500.7813947,N,12132.4652214,E,2,50,0.52,16.018,M,15.25,M,4,3335*4D
$GNRMC,095325.800,A,2500.7813947,N,12132.4652214,E,0.01,215.58,260623,,,D,V*07
$GPHDT,,T*1B
$GNGSA,A,3,196,15,199,24,195,18,05,13,29,20,11,194,1.09,0.52,0.96,1*0A
$GNGSA,A,3,84,85,69,79,80,,,,,,,,1.09,0.52,0.96,2*0A
$GNGSA,A,3,08,15,13,07,03,,,,,,,,1.09,0.52,0.96,3*09
$GNGSA,A,3,38,16,06,13,20,29,19,37,46,32,,,1.09,0.52,0.96,4*0A
$GPGSV,4,1,14,196,72,048,40,15,60,352,40,199,60,167,37,24,53,177,44,1*67
$GPGSV,4,2,14,195,51,175,44,18,42,317,20,05,41,073,44,13,39,032,36,1*5D
$GPGSV,4,3,14,41,38,242,33,29,25,229,40,20,24,099,40,23,19,310,12,1*65
$GPGSV,4,4,14,194,18,148,16,11,14,146,20,1*5A
$GPGSV,2,1,07,196,72,048,43,199,60,167,49,24,53,177,47,195,51,175,45,8*5A
$GPGSV,2,2,07,18,42,317,26,194,18,148,26,11,14,146,27,8*6B
$GLGSV,2,1,05,84,57,212,33,85,39,314,17,69,30,026,18,79,25,078,39,1*7B
$GLGSV,2,2,05,80,22,135,26,1*46
$GAGSV,2,1,08,08,64,335,36,15,60,166,43,13,59,310,22,07,33,259,37,7*77
$GAGSV,2,2,08,03,30,040,36,34,11,151,,02,09,119,,25,03,073,,7*7A
$GAGSV,2,1,05,08,64,335,39,15,60,166,46,13,59,310,31,07,33,259,38,1*7B
$GAGSV,2,2,05,03,30,040,38,1*4F
$GBGSV,4,1,14,38,69,027,43,39,69,211,,16,59,206,42,06,56,206,42,1*79
$GBGSV,4,2,14,13,52,343,31,20,50,008,37,29,46,249,42,09,40,208,18,1*73
$GBGSV,4,3,14,19,33,300,20,37,33,088,45,46,29,155,35,30,24,185,26,1*7B
$GBGSV,4,4,14,35,19,308,,32,18,065,40,1*79
$GBGSV,2,1,07,38,69,027,45,20,50,008,41,29,46,249,44,19,33,300,19,4*78
$GBGSV,2,2,07,37,33,088,41,46,29,155,31,32,18,065,22,4*44
$GNGGA,095326.000,2500.7814187,N,12132.4652454,E,2,50,0.52,16.015,M,15.25,M,5,3335*4B
$GNRMC,095326.000,A,2500.7814187,N,12132.4652454,E,0.01,215.58,260623,,,D,V*0D
$GPHDT,,T*1B
$GNGGA,095326.200,2500.7814427,N,12132.4652754,E,2,50,0.52,16.007,M,15.25,M,5,3335*46
$GNRMC,095326.200,A,2500.7814427,N,12132.4652754,E,0.01,215.58,260623,,,D,V*03
$GPHDT,,T*1B
$GNGGA,095326.400,2500.7814607,N,12132.4652814,E,2,50,0.52,16.010,M,15.25,M,5,3335*4D
$GNRMC,095326.400,A,2500.7814607,N,12132.4652814,E,0.01,215.58,260623,,,D,V*0E
$GPHDT,,T*1B
$GNGGA,095326.600,2500.7814727,N,12132.4652874,E,2,50,0.52,16.007,M,15.25,M,5,3335*4C
$GNRMC,095326.600,A,2500.7814727,N,12132.4652874,E,0.00,215.58,260623,,,D,V*08
$GPHDT,,T*1B
$GNGGA,095326.800,2500.7814907,N,12132.4653174,E,2,50,0.52,15.999,M,15.25,M,5,3335*4B
$GNRMC,095326.800,A,2500.7814907,N,12132.4653174,E,0.00,215.58,260623,,,D,V*02
$GPHDT,,T*1B
$GNGSA,A,3,196,15,199,24,195,18,05,13,29,20,11,194,1.09,0.52,0.96,1*0A
$GNGSA,A,3,84,85,69,79,80,,,,,,,,1.09,0.52,0.96,2*0A
$GNGSA,A,3,08,15,13,07,03,,,,,,,,1.09,0.52,0.96,3*09
$GNGSA,A,3,38,16,06,13,20,29,19,37,46,32,,,1.09,0.52,0.96,4*0A
$GPGSV,4,1,14,196,72,048,40,15,60,352,40,199,60,167,37,24,53,177,44,1*67
$GPGSV,4,2,14,195,51,175,44,18,42,317,21,05,41,073,44,13,39,032,36,1*5C
$GPGSV,4,3,14,41,38,242,33,29,25,229,40,20,24,099,40,23,19,310,11,1*66
$GPGSV,4,4,14,194,18,148,15,11,14,146,23,1*5A
$GPGSV,2,1,07,196,72,048,43,199,60,167,49,24,53,177,46,195,51,175,45,8*5B
$GPGSV,2,2,07,18,42,317,26,194,18,148,26,11,14,146,26,8*6A
$GLGSV,2,1,05,84,57,212,33,85,39,314,17,69,30,026,18,79,25,078,39,1*7B
$GLGSV,2,2,05,80,22,135,26,1*46
$GAGSV,2,1,07,08,64,335,36,15,60,166,43,13,59,310,23,07,33,259,37,7*79
$GAGSV,2,2,07,03,30,040,36,34,11,151,,02,09,119,,7*45
$GAGSV,2,1,05,08,64,335,39,15,60,166,46,13,59,310,31,07,33,259,38,1*7B
$GAGSV,2,2,05,03,30,040,38,1*4F
$GBGSV,4,1,14,38,69,027,43,39,69,211,,16,59,206,42,06,56,206,42,1*79
$GBGSV,4,2,14,13,52,343,31,20,50,008,37,29,46,249,42,09,40,208,18,1*73
$GBGSV,4,3,14,19,33,300,20,37,33,088,45,46,29,155,35,30,24,185,26,1*7B
$GBGSV,4,4,14,35,19,308,,32,18,065,40,1*79
$GBGSV,2,1,07,38,69,027,45,20,50,008,41,29,46,249,44,19,33,300,19,4*78
$GBGSV,2,2,07,37,33,088,41,46,29,155,31,32,18,065,23,4*45
$GNGGA,095327.000,2500.7815147,N,12132.4653414,E,2,50,0.52,15.992,M,15.25,M,6,3335*44
$GNRMC,095327.000,A,2500.7815147,N,12132.4653414,E,0.00,215.58,260623,,,D,V*05
$GPHDT,,T*1B
$GNGGA,095327.200,2500.7815387,N,12132.4653594,E,2,50,0.52,15.988,M,15.25,M,6,3335*4A
$GNRMC,095327.200,A,2500.7815387,N,12132.4653594,E,0.00,215.58,260623,,,D,V*00
$GPHDT,,T*1B
$GNGGA,095327.400,2500.7815627,N,12132.4653774,E,2,50,0.52,15.981,M,15.25,M,5,3335*45
$GNRMC,095327.400,A,2500.7815627,N,12132.4653774,E,0.00,215.58,260623,,,D,V*05
$GPHDT,,T*1B
$GNGGA,095327.600,2500.7815807,N,12132.4654014,E,2,50,0.52,15.973,M,15.25,M,5,3335*40
$GNRMC,095327.600,A,2500.7815807,N,12132.4654014,E,0.00,215.58,260623,,,D,V*0D
$GPHDT,,T*1B
$GNGGA,095327.800,2500.7815987,N,12132.4654134,E,2,50,0.52,15.970,M,15.25,M,3,3335*41
$GNRMC,095327.800,A,2500.7815987,N,12132.4654134,E,0.00,215.58,260623,,,D,V*09
$GPHDT,,T*1B
$GNGSA,A,3,196,15,199,24,195,18,05,13,29,20,11,194,1.09,0.52,0.96,1*0A
$GNGSA,A,3,84,85,69,79,80,,,,,,,,1.09,0.52,0.96,2*0A
$GNGSA,A,3,08,15,13,07,03,,,,,,,,1.09,0.52,0.96,3*09
$GNGSA,A,3,38,16,06,13,20,29,19,37,46,32,,,1.09,0.52,0.96,4*0A
$GPGSV,4,1,14,196,72,048,40,15,60,352,40,199,60,167,37,24,53,177,44,1*67
$GPGSV,4,2,14,195,51,175,44,18,42,317,23,05,41,073,44,13,39,032,36,1*5E
$GPGSV,4,3,14,41,38,242,34,29,25,229,40,20,24,099,40,23,19,310,15,1*65
$GPGSV,4,4,14,194,18,148,16,11,14,146,23,1*59
$GPGSV,2,1,07,196,72,048,43,199,60,167,49,24,53,177,46,195,51,175,45,8*5B
$GPGSV,2,2,07,18,42,317,26,194,18,148,27,11,14,146,26,8*6B
$GLGSV,2,1,05,84,57,212,33,85,39,314,17,69,30,026,18,79,25,078,39,1*7B
$GLGSV,2,2,05,80,22,135,26,1*46
$GAGSV,2,1,07,08,64,335,36,15,60,166,43,13,59,310,24,07,33,259,37,7*7E
$GAGSV,2,2,07,03,30,040,36,34,11,151,,02,09,119,,7*45
$GAGSV,2,1,05,08,64,335,39,15,60,166,46,13,59,310,31,07,33,259,38,1*7B
$GAGSV,2,2,05,03,30,040,38,1*4F
$GBGSV,4,1,14,38,69,027,43,39,69,211,,16,59,206,42,06,56,206,42,1*79
$GBGSV,4,2,14,13,52,343,31,20,50,008,37,29,46,249,42,09,40,208,19,1*72
$GBGSV,4,3,14,19,33,300,20,37,33,088,45,46,29,155,35,30,24,184,26,1*7A
$GBGSV,4,4,14,35,19,308,,32,18,065,40,1*79
$GBGSV,2,1,07,38,69,027,45,20,50,008,41,29,46,249,44,19,33,300,20,4*72
$GBGSV,2,2,07,37,33,088,41,46,29,155,31,32,18,065,24,4*42
$GNGGA,095328.000,2500.7816107,N,12132.4654314,E,2,50,0.52,15.967,M,15.25,M,1,3335*41
$GNRMC,095328.000,A,2500.7816107,N,12132.4654314,E,0.00,215.58,260623,,,D,V*0D
$GPHDT,,T*1B
$GNGGA,095328.200,2500.7816287,N,12132.4654494,E,2,50,0.52,15.960,M,15.25,M,1,3335*40
$GNRMC,095328.200,A,2500.7816287,N,12132.4654494,E,0.00,215.58,260623,,,D,V*0B
$GPHDT,45.277,T*06
$GNGGA,095328.400,2500.7816527,N,12132.4654614,E,2,50,0.52,15.955,M,15.25,M,1,3335*47
$GNRMC,095328.400,A,2500.7816527,N,12132.4654614,E,0.00,215.58,260623,,,D,V*0A
$GPHDT,45.403,T*03
$GNGGA,095328.600,2500.7816707,N,12132.4654794,E,2,50,0.52,15.949,M,15.25,M,1,3335*41
$GNRMC,095328.600,A,2500.7816707,N,12132.4654794,E,0.00,215.58,260623,,,D,V*01
$GPHDT,45.042,T*02
$GNGGA,095328.800,2500.7816947,N,12132.4654974,E,2,50,0.52,15.939,M,15.25,M,0,3335*43
$GNRMC,095328.800,A,2500.7816947,N,12132.4654974,E,0.00,215.58,260623,,,D,V*05
$GPHDT,45.046,T*06
$GNGSA,A,3,196,15,199,24,195,18,05,13,29,20,194,11,1.09,0.52,0.96,1*0A
$GNGSA,A,3,84,85,69,79,80,,,,,,,,1.09,0.52,0.96,2*0A
$GNGSA,A,3,08,15,13,07,03,,,,,,,,1.09,0.52,0.96,3*09
$GNGSA,A,3,38,16,06,13,20,29,19,37,46,32,,,1.09,0.52,0.96,4*0A
$GPGSV,4,1,14,196,72,048,40,15,60,352,40,199,60,167,37,24,53,177,44,1*67
$GPGSV,4,2,14,195,51,175,44,18,42,317,24,05,41,073,44,13,39,032,36,1*59
$GPGSV,4,3,14,41,38,242,34,29,25,229,40,20,24,099,40,23,19,310,15,1*65
$GPGSV,4,4,14,194,18,148,17,11,14,146,24,1*5F
$GPGSV,2,1,07,196,72,048,43,199,60,167,49,24,53,177,47,195,51,175,45,8*5A
$GPGSV,2,2,07,18,42,317,25,194,18,148,26,11,14,146,27,8*68
$GLGSV,2,1,05,84,57,212,33,85,39,314,17,69,30,026,17,79,25,078,40,1*7A
$GLGSV,2,2,05,80,22,135,25,1*45
$GAGSV,2,1,07,08,64,335,36,15,60,166,43,13,59,310,24,07,33,259,37,7*7E
$GAGSV,2,2,07,03,30,040,36,34,11,151,,02,09,119,,7*45
$GAGSV,2,1,05,08,64,335,39,15,60,166,46,13,59,310,31,07,33,259,38,1*7B
$GAGSV,2,2,05,03,30,040,38,1*4F
$GBGSV,4,1,14,38,69,027,43,39,69,211,,16,59,206,41,06,56,206,42,1*7A
$GBGSV,4,2,14,13,52,343,31,20,50,008,37,29,46,249,41,09,40,208,19,1*71
$GBGSV,4,3,14,19,33,300,20,37,33,088,46,46,29,155,35,30,24,184,26,1*79
$GBGSV,4,4,14,35,19,308,,32,18,065,40,1*79
$GBGSV,2,1,07,38,69,027,45,20,50,008,41,29,46,249,44,19,33,300,20,4*72
$GBGSV,2,2,07,37,33,088,40,46,29,155,31,32,18,065,24,4*43
$GNGGA,095329.000,2500.7817127,N,12132.4655154,E,2,49,0.52,15.933,M,15.25,M,1,3335*4D
$GNRMC,095329.000,A,2500.7817127,N,12132.4655154,E,0.00,215.58,260623,,,D,V*08
$GPHDT,45.183,T*0E
$GNGGA,095329.200,2500.7817247,N,12132.4655274,E,2,50,0.52,15.924,M,15.25,M,1,3335*45
$GNRMC,095329.200,A,2500.7817247,N,12132.4655274,E,0.00,215.58,260623,,,D,V*0E
$GPHDT,45.386,T*09
$GNGGA,095329.400,2500.7817427,N,12132.4655454,E,2,50,0.52,15.914,M,15.25,M,1,3335*44
$GNRMC,095329.400,A,2500.7817427,N,12132.4655454,E,0.00,215.58,260623,,,D,V*0C
$GPHDT,45.455,T*00
$GNGGA,095329.600,2500.7817547,N,12132.4655574,E,2,50,0.52,15.909,M,15.25,M,0,3335*4F
$GNRMC,095329.600,A,2500.7817547,N,12132.4655574,E,0.00,215.58,260623,,,D,V*0A
$GPHDT,45.227,T*03
$GNGGA,095329.800,2500.7817607,N,12132.4655634,E,2,50,0.52,15.902,M,15.25,M,0,3335*4A
$GNRMC,095329.800,A,2500.7817607,N,12132.4655634,E,0.00,215.58,260623,,,D,V*04
$GPHDT,45.375,T*05
$GNGSA,A,3,196,199,15,24,195,18,05,13,29,20,11,194,1.09,0.52,0.96,1*0A
$GNGSA,A,3,84,85,69,79,80,,,,,,,,1.09,0.52,0.96,2*0A
$GNGSA,A,3,08,15,13,07,03,,,,,,,,1.09,0.52,0.96,3*09
$GNGSA,A,3,38,16,06,13,20,29,19,37,46,32,,,1.09,0.52,0.96,4*0A
$GPGSV,4,1,14,196,72,048,40,199,60,167,37,15,60,352,40,24,53,177,44,1*67
$GPGSV,4,2,14,195,51,175,44,18,42,317,24,05,41,073,44,13,39,032,36,1*59
$GPGSV,4,3,14,41,38,242,34,29,25,229,40,20,24,099,40,23,19,310,16,1*66
$GPGSV,4,4,14,194,18,148,17,11,14,146,23,1*58
$GPGSV,2,1,07,196,72,048,43,199,60,167,49,24,53,177,47,195,51,175,45,8*5A
$GPGSV,2,2,07,18,42,317,26,194,18,148,26,11,14,146,26,8*6A
$GLGSV,2,1,06,84,57,212,31,85,39,314,17,70,35,309,,69,30,026,15,1*70
$GLGSV,2,2,06,79,25,078,40,80,22,135,25,1*74
$GAGSV,2,1,07,08,64,335,37,15,60,166,43,13,59,310,24,07,33,259,37,7*7F
$GAGSV,2,2,07,03,30,040,36,34,11,151,,02,09,119,,7*45
$GAGSV,2,1,05,08,64,335,39,15,60,166,46,13,59,310,31,07,33,259,38,1*7B
$GAGSV,2,2,05,03,30,040,38,1*4F
$GBGSV,4,1,15,38,69,027,43,39,69,211,,16,59,206,41,06,56,206,42,1*7B
$GBGSV,4,2,15,13,52,343,30,20,50,008,37,29,46,249,41,09,40,208,21,1*7A
$GBGSV,4,3,15,19,33,300,20,37,33,088,46,46,29,155,35,30,24,184,26,1*78
$GBGSV,4,4,15,35,19,308,,32,18,065,40,07,09,201,,1*45
$GBGSV,2,1,07,38,69,027,45,20,50,008,41,29,46,249,44,19,33,300,20,4*72
$GBGSV,2,2,07,37,33,088,40,46,29,155,31,32,18,065,25,4*42
$GNGGA,095330.000,2500.7817787,N,12132.4655694,E,2,50,0.52,15.895,M,15.25,M,1,3335*47
$GNRMC,095330.000,A,2500.7817787,N,12132.4655694,E,0.00,215.58,260623,,,D,V*07
$PAIR010,0,1,2268,122028*3F
$GPHDT,44.804,T*09
$GNGGA,095330.200,2500.7817907,N,12132.4655814,E,2,50,0.52,15.885,M,15.25,M,1,3335*44
$GNRMC,095330.200,A,2500.7817907,N,12132.4655814,E,0.00,215.58,260623,,,D,V*05
$GPHDT,45.001,T*05
$GNGGA,095330.400,2500.7818087,N,12132.4655814,E,2,51,0.50,15.878,M,15.25,M,1,3335*4D
$GNRMC,095330.400,A,2500.7818087,N,12132.4655814,E,0.00,215.58,260623,,,D,V*0D
$GPHDT,45.420,T*02
$GNGGA,095330.600,2500.7818267,N,12132.4655874,E,2,49,0.52,15.868,M,15.25,M,1,3335*4F
$GNRMC,095330.600,A,2500.7818267,N,12132.4655874,E,0.00,215.58,260623,,,D,V*05
$GPHDT,45.514,T*04
$GNGGA,095330.800,2500.7818387,N,12132.4655994,E,2,50,0.52,15.860,M,15.25,M,1,3335*41
$GNRMC,095330.800,A,2500.7818387,N,12132.4655994,E,0.00,215.58,260623,,,D,V*0B
$GPHDT,45.344,T*07
$GNGSA,A,3,196,199,15,24,195,05,13,29,20,11,18,194,1.09,0.52,0.96,1*0A
$GNGSA,A,3,84,85,69,79,80,,,,,,,,1.09,0.52,0.96,2*0A
$GNGSA,A,3,08,15,13,07,03,,,,,,,,1.09,0.52,0.96,3*09
$GNGSA,A,3,38,16,06,13,20,29,19,37,46,32,,,1.09,0.52,0.96,4*0A
$GPGSV,4,1,14,196,72,048,40,199,60,167,37,15,60,352,40,24,53,177,44,1*67
$GPGSV,4,2,14,195,51,175,44,18,42,317,24,05,41,073,44,13,39,032,37,1*58
$GPGSV,4,3,14,41,38,242,33,29,25,229,40,20,24,099,41,23,19,310,17,1*61
$GPGSV,4,4,14,194,18,148,16,11,14,146,24,1*5E
$GPGSV,2,1,07,196,72,048,43,199,60,167,49,24,53,177,47,195,51,175,45,8*5A
$GPGSV,2,2,07,18,42,317,26,194,18,148,27,11,14,146,26,8*6B
$GLGSV,2,1,05,84,57,212,31,85,39,314,17,69,30,026,17,79,25,078,41,1*79
$GLGSV,2,2,05,80,22,135,24,1*44
$GAGSV,2,1,08,08,64,335,37,15,60,166,43,13,59,310,22,07,33,259,37,7*76
$GAGSV,2,2,08,03,30,040,36,34,11,151,,02,09,119,,26,08,324,,7*73
$GAGSV,2,1,05,08,64,335,39,15,60,166,46,13,59,310,32,07,33,259,38,1*78
$GAGSV,2,2,05,03,30,040,38,1*4F
$GBGSV,4,1,15,38,69,027,43,39,69,211,,16,59,206,41,06,56,206,42,1*7B
$GBGSV,4,2,15,13,52,343,30,20,50,008,37,29,46,249,41,09,40,208,21,1*7A
$GBGSV,4,3,15,19,33,300,20,37,33,088,46,46,29,155,36,30,24,184,25,1*78
$GBGSV,4,4,15,35,19,308,,32,18,065,40,10,09,212,,1*41
$GBGSV,2,1,07,38,69,027,45,20,50,008,41,29,46,249,44,19,33,300,19,4*78
$GBGSV,2,2,07,37,33,088,40,46,29,155,32,32,18,065,25,4*41
$GNGGA,095331.000,2500.7818507,N,12132.4656054,E,2,49,0.52,15.851,M,15.25,M,2,3335*49
$GNRMC,095331.000,A,2500.7818507,N,12132.4656054,E,0.00,215.58,260623,,,D,V*0A
$GPHDT,45.410,T*01
$GNGGA,095331.200,2500.7818567,N,12132.4656174,E,2,49,0.52,15.839,M,15.25,M,2,3335*40
$GNRMC,095331.200,A,2500.7818567,N,12132.4656174,E,0.00,215.58,260623,,,D,V*0D
$GPHDT,45.394,T*0A
$GNGGA,095331.400,2500.7818687,N,12132.4656234,E,2,50,0.52,15.830,M,15.25,M,2,3335*4D
$GNRMC,095331.400,A,2500.7818687,N,12132.4656234,E,0.00,215.58,260623,,,D,V*01
$GPHDT,45.072,T*01
$GNGGA,095331.600,2500.7818807,N,12132.4656354,E,2,50,0.52,15.816,M,15.25,M,2,3335*4A
$GNRMC,095331.600,A,2500.7818807,N,12132.4656354,E,0.00,215.58,260623,,,D,V*02
$GPHDT,45.268,T*08
$GNGGA,095331.800,2500.7818927,N,12132.4656354,E,2,50,0.52,15.813,M,15.25,M,2,3335*42
$GNRMC,095331.800,A,2500.7818927,N,12132.4656354,E,0.00,215.58,260623,,,D,V*0F
$GPHDT,45.315,T*03
$GNGSA,A,3,196,15,199,24,195,18,05,13,29,20,11,194,1.09,0.52,0.96,1*0A
$GNGSA,A,3,84,85,69,79,80,,,,,,,,1.09,0.52,0.96,2*0A
$GNGSA,A,3,08,15,13,07,03,,,,,,,,1.09,0.52,0.96,3*09
$GNGSA,A,3,38,16,06,13,20,29,19,37,46,32,,,1.09,0.52,0.96,4*0A
$GPGSV,4,1,14,196,72,048,40,15,60,352,40,199,60,167,37,24,53,177,44,1*67
$GPGSV,4,2,14,195,51,175,44,18,42,317,22,05,41,073,44,13,39,032,37,1*5E
$GPGSV,4,3,14,41,38,242,33,29,25,229,41,20,24,099,41,23,19,310,17,1*60
$GPGSV,4,4,14,194,18,148,16,11,14,146,24,1*5E
$GPGSV,2,1,07,196,72,048,43,199,60,167,49,24,53,177,47,195,51,175,45,8*5A
$GPGSV,2,2,07,18,42,317,25,194,18,148,26,11,14,146,25,8*6A
$GLGSV,2,1,05,84,57,212,31,85,39,314,18,69,30,026,17,79,25,078,41,1*76
$GLGSV,2,2,05,80,22,135,25,1*45
$GAGSV,2,1,08,08,64,335,37,15,60,166,43,13,59,310,21,07,33,259,37,7*75
$GAGSV,2,2,08,03,30,040,36,34,11,151,,02,09,119,,26,08,324,,7*73
$GAGSV,2,1,05,08,64,335,39,15,60,166,45,13,59,310,32,07,33,259,37,1*74
$GAGSV,2,2,05,03,30,040,38,1*4F
$GBGSV,4,1,14,38,69,027,43,39,69,211,,16,59,206,41,06,56,206,41,1*79
$GBGSV,4,2,14,13,52,343,29,20,50,008,37,29,46,249,41,09,40,208,21,1*73
$GBGSV,4,3,14,19,33,300,19,37,33,088,46,46,29,155,36,30,24,184,26,1*70
$GBGSV,4,4,14,35,19,308,,32,18,065,40,1*79
$GBGSV,2,1,07,38,69,027,45,20,50,008,41,29,46,249,44,19,33,300,19,4*78
$GBGSV,2,2,07,37,33,088,40,46,29,155,32,32,18,065,24,4*40
$GNGGA,095332.000,2500.7818987,N,12132.4656474,E,2,50,0.52,15.800,M,15.25,M,3,3335*45
$GNRMC,095332.000,A,2500.7818987,N,12132.4656474,E,0.00,215.58,260623,,,D,V*0B
$GPHDT,45.547,T*02
$GNGGA,095332.200,2500.7819107,N,12132.4656534,E,2,50,0.52,15.784,M,15.25,M,3,3335*40
$GNRMC,095332.200,A,2500.7819107,N,12132.4656534,E,0.00,215.58,260623,,,D,V*0D
$GPHDT,45.829,T*07
$GNGGA,095332.400,2500.7819047,N,12132.4656654,E,2,50,0.52,15.777,M,15.25,M,3,3335*4A
$GNRMC,095332.400,A,2500.7819047,N,12132.4656654,E,0.00,215.58,260623,,,D,V*0B
$GPHDT,45.156,T*06
$GNGGA,095332.600,2500.7819047,N,12132.4656714,E,2,50,0.52,15.762,M,15.25,M,3,3335*49
$GNRMC,095332.600,A,2500.7819047,N,12132.4656714,E,0.00,215.58,260623,,,D,V*0C
$GPHDT,45.385,T*0A
$GNGGA,095332.800,2500.7819047,N,12132.4656834,E,2,50,0.52,15.744,M,15.25,M,3,3335*4E
$GNRMC,095332.800,A,2500.7819047,N,12132.4656834,E,0.00,215.58,260623,,,D,V*0F
$GPHDT,45.525,T*06
$GNGSA,A,3,196,15,199,24,195,18,05,13,29,20,11,194,1.09,0.52,0.96,1*0A
$GNGSA,A,3,84,85,69,79,80,,,,,,,,1.09,0.52,0.96,2*0A
$GNGSA,A,3,08,15,13,07,03,,,,,,,,1.09,0.52,0.96,3*09
$GNGSA,A,3,38,16,06,13,20,29,19,37,46,32,,,1.09,0.52,0.96,4*0A
$GPGSV,4,1,14,196,72,048,40,15,60,352,40,199,60,167,37,24,53,177,44,1*67
$GPGSV,4,2,14,195,51,175,44,18,42,317,21,05,41,073,44,13,39,032,39,1*53
$GPGSV,4,3,14,41,38,242,33,29,25,229,41,20,24,099,41,23,19,310,17,1*60
$GPGSV,4,4,14,194,18,148,17,11,14,146,24,1*5F
$GPGSV,2,1,07,196,72,048,43,199,60,167,49,24,53,177,47,195,51,175,45,8*5A
$GPGSV,2,2,07,18,42,317,25,194,18,148,24,11,14,146,25,8*68
$GLGSV,2,1,05,84,57,212,30,85,39,314,18,69,30,026,18,79,25,078,41,1*78
$GLGSV,2,2,05,80,22,135,25,1*45
$GAGSV,2,1,08,08,64,335,37,15,60,166,43,13,59,310,21,07,33,259,37,7*75
$GAGSV,2,2,08,03,30,040,36,34,11,151,,02,09,119,,26,08,324,,7*73
$GAGSV,2,1,05,08,64,335,39,15,60,166,45,13,59,310,31,07,33,259,38,1*78
$GAGSV,2,2,05,03,30,040,38,1*4F
$GBGSV,4,1,14,38,69,027,43,39,69,211,,16,59,206,41,06,56,206,41,1*79
$GBGSV,4,2,14,13,52,343,29,20,50,008,38,29,46,249,41,09,40,208,21,1*7C
$GBGSV,4,3,14,19,33,300,18,37,33,088,46,46,29,155,34,30,24,184,25,1*70
$GBGSV,4,4,14,35,19,308,,32,18,065,40,1*79
$GBGSV,2,1,07,38,69,027,45,20,50,008,41,29,46,249,44,19,33,300,20,4*72
$GBGSV,2,2,07,37,33,088,40,46,29,155,30,32,18,065,24,4*42
$GNGGA,095333.000,2500.7819107,N,12132.4656894,E,2,50,0.52,15.731,M,15.25,M,4,3335*4D
$GNRMC,095333.000,A,2500.7819107,N,12132.4656894,E,0.00,215.58,260623,,,D,V*09
$GPHDT,45.278,T*09
$GNGGA,095333.200,2500.7819107,N,12132.4656894,E,2,50,0.52,15.721,M,15.25,M,4,3335*4E
$GNRMC,095333.200,A,2500.7819107,N,12132.4656894,E,0.00,215.58,260623,,,D,V*0B
$GPHDT,45.521,T*02
$GNGGA,095333.400,2500.7819107,N,12132.4656954,E,2,50,0.52,15.705,M,15.25,M,4,3335*43
$GNRMC,095333.400,A,2500.7819107,N,12132.4656954,E,0.00,215.58,260623,,,D,V*00
$GPHDT,45.720,T*01
$GNGGA,095333.600,2500.7819047,N,12132.4657014,E,2,50,0.52,15.692,M,15.25,M,4,3335*47
$GNRMC,095333.600,A,2500.7819047,N,12132.4657014,E,0.00,215.58,260623,,,D,V*0B
$GPHDT,45.242,T*00
$GNGGA,095333.800,2500.7819047,N,12132.4657014,E,2,50,0.52,15.678,M,15.25,M,4,3335*4D
$GNRMC,095333.800,A,2500.7819047,N,12132.4657014,E,0.00,215.58,260623,,,D,V*05
