$FW : RTK35X,V1.1X0314AS,Lib20210517,1*54
$Tool : LOCOSYS , GNSS Firebird , v1.0.0.19*39
$---------------------------------------------------*2D
$GPHDT,225.407,T*33
$GNGSA,A,3,196,199,15,24,195,18,05,13,29,20,194,11,1.11,0.55,0.97,1*05
$GNGSA,A,3,84,85,69,79,80,,,,,,,,1.11,0.55,0.97,2*05
$GNGSA,A,3,08,13,15,07,03,,,,,,,,1.11,0.55,0.97,3*06
$GNGSA,A,3,39,38,16,06,13,20,29,37,46,32,,,1.11,0.55,0.97,4*07
$GPGSV,4,1,14,196,72,048,40,199,60,167,37,15,60,353,41,24,54,177,46,1*62
$GPGSV,4,2,14,195,51,175,42,18,43,317,24,05,40,075,46,41,38,242,34,1*5A
$GPGSV,4,3,14,13,38,032,33,29,24,228,43,20,23,100,33,23,20,310,,1*6F
$GPGSV,4,4,14,194,18,148,22,11,13,147,22,1*59
$GPGSV,2,1,06,196,72,048,44,199,60,167,48,24,54,177,47,195,51,175,42,8*5D
$GPGSV,2,2,06,18,43,317,24,11,13,147,22,8*66
$GLGSV,2,1,05,84,56,211,33,85,39,313,20,69,29,028,22,79,25,077,43,1*77
$GLGSV,2,2,05,80,22,135,29,1*49
$GAGSV,2,1,06,08,63,337,37,13,60,309,19,15,60,166,41,07,33,260,37,7*7F
$GAGSV,2,2,06,03,29,040,38,34,10,151,,7*71
$GAGSV,2,1,05,08,63,337,39,13,60,309,34,15,60,166,45,07,33,260,39,1*71
$GAGSV,2,2,05,03,29,040,39,1*46
$GBGSV,4,1,13,39,69,212,42,38,69,028,43,16,59,207,44,06,57,207,43,1*72
$GBGSV,4,2,13,13,53,343,25,20,50,009,37,29,45,248,45,09,40,208,20,1*7F
$GBGSV,4,3,13,37,33,087,44,19,33,301,,46,30,155,29,35,19,308,,1*7C
$GBGSV,4,4,13,32,18,066,33,1*4C
$GBGSV,2,1,07,38,69,028,43,39,69,212,44,20,50,009,42,29,45,248,42,4*70
$GBGSV,2,2,07,37,33,087,41,46,30,155,29,32,18,066,31,4*4B
$GNGGA,095527.000,2500.7808758,N,12132.4654347,E,2,50,0.55,16.981,M,15.25,M,1,3335*41
$GNRMC,095527.000,A,2500.7808758,N,12132.4654347,E,0.01,215.58,260623,,,D,V*00
$GPHDT,225.455,T*34
$GNGGA,095527.200,2500.7808818,N,12132.4654347,E,2,50,0.55,16.976,M,15.25,M,1,3335*40
$GNRMC,095527.200,A,2500.7808818,N,12132.4654347,E,0.01,215.58,260623,,,D,V*09
$GPHDT,225.749,T*3A
$GNGGA,095527.400,2500.7808818,N,12132.4654347,E,2,50,0.55,16.977,M,15.25,M,1,3335*47
$GNRMC,095527.400,A,2500.7808818,N,12132.4654347,E,0.01,215.58,260623,,,D,V*0F
$GPHDT,225.883,T*33
$GNGGA,095527.600,2500.7808878,N,12132.4654347,E,2,50,0.55,16.980,M,15.25,M,1,3335*4B
$GNRMC,095527.600,A,2500.7808878,N,12132.4654347,E,0.01,215.58,260623,,,D,V*0B
$GPHDT,225.931,T*3B
$GNGGA,095527.800,2500.7808878,N,12132.4654347,E,2,49,0.55,16.979,M,15.25,M,1,3335*4B
$GNRMC,095527.800,A,2500.7808878,N,12132.4654347,E,0.01,215.58,260623,,,D,V*05
$GPHDT,225.929,T*32
$GNGSA,A,3,196,199,15,24,195,18,05,13,29,20,11,,1.14,0.55,1.00,1*33
$GNGSA,A,3,84,85,69,79,80,,,,,,,,1.14,0.55,1.00,2*0F
$GNGSA,A,3,08,13,15,07,03,,,,,,,,1.14,0.55,1.00,3*0C
$GNGSA,A,3,39,38,16,06,13,20,29,37,46,32,,,1.14,0.55,1.00,4*0D
$GPGSV,4,1,14,196,72,048,40,199,60,167,38,15,60,353,42,24,54,177,46,1*6E
$GPGSV,4,2,14,195,51,175,43,18,43,317,24,05,40,075,46,41,38,242,34,1*5B
$GPGSV,4,3,14,13,38,032,32,29,24,228,43,20,23,100,32,23,20,310,,1*6F
$GPGSV,4,4,14,194,18,148,22,11,13,147,22,1*59
$GPGSV,2,1,06,196,72,048,44,199,60,167,48,24,54,177,47,195,51,175,43,8*5C
$GPGSV,2,2,06,18,43,317,24,11,13,147,21,8*65
$GLGSV,2,1,05,84,56,211,33,85,39,313,20,69,29,028,22,79,25,077,43,1*77
$GLGSV,2,2,05,80,22,135,30,1*41
$GAGSV,2,1,06,08,63,337,38,13,60,309,19,15,60,166,42,07,33,260,36,7*72
$GAGSV,2,2,06,03,29,040,38,34,10,151,,7*71
$GAGSV,2,1,05,08,63,337,37,13,60,309,34,15,60,166,45,07,33,260,39,1*7F
$GAGSV,2,2,05,03,29,040,39,1*46
$GBGSV,4,1,13,39,69,212,42,38,69,028,43,16,59,207,44,06,57,207,43,1*72
$GBGSV,4,2,13,13,53,343,25,20,50,009,37,29,45,248,45,09,40,208,20,1*7F
$GBGSV,4,3,13,37,33,087,44,19,33,301,,46,30,155,28,35,19,308,,1*7D
$GBGSV,4,4,13,32,18,066,34,1*4B
$GBGSV,2,1,07,38,69,028,43,39,69,212,44,20,50,009,42,29,45,248,42,4*70
$GBGSV,2,2,07,37,33,087,41,46,30,155,29,32,18,066,30,4*4A
$GNGGA,095528.000,2500.7808938,N,12132.4654347,E,2,49,0.55,16.980,M,15.25,M,2,3335*4C
$GNRMC,095528.000,A,2500.7808938,N,12132.4654347,E,0.01,215.58,260623,,,D,V*07
$GPHDT,225.690,T*3F
$GNGGA,095528.200,2500.7808998,N,12132.4654347,E,2,49,0.55,16.976,M,15.25,M,2,3335*4D
$GNRMC,095528.200,A,2500.7808998,N,12132.4654347,E,0.01,215.58,260623,,,D,V*0F
$GPHDT,225.805,T*3D
$GNGGA,095528.400,2500.7809058,N,12132.4654347,E,2,49,0.55,16.972,M,15.25,M,2,3335*4B
$GNRMC,095528.400,A,2500.7809058,N,12132.4654347,E,0.01,215.58,260623,,,D,V*0D
$GPHDT,225.839,T*32
$GNGGA,095528.600,2500.7809118,N,12132.4654347,E,2,49,0.55,16.959,M,15.25,M,2,3335*45
$GNRMC,095528.600,A,2500.7809118,N,12132.4654347,E,0.01,215.58,260623,,,D,V*0A
$GPHDT,225.561,T*32
$GNGGA,095528.800,2500.7809178,N,12132.4654347,E,2,49,0.55,16.949,M,15.25,M,2,3335*4C
$GNRMC,095528.800,A,2500.7809178,N,12132.4654347,E,0.01,215.58,260623,,,D,V*02
$GPHDT,225.580,T*3D
$GNGSA,A,3,196,199,15,24,195,18,05,13,29,20,11,,1.14,0.55,1.00,1*33
$GNGSA,A,3,84,85,69,79,80,,,,,,,,1.14,0.55,1.00,2*0F
$GNGSA,A,3,08,13,15,07,03,,,,,,,,1.14,0.55,1.00,3*0C
$GNGSA,A,3,39,38,16,06,13,20,29,37,46,32,,,1.14,0.55,1.00,4*0D
$GPGSV,4,1,14,196,72,048,40,199,60,167,38,15,60,353,42,24,54,177,46,1*6E
$GPGSV,4,2,14,195,51,175,43,18,43,317,24,05,40,075,46,41,38,242,34,1*5B
$GPGSV,4,3,14,13,38,032,32,29,24,228,43,20,23,100,32,23,20,310,,1*6F
$GPGSV,4,4,14,194,18,148,21,11,13,147,21,1*59
$GPGSV,2,1,06,196,72,048,44,199,60,167,48,24,54,177,47,195,51,175,44,8*5B
$GPGSV,2,2,06,18,43,317,24,11,13,147,20,8*64
$GLGSV,2,1,05,84,56,211,33,85,39,313,19,69,29,028,23,79,25,077,43,1*7C
$GLGSV,2,2,05,80,22,135,31,1*40
$GAGSV,2,1,06,08,63,337,37,13,60,309,19,15,60,166,42,07,33,260,36,7*7D
$GAGSV,2,2,06,03,29,040,38,34,10,151,,7*71
$GAGSV,2,1,05,08,63,337,37,13,60,309,35,15,60,166,45,07,33,260,40,1*70
$GAGSV,2,2,05,03,29,040,39,1*46
$GBGSV,4,1,13,39,69,212,42,38,69,028,43,16,59,207,44,06,57,207,43,1*72
$GBGSV,4,2,13,13,53,343,26,20,50,009,37,29,45,248,45,09,40,208,20,1*7C
$GBGSV,4,3,13,37,33,087,44,19,33,301,,46,30,155,29,35,19,308,,1*7C
$GBGSV,4,4,13,32,18,066,34,1*4B
$GBGSV,2,1,07,38,69,028,43,39,69,212,45,20,50,009,42,29,45,248,42,4*71
$GBGSV,2,2,07,37,33,087,40,46,30,155,30,32,18,066,30,4*43
$GNGGA,095529.000,2500.7809238,N,12132.4654347,E,2,49,0.55,16.943,M,15.25,M,3,3335*49
$GNRMC,095529.000,A,2500.7809238,N,12132.4654347,E,0.01,215.58,260623,,,D,V*0C
$GPHDT,225.728,T*3D
$GNGGA,095529.200,2500.7809358,N,12132.4654347,E,2,49,0.55,16.949,M,15.25,M,3,3335*46
$GNRMC,095529.200,A,2500.7809358,N,12132.4654347,E,0.02,215.58,260623,,,D,V*0A
$GPHDT,225.653,T*30
$GNGGA,095529.400,2500.7809418,N,12132.4654347,E,2,49,0.55,16.943,M,15.25,M,3,3335*49
$GNRMC,095529.400,A,2500.7809418,N,12132.4654347,E,0.02,215.58,260623,,,D,V*0F
$GPHDT,225.473,T*30
$GNGGA,095529.600,2500.7809478,N,12132.4654407,E,2,49,0.55,16.942,M,15.25,M,3,3335*4F
$GNRMC,095529.600,A,2500.7809478,N,12132.4654407,E,0.02,215.58,260623,,,D,V*08
$GPHDT,226.039,T*39
$GNGGA,095529.800,2500.7809538,N,12132.4654407,E,2,49,0.55,16.936,M,15.25,M,3,3335*47
$GNRMC,095529.800,A,2500.7809538,N,12132.4654407,E,0.02,215.58,260623,,,D,V*03
$GPHDT,225.868,T*36
$GNGSA,A,3,196,199,15,24,195,18,05,13,29,20,194,11,1.11,0.55,0.97,1*05
$GNGSA,A,3,84,85,69,79,80,,,,,,,,1.11,0.55,0.97,2*05
$GNGSA,A,3,08,13,15,07,03,,,,,,,,1.11,0.55,0.97,3*06
$GNGSA,A,3,39,38,16,06,13,20,29,37,46,32,,,1.11,0.55,0.97,4*07
$GPGSV,4,1,14,196,72,048,40,199,60,167,38,15,60,353,42,24,54,177,46,1*6E
$GPGSV,4,2,14,195,51,175,43,18,43,317,23,05,40,075,46,41,38,242,34,1*5C
$GPGSV,4,3,14,13,38,032,32,29,24,228,43,20,23,100,33,23,20,310,,1*6E
$GPGSV,4,4,14,194,18,148,22,11,13,147,21,1*5A
$GPGSV,2,1,06,196,72,048,44,199,60,167,48,24,54,177,47,195,51,175,44,8*5B
$GPGSV,2,2,06,18,43,317,24,11,13,147,20,8*64
$GLGSV,2,1,05,84,56,211,33,85,39,313,18,69,29,028,26,79,25,077,43,1*78
$GLGSV,2,2,05,80,23,135,31,1*41
$GAGSV,2,1,06,08,63,337,37,13,60,309,19,15,60,166,42,07,33,260,36,7*7D
$GAGSV,2,2,06,03,29,040,37,34,10,151,,7*7E
$GAGSV,2,1,05,08,63,337,37,13,60,309,35,15,60,166,45,07,33,260,40,1*70
$GAGSV,2,2,05,03,29,040,39,1*46
$GBGSV,4,1,13,39,69,212,42,38,69,028,43,16,59,207,44,06,57,207,43,1*72
$GBGSV,4,2,13,13,53,343,26,20,50,009,37,29,45,248,45,09,40,208,19,1*76
$GBGSV,4,3,13,37,33,087,44,19,33,301,,46,30,155,30,35,19,308,,1*74
$GBGSV,4,4,13,32,18,066,32,1*4D
$GBGSV,2,1,07,38,69,028,43,39,69,212,45,20,50,009,42,29,45,248,42,4*71
$GBGSV,2,2,07,37,33,087,41,46,30,155,30,32,18,066,29,4*4A
$GNGGA,095530.000,2500.7809598,N,12132.4654407,E,2,50,0.55,16.934,M,15.25,M,4,3335*40
$GNRMC,095530.000,A,2500.7809598,N,12132.4654407,E,0.02,215.58,260623,,,D,V*09
$PAIR010,0,1,2268,122148*38
$GPHDT,225.882,T*32
$GNGGA,095530.200,2500.7809718,N,12132.4654407,E,2,48,0.55,16.931,M,15.25,M,4,3335*44
$GNRMC,095530.200,A,2500.7809718,N,12132.4654407,E,0.02,215.58,260623,,,D,V*01
$GPHDT,225.721,T*34
$GNGGA,095530.400,2500.7809778,N,12132.4654407,E,2,48,0.55,16.924,M,15.25,M,4,3335*40
$GNRMC,095530.400,A,2500.7809778,N,12132.4654407,E,0.02,215.58,260623,,,D,V*01
$GPHDT,225.911,T*39
$GNGGA,095530.600,2500.7809898,N,12132.4654407,E,2,48,0.55,16.931,M,15.25,M,4,3335*47
$GNRMC,095530.600,A,2500.7809898,N,12132.4654407,E,0.02,215.58,260623,,,D,V*02
$GPHDT,225.196,T*3E
$GNGGA,095530.800,2500.7809958,N,12132.4654467,E,2,48,0.55,16.923,M,15.25,M,4,3335*41
$GNRMC,095530.800,A,2500.7809958,N,12132.4654467,E,0.02,215.58,260623,,,D,V*07
$GPHDT,225.721,T*34
$GNGSA,A,3,196,199,15,24,195,18,05,13,29,20,194,11,1.11,0.55,0.97,1*05
$GNGSA,A,3,84,85,69,79,80,,,,,,,,1.11,0.55,0.97,2*05
$GNGSA,A,3,08,13,15,07,03,,,,,,,,1.11,0.55,0.97,3*06
$GNGSA,A,3,39,38,16,06,13,20,29,37,46,32,,,1.11,0.55,0.97,4*07
$GPGSV,4,1,14,196,72,048,40,199,60,167,38,15,60,353,42,24,54,177,46,1*6E
$GPGSV,4,2,14,195,51,175,43,18,43,317,23,05,40,075,46,41,38,242,34,1*5C
$GPGSV,4,3,14,13,38,032,32,29,24,228,43,20,23,100,33,23,20,310,,1*6E
$GPGSV,4,4,14,194,18,148,20,11,13,147,21,1*58
$GPGSV,2,1,06,196,72,048,44,199,60,167,48,24,54,177,47,195,51,175,43,8*5C
$GPGSV,2,2,06,18,43,317,24,11,13,147,22,8*66
$GLGSV,2,1,05,84,56,211,33,85,39,313,17,69,29,028,27,79,25,077,43,1*76
$GLGSV,2,2,05,80,23,135,29,1*48
$GAGSV,2,1,06,08,63,337,37,13,60,309,21,15,60,166,42,07,33,260,36,7*76
$GAGSV,2,2,06,03,29,040,37,34,10,151,,7*7E
$GAGSV,2,1,05,08,63,337,37,15,60,166,45,13,60,309,34,07,33,260,39,1*7F
$GAGSV,2,2,05,03,29,040,39,1*46
$GBGSV,4,1,13,39,69,212,42,38,69,028,43,16,59,207,44,06,57,207,43,1*72
$GBGSV,4,2,13,13,53,343,25,20,50,009,37,29,45,248,45,09,40,208,19,1*75
$GBGSV,4,3,13,37,33,087,44,19,33,301,,46,30,155,30,35,19,308,,1*74
$GBGSV,4,4,13,32,18,066,33,1*4C
$GBGSV,2,1,06,38,69,028,42,39,69,212,45,20,50,009,41,29,45,248,42,4*72
$GBGSV,2,2,06,37,33,087,39,32,18,066,27,4*79
$GNGGA,095531.000,2500.7810078,N,12132.4654467,E,2,49,0.55,16.927,M,15.25,M,5,3335*4F
$GNRMC,095531.000,A,2500.7810078,N,12132.4654467,E,0.02,215.58,260623,,,D,V*0D
$GPHDT,225.669,T*39
$GNGGA,095531.200,2500.7810138,N,12132.4654467,E,2,49,0.55,16.929,M,15.25,M,5,3335*46
$GNRMC,095531.200,A,2500.7810138,N,12132.4654467,E,0.02,215.58,260623,,,D,V*0A
$GPHDT,225.718,T*3E
$GNGGA,095531.400,2500.7810258,N,12132.4654467,E,2,50,0.55,16.932,M,15.25,M,5,3335*47
$GNRMC,095531.400,A,2500.7810258,N,12132.4654467,E,0.02,215.58,260623,,,D,V*09
$GPHDT,226.211,T*31
$GNGGA,095531.600,2500.7810318,N,12132.4654467,E,2,49,0.55,16.926,M,15.25,M,5,3335*4D
$GNRMC,095531.600,A,2500.7810318,N,12132.4654467,E,0.02,215.58,260623,,,D,V*0E
$GPHDT,226.126,T*36
$GNGGA,095531.800,2500.7810378,N,12132.4654467,E,2,51,0.55,16.928,M,15.25,M,5,3335*42
$GNRMC,095531.800,A,2500.7810378,N,12132.4654467,E,0.02,215.58,260623,,,D,V*06
$GPHDT,225.411,T*34
$GNGSA,A,3,196,199,15,24,195,18,05,13,29,20,194,11,1.11,0.55,0.97,1*05
$GNGSA,A,3,84,85,69,79,80,,,,,,,,1.11,0.55,0.97,2*05
$GNGSA,A,3,08,13,15,07,03,,,,,,,,1.11,0.55,0.97,3*06
$GNGSA,A,3,38,39,16,06,13,20,29,37,46,32,,,1.11,0.55,0.97,4*07
$GPGSV,4,1,14,196,72,048,40,199,60,167,38,15,60,353,42,24,54,177,46,1*6E
$GPGSV,4,2,14,195,51,175,43,18,43,317,23,05,40,075,46,41,38,242,34,1*5C
$GPGSV,4,3,14,13,38,032,33,29,24,228,43,20,23,100,33,23,20,310,,1*6F
$GPGSV,4,4,14,194,18,148,22,11,13,147,22,1*59
$GPGSV,2,1,06,196,72,048,44,199,60,167,48,24,54,177,47,195,51,175,43,8*5C
$GPGSV,2,2,06,18,43,317,24,11,13,147,22,8*66
$GLGSV,2,1,06,84,56,211,32,85,39,313,15,70,35,310,,69,29,028,27,1*7B
$GLGSV,2,2,06,79,25,077,43,80,23,135,29,1*75
$GAGSV,2,1,07,08,63,337,37,13,60,309,21,15,60,166,42,07,33,260,37,7*76
$GAGSV,2,2,07,03,29,040,37,34,10,151,,02,10,118,,7*44
$GAGSV,2,1,05,08,63,337,37,13,60,309,35,15,60,166,45,07,33,260,39,1*7E
$GAGSV,2,2,05,03,29,040,39,1*46
$GBGSV,4,1,15,38,69,028,43,39,69,212,42,16,59,207,44,06,57,207,43,1*74
$GBGSV,4,2,15,13,53,343,25,20,50,009,38,29,45,248,45,09,40,208,19,1*7C
$GBGSV,4,3,15,19,33,301,,37,33,087,44,46,30,155,31,30,24,184,,1*7E
$GBGSV,4,4,15,31,22,195,,35,19,308,,32,18,066,33,1*40
$GBGSV,2,1,07,38,69,028,42,39,69,212,45,20,50,009,41,29,45,248,42,4*73
$GBGSV,2,2,07,37,33,087,40,46,30,155,30,32,18,066,27,4*45
$GNGGA,095532.000,2500.7810438,N,12132.4654527,E,2,50,0.55,16.921,M,15.25,M,6,3335*44
$GNRMC,095532.000,A,2500.7810438,N,12132.4654527,E,0.02,215.58,260623,,,D,V*0B
$GPHDT,225.896,T*37
$GNGGA,095532.200,2500.7810558,N,12132.4654527,E,2,51,0.55,16.918,M,15.25,M,6,3335*4A
$GNRMC,095532.200,A,2500.7810558,N,12132.4654527,E,0.02,215.58,260623,,,D,V*0E
$GPHDT,225.418,T*3D
$GNGGA,095532.400,2500.7810618,N,12132.4654527,E,2,50,0.55,16.915,M,15.25,M,5,3335*44
$GNRMC,095532.400,A,2500.7810618,N,12132.4654527,E,0.02,215.58,260623,,,D,V*0F
$GPHDT,225.171,T*37
$GNGGA,095532.600,2500.7810678,N,12132.4654527,E,2,50,0.55,16.916,M,15.25,M,3,3335*45
$GNRMC,095532.600,A,2500.7810678,N,12132.4654527,E,0.02,215.58,260623,,,D,V*0B
$GPHDT,225.592,T*3E
$GNGGA,095532.800,2500.7810798,N,12132.4654467,E,2,51,0.55,16.907,M,15.25,M,1,3335*42
$GNRMC,095532.800,A,2500.7810798,N,12132.4654467,E,0.03,215.58,260623,,,D,V*0E
$GPHDT,225.408,T*3C
$GNGSA,A,3,196,199,15,24,195,18,05,13,29,20,194,11,1.11,0.55,0.97,1*05
$GNGSA,A,3,84,85,69,79,80,,,,,,,,1.11,0.55,0.97,2*05
$GNGSA,A,3,08,15,13,07,03,,,,,,,,1.11,0.55,0.97,3*06
$GNGSA,A,3,39,38,16,06,13,20,29,37,46,32,,,1.11,0.55,0.97,4*07
$GPGSV,4,1,14,196,72,048,40,199,60,167,38,15,60,353,42,24,54,177,46,1*6E
$GPGSV,4,2,14,195,51,175,43,18,43,317,22,05,40,075,46,41,38,242,34,1*5D
$GPGSV,4,3,14,13,38,032,34,29,24,228,43,20,23,100,33,23,20,310,,1*68
$GPGSV,4,4,14,194,18,148,20,11,13,147,22,1*5B
$GPGSV,2,1,07,196,72,048,44,199,60,167,48,24,54,177,47,195,51,175,43,8*5D
$GPGSV,2,2,07,18,43,317,24,194,18,148,24,11,13,147,22,8*69
$GLGSV,2,1,05,84,56,211,32,85,39,313,15,69,29,028,28,79,25,077,43,1*7A
$GLGSV,2,2,05,80,23,135,29,1*48
$GAGSV,2,1,07,08,63,337,37,15,60,166,42,13,60,309,20,07,33,260,37,7*77
$GAGSV,2,2,07,03,29,040,37,02,10,118,,34,10,151,,7*44
$GAGSV,2,1,05,08,63,337,37,15,60,166,45,13,60,309,35,07,33,260,40,1*70
$GAGSV,2,2,05,03,29,040,39,1*46
$GBGSV,4,1,13,39,69,212,42,38,69,028,43,16,59,207,44,06,57,207,43,1*72
$GBGSV,4,2,13,13,53,343,25,20,50,009,38,29,45,248,44,09,40,208,19,1*7B
$GBGSV,4,3,13,19,33,301,,37,33,087,44,46,30,155,31,35,19,308,,1*75
$GBGSV,4,4,13,32,18,066,33,1*4C
$GBGSV,2,1,07,38,69,028,42,39,69,212,45,20,50,009,41,29,45,248,42,4*73
$GBGSV,2,2,07,37,33,087,40,46,30,155,31,32,18,066,29,4*4A
$GNGGA,095533.000,2500.7810858,N,12132.4654527,E,2,51,0.55,16.900,M,15.25,M,1,3335*4A
$GNRMC,095533.000,A,2500.7810858,N,12132.4654527,E,0.03,215.58,260623,,,D,V*01
$GPHDT,225.400,T*34
$GNGGA,095533.200,2500.7810918,N,12132.4654467,E,2,51,0.55,16.902,M,15.25,M,1,3335*4A
$GNRMC,095533.200,A,2500.7810918,N,12132.4654467,E,0.03,215.58,260623,,,D,V*03
$GPHDT,225.615,T*32
$GNGGA,095533.400,2500.7810978,N,12132.4654467,E,2,51,0.55,16.897,M,15.25,M,1,3335*47
$GNRMC,095533.400,A,2500.7810978,N,12132.4654467,E,0.03,215.58,260623,,,D,V*03
$GPHDT,225.752,T*30
$GNGGA,095533.600,2500.7811038,N,12132.4654407,E,2,50,0.55,16.884,M,15.25,M,1,3335*4C
$GNRMC,095533.600,A,2500.7811038,N,12132.4654407,E,0.03,215.58,260623,,,D,V*0B
$GPHDT,225.790,T*3E
$GNGGA,095533.800,2500.7811038,N,12132.4654467,E,2,50,0.55,16.878,M,15.25,M,1,3335*47
$GNRMC,095533.800,A,2500.7811038,N,12132.4654467,E,0.03,215.58,260623,,,D,V*03
$GPHDT,225.637,T*32
$GNGSA,A,3,196,199,15,24,195,18,05,13,29,20,194,11,1.11,0.55,0.97,1*05
$GNGSA,A,3,84,85,69,79,80,,,,,,,,1.11,0.55,0.97,2*05
$GNGSA,A,3,08,15,13,07,03,,,,,,,,1.11,0.55,0.97,3*06
$GNGSA,A,3,39,38,16,06,13,20,29,37,46,32,,,1.11,0.55,0.97,4*07
$GPGSV,4,1,14,196,72,048,40,199,60,167,38,15,60,353,42,24,54,177,46,1*6E
$GPGSV,4,2,14,195,51,175,43,18,43,317,22,05,40,075,46,41,38,242,33,1*5A
$GPGSV,4,3,14,13,38,032,36,29,24,228,42,20,23,100,33,23,20,310,,1*6B
$GPGSV,4,4,14,194,18,148,20,11,13,147,21,1*58
$GPGSV,2,1,07,196,72,048,44,199,60,167,48,24,54,177,47,195,51,175,44,8*5A
$GPGSV,2,2,07,18,43,317,23,194,18,148,24,11,13,147,22,8*6E
$GLGSV,2,1,05,84,56,211,32,85,39,313,15,69,29,028,28,79,25,077,43,1*7A
$GLGSV,2,2,05,80,23,135,30,1*40
$GAGSV,2,1,07,08,63,337,37,15,60,166,42,13,60,309,22,07,33,260,37,7*75
$GAGSV,2,2,07,03,29,040,37,02,10,118,,34,10,151,,7*44
$GAGSV,2,1,05,08,63,337,39,15,60,166,45,13,60,309,36,07,33,260,40,1*7D
$GAGSV,2,2,05,03,29,040,39,1*46
$GBGSV,4,1,13,39,69,212,42,38,69,028,43,16,59,207,44,06,57,207,43,1*72
$GBGSV,4,2,13,13,53,343,26,20,50,009,37,29,45,248,43,09,40,208,19,1*70
$GBGSV,4,3,13,19,33,301,,37,33,087,45,46,30,155,31,35,19,308,,1*74
$GBGSV,4,4,13,32,18,066,32,1*4D
$GBGSV,2,1,06,38,69,028,43,39,69,212,45,20,50,009,41,29,45,248,42,4*73
$GBGSV,2,2,06,37,33,087,41,32,18,066,31,4*71
$GNGGA,095534.000,2500.7811098,N,12132.4654407,E,2,50,0.55,16.869,M,15.25,M,1,3335*44
$GNRMC,095534.000,A,2500.7811098,N,12132.4654407,E,0.02,215.58,260623,,,D,V*01
$GPHDT,225.285,T*3F
$GNGGA,095534.200,2500.7810968,N,12132.4646280,E,4,50,0.55,15.881,M,15.25,M,1,3335*48
$GNRMC,095534.200,A,2500.7810968,N,12132.4646280,E,0.02,215.58,260623,,,R,V*18
$GPHDT,225.671,T*30
$GNGGA,095534.400,2500.7810965,N,12132.4646288,E,4,50,0.55,15.881,M,15.25,M,1,3335*4B
$GNRMC,095534.400,A,2500.7810965,N,12132.4646288,E,0.02,215.58,260623,,,R,V*1B
$GPHDT,225.783,T*3C
$GNGGA,095534.600,2500.7810985,N,12132.4646272,E,4,49,0.57,15.883,M,15.25,M,1,3335*4A
$GNRMC,095534.600,A,2500.7810985,N,12132.4646272,E,0.02,215.58,260623,,,R,V*12
$GPHDT,225.843,T*3F
$GNGGA,095534.800,2500.7810987,N,12132.4646284,E,4,50,0.57,15.882,M,15.25,M,1,3335*46
$GNRMC,095534.800,A,2500.7810987,N,12132.4646284,E,0.02,215.58,260623,,,R,V*17
$GPHDT,225.950,T*3C
$GNGSA,A,3,196,199,15,24,195,18,05,13,29,20,194,11,1.15,0.57,1.00,1*0C
$GNGSA,A,3,84,69,79,80,,,,,,,,,1.15,0.57,1.00,2*01
$GNGSA,A,3,08,15,13,07,03,,,,,,,,1.15,0.57,1.00,3*0F
$GNGSA,A,3,39,38,16,06,13,20,29,37,46,32,,,1.15,0.57,1.00,4*0E
$GPGSV,4,1,14,196,72,048,40,199,60,167,38,15,60,353,42,24,54,177,46,1*6E
$GPGSV,4,2,14,195,51,175,43,18,43,317,22,05,40,075,46,41,38,242,32,1*5B
$GPGSV,4,3,14,13,38,032,36,29,24,228,42,20,23,100,33,23,20,310,,1*6B
$GPGSV,4,4,14,194,18,148,20,11,13,147,20,1*59
$GPGSV,2,1,07,196,72,048,44,199,60,167,48,24,54,177,47,195,51,175,44,8*5A
$GPGSV,2,2,07,18,43,317,22,194,18,148,23,11,13,147,21,8*6B
$GLGSV,2,1,05,84,56,211,32,85,39,313,11,69,29,028,28,79,25,077,43,1*7E
$GLGSV,2,2,05,80,23,135,30,1*40
$GAGSV,2,1,07,08,63,337,37,15,60,166,42,13,60,309,24,07,33,260,37,7*73
$GAGSV,2,2,07,03,29,040,37,02,10,118,,34,10,151,,7*44
$GAGSV,2,1,05,08,63,337,39,15,60,166,45,13,60,309,36,07,33,260,39,1*73
$GAGSV,2,2,05,03,29,040,39,1*46
$GBGSV,4,1,14,39,69,212,42,38,69,028,43,16,59,207,44,06,57,207,43,1*75
$GBGSV,4,2,14,13,53,343,26,20,50,010,37,29,45,248,43,09,40,208,20,1*75
$GBGSV,4,3,14,19,34,301,,37,33,087,45,46,30,155,31,35,19,308,,1*74
$GBGSV,4,4,14,32,18,066,33,07,09,201,,1*76
$GBGSV,2,1,07,38,69,028,43,39,69,212,45,20,50,010,41,29,45,248,42,4*7A
$GBGSV,2,2,07,37,33,087,41,46,30,155,28,32,18,066,31,4*4A
$GNGGA,095535.000,2500.7810993,N,12132.4646295,E,4,50,0.57,15.876,M,15.25,M,2,3335*42
$GNRMC,095535.000,A,2500.7810993,N,12132.4646295,E,0.02,215.58,260623,,,R,V*1B
$GPHDT,225.972,T*3C
$GNGGA,095535.200,2500.7810975,N,12132.4646279,E,4,50,0.57,15.874,M,15.25,M,2,3335*48
$GNRMC,095535.200,A,2500.7810975,N,12132.4646279,E,0.02,215.58,260623,,,R,V*13
$GPHDT,225.989,T*38
$GNGGA,095535.400,2500.7811003,N,12132.4646276,E,4,49,0.57,15.874,M,15.25,M,2,3335*40
$GNRMC,095535.400,A,2500.7811003,N,12132.4646276,E,0.02,215.58,260623,,,R,V*13
$GPHDT,225.752,T*30
$GNGGA,095535.600,2500.7810938,N,12132.4646328,E,4,49,0.57,15.871,M,15.25,M,1,3335*4E
$GNRMC,095535.600,A,2500.7810938,N,12132.4646328,E,0.02,215.58,260623,,,R,V*1B
$GPHDT,226.346,T*32
$GNGGA,095535.800,2500.7810962,N,12132.4646288,E,4,49,0.57,15.863,M,15.25,M,1,3335*47
$GNRMC,095535.800,A,2500.7810962,N,12132.4646288,E,0.02,215.58,260623,,,R,V*11
$GPHDT,226.116,T*35
$GNGSA,A,3,196,199,15,24,195,18,05,13,29,20,11,194,1.15,0.57,1.00,1*0C
$GNGSA,A,3,84,69,79,80,,,,,,,,,1.15,0.57,1.00,2*01
$GNGSA,A,3,08,15,13,07,03,,,,,,,,1.15,0.57,1.00,3*0F
$GNGSA,A,3,39,38,16,06,13,20,29,37,46,32,,,1.15,0.57,1.00,4*0E
$GPGSV,4,1,14,196,72,048,40,199,60,167,39,15,60,353,42,24,54,177,46,1*6F
$GPGSV,4,2,14,195,51,175,43,18,43,317,22,05,40,075,46,41,38,242,31,1*58
$GPGSV,4,3,14,13,38,032,36,29,24,228,42,20,23,100,34,23,20,310,,1*6C
$GPGSV,4,4,14,194,18,148,20,11,13,147,19,1*53
$GPGSV,2,1,07,196,72,048,44,199,60,167,48,24,54,177,47,195,51,175,44,8*5A
$GPGSV,2,2,07,18,43,317,22,194,18,148,22,11,13,147,22,8*69
$GLGSV,2,1,05,84,56,211,32,85,39,313,13,69,29,028,28,79,25,077,43,1*7C
$GLGSV,2,2,05,80,23,135,30,1*40
$GAGSV,2,1,07,08,63,337,37,15,60,166,43,13,60,309,23,07,33,260,37,7*75
$GAGSV,2,2,07,03,29,040,37,02,10,118,,34,10,151,,7*44
$GAGSV,2,1,05,08,63,337,39,15,60,166,45,13,60,309,36,07,33,260,39,1*73
$GAGSV,2,2,05,03,29,040,39,1*46
$GBGSV,4,1,13,39,69,212,42,38,69,028,43,16,59,207,44,06,57,207,43,1*72
$GBGSV,4,2,13,13,53,343,25,20,50,010,37,29,45,248,43,09,40,208,22,1*73
$GBGSV,4,3,13,19,34,301,,37,33,087,45,46,30,155,31,35,19,308,,1*73
$GBGSV,4,4,13,32,18,066,33,1*4C
$GBGSV,2,1,06,38,69,028,43,39,69,212,45,20,50,010,41,29,45,248,42,4*7B
$GBGSV,2,2,06,37,33,087,40,32,18,066,31,4*70
$GNGGA,095536.000,2500.7810970,N,12132.4646274,E,4,48,0.57,15.874,M,15.25,M,2,3335*48
$GNRMC,095536.000,A,2500.7810970,N,12132.4646274,E,0.02,215.58,260623,,,R,V*1A
$GPHDT,225.854,T*39
$GNGGA,095536.200,2500.7810990,N,12132.4646275,E,4,48,0.57,15.868,M,15.25,M,2,3335*48
$GNRMC,095536.200,A,2500.7810990,N,12132.4646275,E,0.02,215.58,260623,,,R,V*17
$GPHDT,225.965,T*3A
$GNGGA,095536.400,2500.7811000,N,12132.4646266,E,4,48,0.57,15.886,M,15.25,M,2,3335*4D
$GNRMC,095536.400,A,2500.7811000,N,12132.4646266,E,0.02,215.58,260623,,,R,V*12
$GPHDT,225.588,T*35
$GNGGA,095536.600,2500.7810987,N,12132.4646287,E,4,48,0.57,15.863,M,15.25,M,2,3335*4C
$GNRMC,095536.600,A,2500.7810987,N,12132.4646287,E,0.02,215.58,260623,,,R,V*18
$GPHDT,226.057,T*31
$GNGGA,095536.800,2500.7811004,N,12132.4646261,E,4,49,0.57,15.855,M,15.25,M,2,3335*4D
$GNRMC,095536.800,A,2500.7811004,N,12132.4646261,E,0.02,215.58,260623,,,R,V*1D
$GPHDT,226.198,T*33
$GNGSA,A,3,196,199,15,24,195,18,05,13,29,20,11,194,1.15,0.57,1.00,1*0C
$GNGSA,A,3,84,69,79,80,,,,,,,,,1.15,0.57,1.00,2*01
$GNGSA,A,3,08,15,13,07,03,,,,,,,,1.15,0.57,1.00,3*0F
$GNGSA,A,3,39,38,16,06,13,20,29,37,46,32,,,1.15,0.57,1.00,4*0E
$GPGSV,4,1,14,196,72,048,40,199,60,167,39,15,60,353,42,24,54,177,46,1*6F
$GPGSV,4,2,14,195,51,175,43,18,43,317,22,05,40,075,46,41,38,242,31,1*58
$GPGSV,4,3,14,13,38,032,34,29,24,228,42,20,23,100,34,23,20,310,,1*6E
$GPGSV,4,4,14,194,18,148,20,11,13,147,18,1*52
$GPGSV,2,1,07,196,72,048,44,199,60,167,48,24,54,177,47,195,51,175,44,8*5A
$GPGSV,2,2,07,18,43,317,22,194,18,148,23,11,13,147,22,8*68
$GLGSV,2,1,05,84,56,211,32,85,39,313,14,69,29,028,27,79,25,077,43,1*74
$GLGSV,2,2,05,80,23,135,30,1*40
$GAGSV,2,1,07,08,63,337,37,15,60,166,43,13,60,309,23,07,33,260,36,7*74
$GAGSV,2,2,07,03,29,040,37,02,10,118,,34,10,151,,7*44
$GAGSV,2,1,05,08,63,337,39,15,60,166,45,13,60,309,36,07,33,260,39,1*73
$GAGSV,2,2,05,03,29,040,39,1*46
$GBGSV,4,1,13,39,69,212,42,38,69,028,43,16,59,207,44,06,57,207,43,1*72
$GBGSV,4,2,13,13,53,343,25,20,50,010,38,29,45,248,43,09,40,208,22,1*7C
$GBGSV,4,3,13,19,34,301,,37,33,087,45,46,30,155,31,35,19,308,,1*73
$GBGSV,4,4,13,32,18,066,33,1*4C
$GBGSV,2,1,07,38,69,028,43,39,69,212,45,20,50,010,41,29,45,248,42,4*7A
$GBGSV,2,2,07,37,33,087,40,46,30,155,29,32,18,066,31,4*4A
$GNGGA,095537.000,2500.7810976,N,12132.4646276,E,4,49,0.57,15.897,M,15.25,M,3,3335*40
$GNRMC,095537.000,A,2500.7810976,N,12132.4646276,E,0.02,215.58,260623,,,R,V*1F
$GPHDT,225.874,T*3B
$GNGGA,095537.200,2500.7810987,N,12132.4646259,E,4,49,0.57,15.868,M,15.25,M,3,3335*41
$GNRMC,095537.200,A,2500.7810987,N,12132.4646259,E,0.01,215.58,260623,,,R,V*1D
$GPHDT,226.009,T*3A
$GNGGA,095537.400,2500.7810991,N,12132.4646262,E,4,49,0.57,15.873,M,15.25,M,3,3335*42
$GNRMC,095537.400,A,2500.7810991,N,12132.4646262,E,0.00,215.58,260623,,,R,V*15
$GPHDT,225.929,T*32
$GNGGA,095537.600,2500.7810984,N,12132.4646255,E,4,49,0.57,15.869,M,15.25,M,3,3335*4B
$GNRMC,095537.600,A,2500.7810984,N,12132.4646255,E,0.00,215.58,260623,,,R,V*17
$GPHDT,226.037,T*37
$GNGGA,095537.800,2500.7810989,N,12132.4646277,E,4,49,0.57,15.888,M,15.25,M,3,3335*47
$GNRMC,095537.800,A,2500.7810989,N,12132.4646277,E,0.00,215.58,260623,,,R,V*14
