$FW : RTK35X,V1.1X0314AS,Lib20210517,1*54
$Tool : LOCOSYS , GNSS Firebird , v1.0.0.19*39
$---------------------------------------------------*2D
$GPHDT,,T*1B
$GNGGA,095623.800,2500.7809545,N,12132.4636414,E,2,48,0.51,15.900,M,15.25,M,3,3335*41
$GNRMC,095623.800,A,2500.7809545,N,12132.4636414,E,0.03,215.58,260623,,,D,V*07
$GPHDT,,T*1B
$GNGSA,A,3,196,199,15,24,195,05,13,29,20,23,194,11,1.00,0.50,0.87,1*09
$GNGSA,A,3,18,,,,,,,,,,,,1.00,0.50,0.87,1*03
$GNGSA,A,3,84,85,69,79,80,,,,,,,,1.00,0.50,0.87,2*01
$GNGSA,A,3,08,13,15,07,03,,,,,,,,1.00,0.50,0.87,3*02
$GNGSA,A,3,38,39,16,06,13,20,29,37,46,32,,,1.00,0.50,0.87,4*03
$GPGSV,4,1,14,196,72,048,40,199,60,167,38,15,59,354,36,24,55,177,45,1*62
$GPGSV,4,2,14,195,50,175,44,18,43,316,18,05,40,075,43,41,38,242,33,1*51
$GPGSV,4,3,14,13,37,033,32,29,24,228,43,20,23,100,38,23,20,311,18,1*63
$GPGSV,4,4,14,194,18,148,26,11,12,147,23,1*5D
$GPGSV,2,1,07,196,72,048,44,199,60,167,48,24,55,177,46,195,50,175,45,8*5A
$GPGSV,2,2,07,18,43,316,18,23,20,311,20,11,12,147,17,8*5C
$GLGSV,2,1,06,84,55,211,34,85,39,313,17,69,29,028,30,79,25,077,39,1*7A
$GLGSV,2,2,06,80,23,134,33,71,06,270,,1*74
$GAGSV,3,1,09,08,63,337,38,13,60,308,26,15,59,167,41,07,33,260,36,7*79
$GAGSV,3,2,09,03,29,040,34,34,10,151,,02,10,118,,26,08,324,,7*71
$GAGSV,3,3,09,30,04,166,,7*4C
$GAGSV,2,1,05,08,63,337,41,13,60,308,34,15,59,167,45,07,33,260,40,1*7A
$GAGSV,2,2,05,03,29,040,34,1*4B
$GBGSV,4,1,13,38,69,028,44,39,69,213,44,16,59,207,44,06,57,207,42,1*73
$GBGSV,4,2,13,13,53,343,28,20,50,010,36,29,45,247,43,09,40,208,21,1*73
$GBGSV,4,3,13,19,34,302,,37,33,086,44,46,30,154,36,35,19,307,,1*79
$GBGSV,4,4,13,32,18,066,24,1*4A
$GBGSV,2,1,07,38,69,028,42,39,69,213,45,20,50,010,36,29,45,247,45,4*72
$GBGSV,2,2,07,37,33,086,42,46,30,154,28,32,18,066,26,4*4F
$GNGGA,095624.000,2500.7809545,N,12132.4636414,E,2,49,0.50,15.900,M,15.25,M,4,3335*49
$GNRMC,095624.000,A,2500.7809545,N,12132.4636414,E,0.04,215.58,260623,,,D,V*0F
$GPHDT,,T*1B
$GNGGA,095624.200,2500.7811759,N,12132.4619756,E,4,50,0.50,18.054,M,15.25,M,4,3335*4E
$GNRMC,095624.200,A,2500.7811759,N,12132.4619756,E,0.02,215.58,260623,,,R,V*13
$GPHDT,,T*1B
$GNGGA,095624.400,2500.7811746,N,12132.4619778,E,4,49,0.51,18.070,M,15.25,M,4,3335*45
$GNRMC,095624.400,A,2500.7811746,N,12132.4619778,E,0.02,215.58,260623,,,R,V*17
$GPHDT,,T*1B
$GNGGA,095624.600,2500.7811758,N,12132.4619758,E,4,49,0.51,18.051,M,15.25,M,4,3335*49
$GNRMC,095624.600,A,2500.7811758,N,12132.4619758,E,0.01,215.58,260623,,,R,V*1B
$GPHDT,,T*1B
$GNGGA,095624.800,2500.7811784,N,12132.4619726,E,4,49,0.51,18.057,M,15.25,M,4,3335*49
$GNRMC,095624.800,A,2500.7811784,N,12132.4619726,E,0.01,215.58,260623,,,R,V*1D
$GPHDT,,T*1B
$GNGSA,A,3,196,199,15,24,195,05,13,29,20,23,194,11,1.02,0.51,0.88,1*05
$GNGSA,A,3,84,85,69,79,80,,,,,,,,1.02,0.51,0.88,2*0D
$GNGSA,A,3,08,13,15,07,03,,,,,,,,1.02,0.51,0.88,3*0E
$GNGSA,A,3,39,38,16,06,13,20,29,37,46,32,,,1.02,0.51,0.88,4*0F
$GPGSV,4,1,14,196,72,048,39,199,60,167,38,15,59,354,37,24,55,177,45,1*6D
$GPGSV,4,2,14,195,50,175,44,18,43,316,18,05,40,075,43,41,38,242,34,1*56
$GPGSV,4,3,14,13,37,033,29,29,24,228,43,20,23,100,38,23,20,311,19,1*68
$GPGSV,4,4,14,194,18,148,27,11,12,147,23,1*5C
$GPGSV,2,1,06,196,72,048,44,199,60,167,48,24,55,177,46,195,50,175,45,8*5B
$GPGSV,2,2,06,23,20,311,22,11,12,147,12,8*69
$GLGSV,2,1,05,84,55,211,34,85,39,313,19,69,29,028,30,79,25,077,40,1*79
$GLGSV,2,2,05,80,23,134,33,1*42
$GAGSV,3,1,09,08,63,337,38,13,60,308,28,15,59,167,41,07,33,260,36,7*77
$GAGSV,3,2,09,03,29,040,34,02,10,118,,34,10,151,,26,08,324,,7*71
$GAGSV,3,3,09,30,04,166,,7*4C
$GAGSV,2,1,05,08,63,337,41,13,60,308,34,15,59,167,45,07,33,260,40,1*7A
$GAGSV,2,2,05,03,29,040,35,1*4A
$GBGSV,4,1,13,39,69,213,44,38,69,028,44,16,59,207,44,06,57,207,42,1*73
$GBGSV,4,2,13,13,53,343,27,20,50,010,36,29,45,247,43,09,40,208,21,1*7C
$GBGSV,4,3,13,19,34,302,,37,33,086,44,46,30,154,37,35,19,307,,1*78
$GBGSV,4,4,13,32,18,066,24,1*4A
$GBGSV,2,1,07,38,69,028,42,39,69,213,45,20,50,010,36,29,45,247,45,4*72
$GBGSV,2,2,07,37,33,086,42,46,30,154,30,32,18,066,26,4*46
$GNGGA,095625.000,2500.7811740,N,12132.4619749,E,4,49,0.51,18.072,M,15.25,M,5,3335*47
$GNRMC,095625.000,A,2500.7811740,N,12132.4619749,E,0.00,215.58,260623,,,R,V*14
$GPHDT,,T*1B
$GNGGA,095625.200,2500.7811776,N,12132.4619723,E,4,49,0.51,18.049,M,15.25,M,5,3335*44
$GNRMC,095625.200,A,2500.7811776,N,12132.4619723,E,0.01,215.58,260623,,,R,V*1E
$GPHDT,,T*1B
$GNGGA,095625.400,2500.7811744,N,12132.4619723,E,4,50,0.50,18.049,M,15.25,M,5,3335*4A
$GNRMC,095625.400,A,2500.7811744,N,12132.4619723,E,0.00,215.58,260623,,,R,V*18
$GPHDT,,T*1B
$GNGGA,095625.600,2500.7811759,N,12132.4619735,E,4,50,0.50,18.057,M,15.25,M,5,3335*4C
$GNRMC,095625.600,A,2500.7811759,N,12132.4619735,E,0.00,215.58,260623,,,R,V*11
$GPHDT,,T*1B
$GNGGA,095625.800,2500.7811739,N,12132.4619755,E,4,50,0.50,18.061,M,15.25,M,5,3335*47
$GNRMC,095625.800,A,2500.7811739,N,12132.4619755,E,0.00,215.58,260623,,,R,V*1F
$GPHDT,,T*1B
$GNGSA,A,3,196,199,15,24,195,05,13,29,20,23,194,11,1.00,0.50,0.87,1*09
$GNGSA,A,3,18,,,,,,,,,,,,1.00,0.50,0.87,1*03
$GNGSA,A,3,84,85,69,79,80,,,,,,,,1.00,0.50,0.87,2*01
$GNGSA,A,3,08,13,15,07,03,,,,,,,,1.00,0.50,0.87,3*02
$GNGSA,A,3,39,38,16,06,13,20,29,37,46,32,,,1.00,0.50,0.87,4*03
$GPGSV,4,1,14,196,72,048,39,199,60,167,38,15,59,354,37,24,55,177,45,1*6D
$GPGSV,4,2,14,195,50,175,44,18,43,316,18,05,40,075,43,41,38,242,33,1*51
$GPGSV,4,3,14,13,37,033,33,29,24,228,43,20,23,100,38,23,20,311,19,1*63
$GPGSV,4,4,14,194,18,148,27,11,12,147,23,1*5C
$GPGSV,2,1,07,196,72,048,44,199,60,167,48,24,55,177,46,195,50,175,45,8*5A
$GPGSV,2,2,07,18,43,316,21,23,20,311,21,11,12,147,10,8*50
$GLGSV,2,1,05,84,55,211,34,85,39,313,19,69,29,028,30,79,25,077,40,1*79
$GLGSV,2,2,05,80,23,134,33,1*42
$GAGSV,3,1,09,08,63,337,38,13,60,308,28,15,59,167,41,07,33,260,35,7*74
$GAGSV,3,2,09,03,29,040,34,02,10,118,,34,10,151,,26,08,324,,7*71
$GAGSV,3,3,09,30,04,166,,7*4C
$GAGSV,2,1,05,08,63,337,41,13,60,308,33,15,59,167,44,07,33,260,40,1*7C
$GAGSV,2,2,05,03,29,040,35,1*4A
$GBGSV,4,1,13,39,69,213,44,38,69,028,44,16,59,207,44,06,57,207,42,1*73
$GBGSV,4,2,13,13,53,343,27,20,50,010,37,29,45,247,43,09,40,208,21,1*7D
$GBGSV,4,3,13,19,34,302,,37,33,086,44,46,30,154,37,35,19,307,,1*78
$GBGSV,4,4,13,32,18,066,21,1*4F
$GBGSV,2,1,07,38,69,028,42,39,69,213,45,20,50,010,36,29,45,247,45,4*72
$GBGSV,2,2,07,37,33,086,42,46,30,154,27,32,18,066,28,4*4E
$GNGGA,095626.000,2500.7811812,N,12132.4619712,E,4,50,0.50,18.058,M,15.25,M,6,3335*40
$GNRMC,095626.000,A,2500.7811812,N,12132.4619712,E,0.00,215.58,260623,,,R,V*11
$GPHDT,,T*1B
$GNGGA,095626.200,2500.7811761,N,12132.4619748,E,4,49,0.50,18.067,M,15.25,M,6,3335*42
$GNRMC,095626.200,A,2500.7811761,N,12132.4619748,E,0.00,215.58,260623,,,R,V*17
$GPHDT,,T*1B
$GNGGA,095626.400,2500.7811769,N,12132.4619741,E,4,49,0.50,18.057,M,15.25,M,6,3335*46
$GNRMC,095626.400,A,2500.7811769,N,12132.4619741,E,0.01,215.58,260623,,,R,V*11
$GPHDT,,T*1B
$GNGGA,095626.600,2500.7811775,N,12132.4619781,E,4,49,0.50,18.070,M,15.25,M,4,3335*42
$GNRMC,095626.600,A,2500.7811775,N,12132.4619781,E,0.01,215.58,260623,,,R,V*12
$GPHDT,,T*1B
$GNGGA,095626.800,2500.7811785,N,12132.4619743,E,4,49,0.50,18.056,M,15.25,M,3,3335*4E
$GNRMC,095626.800,A,2500.7811785,N,12132.4619743,E,0.00,215.58,260623,,,R,V*1C
$GPHDT,,T*1B
$GNGSA,A,3,196,199,15,24,195,05,13,29,20,23,194,11,1.00,0.50,0.87,1*09
$GNGSA,A,3,18,,,,,,,,,,,,1.00,0.50,0.87,1*03
$GNGSA,A,3,84,85,69,79,80,,,,,,,,1.00,0.50,0.87,2*01
$GNGSA,A,3,08,13,15,07,03,,,,,,,,1.00,0.50,0.87,3*02
$GNGSA,A,3,39,38,16,06,13,20,29,37,46,32,,,1.00,0.50,0.87,4*03
$GPGSV,4,1,14,196,72,048,40,199,60,167,38,15,59,354,37,24,55,177,45,1*63
$GPGSV,4,2,14,195,50,175,44,18,43,316,18,05,40,075,43,41,38,242,33,1*51
$GPGSV,4,3,14,13,37,033,34,29,24,228,43,20,23,100,38,23,20,311,19,1*64
$GPGSV,4,4,14,194,18,148,25,11,12,147,21,1*5C
$GPGSV,2,1,06,196,72,048,44,199,60,167,48,24,55,177,46,195,50,175,46,8*58
$GPGSV,2,2,06,18,43,316,22,23,20,311,21,8*62
$GLGSV,2,1,05,84,55,211,34,85,39,313,19,69,29,028,30,79,25,077,40,1*79
$GLGSV,2,2,05,80,23,134,30,1*41
$GAGSV,3,1,09,08,63,337,38,13,60,308,28,15,59,167,41,07,33,260,35,7*74
$GAGSV,3,2,09,03,29,040,34,02,10,118,,34,10,151,,26,08,324,,7*71
$GAGSV,3,3,09,30,04,166,,7*4C
$GAGSV,2,1,05,08,63,337,40,13,60,308,35,15,59,167,44,07,33,260,40,1*7B
$GAGSV,2,2,05,03,29,040,33,1*4C
$GBGSV,4,1,13,39,69,213,44,38,69,028,44,16,59,207,44,06,57,207,42,1*73
$GBGSV,4,2,13,13,53,343,26,20,50,010,37,29,45,247,43,09,40,208,21,1*7C
$GBGSV,4,3,13,19,34,302,,37,33,086,44,46,30,154,37,35,19,307,,1*78
$GBGSV,4,4,13,32,18,066,21,1*4F
$GBGSV,2,1,07,38,69,028,43,39,69,213,45,20,50,010,37,29,45,247,45,4*72
$GBGSV,2,2,07,37,33,086,42,46,30,154,29,32,18,066,28,4*40
$GNGGA,095627.000,2500.7811799,N,12132.4619737,E,4,49,0.50,18.039,M,15.25,M,1,3335*42
$GNRMC,095627.000,A,2500.7811799,N,12132.4619737,E,0.00,215.58,260623,,,R,V*1B
$GPHDT,,T*1B
$GNGGA,095627.200,2500.7811791,N,12132.4619759,E,4,49,0.50,18.028,M,15.25,M,1,3335*40
$GNRMC,095627.200,A,2500.7811791,N,12132.4619759,E,0.00,215.58,260623,,,R,V*19
$GPHDT,,T*1B
$GNGGA,095627.400,2500.7811791,N,12132.4619746,E,4,49,0.50,18.041,M,15.25,M,1,3335*47
$GNRMC,095627.400,A,2500.7811791,N,12132.4619746,E,0.00,215.58,260623,,,R,V*11
$GPHDT,,T*1B
$GNGGA,095627.600,2500.7811788,N,12132.4619762,E,4,49,0.50,18.047,M,15.25,M,0,3335*4C
$GNRMC,095627.600,A,2500.7811788,N,12132.4619762,E,0.00,215.58,260623,,,R,V*1D
$GPHDT,,T*1B
$GNGGA,095627.800,2500.7811794,N,12132.4619744,E,4,49,0.50,18.042,M,15.25,M,0,3335*4E
$GNRMC,095627.800,A,2500.7811794,N,12132.4619744,E,0.01,215.58,260623,,,R,V*1B
$GPHDT,,T*1B
$GNGSA,A,3,196,199,15,24,195,05,13,29,20,23,194,11,1.00,0.50,0.87,1*09
$GNGSA,A,3,18,,,,,,,,,,,,1.00,0.50,0.87,1*03
$GNGSA,A,3,84,85,69,79,80,,,,,,,,1.00,0.50,0.87,2*01
$GNGSA,A,3,08,13,15,07,03,,,,,,,,1.00,0.50,0.87,3*02
$GNGSA,A,3,39,38,16,06,13,20,29,37,46,32,,,1.00,0.50,0.87,4*03
$GPGSV,4,1,14,196,72,048,40,199,60,167,38,15,59,354,37,24,55,177,45,1*63
$GPGSV,4,2,14,195,50,175,44,18,43,316,18,05,40,075,43,41,38,242,33,1*51
$GPGSV,4,3,14,13,37,033,34,29,24,228,43,20,23,100,36,23,20,311,19,1*6A
$GPGSV,4,4,14,194,18,148,25,11,12,147,22,1*5F
$GPGSV,2,1,06,196,72,048,44,199,60,167,48,24,55,177,46,195,50,175,46,8*58
$GPGSV,2,2,06,18,43,316,23,23,20,311,21,8*63
$GLGSV,2,1,05,84,55,211,33,85,39,313,19,69,29,028,31,79,25,077,40,1*7F
$GLGSV,2,2,05,80,23,134,26,1*46
$GAGSV,2,1,08,08,63,337,38,13,60,308,28,15,59,167,41,07,33,260,35,7*74
$GAGSV,2,2,08,03,29,040,34,34,10,151,,26,08,324,,30,04,166,,7*7C
$GAGSV,2,1,05,08,63,337,40,13,60,308,35,15,59,167,44,07,33,260,40,1*7B
$GAGSV,2,2,05,03,29,040,33,1*4C
$GBGSV,4,1,13,39,69,213,44,38,69,028,44,16,59,207,44,06,57,207,42,1*73
$GBGSV,4,2,13,13,53,343,28,20,50,010,38,29,45,247,43,09,40,208,22,1*7E
$GBGSV,4,3,13,19,34,302,,37,33,086,44,46,30,154,37,35,19,307,,1*78
$GBGSV,4,4,13,32,18,066,24,1*4A
$GBGSV,2,1,07,38,69,028,43,39,69,213,45,20,50,010,39,29,45,247,46,4*7F
$GBGSV,2,2,07,37,33,086,42,46,30,154,30,32,18,066,28,4*48
$GNGGA,095628.000,2500.7811776,N,12132.4619773,E,4,49,0.50,18.038,M,15.25,M,1,3335*4D
$GNRMC,095628.000,A,2500.7811776,N,12132.4619773,E,0.00,215.58,260623,,,R,V*15
$GPHDT,,T*1B
$GNGGA,095628.200,2500.7811792,N,12132.4619747,E,4,49,0.50,18.043,M,15.25,M,1,3335*4E
$GNRMC,095628.200,A,2500.7811792,N,12132.4619747,E,0.01,215.58,260623,,,R,V*1B
$GPHDT,,T*1B
$GNGGA,095628.400,2500.7811793,N,12132.4619785,E,4,49,0.50,18.053,M,15.25,M,1,3335*46
$GNRMC,095628.400,A,2500.7811793,N,12132.4619785,E,0.00,215.58,260623,,,R,V*13
$GPHDT,,T*1B
$GNGGA,095628.600,2500.7811795,N,12132.4619768,E,4,50,0.50,18.051,M,15.25,M,1,3335*4B
$GNRMC,095628.600,A,2500.7811795,N,12132.4619768,E,0.00,215.58,260623,,,R,V*14
$GPHDT,,T*1B
$GNGGA,095628.800,2500.7811779,N,12132.4619776,E,4,50,0.50,18.051,M,15.25,M,1,3335*48
$GNRMC,095628.800,A,2500.7811779,N,12132.4619776,E,0.00,215.58,260623,,,R,V*17
$GPHDT,,T*1B
$GNGSA,A,3,196,199,15,24,195,05,13,29,20,23,194,11,1.00,0.50,0.87,1*09
$GNGSA,A,3,18,,,,,,,,,,,,1.00,0.50,0.87,1*03
$GNGSA,A,3,84,85,69,79,80,,,,,,,,1.00,0.50,0.87,2*01
$GNGSA,A,3,08,13,15,07,03,,,,,,,,1.00,0.50,0.87,3*02
$GNGSA,A,3,39,38,16,06,13,20,29,37,46,32,,,1.00,0.50,0.87,4*03
$GPGSV,4,1,14,196,72,048,40,199,60,167,38,15,59,354,37,24,55,177,45,1*63
$GPGSV,4,2,14,195,50,175,44,18,43,316,18,05,40,075,43,41,38,242,34,1*56
$GPGSV,4,3,14,13,37,033,35,29,24,228,43,20,23,100,36,23,20,311,19,1*6B
$GPGSV,4,4,14,194,18,148,24,11,12,147,22,1*5E
$GPGSV,2,1,07,196,72,048,44,199,60,167,48,24,55,177,46,195,50,175,46,8*59
$GPGSV,2,2,07,18,43,316,22,23,20,311,21,194,18,148,22,8*6B
$GLGSV,2,1,05,84,55,211,33,85,39,313,19,69,29,028,30,79,25,077,39,1*70
$GLGSV,2,2,05,80,23,134,26,1*46
$GAGSV,3,1,09,08,63,337,38,13,60,308,29,15,59,167,41,07,33,260,35,7*75
$GAGSV,3,2,09,03,29,040,34,34,10,151,,26,09,324,,30,04,166,,7*7D
$GAGSV,3,3,09,25,03,072,,7*4B
$GAGSV,2,1,05,08,63,337,40,13,60,308,35,15,59,167,44,07,33,260,40,1*7B
$GAGSV,2,2,05,03,29,040,33,1*4C
$GBGSV,4,1,13,39,69,213,44,38,69,028,44,16,59,207,44,06,57,207,42,1*73
$GBGSV,4,2,13,13,53,343,28,20,50,010,37,29,45,247,43,09,40,208,22,1*71
$GBGSV,4,3,13,19,34,302,,37,33,086,44,46,30,154,36,35,19,307,,1*79
$GBGSV,4,4,13,32,18,066,24,1*4A
$GBGSV,2,1,07,38,69,028,43,39,69,213,45,20,50,010,39,29,45,247,46,4*7F
$GBGSV,2,2,07,37,33,086,42,46,30,154,31,32,18,066,26,4*47
$GNGGA,095629.000,2500.7811796,N,12132.4619755,E,4,50,0.50,18.034,M,15.25,M,1,3335*42
$GNRMC,095629.000,A,2500.7811796,N,12132.4619755,E,0.00,215.58,260623,,,R,V*1E
$GPHDT,,T*1B
$GNGGA,095629.200,2500.7811784,N,12132.4619765,E,4,50,0.50,18.035,M,15.25,M,1,3335*41
$GNRMC,095629.200,A,2500.7811784,N,12132.4619765,E,0.00,215.58,260623,,,R,V*1C
$GPHDT,,T*1B
$GNGGA,095629.400,2500.7811907,N,12132.4619685,E,4,50,0.50,18.059,M,15.25,M,1,3335*47
$GNRMC,095629.400,A,2500.7811907,N,12132.4619685,E,0.00,215.58,260623,,,R,V*10
$GPHDT,,T*1B
$GNGGA,095629.600,2500.7811838,N,12132.4619707,E,4,50,0.50,18.061,M,15.25,M,1,3335*48
$GNRMC,095629.600,A,2500.7811838,N,12132.4619707,E,0.00,215.58,260623,,,R,V*14
$GPHDT,,T*1B
$GNGGA,095629.800,2500.7811736,N,12132.4619765,E,4,50,0.50,18.039,M,15.25,M,1,3335*4E
$GNRMC,095629.800,A,2500.7811736,N,12132.4619765,E,0.00,215.58,260623,,,R,V*1F
$GPHDT,,T*1B
$GNGSA,A,3,196,199,15,24,195,05,13,29,20,23,194,11,1.00,0.50,0.87,1*09
$GNGSA,A,3,18,,,,,,,,,,,,1.00,0.50,0.87,1*03
$GNGSA,A,3,84,85,69,79,80,,,,,,,,1.00,0.50,0.87,2*01
$GNGSA,A,3,08,13,15,07,03,,,,,,,,1.00,0.50,0.87,3*02
$GNGSA,A,3,39,38,16,06,13,20,29,37,46,32,,,1.00,0.50,0.87,4*03
$GPGSV,4,1,14,196,72,048,40,199,60,167,38,15,59,354,38,24,55,177,45,1*6C
$GPGSV,4,2,14,195,50,175,44,18,43,316,18,05,40,075,44,41,38,242,33,1*56
$GPGSV,4,3,14,13,37,033,36,29,24,228,43,20,23,100,36,23,20,311,18,1*69
$GPGSV,4,4,14,194,18,148,24,11,12,147,21,1*5D
$GPGSV,2,1,07,196,72,048,44,199,60,167,48,24,55,177,46,195,50,175,46,8*59
$GPGSV,2,2,07,18,43,316,21,23,20,311,21,194,18,148,22,8*68
$GLGSV,2,1,05,84,55,211,33,85,39,313,18,69,29,028,29,79,25,077,39,1*79
$GLGSV,2,2,05,80,23,134,25,1*45
$GAGSV,3,1,09,08,63,337,38,13,60,308,28,15,59,167,41,07,33,260,35,7*74
$GAGSV,3,2,09,03,29,040,34,34,10,151,,26,09,324,,30,04,166,,7*7D
$GAGSV,3,3,09,25,03,072,,7*4B
$GAGSV,2,1,05,08,63,337,40,13,60,308,34,15,59,167,44,07,33,260,40,1*7A
$GAGSV,2,2,05,03,29,040,33,1*4C
$GBGSV,4,1,13,39,69,213,44,38,69,028,44,16,59,207,44,06,57,207,42,1*73
$GBGSV,4,2,13,13,53,343,28,20,50,010,36,29,45,247,44,09,40,208,23,1*76
$GBGSV,4,3,13,19,34,302,,37,33,086,44,46,30,154,35,35,19,307,,1*7A
$GBGSV,4,4,13,32,18,066,23,1*4D
$GBGSV,2,1,07,38,69,028,43,39,69,213,45,20,50,010,39,29,45,247,46,4*7F
$GBGSV,2,2,07,37,33,086,42,46,30,154,31,32,18,066,26,4*47
$GNGGA,095630.000,2500.7811820,N,12132.4619767,E,4,50,0.50,18.040,M,15.25,M,2,3335*49
$GNRMC,095630.000,A,2500.7811820,N,12132.4619767,E,0.00,215.58,260623,,,R,V*15
$PAIR010,0,1,2268,122208*3F
$GPHDT,,T*1B
$GNGGA,095630.200,2500.7811046,N,12132.4646298,E,4,50,0.50,15.904,M,15.25,M,2,3335*48
$GNRMC,095630.200,A,2500.7811046,N,12132.4646298,E,0.00,215.58,260623,,,R,V*10
$GPHDT,,T*1B
$GNGGA,095630.400,2500.7811044,N,12132.4646297,E,4,50,0.50,15.889,M,15.25,M,2,3335*47
$GNRMC,095630.400,A,2500.7811044,N,12132.4646297,E,0.00,215.58,260623,,,R,V*1B
$GPHDT,,T*1B
$GNGGA,095630.600,2500.7811031,N,12132.4646310,E,4,50,0.50,15.900,M,15.25,M,2,3335*49
$GNRMC,095630.600,A,2500.7811031,N,12132.4646310,E,0.00,215.58,260623,,,R,V*15
$GPHDT,,T*1B
$GNGGA,095630.800,2500.7811047,N,12132.4646341,E,4,50,0.50,15.899,M,15.25,M,2,3335*43
$GNRMC,095630.800,A,2500.7811047,N,12132.4646341,E,0.01,215.58,260623,,,R,V*1F
$GPHDT,,T*1B
$GNGSA,A,3,196,199,15,24,195,05,13,29,20,23,194,11,1.00,0.50,0.87,1*09
$GNGSA,A,3,18,,,,,,,,,,,,1.00,0.50,0.87,1*03
$GNGSA,A,3,84,85,69,79,80,,,,,,,,1.00,0.50,0.87,2*01
$GNGSA,A,3,08,13,15,07,03,,,,,,,,1.00,0.50,0.87,3*02
$GNGSA,A,3,39,38,16,06,13,20,29,37,46,32,,,1.00,0.50,0.87,4*03
$GPGSV,4,1,14,196,72,048,40,199,60,167,38,15,59,354,36,24,55,177,45,1*62
$GPGSV,4,2,14,195,50,175,44,18,43,316,18,05,40,075,44,41,38,242,34,1*51
$GPGSV,4,3,14,13,37,033,36,29,24,228,43,20,23,100,35,23,20,311,18,1*6A
$GPGSV,4,4,14,194,18,148,26,11,12,147,21,1*5F
$GPGSV,2,1,07,196,72,048,44,199,60,167,48,24,55,177,46,195,50,175,46,8*59
$GPGSV,2,2,07,18,43,316,20,23,20,311,21,194,18,148,22,8*69
$GLGSV,2,1,06,84,55,211,34,85,39,313,18,69,29,028,29,79,25,077,40,1*73
$GLGSV,2,2,06,80,23,134,27,83,04,170,,1*7D
$GAGSV,3,1,09,08,63,337,35,13,60,308,29,15,59,167,41,07,33,260,36,7*7B
$GAGSV,3,2,09,03,29,040,34,34,10,151,,26,09,324,,30,04,166,,7*7D
$GAGSV,3,3,09,25,03,072,,7*4B
$GAGSV,2,1,05,08,63,337,39,13,60,308,34,15,59,167,44,07,33,260,39,1*7A
$GAGSV,2,2,05,03,29,040,31,1*4E
$GBGSV,4,1,14,39,69,213,44,38,69,028,44,16,59,207,44,06,57,207,42,1*74
$GBGSV,4,2,14,13,53,343,25,20,50,010,33,29,45,247,44,09,40,208,21,1*7B
$GBGSV,4,3,14,19,34,302,,37,33,086,44,46,30,154,37,35,19,307,,1*7F
$GBGSV,4,4,14,32,18,066,20,23,05,043,,1*7A
$GBGSV,2,1,07,38,69,028,43,39,69,213,45,20,50,010,36,29,45,247,46,4*70
$GBGSV,2,2,07,37,33,086,42,46,30,154,32,32,18,066,25,4*47
$GNGGA,095631.000,2500.7811030,N,12132.4646309,E,4,50,0.50,15.910,M,15.25,M,3,3335*47
$GNRMC,095631.000,A,2500.7811030,N,12132.4646309,E,0.04,215.58,260623,,,R,V*1F
$GPHDT,,T*1B
$GNGGA,095631.200,2500.7811183,N,12132.4646224,E,4,50,0.50,15.890,M,15.25,M,3,3335*4B
$GNRMC,095631.200,A,2500.7811183,N,12132.4646224,E,0.04,215.58,260623,,,R,V*1A
$GPHDT,,T*1B
$GNGGA,095631.400,2500.7811140,N,12132.4646249,E,4,50,0.50,15.887,M,15.25,M,3,3335*4F
$GNRMC,095631.400,A,2500.7811140,N,12132.4646249,E,0.09,215.58,260623,,,R,V*15
$GPHDT,,T*1B
$GNGGA,095631.600,2500.7811104,N,12132.4646258,E,4,49,0.50,15.907,M,15.25,M,3,3335*4C
$GNRMC,095631.600,A,2500.7811104,N,12132.4646258,E,0.07,215.58,260623,,,R,V*19
$GPHDT,,T*1B
$GNGGA,095631.800,2500.7811169,N,12132.4646241,E,4,50,0.50,15.900,M,15.25,M,3,3335*4E
$GNRMC,095631.800,A,2500.7811169,N,12132.4646241,E,0.05,215.58,260623,,,R,V*16
$GPHDT,,T*1B
$GNGSA,A,3,196,199,15,24,195,05,13,29,20,23,194,11,1.00,0.50,0.87,1*09
$GNGSA,A,3,18,,,,,,,,,,,,1.00,0.50,0.87,1*03
$GNGSA,A,3,84,85,69,79,80,,,,,,,,1.00,0.50,0.87,2*01
$GNGSA,A,3,08,13,15,07,03,,,,,,,,1.00,0.50,0.87,3*02
$GNGSA,A,3,39,38,16,06,13,20,29,37,46,32,,,1.00,0.50,0.87,4*03
$GPGSV,4,1,14,196,72,048,40,199,60,167,38,15,59,354,35,24,55,177,45,1*61
$GPGSV,4,2,14,195,50,175,44,18,43,316,18,05,40,075,44,41,38,242,35,1*50
$GPGSV,4,3,14,13,37,033,39,29,24,228,42,20,23,100,35,23,20,311,17,1*6B
$GPGSV,4,4,14,194,18,148,27,11,12,147,21,1*5E
$GPGSV,2,1,07,196,72,048,44,199,60,167,48,24,55,177,46,195,50,175,46,8*59
$GPGSV,2,2,07,18,43,316,22,23,20,311,20,194,18,148,22,8*6A
$GLGSV,2,1,06,84,55,211,34,85,39,313,16,69,29,028,27,79,25,077,40,1*73
$GLGSV,2,2,06,80,23,134,30,83,04,170,,1*7B
$GAGSV,3,1,09,08,63,337,37,13,60,308,29,15,59,167,41,07,33,260,35,7*7A
$GAGSV,3,2,09,03,29,040,35,34,10,151,,26,09,324,,30,04,166,,7*7C
$GAGSV,3,3,09,25,03,072,,7*4B
$GAGSV,2,1,05,08,63,337,39,13,60,308,35,15,59,167,44,07,33,260,39,1*7B
$GAGSV,2,2,05,03,29,040,34,1*4B
$GBGSV,4,1,14,39,69,213,44,38,69,028,44,16,59,207,44,06,57,207,42,1*74
$GBGSV,4,2,14,13,53,343,24,20,50,010,34,29,45,247,44,09,40,208,22,1*7E
$GBGSV,4,3,14,19,34,302,,37,33,086,44,46,30,154,37,35,19,307,,1*7F
$GBGSV,4,4,14,32,18,066,23,23,05,043,,1*79
$GBGSV,2,1,07,38,69,028,43,39,69,213,45,20,50,010,36,29,45,247,46,4*70
$GBGSV,2,2,07,37,33,086,42,46,30,154,31,32,18,066,29,4*48
$GNGGA,095632.000,2500.7811160,N,12132.4646226,E,4,50,0.50,15.896,M,15.25,M,3,3335*43
$GNRMC,095632.000,A,2500.7811160,N,12132.4646226,E,0.04,215.58,260623,,,R,V*14
$GPHDT,,T*1B
$GNGGA,095632.200,2500.7811119,N,12132.4646272,E,4,50,0.50,15.916,M,15.25,M,3,3335*47
$GNRMC,095632.200,A,2500.7811119,N,12132.4646272,E,0.00,215.58,260623,,,R,V*1D
$GPHDT,,T*1B
$GNGGA,095632.400,2500.7811113,N,12132.4646269,E,4,50,0.50,15.919,M,15.25,M,1,3335*4C
$GNRMC,095632.400,A,2500.7811113,N,12132.4646269,E,0.02,215.58,260623,,,R,V*19
$GPHDT,,T*1B
$GNGGA,095632.600,2500.7811086,N,12132.4646284,E,4,51,0.50,15.901,M,15.25,M,0,3335*49
$GNRMC,095632.600,A,2500.7811086,N,12132.4646284,E,0.01,215.58,260623,,,R,V*16
$GPHDT,,T*1B
$GNGGA,095632.800,2500.7811104,N,12132.4646286,E,4,51,0.50,15.898,M,15.25,M,0,3335*4F
$GNRMC,095632.800,A,2500.7811104,N,12132.4646286,E,0.01,215.58,260623,,,R,V*11
$GPHDT,,T*1B
$GNGSA,A,3,196,199,15,24,195,05,13,29,20,23,194,11,1.00,0.50,0.87,1*09
$GNGSA,A,3,18,,,,,,,,,,,,1.00,0.50,0.87,1*03
$GNGSA,A,3,84,85,69,79,80,,,,,,,,1.00,0.50,0.87,2*01
$GNGSA,A,3,08,13,15,07,03,,,,,,,,1.00,0.50,0.87,3*02
$GNGSA,A,3,39,38,16,06,13,20,29,37,46,32,,,1.00,0.50,0.87,4*03
$GPGSV,4,1,14,196,72,048,40,199,60,167,38,15,59,354,35,24,55,177,45,1*61
$GPGSV,4,2,14,195,50,175,43,18,43,316,18,05,40,075,44,41,38,242,34,1*56
$GPGSV,4,3,14,13,37,033,38,29,24,228,42,20,23,100,35,23,20,311,17,1*6A
$GPGSV,4,4,14,194,18,148,27,11,12,147,23,1*5C
$GPGSV,2,1,08,196,72,048,44,199,60,167,48,24,55,177,46,195,50,175,45,8*55
$GPGSV,2,2,08,18,43,316,22,23,20,311,20,194,18,148,21,11,12,147,21,8*54
$GLGSV,2,1,05,84,55,211,33,85,39,313,16,69,29,028,27,79,25,077,40,1*77
$GLGSV,2,2,05,80,23,134,31,1*40
$GAGSV,2,1,07,08,63,337,38,13,60,308,29,15,59,167,41,07,33,260,35,7*7A
$GAGSV,2,2,07,03,29,040,35,34,10,151,,25,03,072,,7*4C
$GAGSV,2,1,05,08,63,337,40,13,60,308,34,15,59,167,44,07,33,260,39,1*74
$GAGSV,2,2,05,03,29,040,34,1*4B
$GBGSV,4,1,13,39,69,213,44,38,69,028,44,16,59,207,44,06,57,207,42,1*73
$GBGSV,4,2,13,13,53,343,28,20,50,010,34,29,45,247,44,09,40,208,22,1*75
$GBGSV,4,3,13,19,34,302,,37,33,086,44,46,30,154,37,35,19,307,,1*78
$GBGSV,4,4,13,32,18,066,21,1*4F
$GBGSV,2,1,07,38,69,028,42,39,69,213,45,20,50,010,36,29,45,247,46,4*71
$GBGSV,2,2,07,37,33,086,42,46,30,154,30,32,18,066,27,4*47
$GNGGA,095633.000,2500.7811107,N,12132.4646304,E,4,51,0.50,15.887,M,15.25,M,1,3335*41
$GNRMC,095633.000,A,2500.7811107,N,12132.4646304,E,0.00,215.58,260623,,,R,V*11
$GPHDT,,T*1B
$GNGGA,095633.200,2500.7811112,N,12132.4646292,E,4,51,0.50,15.888,M,15.25,M,1,3335*46
$GNRMC,095633.200,A,2500.7811112,N,12132.4646292,E,0.00,215.58,260623,,,R,V*19
$GPHDT,,T*1B
$GNGGA,095633.400,2500.7811098,N,12132.4646304,E,4,51,0.50,15.899,M,15.25,M,1,3335*4D
$GNRMC,095633.400,A,2500.7811098,N,12132.4646304,E,0.00,215.58,260623,,,R,V*12
$GPHDT,,T*1B
$GNGGA,095633.600,2500.7811109,N,12132.4646291,E,4,51,0.50,15.891,M,15.25,M,1,3335*43
$GNRMC,095633.600,A,2500.7811109,N,12132.4646291,E,0.00,215.58,260623,,,R,V*14
$GPHDT,,T*1B
$GNGGA,095633.800,2500.7811094,N,12132.4646307,E,4,51,0.50,15.895,M,15.25,M,1,3335*42
$GNRMC,095633.800,A,2500.7811094,N,12132.4646307,E,0.00,215.58,260623,,,R,V*11
$GPHDT,,T*1B
$GNGSA,A,3,196,199,15,24,195,05,13,29,20,23,194,11,1.02,0.52,0.88,1*06
$GNGSA,A,3,18,,,,,,,,,,,,1.02,0.52,0.88,1*0C
$GNGSA,A,3,84,69,79,80,,,,,,,,,1.02,0.52,0.88,2*03
$GNGSA,A,3,08,13,15,07,03,,,,,,,,1.02,0.52,0.88,3*0D
$GNGSA,A,3,39,38,16,06,13,20,29,37,46,32,,,1.02,0.52,0.88,4*0C
$GPGSV,4,1,14,196,72,048,40,199,60,167,38,15,59,354,35,24,55,177,45,1*61
$GPGSV,4,2,14,195,50,175,43,18,43,316,18,05,40,075,44,41,38,242,32,1*50
$GPGSV,4,3,14,13,37,033,38,29,24,228,42,20,23,100,35,23,20,311,17,1*6A
$GPGSV,4,4,14,194,18,148,27,11,12,147,23,1*5C
$GPGSV,2,1,08,196,72,048,44,199,60,167,48,24,55,177,46,195,50,175,45,8*55
$GPGSV,2,2,08,18,43,316,22,23,20,311,20,194,18,148,21,11,12,147,22,8*57
$GLGSV,2,1,06,84,55,211,32,85,39,313,14,69,29,028,22,79,25,076,40,1*73
$GLGSV,2,2,06,80,23,134,32,78,03,032,,1*7D
$GAGSV,2,1,07,08,63,337,38,13,60,308,29,15,59,167,41,07,33,260,35,7*7A
$GAGSV,2,2,07,03,29,040,35,34,10,151,,25,03,072,,7*4C
$GAGSV,2,1,05,08,63,337,41,13,60,308,34,15,59,167,44,07,33,260,39,1*75
$GAGSV,2,2,05,03,29,040,34,1*4B
$GBGSV,4,1,14,39,69,213,44,38,69,028,44,16,59,207,44,06,57,207,42,1*74
$GBGSV,4,2,14,13,53,343,28,20,50,010,34,29,45,247,44,09,40,208,23,1*73
$GBGSV,4,3,14,19,34,302,,37,33,086,44,46,30,154,37,35,19,307,,1*7F
$GBGSV,4,4,14,32,18,066,21,36,02,193,,1*74
$GBGSV,2,1,07,38,69,028,42,39,69,213,45,20,50,010,37,29,45,247,46,4*70
$GBGSV,2,2,07,37,33,086,42,46,30,154,30,32,18,066,28,4*48
$GNGGA,095634.000,2500.7811073,N,12132.4646328,E,4,50,0.52,15.904,M,15.25,M,2,3335*40
$GNRMC,095634.000,A,2500.7811073,N,12132.4646328,E,0.00,215.58,260623,,,R,V*1A
$GPHDT,,T*1B
$GNGGA,095634.200,2500.7811118,N,12132.4646278,E,4,50,0.52,15.891,M,15.25,M,1,3335*44
$GNRMC,095634.200,A,2500.7811118,N,12132.4646278,E,0.00,215.58,260623,,,R,V*10
