$FW : RTK35X,V1.1X0314AS,Lib20210517,1*54
$Tool : LOCOSYS , GNSS Firebird , v1.0.0.19*39
$---------------------------------------------------*2D
$GNGGA,095421.400,2500.7810999,N,12132.4646385,E,4,54,0.49,15.949,M,15.25,M,3,3335*4F
$GNRMC,095421.400,A,2500.7810999,N,12132.4646385,E,0.00,215.58,260623,,,R,V*13
$GPHDT,,T*1B
$GNGGA,095421.600,2500.7811026,N,12132.4646403,E,4,54,0.49,15.959,M,15.25,M,3,3335*49
$GNRMC,095421.600,A,2500.7811026,N,12132.4646403,E,0.00,215.58,260623,,,R,V*14
$GPHDT,,T*1B
$GNGGA,095421.800,2500.7811003,N,12132.4646413,E,4,54,0.49,15.950,M,15.25,M,3,3335*48
$GNRMC,095421.800,A,2500.7811003,N,12132.4646413,E,0.00,215.58,260623,,,R,V*1C
$GPHDT,,T*1B
$GNGSA,A,3,196,199,15,24,195,18,05,13,29,20,194,11,0.99,0.49,0.86,1*09
$GNGSA,A,3,23,,,,,,,,,,,,0.99,0.49,0.86,1*03
$GNGSA,A,3,84,85,69,79,80,,,,,,,,0.99,0.49,0.86,2*09
$GNGSA,A,3,08,15,13,07,03,,,,,,,,0.99,0.49,0.86,3*0A
$GNGSA,A,3,38,39,16,06,13,20,29,19,37,46,32,,0.99,0.49,0.86,4*03
$GPGSV,4,1,14,196,72,048,41,199,60,167,37,15,60,352,40,24,54,177,45,1*60
$GPGSV,4,2,14,195,51,175,43,18,42,317,22,05,41,074,45,41,38,242,28,1*52
$GPGSV,4,3,14,13,38,032,39,29,24,228,31,20,23,099,40,23,19,310,16,1*68
$GPGSV,4,4,14,194,18,148,22,11,13,147,21,1*5A
$GPGSV,2,1,08,196,72,048,44,199,60,167,48,24,54,177,47,195,51,175,45,8*54
$GPGSV,2,2,08,18,42,317,25,23,19,310,17,194,18,148,23,11,13,147,26,8*58
$GLGSV,2,1,05,84,56,212,29,85,39,314,17,69,30,027,31,79,25,078,42,1*77
$GLGSV,2,2,05,80,22,135,20,1*40
$GAGSV,2,1,07,08,63,336,37,15,60,166,40,13,59,309,30,07,33,259,32,7*70
$GAGSV,2,2,07,03,30,040,37,34,10,151,,02,10,118,,7*4C
$GAGSV,2,1,05,08,63,336,38,15,60,166,45,13,59,309,33,07,33,259,40,1*78
$GAGSV,2,2,05,03,30,040,39,1*4E
$GBGSV,4,1,13,38,69,028,44,39,69,211,41,16,59,206,40,06,56,206,39,1*7D
$GBGSV,4,2,13,13,52,343,29,20,50,009,38,29,46,248,38,09,40,208,21,1*75
$GBGSV,4,3,13,19,33,301,18,37,33,087,44,46,29,155,32,35,19,308,,1*77
$GBGSV,4,4,13,32,18,065,37,1*4B
$GBGSV,2,1,08,38,69,028,45,39,69,211,42,20,50,009,42,29,46,248,39,4*73
$GBGSV,2,2,08,19,33,301,20,37,33,087,44,46,29,155,23,32,18,065,33,4*7A
$GNGGA,095422.000,2500.7811022,N,12132.4646402,E,4,54,0.49,15.958,M,15.25,M,1,3335*4A
$GNRMC,095422.000,A,2500.7811022,N,12132.4646402,E,0.00,215.58,260623,,,R,V*14
$GPHDT,,T*1B
$GNGGA,095422.200,2500.7811027,N,12132.4646432,E,4,54,0.49,15.976,M,15.25,M,1,3335*42
$GNRMC,095422.200,A,2500.7811027,N,12132.4646432,E,0.00,215.58,260623,,,R,V*10
$GPHDT,,T*1B
$GNGGA,095422.400,2500.7811028,N,12132.4646415,E,4,54,0.49,15.971,M,15.25,M,1,3335*49
$GNRMC,095422.400,A,2500.7811028,N,12132.4646415,E,0.00,215.58,260623,,,R,V*1C
$GPHDT,,T*1B
$GNGGA,095422.600,2500.7811025,N,12132.4646422,E,4,54,0.49,15.972,M,15.25,M,1,3335*41
$GNRMC,095422.600,A,2500.7811025,N,12132.4646422,E,0.00,215.58,260623,,,R,V*17
$GPHDT,,T*1B
$GNGGA,095422.800,2500.7811042,N,12132.4646394,E,4,54,0.49,15.958,M,15.25,M,1,3335*4C
$GNRMC,095422.800,A,2500.7811042,N,12132.4646394,E,0.00,215.58,260623,,,R,V*12
$GPHDT,,T*1B
$GNGSA,A,3,196,199,15,24,195,18,05,13,29,20,194,11,0.99,0.49,0.86,1*09
$GNGSA,A,3,23,,,,,,,,,,,,0.99,0.49,0.86,1*03
$GNGSA,A,3,84,85,69,79,80,,,,,,,,0.99,0.49,0.86,2*09
$GNGSA,A,3,08,15,13,07,03,,,,,,,,0.99,0.49,0.86,3*0A
$GNGSA,A,3,38,39,16,06,13,20,29,19,37,46,32,,0.99,0.49,0.86,4*03
$GPGSV,4,1,14,196,72,048,41,199,60,167,38,15,60,352,40,24,54,177,45,1*6F
$GPGSV,4,2,14,195,51,175,43,18,42,317,21,05,41,074,46,41,38,242,26,1*5C
$GPGSV,4,3,14,13,38,032,39,29,24,228,39,20,23,099,40,23,19,310,17,1*61
$GPGSV,4,4,14,194,18,148,27,11,13,147,21,1*5F
$GPGSV,2,1,08,196,72,048,44,199,60,167,48,24,54,177,47,195,51,175,45,8*54
$GPGSV,2,2,08,18,42,317,25,23,19,310,17,194,18,148,23,11,13,147,26,8*58
$GLGSV,2,1,05,84,56,212,32,85,39,314,18,69,30,027,29,79,25,078,42,1*7B
$GLGSV,2,2,05,80,22,135,22,1*42
$GAGSV,2,1,07,08,63,336,37,15,60,166,40,13,59,309,30,07,33,259,28,7*7B
$GAGSV,2,2,07,03,30,040,37,34,10,151,,02,10,118,,7*4C
$GAGSV,2,1,05,08,63,336,38,15,60,166,45,13,59,309,33,07,33,259,35,1*7A
$GAGSV,2,2,05,03,30,040,39,1*4E
$GBGSV,4,1,14,38,69,028,44,39,69,211,42,16,59,206,42,06,56,206,41,1*74
$GBGSV,4,2,14,13,52,343,29,20,50,009,38,29,46,248,42,09,40,208,22,1*7C
$GBGSV,4,3,14,19,33,301,19,37,33,087,44,46,29,155,32,35,19,308,,1*71
$GBGSV,4,4,14,32,18,065,37,07,09,201,,1*71
$GBGSV,2,1,08,38,69,028,45,39,69,211,44,20,50,009,42,29,46,248,40,4*7B
$GBGSV,2,2,08,19,33,301,17,37,33,087,44,46,29,155,23,32,18,065,33,4*7E
$GNGGA,095423.000,2500.7811021,N,12132.4646407,E,4,54,0.49,15.957,M,15.25,M,2,3335*41
$GNRMC,095423.000,A,2500.7811021,N,12132.4646407,E,0.00,215.58,260623,,,R,V*13
$GPHDT,,T*1B
$GNGGA,095423.200,2500.7811050,N,12132.4646347,E,4,54,0.49,15.944,M,15.25,M,2,3335*44
$GNRMC,095423.200,A,2500.7811050,N,12132.4646347,E,0.00,215.58,260623,,,R,V*14
$GPHDT,,T*1B
$GNGGA,095423.400,2500.7811028,N,12132.4646404,E,4,54,0.49,15.966,M,15.25,M,2,3335*4D
$GNRMC,095423.400,A,2500.7811028,N,12132.4646404,E,0.00,215.58,260623,,,R,V*1D
$GPHDT,,T*1B
$GNGGA,095423.600,2500.7811022,N,12132.4646407,E,4,54,0.49,15.975,M,15.25,M,2,3335*44
$GNRMC,095423.600,A,2500.7811022,N,12132.4646407,E,0.00,215.58,260623,,,R,V*16
$GPHDT,,T*1B
$GNGGA,095423.800,2500.7811015,N,12132.4646396,E,4,54,0.49,15.950,M,15.25,M,2,3335*46
$GNRMC,095423.800,A,2500.7811015,N,12132.4646396,E,0.00,215.58,260623,,,R,V*13
$GPHDT,,T*1B
$GNGSA,A,3,196,199,15,24,195,18,05,13,29,20,194,11,0.99,0.49,0.86,1*09
$GNGSA,A,3,23,,,,,,,,,,,,0.99,0.49,0.86,1*03
$GNGSA,A,3,84,85,69,79,80,,,,,,,,0.99,0.49,0.86,2*09
$GNGSA,A,3,08,15,13,07,03,,,,,,,,0.99,0.49,0.86,3*0A
$GNGSA,A,3,38,39,16,06,13,20,29,19,37,46,32,,0.99,0.49,0.86,4*03
$GPGSV,4,1,14,196,72,048,41,199,60,167,38,15,60,352,40,24,54,177,45,1*6F
$GPGSV,4,2,14,195,51,175,43,18,42,317,21,05,41,074,46,41,38,242,26,1*5C
$GPGSV,4,3,14,13,38,032,39,29,24,228,40,20,23,099,40,23,19,310,15,1*6D
$GPGSV,4,4,14,194,18,148,26,11,13,147,22,1*5D
$GPGSV,2,1,08,196,72,048,44,199,60,167,48,24,54,177,47,195,51,175,45,8*54
$GPGSV,2,2,08,18,42,317,25,23,19,310,15,194,18,148,22,11,13,147,26,8*5B
$GLGSV,2,1,05,84,56,212,32,85,39,314,18,69,30,027,28,79,25,078,42,1*7A
$GLGSV,2,2,05,80,22,135,22,1*42
$GAGSV,2,1,07,08,63,336,37,15,60,166,40,13,59,309,30,07,33,259,28,7*7B
$GAGSV,2,2,07,03,30,040,37,34,10,151,,02,10,118,,7*4C
$GAGSV,2,1,05,08,63,336,38,15,60,166,45,13,59,309,33,07,33,259,35,1*7A
$GAGSV,2,2,05,03,30,040,39,1*4E
$GBGSV,4,1,13,38,69,028,44,39,69,211,41,16,59,206,42,06,56,206,41,1*70
$GBGSV,4,2,13,13,52,343,28,20,50,009,38,29,46,248,42,09,40,208,20,1*78
$GBGSV,4,3,13,19,33,301,19,37,33,087,44,46,29,155,32,35,19,308,,1*76
$GBGSV,4,4,13,32,18,065,37,1*4B
$GBGSV,2,1,08,38,69,028,45,39,69,211,43,20,50,009,42,29,46,248,40,4*7C
$GBGSV,2,2,08,19,33,301,17,37,33,087,44,46,29,155,23,32,18,065,32,4*7F
$GNGGA,095424.000,2500.7811020,N,12132.4646365,E,4,54,0.49,15.943,M,15.25,M,3,3335*40
$GNRMC,095424.000,A,2500.7811020,N,12132.4646365,E,0.00,215.58,260623,,,R,V*16
$GPHDT,,T*1B
$GNGGA,095424.200,2500.7811012,N,12132.4646337,E,4,54,0.49,15.935,M,15.25,M,3,3335*45
$GNRMC,095424.200,A,2500.7811012,N,12132.4646337,E,0.00,215.58,260623,,,R,V*12
$GPHDT,,T*1B
$GNGGA,095424.400,2500.7810992,N,12132.4646244,E,4,54,0.49,15.899,M,15.25,M,3,3335*41
$GNRMC,095424.400,A,2500.7810992,N,12132.4646244,E,0.00,215.58,260623,,,R,V*11
$GPHDT,,T*1B
$GNGGA,095424.600,2500.7810978,N,12132.4646256,E,4,54,0.49,15.907,M,15.25,M,3,3335*42
$GNRMC,095424.600,A,2500.7810978,N,12132.4646256,E,0.00,215.58,260623,,,R,V*14
$GPHDT,,T*1B
$GNGGA,095424.800,2500.7811009,N,12132.4646224,E,4,54,0.49,15.897,M,15.25,M,3,3335*4F
$GNRMC,095424.800,A,2500.7811009,N,12132.4646224,E,0.00,215.58,260623,,,R,V*11
$GPHDT,,T*1B
$GNGSA,A,3,196,199,15,24,195,18,05,13,29,20,194,11,0.99,0.49,0.86,1*09
$GNGSA,A,3,23,,,,,,,,,,,,0.99,0.49,0.86,1*03
$GNGSA,A,3,84,85,69,79,80,,,,,,,,0.99,0.49,0.86,2*09
$GNGSA,A,3,08,15,13,07,03,,,,,,,,0.99,0.49,0.86,3*0A
$GNGSA,A,3,38,39,16,06,13,20,29,19,37,46,32,,0.99,0.49,0.86,4*03
$GPGSV,4,1,14,196,72,048,41,199,60,167,37,15,60,352,40,24,54,177,44,1*61
$GPGSV,4,2,14,195,51,175,43,18,42,317,21,05,41,074,46,41,38,242,30,1*5B
$GPGSV,4,3,14,13,38,032,39,29,24,228,42,20,23,099,40,23,19,310,15,1*6F
$GPGSV,4,4,14,194,18,148,25,11,13,147,22,1*5E
$GPGSV,2,1,08,196,72,048,44,199,60,167,48,24,54,177,47,195,51,175,45,8*54
$GPGSV,2,2,08,18,42,317,25,23,19,310,15,194,18,148,22,11,13,147,25,8*58
$GLGSV,2,1,05,84,56,212,33,85,39,314,18,69,30,027,28,79,25,078,42,1*7B
$GLGSV,2,2,05,80,22,135,21,1*41
$GAGSV,2,1,07,08,63,336,37,15,60,166,40,13,59,309,30,07,33,259,30,7*72
$GAGSV,2,2,07,03,30,040,37,34,10,151,,26,08,324,,7*4E
$GAGSV,2,1,05,08,63,336,38,15,60,166,45,13,59,309,33,07,33,259,38,1*77
$GAGSV,2,2,05,03,30,040,39,1*4E
$GBGSV,4,1,13,38,69,028,44,39,69,211,41,16,59,206,42,06,56,206,41,1*70
$GBGSV,4,2,13,13,52,343,27,20,50,009,38,29,46,248,43,09,40,208,19,1*7C
$GBGSV,4,3,13,19,33,301,19,37,33,087,44,46,29,155,32,35,19,308,,1*76
$GBGSV,4,4,13,32,18,065,37,1*4B
$GBGSV,2,1,08,38,69,028,45,39,69,211,43,20,50,009,42,29,46,248,40,4*7C
$GBGSV,2,2,08,19,33,301,17,37,33,087,44,46,29,155,23,32,18,065,32,4*7F
$GNGGA,095425.000,2500.7811003,N,12132.4646220,E,4,54,0.49,15.894,M,15.25,M,4,3335*4C
$GNRMC,095425.000,A,2500.7811003,N,12132.4646220,E,0.00,215.58,260623,,,R,V*16
$GPHDT,,T*1B
$GNGGA,095425.200,2500.7811002,N,12132.4646218,E,4,54,0.49,15.888,M,15.25,M,4,3335*49
$GNRMC,095425.200,A,2500.7811002,N,12132.4646218,E,0.00,215.58,260623,,,R,V*1E
$GPHDT,,T*1B
$GNGGA,095425.400,2500.7811026,N,12132.4646202,E,4,54,0.49,15.873,M,15.25,M,4,3335*46
$GNRMC,095425.400,A,2500.7811026,N,12132.4646202,E,0.00,215.58,260623,,,R,V*15
$GPHDT,314.818,T*32
$GNGGA,095425.600,2500.7811010,N,12132.4646246,E,4,54,0.49,15.893,M,15.25,M,4,3335*4F
$GNRMC,095425.600,A,2500.7811010,N,12132.4646246,E,0.00,215.58,260623,,,R,V*12
$GPHDT,314.869,T*34
$GNGGA,095425.800,2500.7811016,N,12132.4646248,E,4,54,0.49,15.907,M,15.25,M,4,3335*45
$GNRMC,095425.800,A,2500.7811016,N,12132.4646248,E,0.00,215.58,260623,,,R,V*14
$GPHDT,314.934,T*3D
$GNGSA,A,3,196,199,15,24,195,18,05,13,29,20,194,11,0.99,0.49,0.86,1*09
$GNGSA,A,3,23,,,,,,,,,,,,0.99,0.49,0.86,1*03
$GNGSA,A,3,84,85,69,79,80,,,,,,,,0.99,0.49,0.86,2*09
$GNGSA,A,3,08,15,13,07,03,,,,,,,,0.99,0.49,0.86,3*0A
$GNGSA,A,3,38,39,16,06,13,20,29,37,19,46,32,,0.99,0.49,0.86,4*03
$GPGSV,4,1,14,196,72,048,41,199,60,167,37,15,60,352,40,24,54,177,44,1*61
$GPGSV,4,2,14,195,51,175,43,18,42,317,21,05,41,074,46,13,38,032,39,1*50
$GPGSV,4,3,14,41,38,242,32,29,24,228,39,20,23,099,40,23,19,310,13,1*6C
$GPGSV,4,4,14,194,18,148,25,11,13,147,22,1*5E
$GPGSV,2,1,08,196,72,048,44,199,60,167,48,24,54,177,47,195,51,175,45,8*54
$GPGSV,2,2,08,18,42,317,25,23,19,310,15,194,18,148,22,11,13,147,25,8*58
$GLGSV,2,1,06,84,56,211,32,85,39,314,15,69,30,027,29,79,25,078,42,1*76
$GLGSV,2,2,06,80,22,135,18,71,06,269,,1*75
$GAGSV,2,1,08,08,63,336,37,15,60,166,40,13,59,309,29,07,33,259,34,7*71
$GAGSV,2,2,08,03,30,040,37,34,10,151,,26,08,324,,25,03,073,,7*71
$GAGSV,2,1,05,08,63,336,38,15,60,166,45,13,59,309,33,07,33,259,41,1*79
$GAGSV,2,2,05,03,30,040,39,1*4E
$GBGSV,4,1,13,38,69,028,44,39,69,211,41,16,59,206,42,06,56,206,41,1*70
$GBGSV,4,2,13,13,52,343,26,20,50,009,39,29,46,248,44,09,40,208,21,1*70
$GBGSV,4,3,13,37,33,087,44,19,33,301,19,46,29,155,34,35,19,308,,1*70
$GBGSV,4,4,13,32,18,065,37,1*4B
$GBGSV,2,1,08,38,69,028,45,39,69,211,43,20,50,009,42,29,46,248,42,4*7E
$GBGSV,2,2,08,19,33,301,17,37,33,087,44,46,29,155,24,32,18,065,32,4*78
$GNGGA,095426.000,2500.7811003,N,12132.4646262,E,4,54,0.49,15.901,M,15.25,M,5,3335*45
$GNRMC,095426.000,A,2500.7811003,N,12132.4646262,E,0.00,215.58,260623,,,R,V*13
$GPHDT,314.986,T*34
$GNGGA,095426.200,2500.7810992,N,12132.4646279,E,4,54,0.49,15.920,M,15.25,M,5,3335*4E
$GNRMC,095426.200,A,2500.7810992,N,12132.4646279,E,0.00,215.58,260623,,,R,V*1B
$GPHDT,314.864,T*39
$GNGGA,095426.400,2500.7810979,N,12132.4646287,E,4,54,0.49,15.912,M,15.25,M,5,3335*4D
$GNRMC,095426.400,A,2500.7810979,N,12132.4646287,E,0.00,215.58,260623,,,R,V*19
$GPHDT,314.988,T*3A
$GNGGA,095426.600,2500.7810992,N,12132.4646274,E,4,54,0.49,15.907,M,15.25,M,5,3335*42
$GNRMC,095426.600,A,2500.7810992,N,12132.4646274,E,0.00,215.58,260623,,,R,V*12
$GPHDT,314.886,T*35
$GNGGA,095426.800,2500.7810987,N,12132.4646277,E,4,54,0.49,15.904,M,15.25,M,5,3335*48
$GNRMC,095426.800,A,2500.7810987,N,12132.4646277,E,0.00,215.58,260623,,,R,V*1B
$GPHDT,314.743,T*33
$GNGSA,A,3,196,199,15,24,195,18,05,13,29,20,194,11,0.99,0.49,0.86,1*09
$GNGSA,A,3,23,,,,,,,,,,,,0.99,0.49,0.86,1*03
$GNGSA,A,3,84,85,69,79,80,,,,,,,,0.99,0.49,0.86,2*09
$GNGSA,A,3,08,15,13,07,03,,,,,,,,0.99,0.49,0.86,3*0A
$GNGSA,A,3,39,38,16,06,13,20,29,19,37,46,32,,0.99,0.49,0.86,4*03
$GPGSV,4,1,14,196,72,048,41,199,60,167,37,15,60,352,40,24,54,177,44,1*61
$GPGSV,4,2,14,195,51,175,43,18,42,317,22,05,41,074,46,41,38,242,32,1*5A
$GPGSV,4,3,14,13,38,032,39,29,24,228,38,20,23,099,40,23,19,310,14,1*63
$GPGSV,4,4,14,194,18,148,25,11,13,147,23,1*5F
$GPGSV,2,1,08,196,72,048,44,199,60,167,48,24,54,177,47,195,51,175,45,8*54
$GPGSV,2,2,08,18,42,317,25,23,19,310,13,194,18,148,20,11,13,147,25,8*5C
$GLGSV,2,1,05,84,56,211,32,85,39,314,14,69,30,027,30,79,25,078,42,1*7C
$GLGSV,2,2,05,80,22,135,19,1*4A
$GAGSV,2,1,08,08,63,336,37,15,60,166,40,13,59,309,29,07,33,259,34,7*71
$GAGSV,2,2,08,03,30,040,37,34,10,151,,26,08,324,,25,03,073,,7*71
$GAGSV,2,1,05,08,63,336,38,15,60,166,45,13,59,309,34,07,33,259,41,1*7E
$GAGSV,2,2,05,03,30,040,39,1*4E
$GBGSV,3,1,12,39,69,211,41,38,69,028,44,16,59,206,42,06,56,206,41,1*76
$GBGSV,3,2,12,13,52,343,27,20,50,009,39,29,46,248,44,09,40,208,21,1*77
$GBGSV,3,3,12,19,33,301,20,37,33,087,44,46,29,155,34,32,18,065,37,1*76
$GBGSV,2,1,08,38,69,028,45,39,69,211,43,20,50,009,42,29,46,248,43,4*7F
$GBGSV,2,2,08,19,33,301,17,37,33,087,44,46,29,155,24,32,18,065,33,4*79
$GNGGA,095427.000,2500.7810971,N,12132.4646282,E,4,54,0.49,15.908,M,15.25,M,6,3335*4D
$GNRMC,095427.000,A,2500.7810971,N,12132.4646282,E,0.00,215.58,260623,,,R,V*11
$GPHDT,314.724,T*32
$GNGGA,095427.200,2500.7810963,N,12132.4646273,E,4,54,0.49,15.905,M,15.25,M,6,3335*4F
$GNRMC,095427.200,A,2500.7810963,N,12132.4646273,E,0.00,215.58,260623,,,R,V*1E
$GPHDT,314.895,T*37
$GNGGA,095427.400,2500.7810984,N,12132.4646263,E,4,54,0.49,15.903,M,15.25,M,4,3335*45
$GNRMC,095427.400,A,2500.7810984,N,12132.4646263,E,0.00,215.58,260623,,,R,V*10
$GPHDT,314.936,T*3F
$GNGGA,095427.600,2500.7811025,N,12132.4646226,E,4,54,0.49,15.884,M,15.25,M,2,3335*4D
$GNRMC,095427.600,A,2500.7811025,N,12132.4646226,E,0.00,215.58,260623,,,R,V*10
$GPHDT,314.812,T*38
$GNGGA,095427.800,2500.7811046,N,12132.4646228,E,4,54,0.49,15.884,M,15.25,M,2,3335*48
$GNRMC,095427.800,A,2500.7811046,N,12132.4646228,E,0.00,215.58,260623,,,R,V*15
$GPHDT,315.002,T*30
$GNGSA,A,3,196,199,15,24,195,18,05,13,29,20,194,11,0.99,0.49,0.86,1*09
$GNGSA,A,3,23,,,,,,,,,,,,0.99,0.49,0.86,1*03
$GNGSA,A,3,84,85,69,79,80,,,,,,,,0.99,0.49,0.86,2*09
$GNGSA,A,3,08,15,13,07,03,,,,,,,,0.99,0.49,0.86,3*0A
$GNGSA,A,3,39,38,16,06,13,20,29,19,37,46,32,,0.99,0.49,0.86,4*03
$GPGSV,4,1,14,196,72,048,41,199,60,167,37,15,60,352,40,24,54,177,44,1*61
$GPGSV,4,2,14,195,51,175,43,18,42,317,22,05,41,074,46,41,38,242,31,1*59
$GPGSV,4,3,14,13,38,032,39,29,24,228,42,20,23,099,40,23,19,310,16,1*6C
$GPGSV,4,4,14,194,18,148,24,11,13,147,22,1*5F
$GPGSV,2,1,08,196,72,048,44,199,60,167,48,24,54,177,47,195,51,175,45,8*54
$GPGSV,2,2,08,18,42,317,26,23,19,310,13,194,18,148,20,11,13,147,23,8*59
$GLGSV,2,1,05,84,56,211,32,85,39,314,15,69,30,027,30,79,25,078,42,1*7D
$GLGSV,2,2,05,80,22,135,19,1*4A
$GAGSV,2,1,08,08,63,336,37,15,60,166,40,13,59,309,30,07,33,259,33,7*7E
$GAGSV,2,2,08,03,30,040,37,34,10,151,,26,08,324,,25,03,073,,7*71
$GAGSV,2,1,05,08,63,336,38,15,60,166,45,13,59,309,34,07,33,259,41,1*7E
$GAGSV,2,2,05,03,30,040,39,1*4E
$GBGSV,4,1,13,39,69,211,41,38,69,028,44,16,59,206,42,06,57,207,41,1*70
$GBGSV,4,2,13,13,52,343,27,20,50,009,39,29,46,248,44,09,40,208,20,1*70
$GBGSV,4,3,13,19,33,301,20,37,33,087,44,46,29,155,33,35,19,308,,1*7D
$GBGSV,4,4,13,32,18,065,35,1*49
$GBGSV,2,1,08,38,69,028,45,39,69,211,43,20,50,009,42,29,46,248,43,4*7F
$GBGSV,2,2,08,19,33,301,17,37,33,087,44,46,29,155,24,32,18,065,33,4*79
$GNGGA,095428.000,2500.7810999,N,12132.4646243,E,4,54,0.49,15.919,M,15.25,M,1,3335*4E
$GNRMC,095428.000,A,2500.7810999,N,12132.4646243,E,0.00,215.58,260623,,,R,V*15
$GPHDT,314.826,T*3F
$GNGGA,095428.200,2500.7811004,N,12132.4646232,E,4,54,0.49,15.906,M,15.25,M,1,3335*48
$GNRMC,095428.200,A,2500.7811004,N,12132.4646232,E,0.00,215.58,260623,,,R,V*1D
$GPHDT,314.935,T*3C
$GNGGA,095428.400,2500.7811000,N,12132.4646230,E,4,54,0.49,15.911,M,15.25,M,1,3335*4E
$GNRMC,095428.400,A,2500.7811000,N,12132.4646230,E,0.00,215.58,260623,,,R,V*1D
$GPHDT,314.945,T*3B
$GNGGA,095428.600,2500.7810989,N,12132.4646244,E,4,54,0.49,15.915,M,15.25,M,1,3335*42
$GNRMC,095428.600,A,2500.7810989,N,12132.4646244,E,0.00,215.58,260623,,,R,V*15
$GPHDT,314.865,T*38
$GNGGA,095428.800,2500.7811002,N,12132.4646226,E,4,54,0.49,15.909,M,15.25,M,1,3335*4E
$GNRMC,095428.800,A,2500.7811002,N,12132.4646226,E,0.00,215.58,260623,,,R,V*14
$GPHDT,314.880,T*33
$GNGSA,A,3,196,199,15,24,195,18,05,13,29,20,194,11,1.00,0.50,0.86,1*00
$GNGSA,A,3,23,,,,,,,,,,,,1.00,0.50,0.86,1*0A
$GNGSA,A,3,84,69,79,80,,,,,,,,,1.00,0.50,0.86,2*0D
$GNGSA,A,3,08,15,13,07,03,,,,,,,,1.00,0.50,0.86,3*03
$GNGSA,A,3,39,38,16,06,13,20,29,19,37,46,32,,1.00,0.50,0.86,4*0A
$GPGSV,4,1,14,196,72,048,41,199,60,167,37,15,60,352,40,24,54,177,44,1*61
$GPGSV,4,2,14,195,51,175,43,18,42,317,22,05,41,074,46,41,38,242,31,1*59
$GPGSV,4,3,14,13,38,032,37,29,24,228,42,20,23,099,40,23,19,310,17,1*63
$GPGSV,4,4,14,194,18,148,24,11,13,147,21,1*5C
$GPGSV,2,1,08,196,72,048,44,199,60,167,48,24,54,177,47,195,51,175,45,8*54
$GPGSV,2,2,08,18,42,317,25,23,19,310,12,194,18,148,20,11,13,147,22,8*5A
$GLGSV,2,1,05,84,56,211,32,85,39,314,15,69,30,027,29,79,25,078,42,1*75
$GLGSV,2,2,05,80,22,135,18,1*4B
$GAGSV,2,1,08,08,63,336,37,15,60,166,40,13,59,309,30,07,33,259,33,7*7E
$GAGSV,2,2,08,03,30,040,37,34,10,151,,26,08,324,,25,03,073,,7*71
$GAGSV,2,1,05,08,63,336,38,15,60,166,45,13,59,309,34,07,33,259,41,1*7E
$GAGSV,2,2,05,03,30,040,39,1*4E
$GBGSV,4,1,13,39,69,211,41,38,69,028,44,16,59,206,42,06,57,207,41,1*70
$GBGSV,4,2,13,13,52,343,27,20,50,009,39,29,46,248,44,09,40,208,18,1*7B
$GBGSV,4,3,13,19,33,301,20,37,33,087,44,46,29,155,32,35,19,308,,1*7C
$GBGSV,4,4,13,32,18,065,35,1*49
$GBGSV,2,1,08,38,69,028,45,39,69,211,43,20,50,009,42,29,46,248,43,4*7F
$GBGSV,2,2,08,19,33,301,17,37,33,087,44,46,29,155,24,32,18,065,33,4*79
$GNGGA,095429.000,2500.7810989,N,12132.4646226,E,4,53,0.50,15.911,M,15.25,M,2,3335*49
$GNRMC,095429.000,A,2500.7810989,N,12132.4646226,E,0.00,215.58,260623,,,R,V*16
$GPHDT,314.803,T*38
$GNGGA,095429.200,2500.7810985,N,12132.4646250,E,4,53,0.50,15.903,M,15.25,M,2,3335*45
$GNRMC,095429.200,A,2500.7810985,N,12132.4646250,E,0.00,215.58,260623,,,R,V*19
$GPHDT,315.009,T*3B
$GNGGA,095429.400,2500.7810981,N,12132.4646248,E,4,53,0.50,15.909,M,15.25,M,2,3335*44
$GNRMC,095429.400,A,2500.7810981,N,12132.4646248,E,0.00,215.58,260623,,,R,V*12
$GPHDT,315.154,T*32
$GNGGA,095429.600,2500.7810994,N,12132.4646265,E,4,53,0.50,15.912,M,15.25,M,2,3335*47
$GNRMC,095429.600,A,2500.7810994,N,12132.4646265,E,0.00,215.58,260623,,,R,V*1B
$GPHDT,314.594,T*3B
$GNGGA,095429.800,2500.7810966,N,12132.4646284,E,4,53,0.50,15.917,M,15.25,M,2,3335*4E
$GNRMC,095429.800,A,2500.7810966,N,12132.4646284,E,0.00,215.58,260623,,,R,V*17
$GPHDT,315.060,T*34
$GNGSA,A,3,196,199,15,24,195,18,05,13,29,20,23,194,1.00,0.50,0.86,1*01
$GNGSA,A,3,11,,,,,,,,,,,,1.00,0.50,0.86,1*0B
$GNGSA,A,3,84,69,79,80,,,,,,,,,1.00,0.50,0.86,2*0D
$GNGSA,A,3,08,15,13,07,03,,,,,,,,1.00,0.50,0.86,3*03
$GNGSA,A,3,39,38,16,06,13,20,29,19,37,46,32,,1.00,0.50,0.86,4*0A
$GPGSV,4,1,14,196,72,048,41,199,60,167,37,15,60,352,41,24,54,177,44,1*60
$GPGSV,4,2,14,195,51,175,43,18,42,317,22,05,41,074,46,41,38,242,28,1*51
$GPGSV,4,3,14,13,38,032,36,29,24,228,41,20,23,099,40,23,19,310,17,1*61
$GPGSV,4,4,14,194,18,148,23,11,13,147,21,1*5B
$GPGSV,2,1,08,196,72,048,44,199,60,167,48,24,54,177,47,195,51,175,45,8*54
$GPGSV,2,2,08,18,42,317,25,23,19,310,12,194,18,148,20,11,13,147,22,8*5A
$GLGSV,2,1,05,84,56,211,32,85,39,314,17,69,30,027,28,79,25,078,42,1*76
$GLGSV,2,2,05,80,22,135,16,1*45
$GAGSV,2,1,08,08,63,336,37,15,60,166,40,13,59,309,29,07,33,259,30,7*75
$GAGSV,2,2,08,03,30,040,37,34,10,151,,26,08,324,,25,03,073,,7*71
$GAGSV,2,1,05,08,63,336,38,15,60,166,45,13,59,309,34,07,33,259,37,1*7F
$GAGSV,2,2,05,03,30,040,39,1*4E
$GBGSV,4,1,13,39,69,211,42,38,69,028,44,16,59,206,42,06,57,207,41,1*73
$GBGSV,4,2,13,13,52,343,27,20,50,009,39,29,46,248,43,09,40,208,18,1*7C
$GBGSV,4,3,13,19,33,301,21,37,33,087,44,46,29,155,32,35,19,308,,1*7D
$GBGSV,4,4,13,32,18,065,35,1*49
$GBGSV,2,1,08,38,69,028,45,39,69,211,43,20,50,009,42,29,46,248,41,4*7D
$GBGSV,2,2,08,19,33,301,17,37,33,087,44,46,29,155,25,32,18,065,33,4*78
$GNGGA,095430.000,2500.7810971,N,12132.4646277,E,4,54,0.50,15.917,M,15.25,M,3,3335*42
$GNRMC,095430.000,A,2500.7810971,N,12132.4646277,E,0.00,215.58,260623,,,R,V*1D
$PAIR010,0,1,2268,122088*35
$GPHDT,314.826,T*3F
$GNGGA,095430.200,2500.7810981,N,12132.4646265,E,4,54,0.50,15.907,M,15.25,M,3,3335*4D
$GNRMC,095430.200,A,2500.7810981,N,12132.4646265,E,0.00,215.58,260623,,,R,V*13
$GPHDT,314.492,T*3C
$GNGGA,095430.400,2500.7811024,N,12132.4646238,E,4,55,0.49,15.897,M,15.25,M,3,3335*45
$GNRMC,095430.400,A,2500.7811024,N,12132.4646238,E,0.00,215.58,260623,,,R,V*1A
$GPHDT,314.971,T*3C
$GNGGA,095430.600,2500.7810980,N,12132.4646261,E,4,55,0.49,15.910,M,15.25,M,3,3335*43
$GNRMC,095430.600,A,2500.7810980,N,12132.4646261,E,0.00,215.58,260623,,,R,V*12
$GPHDT,314.855,T*3B
$GNGGA,095430.800,2500.7810991,N,12132.4646252,E,4,55,0.49,15.910,M,15.25,M,3,3335*4D
$GNRMC,095430.800,A,2500.7810991,N,12132.4646252,E,0.00,215.58,260623,,,R,V*1C
$GPHDT,314.946,T*38
$GNGSA,A,3,196,199,15,24,195,18,05,13,29,20,23,194,0.99,0.49,0.86,1*08
$GNGSA,A,3,11,,,,,,,,,,,,0.99,0.49,0.86,1*02
$GNGSA,A,3,84,85,69,79,80,,,,,,,,0.99,0.49,0.86,2*09
$GNGSA,A,3,08,15,13,07,03,,,,,,,,0.99,0.49,0.86,3*0A
$GNGSA,A,3,39,38,16,06,13,20,29,37,19,46,32,,0.99,0.49,0.86,4*03
$GPGSV,4,1,14,196,72,048,41,199,60,167,37,15,60,352,41,24,54,177,44,1*60
$GPGSV,4,2,14,195,51,175,43,18,42,317,23,05,41,074,46,13,38,032,35,1*5E
$GPGSV,4,3,14,41,38,242,27,29,24,228,41,20,23,099,40,23,19,310,17,1*63
$GPGSV,4,4,14,194,18,148,22,11,13,147,21,1*5A
$GPGSV,2,1,08,196,72,048,44,199,60,167,48,24,54,177,47,195,51,175,45,8*54
$GPGSV,2,2,08,18,42,317,25,23,19,310,11,194,18,148,19,11,13,147,22,8*53
$GLGSV,2,1,05,84,56,211,32,85,39,314,17,69,30,027,28,79,25,078,42,1*76
$GLGSV,2,2,05,80,22,135,15,1*46
$GAGSV,3,1,09,08,63,336,37,15,60,166,40,13,59,309,29,07,33,259,27,7*73
$GAGSV,3,2,09,03,30,040,37,34,10,151,,26,08,324,,30,03,166,,7*70
$GAGSV,3,3,09,25,03,073,,7*4A
$GAGSV,2,1,05,08,63,336,38,15,60,166,45,13,59,309,34,07,33,259,36,1*7E
$GAGSV,2,2,05,03,30,040,39,1*4E
$GBGSV,4,1,13,39,69,211,42,38,69,028,44,16,59,206,42,06,57,207,40,1*72
$GBGSV,4,2,13,13,52,343,26,20,50,009,39,29,46,248,43,09,40,208,17,1*72
$GBGSV,4,3,13,37,33,087,44,19,33,301,23,46,29,155,32,35,19,308,,1*7F
$GBGSV,4,4,13,32,18,065,35,1*49
$GBGSV,2,1,08,38,69,028,45,39,69,211,43,20,50,009,42,29,46,248,41,4*7D
$GBGSV,2,2,08,19,33,301,16,37,33,087,44,46,29,155,25,32,18,065,33,4*79
$GNGGA,095431.000,2500.7810980,N,12132.4646249,E,4,55,0.49,15.908,M,15.25,M,4,3335*40
$GNRMC,095431.000,A,2500.7810980,N,12132.4646249,E,0.00,215.58,260623,,,R,V*1F
$GPHDT,314.912,T*39
$GNGGA,095431.200,2500.7811005,N,12132.4646258,E,4,55,0.49,15.916,M,15.25,M,4,3335*48
$GNRMC,095431.200,A,2500.7811005,N,12132.4646258,E,0.00,215.58,260623,,,R,V*18
$GPHDT,314.860,T*3D
$GNGGA,095431.400,2500.7810977,N,12132.4646287,E,4,55,0.49,15.920,M,15.25,M,4,3335*44
$GNRMC,095431.400,A,2500.7810977,N,12132.4646287,E,0.00,215.58,260623,,,R,V*11
$GPHDT,314.689,T*34
$GNGGA,095431.600,2500.7811007,N,12132.4646256,E,4,55,0.49,15.920,M,15.25,M,4,3335*45
$GNRMC,095431.600,A,2500.7811007,N,12132.4646256,E,0.00,215.58,260623,,,R,V*10
$GPHDT,314.391,T*38
