$FW : RTK35X,V1.1X0314AS,Lib20210517,1*54
$Tool : LOCOSYS , GNSS Firebird , v1.0.0.19*39
$---------------------------------------------------*2D
71,M,15.25,M,3,3335*42
$GNRMC,095350.800,A,2500.7811064,N,12132.4646199,E,0.01,215.58,260623,,,R,V*1A
$GPHDT,357.980,T*35
$GNGSA,A,3,196,15,199,24,195,18,05,13,29,20,194,11,1.09,0.53,0.95,1*08
$GNGSA,A,3,84,69,79,80,,,,,,,,,1.09,0.53,0.95,2*05
$GNGSA,A,3,08,15,13,07,03,,,,,,,,1.09,0.53,0.95,3*0B
$GNGSA,A,3,38,39,16,06,13,20,29,37,46,32,19,,1.09,0.53,0.95,4*02
$GPGSV,4,1,14,196,72,048,41,15,60,352,40,199,60,167,37,24,53,177,44,1*66
$GPGSV,4,2,14,195,51,175,44,18,42,317,19,05,41,074,45,13,39,032,39,1*5E
$GPGSV,4,3,14,41,38,242,30,29,24,229,40,20,23,099,41,23,19,310,18,1*6B
$GPGSV,4,4,14,194,18,148,21,11,14,146,16,1*5B
$GPGSV,2,1,07,196,72,048,44,199,60,167,48,24,53,177,46,195,51,175,44,8*5C
$GPGSV,2,2,07,18,42,317,25,194,18,148,26,11,14,146,25,8*6A
$GLGSV,2,1,06,84,57,212,32,85,39,314,13,70,35,309,,69,30,027,28,1*78
$GLGSV,2,2,06,79,25,078,43,80,22,135,24,1*76
$GAGSV,2,1,08,08,64,335,37,15,60,166,42,13,59,310,27,07,33,259,33,7*76
$GAGSV,2,2,08,03,30,040,38,34,10,151,,02,09,119,,30,03,166,,7*74
$GAGSV,2,1,05,08,64,335,39,15,60,166,44,13,59,310,27,07,33,259,35,1*73
$GAGSV,2,2,05,03,30,040,36,1*41
$GBGSV,4,1,14,38,69,027,43,39,69,211,42,16,59,206,42,06,56,206,41,1*7C
$GBGSV,4,2,14,13,52,343,29,20,50,008,38,29,46,249,31,09,40,208,23,1*79
$GBGSV,4,3,14,19,33,300,12,37,33,088,45,46,29,155,35,30,24,184,24,1*79
$GBGSV,4,4,14,35,19,308,,32,18,065,39,1*77
$GBGSV,3,1,09,38,69,027,45,39,69,211,43,20,50,008,40,29,46,249,37,4*71
$GBGSV,3,2,09,19,33,300,19,37,33,088,43,46,29,155,28,30,24,184,13,4*73
$GBGSV,3,3,09,32,18,065,29,4*4A
$GNGGA,095351.000,2500.7811050,N,12132.4646204,E,4,50,0.53,15.872,M,15.25,M,4,3335*4F
$GNRMC,095351.000,A,2500.7811050,N,12132.4646204,E,0.01,215.58,260623,,,R,V*13
$GPHDT,357.933,T*3D
$GNGGA,095351.200,2500.7811043,N,12132.4646202,E,4,49,0.53,15.860,M,15.25,M,4,3335*42
$GNRMC,095351.200,A,2500.7811043,N,12132.4646202,E,0.01,215.58,260623,,,R,V*15
$GPHDT,357.783,T*38
$GNGGA,095351.400,2500.7811056,N,12132.4646209,E,4,50,0.53,15.872,M,15.25,M,4,3335*40
$GNRMC,095351.400,A,2500.7811056,N,12132.4646209,E,0.01,215.58,260623,,,R,V*1C
$GPHDT,357.677,T*32
$GNGGA,095351.600,2500.7811032,N,12132.4646227,E,4,50,0.53,15.881,M,15.25,M,4,3335*40
$GNRMC,095351.600,A,2500.7811032,N,12132.4646227,E,0.01,215.58,260623,,,R,V*10
$GPHDT,357.830,T*3F
$GNGGA,095351.800,2500.7811051,N,12132.4646221,E,4,49,0.53,15.881,M,15.25,M,4,3335*45
$GNRMC,095351.800,A,2500.7811051,N,12132.4646221,E,0.01,215.58,260623,,,R,V*1D
$GPHDT,358.026,T*3F
$GNGSA,A,3,196,15,199,24,195,18,05,13,29,20,194,11,1.09,0.53,0.95,1*08
$GNGSA,A,3,84,69,79,80,,,,,,,,,1.09,0.53,0.95,2*05
$GNGSA,A,3,08,15,13,07,03,,,,,,,,1.09,0.53,0.95,3*0B
$GNGSA,A,3,38,39,16,06,13,20,29,37,46,32,19,,1.09,0.53,0.95,4*02
$GPGSV,4,1,14,196,72,048,41,15,60,352,40,199,60,167,38,24,53,177,44,1*69
$GPGSV,4,2,14,195,51,175,44,18,42,317,19,05,41,074,45,13,39,032,39,1*5E
$GPGSV,4,3,14,41,38,242,28,29,24,229,40,20,23,099,41,23,19,310,18,1*62
$GPGSV,4,4,14,194,18,148,20,11,14,146,16,1*5A
$GPGSV,2,1,07,196,72,048,44,199,60,167,48,24,53,177,46,195,51,175,44,8*5C
$GPGSV,2,2,07,18,42,317,24,194,18,148,26,11,14,146,25,8*6B
$GLGSV,2,1,05,84,57,212,33,85,39,314,12,69,30,027,28,79,25,078,43,1*71
$GLGSV,2,2,05,80,22,135,23,1*43
$GAGSV,2,1,08,08,64,335,37,15,60,166,42,13,59,310,24,07,33,259,34,7*72
$GAGSV,2,2,08,03,30,040,38,34,10,151,,02,09,119,,30,03,166,,7*74
$GAGSV,2,1,05,08,64,335,40,15,60,166,45,13,59,310,28,07,33,259,35,1*73
$GAGSV,2,2,05,03,30,040,36,1*41
$GBGSV,4,1,14,38,69,027,43,39,69,211,43,16,59,206,42,06,56,206,41,1*7D
$GBGSV,4,2,14,13,52,343,29,20,50,008,38,29,46,249,33,09,40,208,23,1*7B
$GBGSV,4,3,14,19,33,300,17,37,33,088,45,46,29,155,35,30,24,184,24,1*7C
$GBGSV,4,4,14,35,19,308,,32,18,065,38,1*76
$GBGSV,3,1,09,38,69,027,45,39,69,211,44,20,50,008,40,29,46,249,37,4*76
$GBGSV,3,2,09,19,33,300,19,37,33,088,43,46,29,155,23,30,24,184,11,4*7A
$GBGSV,3,3,09,32,18,065,28,4*4B
$GNGGA,095352.000,2500.7811051,N,12132.4646219,E,4,50,0.53,15.873,M,15.25,M,5,3335*41
$GNRMC,095352.000,A,2500.7811051,N,12132.4646219,E,0.01,215.58,260623,,,R,V*1D
$GPHDT,358.149,T*37
$GNGGA,095352.200,2500.7811032,N,12132.4646228,E,4,50,0.53,15.876,M,15.25,M,5,3335*41
$GNRMC,095352.200,A,2500.7811032,N,12132.4646228,E,0.01,215.58,260623,,,R,V*18
$GPHDT,357.881,T*35
$GNGGA,095352.400,2500.7811056,N,12132.4646232,E,4,49,0.53,15.879,M,15.25,M,5,3335*49
$GNRMC,095352.400,A,2500.7811056,N,12132.4646232,E,0.01,215.58,260623,,,R,V*17
$GPHDT,357.515,T*35
$GNGGA,095352.600,2500.7811066,N,12132.4646219,E,4,50,0.53,15.871,M,15.25,M,1,3335*45
$GNRMC,095352.600,A,2500.7811066,N,12132.4646219,E,0.00,215.58,260623,,,R,V*1E
$GPHDT,358.675,T*3F
$GNGGA,095352.800,2500.7811047,N,12132.4646245,E,4,50,0.53,15.875,M,15.25,M,0,3335*44
$GNRMC,095352.800,A,2500.7811047,N,12132.4646245,E,0.00,215.58,260623,,,R,V*1A
$GPHDT,359.400,T*3E
$GNGSA,A,3,196,15,199,24,195,18,05,13,29,20,11,194,1.09,0.53,0.95,1*08
$GNGSA,A,3,84,69,79,80,,,,,,,,,1.09,0.53,0.95,2*05
$GNGSA,A,3,08,15,13,07,03,,,,,,,,1.09,0.53,0.95,3*0B
$GNGSA,A,3,38,39,16,06,13,20,29,37,46,32,19,,1.09,0.53,0.95,4*02
$GPGSV,4,1,14,196,72,048,41,15,60,352,40,199,60,167,38,24,53,177,44,1*69
$GPGSV,4,2,14,195,51,175,44,18,42,317,21,05,41,074,45,13,39,032,39,1*55
$GPGSV,4,3,14,41,38,242,31,29,24,229,41,20,23,099,41,23,19,310,17,1*64
$GPGSV,4,4,14,194,18,148,19,11,14,146,14,1*52
$GPGSV,2,1,07,196,72,048,44,199,60,167,48,24,53,177,46,195,51,175,44,8*5C
$GPGSV,2,2,07,18,42,317,25,194,18,148,26,11,14,146,26,8*69
$GLGSV,2,1,05,84,56,212,33,85,39,314,12,69,30,027,28,79,25,078,43,1*70
$GLGSV,2,2,05,80,22,135,25,1*45
$GAGSV,2,1,08,08,64,335,36,15,60,166,42,13,59,310,21,07,33,259,30,7*72
$GAGSV,2,2,08,03,30,040,38,34,10,151,,02,09,119,,30,03,166,,7*74
$GAGSV,2,1,05,08,64,335,39,15,60,166,45,13,59,310,31,07,33,259,34,1*74
$GAGSV,2,2,05,03,30,040,37,1*40
$GBGSV,4,1,14,38,69,027,43,39,69,211,41,16,59,206,42,06,56,206,41,1*7F
$GBGSV,4,2,14,13,52,343,29,20,50,008,38,29,46,249,36,09,40,208,21,1*7C
$GBGSV,4,3,14,19,33,300,18,37,33,088,45,46,29,155,36,30,24,184,21,1*75
$GBGSV,4,4,14,35,19,308,,32,18,065,38,1*76
$GBGSV,2,1,08,38,69,027,45,39,69,211,44,20,50,008,40,29,46,249,41,4*77
$GBGSV,2,2,08,19,33,300,19,37,33,088,43,46,29,155,21,32,18,065,28,4*71
$GNGGA,095353.000,2500.7811024,N,12132.4646284,E,4,50,0.53,15.890,M,15.25,M,1,3335*4F
$GNRMC,095353.000,A,2500.7811024,N,12132.4646284,E,0.01,215.58,260623,,,R,V*1A
$GPHDT,358.695,T*31
$GNGGA,095353.200,2500.7811054,N,12132.4646268,E,4,51,0.53,15.890,M,15.25,M,1,3335*49
$GNRMC,095353.200,A,2500.7811054,N,12132.4646268,E,0.01,215.58,260623,,,R,V*1D
$GPHDT,358.889,T*32
$GNGGA,095353.400,2500.7811050,N,12132.4646245,E,4,51,0.53,15.894,M,15.25,M,1,3335*40
$GNRMC,095353.400,A,2500.7811050,N,12132.4646245,E,0.01,215.58,260623,,,R,V*10
$GPHDT,359.222,T*38
$GNGGA,095353.600,2500.7811065,N,12132.4646222,E,4,51,0.53,15.875,M,15.25,M,1,3335*4A
$GNRMC,095353.600,A,2500.7811065,N,12132.4646222,E,0.01,215.58,260623,,,R,V*15
$GPHDT,358.814,T*36
$GNGGA,095353.800,2500.7811022,N,12132.4646261,E,4,51,0.53,15.897,M,15.25,M,1,3335*4C
$GNRMC,095353.800,A,2500.7811022,N,12132.4646261,E,0.00,215.58,260623,,,R,V*1E
$GPHDT,358.655,T*3D
$GNGSA,A,3,196,15,199,24,195,18,05,13,29,20,11,194,1.09,0.53,0.95,1*08
$GNGSA,A,3,84,69,79,80,,,,,,,,,1.09,0.53,0.95,2*05
$GNGSA,A,3,08,15,13,07,03,,,,,,,,1.09,0.53,0.95,3*0B
$GNGSA,A,3,38,39,16,06,13,20,29,19,37,46,32,,1.09,0.53,0.95,4*02
$GPGSV,4,1,14,196,72,048,41,15,60,352,40,199,60,167,38,24,53,177,44,1*69
$GPGSV,4,2,14,195,51,175,44,18,42,317,20,05,41,074,45,13,39,032,39,1*54
$GPGSV,4,3,14,41,38,242,32,29,24,229,40,20,23,099,41,23,19,310,17,1*66
$GPGSV,4,4,14,194,18,148,18,11,14,146,16,1*51
$GPGSV,2,1,07,196,72,048,44,199,60,167,48,24,53,177,46,195,51,175,44,8*5C
$GPGSV,2,2,07,18,42,317,25,194,18,148,26,11,14,146,27,8*68
$GLGSV,2,1,05,84,56,212,33,85,39,314,15,69,30,027,25,79,25,078,43,1*7A
$GLGSV,2,2,05,80,22,135,25,1*45
$GAGSV,2,1,08,08,64,335,36,15,60,166,42,13,59,310,21,07,33,259,31,7*73
$GAGSV,2,2,08,03,30,040,38,34,10,151,,02,09,119,,30,03,166,,7*74
$GAGSV,2,1,05,08,64,335,39,15,60,166,45,13,59,310,32,07,33,259,35,1*76
$GAGSV,2,2,05,03,30,040,37,1*40
$GBGSV,4,1,14,38,69,027,43,39,69,211,41,16,59,206,42,06,56,206,41,1*7F
$GBGSV,4,2,14,13,52,343,29,20,50,008,38,29,46,249,40,09,40,208,22,1*7E
$GBGSV,4,3,14,19,33,300,20,37,33,088,45,46,29,155,36,30,24,184,20,1*7F
$GBGSV,4,4,14,35,19,308,,32,18,065,39,1*77
$GBGSV,2,1,08,38,69,027,45,39,69,211,43,20,50,008,41,29,46,249,43,4*73
$GBGSV,2,2,08,19,33,300,20,37,33,088,43,46,29,155,20,32,18,065,28,4*7A
$GNGGA,095354.000,2500.7811065,N,12132.4646231,E,4,51,0.53,15.888,M,15.25,M,2,3335*48
$GNRMC,095354.000,A,2500.7811065,N,12132.4646231,E,0.00,215.58,260623,,,R,V*17
$GPHDT,358.529,T*35
$GNGGA,095354.200,2500.7811034,N,12132.4646262,E,4,51,0.53,15.890,M,15.25,M,2,3335*41
$GNRMC,095354.200,A,2500.7811034,N,12132.4646262,E,0.00,215.58,260623,,,R,V*17
$GPHDT,358.675,T*3F
$GNGGA,095354.400,2500.7811049,N,12132.4646240,E,4,51,0.53,15.882,M,15.25,M,2,3335*4E
$GNRMC,095354.400,A,2500.7811049,N,12132.4646240,E,0.01,215.58,260623,,,R,V*1A
$GPHDT,359.034,T*3D
$GNGGA,095354.600,2500.7811039,N,12132.4646237,E,4,52,0.53,15.889,M,15.25,M,2,3335*43
$GNRMC,095354.600,A,2500.7811039,N,12132.4646237,E,0.01,215.58,260623,,,R,V*1F
$GPHDT,359.279,T*36
$GNGGA,095354.800,2500.7811064,N,12132.4646256,E,4,52,0.53,15.885,M,15.25,M,2,3335*4E
$GNRMC,095354.800,A,2500.7811064,N,12132.4646256,E,0.01,215.58,260623,,,R,V*1E
$GPHDT,359.222,T*38
$GNGSA,A,3,196,15,199,24,195,18,05,13,29,20,194,11,1.09,0.53,0.95,1*08
$GNGSA,A,3,84,69,79,80,,,,,,,,,1.09,0.53,0.95,2*05
$GNGSA,A,3,08,15,13,07,03,,,,,,,,1.09,0.53,0.95,3*0B
$GNGSA,A,3,38,39,16,06,13,20,29,19,37,46,32,,1.09,0.53,0.95,4*02
$GPGSV,4,1,14,196,72,048,41,15,60,352,40,199,60,167,38,24,53,177,44,1*69
$GPGSV,4,2,14,195,51,175,44,18,42,317,20,05,41,074,45,13,39,032,39,1*54
$GPGSV,4,3,14,41,38,242,34,29,24,229,40,20,23,099,41,23,19,310,17,1*60
$GPGSV,4,4,14,194,18,148,19,11,14,146,14,1*52
$GPGSV,2,1,07,196,72,048,44,199,60,167,48,24,53,177,46,195,51,175,44,8*5C
$GPGSV,2,2,07,18,42,317,26,194,18,148,26,11,14,146,27,8*6B
$GLGSV,2,1,05,84,56,212,31,85,39,314,15,69,30,027,23,79,25,078,43,1*7E
$GLGSV,2,2,05,80,22,135,27,1*47
$GAGSV,2,1,07,08,64,335,36,15,60,166,42,13,59,310,21,07,33,259,34,7*79
$GAGSV,2,2,07,03,30,040,38,34,10,151,,02,09,119,,7*4A
$GAGSV,2,1,05,08,64,335,39,15,60,166,45,13,59,310,32,07,33,259,37,1*74
$GAGSV,2,2,05,03,30,040,37,1*40
$GBGSV,4,1,15,38,69,027,43,39,69,211,43,16,59,206,42,06,56,206,41,1*7C
$GBGSV,4,2,15,13,52,343,29,20,50,008,37,29,46,249,41,09,40,208,21,1*72
$GBGSV,4,3,15,19,33,300,19,37,33,088,45,46,29,155,36,30,24,184,18,1*7F
$GBGSV,4,4,15,35,19,308,,32,18,065,39,07,09,201,,1*4B
$GBGSV,2,1,08,38,69,027,45,39,69,211,43,20,50,008,41,29,46,249,43,4*73
$GBGSV,2,2,08,19,33,300,21,37,33,088,43,46,29,155,20,32,18,065,29,4*7A
$GNGGA,095355.000,2500.7811079,N,12132.4646230,E,4,52,0.53,15.878,M,15.25,M,3,3335*48
$GNRMC,095355.000,A,2500.7811079,N,12132.4646230,E,0.01,215.58,260623,,,R,V*1B
$GPHDT,359.125,T*3C
$GNGGA,095355.200,2500.7811069,N,12132.4646226,E,4,51,0.53,15.879,M,15.25,M,3,3335*4E
$GNRMC,095355.200,A,2500.7811069,N,12132.4646226,E,0.01,215.58,260623,,,R,V*1F
$GPHDT,358.879,T*3D
$GNGGA,095355.400,2500.7811074,N,12132.4646233,E,4,50,0.53,15.870,M,15.25,M,3,3335*48
$GNRMC,095355.400,A,2500.7811074,N,12132.4646233,E,0.01,215.58,260623,,,R,V*11
$GPHDT,358.973,T*36
$GNGGA,095355.600,2500.7811082,N,12132.4646206,E,4,50,0.53,15.873,M,15.25,M,3,3335*46
$GNRMC,095355.600,A,2500.7811082,N,12132.4646206,E,0.01,215.58,260623,,,R,V*1C
$GPHDT,359.327,T*3C
$GNGGA,095355.800,2500.7811063,N,12132.4646223,E,4,51,0.50,15.871,M,15.25,M,3,3335*40
$GNRMC,095355.800,A,2500.7811063,N,12132.4646223,E,0.01,215.58,260623,,,R,V*1A
$GPHDT,359.039,T*30
$GNGSA,A,3,196,199,15,24,195,18,05,13,29,20,23,194,0.99,0.50,0.86,1*00
$GNGSA,A,3,11,,,,,,,,,,,,0.99,0.50,0.86,1*0A
$GNGSA,A,3,84,69,79,80,,,,,,,,,0.99,0.50,0.86,2*0C
$GNGSA,A,3,08,15,13,07,03,,,,,,,,0.99,0.50,0.86,3*02
$GNGSA,A,3,38,39,16,06,13,20,29,19,37,46,32,,0.99,0.50,0.86,4*0B
$GPGSV,4,1,14,196,72,048,41,199,60,167,38,15,60,352,40,24,53,177,44,1*69
$GPGSV,4,2,14,195,51,175,44,18,42,317,21,05,41,074,45,13,39,032,39,1*55
$GPGSV,4,3,14,41,38,242,31,29,24,229,33,20,23,099,41,23,19,310,18,1*6E
$GPGSV,4,4,14,194,18,148,19,11,14,146,17,1*51
$GPGSV,2,1,07,196,72,048,44,199,60,167,48,24,53,177,46,195,51,175,44,8*5C
$GPGSV,2,2,07,18,42,317,26,194,18,148,26,11,14,146,26,8*6A
$GLGSV,2,1,05,84,56,212,31,85,39,314,15,69,30,027,19,79,25,078,43,1*77
$GLGSV,2,2,05,80,22,135,28,1*48
$GAGSV,2,1,08,08,64,335,36,15,60,166,42,13,59,310,24,07,33,259,36,7*71
$GAGSV,2,2,08,03,30,040,38,34,10,151,,02,09,119,,26,08,324,,7*7C
$GAGSV,2,1,05,08,64,335,38,15,60,166,45,13,59,310,32,07,33,259,39,1*7B
$GAGSV,2,2,05,03,30,040,37,1*40
$GBGSV,4,1,15,38,69,027,43,39,69,211,43,16,59,206,42,06,56,206,41,1*7C
$GBGSV,4,2,15,13,52,343,29,20,50,008,37,29,46,249,42,09,40,208,19,1*7A
$GBGSV,4,3,15,19,33,300,18,37,33,088,45,46,29,155,36,30,24,184,18,1*7E
$GBGSV,4,4,15,35,19,308,,32,18,065,39,10,09,212,,1*4F
$GBGSV,2,1,08,38,69,027,45,39,69,211,43,20,50,008,41,29,46,249,43,4*73
$GBGSV,2,2,08,19,33,300,21,37,33,088,43,46,29,155,22,32,18,065,29,4*78
$GNGGA,095356.000,2500.7811030,N,12132.4646324,E,4,51,0.50,15.904,M,15.25,M,3,3335*48
$GNRMC,095356.000,A,2500.7811030,N,12132.4646324,E,0.01,215.58,260623,,,R,V*11
$GPHDT,359.012,T*39
$GNGGA,095356.200,2500.7811077,N,12132.4646305,E,4,51,0.50,15.898,M,15.25,M,1,3335*4C
$GNRMC,095356.200,A,2500.7811077,N,12132.4646305,E,0.01,215.58,260623,,,R,V*13
$GPHDT,359.367,T*38
$GNGGA,095356.400,2500.7811050,N,12132.4646295,E,4,52,0.50,15.900,M,15.25,M,1,3335*44
$GNRMC,095356.400,A,2500.7811050,N,12132.4646295,E,0.01,215.58,260623,,,R,V*18
$GPHDT,359.447,T*3D
$GNGGA,095356.600,2500.7811073,N,12132.4646308,E,4,52,0.50,15.898,M,15.25,M,1,3335*42
$GNRMC,095356.600,A,2500.7811073,N,12132.4646308,E,0.01,215.58,260623,,,R,V*1E
$GPHDT,0.515,T*34
$GNGGA,095356.800,2500.7811067,N,12132.4646310,E,4,52,0.50,15.901,M,15.25,M,1,3335*41
$GNRMC,095356.800,A,2500.7811067,N,12132.4646310,E,0.01,215.58,260623,,,R,V*1C
$GPHDT,0.244,T*37
$GNGSA,A,3,196,199,15,24,195,18,05,13,29,20,23,11,0.99,0.50,0.86,1*3C
$GNGSA,A,3,194,,,,,,,,,,,,0.99,0.50,0.86,1*36
$GNGSA,A,3,84,69,79,80,,,,,,,,,0.99,0.50,0.86,2*0C
$GNGSA,A,3,08,15,13,07,03,,,,,,,,0.99,0.50,0.86,3*02
$GNGSA,A,3,38,39,16,06,13,20,29,19,37,46,32,,0.99,0.50,0.86,4*0B
$GPGSV,4,1,14,196,72,048,41,199,60,167,38,15,60,352,40,24,53,177,44,1*69
$GPGSV,4,2,14,195,51,175,44,18,42,317,22,05,41,074,45,13,39,032,39,1*56
$GPGSV,4,3,14,41,38,242,31,29,24,229,36,20,23,099,41,23,19,310,20,1*60
$GPGSV,4,4,14,194,18,148,18,11,14,146,18,1*5F
$GPGSV,2,1,07,196,72,048,44,199,60,167,48,24,53,177,46,195,51,175,44,8*5C
$GPGSV,2,2,07,18,42,317,26,194,18,148,25,11,14,146,26,8*69
$GLGSV,2,1,05,84,56,212,32,85,39,314,17,69,30,027,17,79,25,078,43,1*78
$GLGSV,2,2,05,80,22,135,28,1*48
$GAGSV,2,1,08,08,64,335,36,15,60,166,42,13,59,310,24,07,33,259,37,7*70
$GAGSV,2,2,08,03,30,040,38,34,10,151,,02,09,119,,26,08,324,,7*7C
$GAGSV,2,1,05,08,64,335,38,15,60,166,45,13,59,310,32,07,33,259,41,1*74
$GAGSV,2,2,05,03,30,040,37,1*40
$GBGSV,4,1,15,38,69,027,43,39,69,211,42,16,59,206,42,06,56,206,41,1*7D
$GBGSV,4,2,15,13,52,343,29,20,50,008,37,29,46,249,43,09,40,208,19,1*7B
$GBGSV,4,3,15,19,33,300,18,37,33,088,45,46,29,155,36,30,24,184,17,1*71
$GBGSV,4,4,15,35,19,308,,32,18,065,39,10,09,212,,1*4F
$GBGSV,2,1,08,38,69,027,45,39,69,211,43,20,50,008,41,29,46,249,43,4*73
$GBGSV,2,2,08,19,33,300,22,37,33,088,43,46,29,155,22,32,18,065,29,4*7B
$GNGGA,095357.000,2500.7811050,N,12132.4646308,E,4,52,0.50,15.908,M,15.25,M,2,3335*4F
$GNRMC,095357.000,A,2500.7811050,N,12132.4646308,E,0.01,215.58,260623,,,R,V*18
$GPHDT,359.768,T*33
$GNGGA,095357.200,2500.7811044,N,12132.4646305,E,4,52,0.50,15.914,M,15.25,M,2,3335*48
$GNRMC,095357.200,A,2500.7811044,N,12132.4646305,E,0.02,215.58,260623,,,R,V*11
$GPHDT,0.240,T*33
$GNGGA,095357.400,2500.7811058,N,12132.4646314,E,4,52,0.50,15.910,M,15.25,M,2,3335*47
$GNRMC,095357.400,A,2500.7811058,N,12132.4646314,E,0.01,215.58,260623,,,R,V*19
$GPHDT,359.109,T*32
$GNGGA,095357.600,2500.7811030,N,12132.4646313,E,4,52,0.50,15.908,M,15.25,M,2,3335*45
$GNRMC,095357.600,A,2500.7811030,N,12132.4646313,E,0.01,215.58,260623,,,R,V*12
$GPHDT,359.178,T*34
$GNGGA,095357.800,2500.7811023,N,12132.4646297,E,4,52,0.50,15.917,M,15.25,M,2,3335*4A
$GNRMC,095357.800,A,2500.7811023,N,12132.4646297,E,0.02,215.58,260623,,,R,V*10
$GPHDT,358.781,T*35
$GNGSA,A,3,196,15,199,24,195,18,05,13,29,20,23,11,0.99,0.50,0.86,1*3C
$GNGSA,A,3,194,,,,,,,,,,,,0.99,0.50,0.86,1*36
$GNGSA,A,3,84,69,79,80,,,,,,,,,0.99,0.50,0.86,2*0C
$GNGSA,A,3,08,15,13,07,03,,,,,,,,0.99,0.50,0.86,3*02
$GNGSA,A,3,39,38,16,06,13,20,29,19,37,46,32,,0.99,0.50,0.86,4*0B
$GPGSV,4,1,14,196,72,048,41,15,60,352,40,199,60,167,38,24,53,177,44,1*69
$GPGSV,4,2,14,195,51,175,44,18,42,317,23,05,41,074,45,13,39,032,37,1*59
$GPGSV,4,3,14,41,38,242,29,29,24,229,35,20,23,099,41,23,19,310,21,1*6B
$GPGSV,4,4,14,194,18,148,18,11,14,146,17,1*50
$GPGSV,2,1,07,196,72,048,44,199,60,167,48,24,53,177,45,195,51,175,44,8*5F
$GPGSV,2,2,07,18,42,317,26,194,18,148,24,11,14,146,26,8*68
$GLGSV,2,1,06,84,56,212,32,85,39,314,15,69,30,027,19,79,25,078,43,1*77
$GLGSV,2,2,06,80,22,135,29,71,06,269,,1*77
$GAGSV,2,1,08,08,64,335,36,15,60,166,42,13,59,310,24,07,33,259,38,7*7F
$GAGSV,2,2,08,03,30,040,38,34,10,151,,02,09,119,,26,08,324,,7*7C
$GAGSV,2,1,05,08,64,335,38,15,60,166,45,13,59,310,32,07,33,259,41,1*74
$GAGSV,2,2,05,03,30,040,37,1*40
$GBGSV,4,1,15,39,69,211,43,38,69,027,43,16,59,206,41,06,56,206,40,1*7E
$GBGSV,4,2,15,13,52,343,29,20,50,009,37,29,46,249,42,09,40,208,19,1*7B
$GBGSV,4,3,15,19,33,301,18,37,33,088,45,46,29,155,36,30,24,184,15,1*72
$GBGSV,4,4,15,35,19,308,,32,18,065,39,10,09,212,,1*4F
$GBGSV,2,1,08,38,69,027,45,39,69,211,43,20,50,009,41,29,46,249,43,4*72
$GBGSV,2,2,08,19,33,301,21,37,33,088,43,46,29,155,22,32,18,065,29,4*79
$GNGGA,095358.000,2500.7811056,N,12132.4646291,E,4,52,0.50,15.898,M,15.25,M,3,3335*4E
$GNRMC,095358.000,A,2500.7811056,N,12132.4646291,E,0.02,215.58,260623,,,R,V*13
$GPHDT,358.680,T*35
$GNGGA,095358.200,2500.7811049,N,12132.4646307,E,4,53,0.49,15.907,M,15.25,M,3,3335*42
$GNRMC,095358.200,A,2500.7811049,N,12132.4646307,E,0.02,215.58,260623,,,R,V*11
$GPHDT,359.220,T*3A
$GNGGA,095358.400,2500.7811032,N,12132.4646335,E,4,53,0.49,15.919,M,15.25,M,3,3335*46
$GNRMC,095358.400,A,2500.7811032,N,12132.4646335,E,0.02,215.58,260623,,,R,V*1A
$GPHDT,358.754,T*3D
$GNGGA,095358.600,2500.7811075,N,12132.4646228,E,4,53,0.49,15.878,M,15.25,M,3,3335*4C
$GNRMC,095358.600,A,2500.7811075,N,12132.4646228,E,0.02,215.58,260623,,,R,V*16
$GPHDT,358.080,T*33
$GNGGA,095358.800,2500.7811075,N,12132.4646248,E,4,53,0.49,15.892,M,15.25,M,3,3335*40
$GNRMC,095358.800,A,2500.7811075,N,12132.4646248,E,0.01,215.58,260623,,,R,V*1D
$GPHDT,358.951,T*36
$GNGSA,A,3,196,199,15,24,195,18,05,13,29,20,23,11,0.99,0.49,0.86,1*34
$GNGSA,A,3,194,,,,,,,,,,,,0.99,0.49,0.86,1*3E
$GNGSA,A,3,84,85,69,79,80,,,,,,,,0.99,0.49,0.86,2*09
$GNGSA,A,3,08,15,13,07,03,,,,,,,,0.99,0.49,0.86,3*0A
$GNGSA,A,3,38,39,16,06,13,20,29,19,37,46,32,,0.99,0.49,0.86,4*03
$GPGSV,4,1,14,196,72,048,41,199,60,167,38,15,60,352,40,24,53,177,44,1*69
$GPGSV,4,2,14,195,51,175,44,18,42,317,24,05,41,074,45,13,39,032,36,1*5F
$GPGSV,4,3,14,41,38,242,28,29,24,229,38,20,23,099,41,23,19,310,21,1*67
$GPGSV,4,4,14,194,18,148,17,11,14,146,17,1*5F
$GPGSV,2,1,07,196,72,048,44,199,60,167,48,24,53,177,45,195,51,175,44,8*5F
$GPGSV,2,2,07,18,42,317,26,194,18,148,25,11,14,146,26,8*69
$GLGSV,2,1,05,84,56,212,32,85,39,314,13,69,30,027,22,79,25,078,43,1*7A
$GLGSV,2,2,05,80,22,135,28,1*48
$GAGSV,2,1,08,08,64,335,36,15,60,166,42,13,59,310,24,07,33,259,32,7*75
$GAGSV,2,2,08,03,30,040,38,34,10,151,,02,09,119,,26,08,324,,7*7C
$GAGSV,2,1,05,08,64,335,38,15,60,166,45,13,59,310,32,07,33,259,36,1*74
$GAGSV,2,2,05,03,30,040,37,1*40
$GBGSV,4,1,15,38,69,027,43,39,69,211,42,16,59,206,41,06,56,206,40,1*7F
$GBGSV,4,2,15,13,52,343,28,20,50,009,37,29,46,249,42,09,40,208,17,1*74
$GBGSV,4,3,15,19,33,301,18,37,33,088,45,46,29,155,36,30,24,184,14,1*73
$GBGSV,4,4,15,35,19,308,,32,18,065,39,10,09,212,,1*4F
$GBGSV,2,1,08,38,69,027,45,39,69,211,43,20,50,009,41,29,46,249,42,4*73
$GBGSV,2,2,08,19,33,301,21,37,33,088,43,46,29,155,23,32,18,065,29,4*78
$GNGGA,095359.000,2500.7811085,N,12132.4646242,E,4,53,0.49,15.887,M,15.25,M,4,3335*4F
$GNRMC,095359.000,A,2500.7811085,N,12132.4646242,E,0.00,215.58,260623,,,R,V*10
$GPHDT,358.085,T*36
$GNGGA,095359.200,2500.7811080,N,12132.4646279,E,4,53,0.49,15.889,M,15.25,M,4,3335*4E
$GNRMC,095359.200,A,2500.7811080,N,12132.4646279,E,0.00,215.58,260623,,,R,V*1F
$GPHDT,357.743,T*34
$GNGGA,095359.400,2500.7811042,N,12132.4646290,E,4,53,0.49,15.895,M,15.25,M,4,3335*4C
$GNRMC,095359.400,A,2500.7811042,N,12132.4646290,E,0.00,215.58,260623,,,R,V*10
$GPHDT,358.149,T*37
$GNGGA,095359.600,2500.7811033,N,12132.4646227,E,4,53,0.49,15.879,M,15.25,M,2,3335*40
$GNRMC,095359.600,A,2500.7811033,N,12132.4646227,E,0.00,215.58,260623,,,R,V*18
$GPHDT,358.319,T*30
$GNGGA,095359.800,2500.7811091,N,12132.4646238,E,4,53,0.49,15.884,M,15.25,M,0,3335*48
$GNRMC,095359.800,A,2500.7811091,N,12132.4646238,E,0.00,215.58,260623,,,R,V*10
$GPHDT,357.912,T*3E
$GNGSA,A,3,196,15,199,24,195,18,05,13,29,20,23,194,0.99,0.49,0.86,1*08
$GNGSA,A,3,11,,,,,,,,,,,,0.99,0.49,0.86,1*02
$GNGSA,A,3,84,85,69,79,80,,,,,,,,0.99,0.49,0.86,2*09
$GNGSA,A,3,08,15,13,07,03,,,,,,,,0.99,0.49,0.86,3*0A
$GNGSA,A,3,38,39,16,06,13,20,29,19,37,46,32,,0.99,0.49,0.86,4*03
$GPGSV,4,1,14,196,72,048,41,15,60,352,40,199,60,167,38,24,53,177,44,1*69
$GPGSV,4,2,14,195,51,175,44,18,42,317,24,05,41,074,45,13,39,032,35,1*5C
$GPGSV,4,3,14,41,38,242,31,29,24,229,41,20,23,099,41,23,19,310,20,1*60
$GPGSV,4,4,14,194,18,148,20,11,14,146,18,1*54
$GPGSV,2,1,07,196,72,048,44,199,60,167,48,24,53,177,46,195,51,175,44,8*5C
$GPGSV,2,2,07,18,42,317,26,194,18,148,26,11,14,146,26,8*6A
$GLGSV,2,1,05,84,56,212,32,85,39,314,14,69,30,027,23,79,25,078,43,1*7C
$GLGSV,2,2,05,80,22,135,28,1*48
$GAGSV,3,1,09,08,64,335,36,15,60,166,42,13,59,310,23,07,33,259,32,7*72
$GAGSV,3,2,09,03,30,040,38,34,10,151,,02,09,119,,26,08,324,,7*7C
$GAGSV,3,3,09,25,03,073,,7*4A
$GAGSV,2,1,05,08,64,335,39,15,60,166,45,13,59,310,32,07,33,259,34,1*77
$GAGSV,2,2,05,03,30,040,37,1*40
$GBGSV,4,1,15,38,69,027,43,39,69,211,42,16,59,206,41,06,56,206,40,1*7F
$GBGSV,4,2,15,13,52,343,28,20,50,009,37,29,46,248,37,09,40,208,17,1*77
$GBGSV,4,3,15,19,33,301,18,37,33,088,45,46,29,155,36,30,24,184,14,1*73
$GBGSV,4,4,15,35,19,308,,32,18,065,39,10,09,212,,1*4F
$GBGSV,3,1,09,38,69,027,45,39,69,211,44,20,50,009,41,29,46,248,39,4*79
$GBGSV,3,2,09,19,33,301,21,37,33,088,43,46,29,155,22,30,24,184,18,4*78
$GBGSV,3,3,09,32,18,065,31,4*43
$GNGGA,095400.000,2500.7811039,N,12132.4646279,E,4,54,0.49,15.890,M,15.25,M,1,3335*4F
$GNRMC,095400.000,A,2500.7811039,N,12132.4646279,E,0.00,215.58,260623,,,R,V*14
$GPHDT,358.680,T*35
$GNGGA,095400.200,2500.7811085,N,12132.4646254,E,4,53,0.49,15.897,M,15.25,M,1,3335*45
$GNRMC,095400.200,A,2500.7811085,N,12132.4646254,E,0.00,215.58,260623,,,R,V*1E
$GPHDT,358.923,T*33
$GNGGA,095400.400,2500.7811106,N,12132.4646193,E,4,53,0.49,15.868,M,15.25,M,1,3335*41
$GNRMC,095400.400,A,2500.7811106,N,12132.4646193,E,0.00,215.58,260623,,,R,V*1A
$GPHDT,358.679,T*33
$GNGGA,095400.600,2500.7811074,N,12132.4646261,E,4,53,0.49,15.884,M,15.25,M,1,3335*4B
$GNRMC,095400.600,A,2500.7811074,N,12132.4646261,E,0.00,215.58,260623,,,R,V*12
$GPHDT,358.163,T*3F
$GNGGA,095400.800,2500.7811126,N,12132.4646237,E,4,52,0.50,15.877,M,15.25,M,1,3335*45
$GNRMC,095400.800,A,2500.7811126,N,12132.4646237,E,0.00,215.58,260623,,,R,V*19
$GPHDT,358.431,T*3D
$GNGSA,A,3,196,15,199,24,195,18,05,13,29,20,23,11,0.99,0.50,0.86,1*3C
$GNGSA,A,3,194,,,,,,,,,,,,0.99,0.50,0.86,1*36
$GNGSA,A,3,84,69,79,80,,,,,,,,,0.99,0.50,0.86,2*0C
$GNGSA,A,3,08,15,13,07,03,,,,,,,,0.99,0.50,0.86,3*02
$GNGSA,A,3,38,39,16,06,13,20,29,19,37,46,32,,0.99,0.50,0.86,4*0B
$GPGSV,4,1,14,196,72,048,41,15,60,352,41,199,60,167,38,24,53,177,44,1*68
$GPGSV,4,2,14,195,51,175,44,18,42,317,24,05,41,074,46,13,39,032,36,1*5C
$GPGSV,4,3,14,41,38,242,35,29,24,229,41,20,23,099,40,23,19,310,21,1*64
$GPGSV,4,4,14,194,18,148,20,11,14,146,17,1*5B
$GPGSV,2,1,07,196,72,048,44,199,60,167,48,24,53,177,46,195,51,175,44,8*5C
$GPGSV,2,2,07,18,42,317,24,194,18,148,26,11,14,146,27,8*69
$GLGSV,2,1,05,84,56,212,32,85,39,314,17,69,30,027,24,79,25,078,43,1*78
$GLGSV,2,2,05,80,22,135,26,1*46
$GAGSV,3,1,09,08,64,335,36,15,60,166,42,13,59,310,21,07,33,259,35,7*77
$GAGSV,3,2,09,03,30,040,38,34,10,151,,26,08,324,,30,03,166,,7*7F
$GAGSV,3,3,09,25,03,073,,7*4A
$GAGSV,2,1,05,08,64,335,39,15,60,166,44,13,59,310,28,07,33,259,35,1*7C
$GAGSV,2,2,05,03,30,040,36,1*41
$GBGSV,4,1,14,38,69,027,43,39,69,211,42,16,59,206,41,06,56,206,40,1*7E
$GBGSV,4,2,14,13,52,343,28,20,50,009,37,29,46,248,43,09,40,208,19,1*7B
$GBGSV,4,3,14,19,33,301,19,37,33,087,44,46,29,155,35,30,24,184,14,1*7E
$GBGSV,4,4,14,35,19,308,,32,18,065,39,1*77
$GBGSV,2,1,08,38,69,027,45,39,69,211,44,20,50,009,41,29,46,248,41,4*76
$GBGSV,2,2,08,19,33,301,18,37,33,087,42,46,29,155,23,32,18,065,30,4*74
$GNGGA,095401.000,2500.7811084,N,12132.4646246,E,4,52,0.50,15.887,M,15.25,M,2,3335*4F
$GNRMC,095401.000,A,2500.7811084,N,12132.4646246,E,0.00,215.58,260623,,,R,V*1F
$GPHDT,358.572,T*3B
$GNGGA,095401.200,2500.7811061,N,12132.4646253,E,4,52,0.50,15.887,M,15.25,M,2,3335*42
$GNRMC,095401.200,A,2500.7811061,N,12132.4646253,E,0.00,215.58,260623,,,R,V*12
$GPHDT,358.735,T*3A
$GNGGA,095401.400,2500.7811077,N,12132.4646257,E,4,53,0.50,15.891,M,15.25,M,2,3335*41
$GNRMC,095401.400,A,2500.7811077,N,12132.4646257,E,0.00,215.58,260623,,,R,V*17
$GPHDT,357.857,T*3E
