$FW : RTK35X,V1.1X0314AS,Lib20210517,1*54
$Tool : LOCOSYS , GNSS Firebird , v1.0.0.19*39
$---------------------------------------------------*2D
$GNGGA,034335.800,2500.8089132,N,12132.4350539,E,2,63,0.45,19.075,M,15.25,M,37,3335*74
$GNRMC,034335.800,A,2500.8089132,N,12132.4350539,E,0.00,238.77,270623,,,D,V*0E
$GPHDT,135.964,T*39
$GNGSA,A,3,195,19,17,196,199,06,194,09,20,11,14,04,0.84,0.45,0.71,1*06
$GNGSA,A,3,12,03,,,,,,,,,,,0.84,0.45,0.71,1*0A
$GNGSA,A,3,68,67,82,83,80,73,,,,,,,0.84,0.45,0.71,2*0B
$GNGSA,A,3,24,10,12,11,19,04,25,33,,,,,0.84,0.45,0.71,3*07
$GNGSA,A,3,40,07,10,33,14,08,43,13,42,28,11,34,0.84,0.45,0.71,4*0E
$GPGSV,4,1,15,195,67,042,40,19,65,017,41,17,64,072,42,196,63,128,39,1*6E
$GPGSV,4,2,15,50,60,167,39,199,60,167,36,06,50,338,43,194,41,171,43,1*68
$GPGSV,4,3,15,09,32,107,31,20,28,230,24,11,27,284,32,14,27,177,43,1*68
$GPGSV,4,4,15,04,21,074,27,12,12,318,26,03,10,038,29,1*5D
$GPGSV,3,1,09,195,67,042,45,196,63,128,45,199,60,167,46,06,50,338,46,8*50
$GPGSV,3,2,09,194,41,171,46,09,32,107,42,14,27,177,46,11,27,284,28,8*53
$GPGSV,3,3,09,04,21,074,36,8*55
$GLGSV,2,1,08,68,48,149,43,67,47,063,43,82,37,036,42,83,33,339,30,1*76
$GLGSV,2,2,08,80,25,231,16,73,23,291,29,66,07,028,29,79,01,187,,1*7B
$GAGSV,2,1,08,24,52,244,33,10,49,333,41,12,48,013,37,11,34,299,15,7*79
$GAGSV,2,2,08,19,31,087,36,04,27,154,40,25,25,308,29,33,15,063,37,7*7B
$GAGSV,2,1,08,24,52,244,36,10,49,333,45,12,48,013,42,11,34,299,24,1*7E
$GAGSV,2,2,08,19,31,087,38,04,27,154,41,25,25,308,31,33,15,063,40,1*7B
$GBGSV,4,1,16,40,83,125,41,07,81,249,39,10,72,291,41,33,62,150,44,1*78
$GBGSV,4,2,16,14,61,085,45,08,58,268,40,43,53,053,43,13,49,257,38,1*70
$GBGSV,4,3,16,42,41,054,41,28,37,323,47,11,33,079,41,41,21,197,,1*7C
$GBGSV,4,4,16,23,19,222,,34,18,096,31,37,17,274,,06,01,189,,1*7D
$GBGSV,2,1,06,40,83,125,45,33,62,150,46,43,53,053,44,42,41,054,46,4*7B
$GBGSV,2,2,06,28,37,323,43,34,18,096,35,4*79
$GNGGA,034336.000,2500.8089192,N,12132.4350419,E,2,63,0.45,19.079,M,15.25,M,38,3335*75
$GNRMC,034336.000,A,2500.8089192,N,12132.4350419,E,0.00,238.77,270623,,,D,V*0C
$GPHDT,136.025,T*36
$GNGGA,034336.200,2500.8089192,N,12132.4350359,E,2,63,0.45,19.085,M,15.25,M,38,3335*77
$GNRMC,034336.200,A,2500.8089192,N,12132.4350359,E,0.00,238.77,270623,,,D,V*0D
$GPHDT,136.083,T*3A
$GNGGA,034336.400,2500.8089252,N,12132.4350299,E,2,63,0.45,19.089,M,15.25,M,38,3335*7F
$GNRMC,034336.400,A,2500.8089252,N,12132.4350299,E,0.00,238.77,270623,,,D,V*09
$GPHDT,136.127,T*35
$GNGGA,034336.600,2500.8089312,N,12132.4350239,E,2,63,0.45,19.089,M,15.25,M,38,3335*72
$GNRMC,034336.600,A,2500.8089312,N,12132.4350239,E,0.00,238.77,270623,,,D,V*04
$GPHDT,135.863,T*3F
$GNGGA,034336.800,2500.8089372,N,12132.4350179,E,2,63,0.45,19.088,M,15.25,M,38,3335*7C
$GNRMC,034336.800,A,2500.8089372,N,12132.4350179,E,0.00,238.77,270623,,,D,V*0B
$GPHDT,136.033,T*31
$GNGSA,A,3,195,19,17,196,199,06,194,09,20,14,11,04,0.84,0.45,0.71,1*06
$GNGSA,A,3,12,03,,,,,,,,,,,0.84,0.45,0.71,1*0A
$GNGSA,A,3,68,67,82,83,80,73,,,,,,,0.84,0.45,0.71,2*0B
$GNGSA,A,3,24,10,12,11,19,04,25,33,,,,,0.84,0.45,0.71,3*07
$GNGSA,A,3,40,07,10,33,14,08,43,13,42,28,11,34,0.84,0.45,0.71,4*0E
$GPGSV,4,1,15,195,67,042,40,19,65,017,41,17,64,072,42,196,63,128,39,1*6E
$GPGSV,4,2,15,50,60,167,39,199,60,167,36,06,50,338,43,194,41,171,43,1*68
$GPGSV,4,3,15,09,32,107,30,20,28,230,20,14,27,177,43,11,27,284,32,1*6D
$GPGSV,4,4,15,04,21,074,29,12,12,318,25,03,10,038,27,1*5E
$GPGSV,3,1,09,195,67,042,45,196,63,128,45,199,60,167,46,06,50,338,46,8*50
$GPGSV,3,2,09,194,41,171,46,09,32,107,42,14,27,177,46,11,27,284,28,8*53
$GPGSV,3,3,09,04,21,074,37,8*54
$GLGSV,2,1,08,68,48,149,43,67,47,063,43,82,37,036,42,83,33,339,30,1*76
$GLGSV,2,2,08,80,25,231,16,73,23,291,29,66,07,028,28,79,01,187,,1*7A
$GAGSV,2,1,08,24,52,244,33,10,49,333,41,12,48,013,37,11,34,299,15,7*79
$GAGSV,2,2,08,19,31,087,36,04,27,154,40,25,25,308,29,33,15,063,37,7*7B
$GAGSV,2,1,08,24,52,244,35,10,49,333,45,12,48,013,42,11,34,299,23,1*7A
$GAGSV,2,2,08,19,31,087,38,04,27,154,41,25,25,308,31,33,15,063,40,1*7B
$GBGSV,4,1,15,40,83,125,41,07,81,249,39,10,72,291,41,33,62,150,44,1*7B
$GBGSV,4,2,15,14,61,085,45,08,58,268,40,43,53,053,43,13,49,257,38,1*73
$GBGSV,4,3,15,42,41,054,41,28,37,323,47,11,33,079,41,41,21,197,,1*7F
$GBGSV,4,4,15,23,19,222,,34,18,096,31,37,17,274,,1*49
$GBGSV,2,1,06,40,83,125,45,33,62,150,46,43,53,053,44,42,41,054,46,4*7B
$GBGSV,2,2,06,28,37,323,43,34,18,096,34,4*78
$GNGGA,034337.000,2500.8089372,N,12132.4350119,E,2,63,0.45,19.089,M,15.25,M,39,3335*73
$GNRMC,034337.000,A,2500.8089372,N,12132.4350119,E,0.00,238.77,270623,,,D,V*04
$GPHDT,135.990,T*32
$GNGGA,034337.200,2500.8089432,N,12132.4349999,E,2,63,0.45,19.092,M,15.25,M,39,3335*70
$GNRMC,034337.200,A,2500.8089432,N,12132.4349999,E,0.00,238.77,270623,,,D,V*0D
$GPHDT,136.057,T*33
$GNGGA,034337.400,2500.8089492,N,12132.4349999,E,2,63,0.45,19.093,M,15.25,M,39,3335*7D
$GNRMC,034337.400,A,2500.8089492,N,12132.4349999,E,0.00,238.77,270623,,,D,V*01
$GPHDT,135.978,T*34
$GNGGA,034337.600,2500.8089552,N,12132.4349939,E,2,64,0.45,19.093,M,15.25,M,39,3335*7F
$GNRMC,034337.600,A,2500.8089552,N,12132.4349939,E,0.00,238.77,270623,,,D,V*04
$GPHDT,135.957,T*39
$GNGGA,034337.800,2500.8089552,N,12132.4349939,E,2,64,0.45,19.092,M,15.25,M,39,3335*70
$GNRMC,034337.800,A,2500.8089552,N,12132.4349939,E,0.00,238.77,270623,,,D,V*0A
$GPHDT,136.304,T*36
$GNGSA,A,3,195,19,17,196,199,06,194,09,20,14,11,04,0.84,0.45,0.71,1*06
$GNGSA,A,3,12,03,,,,,,,,,,,0.84,0.45,0.71,1*0A
$GNGSA,A,3,68,67,82,83,80,73,,,,,,,0.84,0.45,0.71,2*0B
$GNGSA,A,3,24,10,12,11,19,04,25,33,,,,,0.84,0.45,0.71,3*07
$GNGSA,A,3,40,07,10,33,14,08,43,13,42,28,11,34,0.84,0.45,0.71,4*0E
$GPGSV,4,1,15,195,67,042,40,19,65,017,41,17,64,072,42,196,63,128,39,1*6E
$GPGSV,4,2,15,50,60,167,38,199,60,167,35,06,50,338,44,194,41,171,42,1*6C
$GPGSV,4,3,15,09,32,107,27,20,28,230,19,14,27,177,43,11,27,284,33,1*60
$GPGSV,4,4,15,04,21,074,28,12,12,318,27,03,10,038,26,1*5C
$GPGSV,3,1,10,195,67,042,44,196,63,128,45,199,60,167,46,06,50,338,47,8*58
$GPGSV,3,2,10,194,41,171,46,09,32,107,42,14,27,177,46,11,27,284,29,8*5A
$GPGSV,3,3,10,04,21,074,37,03,10,038,22,8*65
$GLGSV,2,1,08,68,48,149,43,67,47,063,43,82,37,036,42,83,33,339,31,1*77
$GLGSV,2,2,08,80,25,231,16,73,23,291,28,66,07,028,29,79,01,187,,1*7A
$GAGSV,2,1,08,24,52,244,33,10,49,333,41,12,48,013,37,11,34,299,17,7*7B
$GAGSV,2,2,08,19,31,087,36,04,27,154,40,25,25,308,30,33,15,063,37,7*73
$GAGSV,2,1,08,24,52,244,35,10,49,333,45,12,48,013,42,11,34,299,23,1*7A
$GAGSV,2,2,08,19,31,087,38,04,27,154,41,25,25,308,31,33,15,063,40,1*7B
$GBGSV,4,1,15,40,83,125,41,07,81,249,39,10,72,291,40,33,62,150,44,1*7A
$GBGSV,4,2,15,14,61,085,45,08,58,268,39,43,53,053,43,13,49,257,35,1*70
$GBGSV,4,3,15,42,41,054,42,28,37,323,47,11,33,079,41,41,21,197,,1*7C
$GBGSV,4,4,15,23,19,222,,34,18,096,31,37,17,274,,1*49
$GBGSV,2,1,06,40,83,125,45,33,62,150,46,43,53,053,44,42,41,054,46,4*7B
$GBGSV,2,2,06,28,37,323,42,34,18,096,34,4*79
$GNGGA,034338.000,2500.8089612,N,12132.4349879,E,2,64,0.45,19.092,M,15.25,M,40,3335*7B
$GNRMC,034338.000,A,2500.8089612,N,12132.4349879,E,0.00,238.77,270623,,,D,V*0F
$GPHDT,135.879,T*34
$GNGGA,034338.200,2500.8089672,N,12132.4349819,E,2,64,0.45,19.092,M,15.25,M,40,3335*79
$GNRMC,034338.200,A,2500.8089672,N,12132.4349819,E,0.00,238.77,270623,,,D,V*0D
$GPHDT,135.791,T*3D
$GNGGA,034338.400,2500.8089672,N,12132.4349819,E,2,64,0.45,19.095,M,15.25,M,40,3335*78
$GNRMC,034338.400,A,2500.8089672,N,12132.4349819,E,0.00,238.77,270623,,,D,V*0B
$GPHDT,135.785,T*38
$GNGGA,034338.600,2500.8089732,N,12132.4349819,E,2,64,0.45,19.092,M,15.25,M,40,3335*78
$GNRMC,034338.600,A,2500.8089732,N,12132.4349819,E,0.00,238.77,270623,,,D,V*0C
$GPHDT,135.921,T*38
$GNGGA,034338.800,2500.8089792,N,12132.4349819,E,2,64,0.45,19.093,M,15.25,M,40,3335*7D
$GNRMC,034338.800,A,2500.8089792,N,12132.4349819,E,0.00,238.77,270623,,,D,V*08
$GPHDT,135.887,T*35
$GNGSA,A,3,195,19,17,196,199,06,194,09,20,14,11,04,0.84,0.45,0.71,1*06
$GNGSA,A,3,12,03,,,,,,,,,,,0.84,0.45,0.71,1*0A
$GNGSA,A,3,68,67,82,83,80,73,,,,,,,0.84,0.45,0.71,2*0B
$GNGSA,A,3,24,10,12,11,19,04,25,33,,,,,0.84,0.45,0.71,3*07
$GNGSA,A,3,40,07,10,33,14,08,43,13,42,28,11,34,0.84,0.45,0.71,4*0E
$GPGSV,4,1,16,195,67,042,40,19,65,017,41,17,64,073,42,196,63,128,40,1*62
$GPGSV,4,2,16,50,60,167,38,199,60,167,35,06,50,338,44,194,41,171,42,1*6F
$GPGSV,4,3,16,09,32,107,27,20,28,230,20,14,27,177,44,11,27,284,33,1*6E
$GPGSV,4,4,16,04,21,074,30,12,12,318,28,03,10,038,27,05,02,221,,1*6E
$GPGSV,3,1,10,195,67,042,44,196,63,128,45,199,60,167,46,06,50,338,48,8*57
$GPGSV,3,2,10,194,41,171,46,09,32,107,42,14,27,177,46,11,27,284,32,8*50
$GPGSV,3,3,10,04,21,074,38,03,10,038,19,8*62
$GLGSV,3,1,09,68,48,149,42,67,47,063,43,82,37,036,42,83,33,339,31,1*76
$GLGSV,3,2,09,80,25,231,16,73,23,291,28,69,09,185,,66,07,028,29,1*71
$GLGSV,3,3,09,79,01,187,,1*40
$GAGSV,2,1,08,24,52,244,34,10,49,333,41,12,48,013,36,11,34,299,17,7*7D
$GAGSV,2,2,08,19,31,087,36,04,27,154,40,25,25,308,28,33,15,063,37,7*7A
$GAGSV,2,1,08,24,52,244,36,10,49,333,45,12,48,013,42,11,34,299,23,1*79
$GAGSV,2,2,08,19,31,087,38,04,27,154,41,25,25,308,31,33,15,063,41,1*7A
$GBGSV,4,1,15,40,83,125,41,07,81,249,39,10,72,291,40,33,62,150,44,1*7A
$GBGSV,4,2,15,14,61,085,45,08,58,268,38,43,53,053,43,13,49,257,37,1*73
$GBGSV,4,3,15,42,41,054,42,28,37,323,47,11,33,079,41,41,21,197,,1*7C
$GBGSV,4,4,15,23,19,222,,34,18,096,29,37,17,274,,1*40
$GBGSV,2,1,06,40,83,125,45,33,62,150,46,43,53,053,44,42,41,054,46,4*7B
$GBGSV,2,2,06,28,37,323,42,34,18,096,34,4*79
$GNGGA,034339.000,2500.8089792,N,12132.4349759,E,2,64,0.45,19.095,M,15.25,M,41,3335*78
$GNRMC,034339.000,A,2500.8089792,N,12132.4349759,E,0.00,238.77,270623,,,D,V*0A
$GPHDT,136.296,T*3C
$GNGGA,034339.200,2500.8089852,N,12132.4349699,E,2,64,0.45,19.095,M,15.25,M,41,3335*74
$GNRMC,034339.200,A,2500.8089852,N,12132.4349699,E,0.00,238.77,270623,,,D,V*06
$GPHDT,136.127,T*35
$GNGGA,034339.400,2500.8089852,N,12132.4349699,E,2,64,0.45,19.092,M,15.25,M,41,3335*75
$GNRMC,034339.400,A,2500.8089852,N,12132.4349699,E,0.00,238.77,270623,,,D,V*00
$GPHDT,136.041,T*34
$GNGGA,034339.600,2500.8089852,N,12132.4349639,E,2,64,0.45,19.088,M,15.25,M,41,3335*76
$GNRMC,034339.600,A,2500.8089852,N,12132.4349639,E,0.00,238.77,270623,,,D,V*08
$GPHDT,136.322,T*32
$GNGGA,034339.800,2500.8089912,N,12132.4349639,E,2,64,0.45,19.079,M,15.25,M,41,3335*73
$GNRMC,034339.800,A,2500.8089912,N,12132.4349639,E,0.00,238.77,270623,,,D,V*03
$GPHDT,136.111,T*30
$GNGSA,A,3,195,19,17,196,199,06,194,09,20,11,14,04,0.84,0.45,0.71,1*06
$GNGSA,A,3,12,03,,,,,,,,,,,0.84,0.45,0.71,1*0A
$GNGSA,A,3,68,67,82,83,80,73,,,,,,,0.84,0.45,0.71,2*0B
$GNGSA,A,3,24,10,12,11,19,04,25,33,,,,,0.84,0.45,0.71,3*07
$GNGSA,A,3,40,07,10,33,14,08,43,13,42,28,11,34,0.84,0.45,0.71,4*0E
$GPGSV,4,1,15,195,67,042,40,19,65,017,41,17,64,073,42,196,63,128,40,1*61
$GPGSV,4,2,15,50,60,167,38,199,60,167,35,06,50,338,44,194,41,171,42,1*6C
$GPGSV,4,3,15,09,32,107,29,20,28,230,17,11,27,284,33,14,27,177,44,1*67
$GPGSV,4,4,15,04,21,074,31,12,12,318,28,03,10,038,27,1*5A
$GPGSV,3,1,10,195,67,042,44,196,63,128,45,199,60,167,46,06,50,338,48,8*57
$GPGSV,3,2,10,194,41,171,46,09,32,107,42,14,27,177,45,11,27,284,34,8*55
$GPGSV,3,3,10,04,21,074,38,03,10,038,20,8*68
$GLGSV,3,1,10,68,48,149,42,67,47,063,43,82,37,036,42,83,33,339,30,1*7F
$GLGSV,3,2,10,80,25,231,17,73,23,291,28,69,09,185,,66,07,028,29,1*78
$GLGSV,3,3,10,74,02,329,,79,01,187,,1*71
$GAGSV,2,1,08,24,52,244,35,10,49,333,41,12,48,013,36,11,34,299,18,7*73
$GAGSV,2,2,08,19,31,087,36,04,27,154,40,25,25,308,28,33,15,063,37,7*7A
$GAGSV,2,1,08,24,52,244,36,10,49,333,45,12,48,013,42,11,34,299,23,1*79
$GAGSV,2,2,08,19,31,087,38,04,27,154,41,25,25,308,32,33,15,063,41,1*79
$GBGSV,5,1,18,40,83,125,41,07,81,249,39,10,72,291,40,33,62,150,44,1*76
$GBGSV,5,2,18,14,61,085,45,08,58,268,38,43,53,053,43,13,49,257,37,1*7F
$GBGSV,5,3,18,42,41,054,42,28,37,323,47,11,33,079,41,41,21,197,,1*70
$GBGSV,5,4,18,23,19,222,,34,18,096,30,37,17,274,,25,03,179,,1*7F
$GBGSV,5,5,18,39,02,178,,06,01,189,,1*7E
$GBGSV,2,1,06,40,83,125,45,33,62,150,46,43,53,053,44,42,41,054,46,4*7B
$GBGSV,2,2,06,28,37,323,42,34,18,096,34,4*79
$GNGGA,034340.000,2500.8089912,N,12132.4349519,E,2,64,0.45,19.079,M,15.25,M,42,3335*77
$GNRMC,034340.000,A,2500.8089912,N,12132.4349519,E,0.00,238.77,270623,,,D,V*04
$GPHDT,136.434,T*32
$GNGGA,034340.200,2500.8089912,N,12132.4349459,E,2,64,0.45,19.075,M,15.25,M,42,3335*7C
$GNRMC,034340.200,A,2500.8089912,N,12132.4349459,E,0.00,238.77,270623,,,D,V*03
$GPHDT,136.218,T*3A
$GNGGA,034340.400,2500.8089912,N,12132.4349399,E,2,64,0.45,19.074,M,15.25,M,42,3335*70
$GNRMC,034340.400,A,2500.8089912,N,12132.4349399,E,0.00,238.77,270623,,,D,V*0E
$GPHDT,136.289,T*32
$GNGGA,034340.600,2500.8089912,N,12132.4349339,E,2,64,0.45,19.067,M,15.25,M,42,3335*7A
$GNRMC,034340.600,A,2500.8089912,N,12132.4349339,E,0.00,238.77,270623,,,D,V*06
$GPHDT,136.006,T*37
$GNGGA,034340.800,2500.8089912,N,12132.4349279,E,2,64,0.45,19.064,M,15.25,M,42,3335*72
$GNRMC,034340.800,A,2500.8089912,N,12132.4349279,E,0.00,238.77,270623,,,D,V*0D
$GPHDT,136.294,T*3E
$GNGSA,A,3,195,19,17,196,199,06,194,09,20,14,11,04,0.84,0.45,0.71,1*06
$GNGSA,A,3,12,03,,,,,,,,,,,0.84,0.45,0.71,1*0A
$GNGSA,A,3,68,67,82,83,80,73,,,,,,,0.84,0.45,0.71,2*0B
$GNGSA,A,3,24,10,12,11,19,04,25,33,,,,,0.84,0.45,0.71,3*07
$GNGSA,A,3,40,07,10,33,14,08,43,13,42,28,11,34,0.84,0.45,0.71,4*0E
$GPGSV,4,1,16,195,67,042,40,19,65,017,41,17,64,073,42,196,63,128,40,1*62
$GPGSV,4,2,16,50,60,167,38,199,60,167,35,06,50,338,44,194,41,171,42,1*6F
$GPGSV,4,3,16,09,32,107,31,20,28,230,18,14,27,177,44,11,27,284,33,1*62
$GPGSV,4,4,16,04,21,074,30,12,12,318,29,03,10,038,28,05,02,221,,1*60
$GPGSV,3,1,10,195,67,042,44,196,63,128,45,199,60,167,46,06,50,338,48,8*57
$GPGSV,3,2,10,194,41,171,46,09,32,107,42,14,27,177,45,11,27,284,34,8*55
$GPGSV,3,3,10,04,21,074,38,03,10,038,19,8*62
$GLGSV,3,1,09,68,48,149,42,67,47,063,43,82,37,036,41,83,33,339,30,1*74
$GLGSV,3,2,09,80,25,231,20,73,23,291,28,69,09,185,,66,07,028,30,1*7C
$GLGSV,3,3,09,79,01,187,,1*40
$GAGSV,2,1,08,24,52,244,35,10,49,333,41,12,48,013,36,11,34,299,20,7*78
$GAGSV,2,2,08,19,31,087,36,04,27,154,40,25,25,308,27,33,15,063,38,7*7A
$GAGSV,2,1,08,24,52,244,36,10,49,333,45,12,48,013,42,11,34,299,23,1*79
$GAGSV,2,2,08,19,31,087,38,04,27,154,41,25,25,308,31,33,15,063,41,1*7A
$GBGSV,4,1,15,40,83,125,41,07,81,249,40,10,72,291,40,33,62,150,44,1*74
$GBGSV,4,2,15,14,61,085,45,08,58,268,37,43,53,053,43,13,49,257,37,1*7C
$GBGSV,4,3,15,42,41,054,42,28,37,323,47,11,33,079,41,41,21,197,,1*7C
$GBGSV,4,4,15,23,19,222,,34,18,096,28,37,17,274,,1*41
$GBGSV,2,1,06,40,83,125,45,33,62,150,46,43,53,053,44,42,41,054,46,4*7B
$GBGSV,2,2,06,28,37,323,42,34,18,096,34,4*79
$GNGGA,034341.000,2500.8089852,N,12132.4349219,E,2,64,0.45,19.059,M,15.25,M,43,3335*77
$GNRMC,034341.000,A,2500.8089852,N,12132.4349219,E,0.00,238.77,270623,,,D,V*07
$GPHDT,136.364,T*30
$GNGGA,034341.200,2500.8089852,N,12132.4349159,E,2,64,0.45,19.053,M,15.25,M,43,3335*78
$GNRMC,034341.200,A,2500.8089852,N,12132.4349159,E,0.00,238.77,270623,,,D,V*02
$GPHDT,135.939,T*31
$GNGGA,034341.400,2500.8089852,N,12132.4349099,E,2,64,0.45,19.049,M,15.25,M,43,3335*78
$GNRMC,034341.400,A,2500.8089852,N,12132.4349099,E,0.00,238.77,270623,,,D,V*09
$GPHDT,136.177,T*30
$GNGGA,034341.600,2500.8089792,N,12132.4349039,E,2,64,0.45,19.042,M,15.25,M,43,3335*78
$GNRMC,034341.600,A,2500.8089792,N,12132.4349039,E,0.00,238.77,270623,,,D,V*02
$GPHDT,136.282,T*39
$GNGGA,034341.800,2500.8089792,N,12132.4349039,E,2,64,0.45,19.039,M,15.25,M,43,3335*7A
$GNRMC,034341.800,A,2500.8089792,N,12132.4349039,E,0.00,238.77,270623,,,D,V*0C
$GPHDT,136.362,T*36
$GNGSA,A,3,195,19,17,196,199,06,194,09,20,14,11,04,0.84,0.45,0.71,1*06
$GNGSA,A,3,12,03,,,,,,,,,,,0.84,0.45,0.71,1*0A
$GNGSA,A,3,68,67,82,83,80,73,,,,,,,0.84,0.45,0.71,2*0B
$GNGSA,A,3,24,10,12,11,19,04,25,33,,,,,0.84,0.45,0.71,3*07
$GNGSA,A,3,40,07,10,33,14,08,43,13,42,28,11,34,0.84,0.45,0.71,4*0E
$GPGSV,4,1,15,195,67,043,40,19,65,017,41,17,64,073,42,196,63,128,40,1*60
$GPGSV,4,2,15,50,60,167,38,199,60,167,35,06,50,338,44,194,41,171,42,1*6C
$GPGSV,4,3,15,09,32,107,29,20,28,230,19,14,27,177,44,11,27,284,32,1*68
$GPGSV,4,4,15,04,21,074,30,12,12,318,30,03,10,038,29,1*5C
$GPGSV,3,1,10,195,67,043,44,196,63,128,45,199,60,167,46,06,50,338,48,8*56
$GPGSV,3,2,10,194,41,171,46,09,32,107,42,14,27,177,45,11,27,284,34,8*55
$GPGSV,3,3,10,04,21,074,38,03,10,038,19,8*62
$GLGSV,2,1,08,68,48,149,42,67,47,063,43,82,37,036,42,83,33,339,30,1*77
$GLGSV,2,2,08,80,25,231,19,73,23,291,26,66,07,028,30,79,01,187,,1*73
$GAGSV,2,1,08,24,52,244,35,10,49,333,41,12,48,013,36,11,34,299,20,7*78
$GAGSV,2,2,08,19,31,087,36,04,27,154,40,25,25,308,28,33,15,063,38,7*75
$GAGSV,2,1,08,24,52,244,36,10,49,333,45,12,48,013,42,11,34,299,23,1*79
$GAGSV,2,2,08,19,31,087,38,04,27,154,41,25,25,308,31,33,15,063,41,1*7A
$GBGSV,4,1,15,40,83,125,41,07,81,249,40,10,72,291,40,33,62,150,44,1*74
$GBGSV,4,2,15,14,61,085,45,08,58,268,37,43,53,053,43,13,49,257,37,1*7C
$GBGSV,4,3,15,42,41,054,42,28,37,323,47,11,33,079,41,41,21,197,,1*7C
$GBGSV,4,4,15,23,19,222,,34,18,096,28,37,17,274,,1*41
$GBGSV,2,1,06,40,83,125,45,33,62,150,46,43,53,053,44,42,41,054,45,4*78
$GBGSV,2,2,06,28,37,323,42,34,18,096,33,4*7E
$GNGGA,034342.000,2500.8089792,N,12132.4348919,E,2,64,0.45,19.036,M,15.25,M,44,3335*73
$GNRMC,034342.000,A,2500.8089792,N,12132.4348919,E,0.00,238.77,270623,,,D,V*0D
$GPHDT,136.114,T*35
$GNGGA,034342.200,2500.8089732,N,12132.4348799,E,2,64,0.45,19.037,M,15.25,M,1,3335*4D
$GNRMC,034342.200,A,2500.8089732,N,12132.4348799,E,0.00,238.77,270623,,,D,V*03
$GPHDT,136.192,T*3B
$GNGGA,034342.400,2500.8089672,N,12132.4348739,E,2,64,0.45,19.034,M,15.25,M,1,3335*47
$GNRMC,034342.400,A,2500.8089672,N,12132.4348739,E,0.00,238.77,270623,,,D,V*0A
$GPHDT,136.398,T*33
$GNGGA,034342.600,2500.8089672,N,12132.4348679,E,2,64,0.45,19.031,M,15.25,M,1,3335*45
$GNRMC,034342.600,A,2500.8089672,N,12132.4348679,E,0.00,238.77,270623,,,D,V*0D
$GPHDT,135.947,T*38
$GNGGA,034342.800,2500.8089672,N,12132.4348679,E,2,64,0.45,19.029,M,15.25,M,1,3335*42
$GNRMC,034342.800,A,2500.8089672,N,12132.4348679,E,0.00,238.77,270623,,,D,V*03
$GPHDT,136.159,T*3C
$GNGSA,A,3,195,19,17,196,199,06,194,09,20,14,11,04,0.84,0.45,0.71,1*06
$GNGSA,A,3,12,03,,,,,,,,,,,0.84,0.45,0.71,1*0A
$GNGSA,A,3,68,67,82,83,80,73,,,,,,,0.84,0.45,0.71,2*0B
$GNGSA,A,3,24,10,12,11,19,04,25,33,,,,,0.84,0.45,0.71,3*07
$GNGSA,A,3,40,07,10,33,14,08,43,13,42,28,11,34,0.84,0.45,0.71,4*0E
$GPGSV,4,1,16,195,67,043,39,19,65,017,41,17,64,073,42,196,63,128,40,1*6D
$GPGSV,4,2,16,50,60,167,38,199,60,167,35,06,50,338,45,194,41,171,42,1*6E
$GPGSV,4,3,16,09,32,107,30,20,28,230,19,14,27,177,44,11,27,284,33,1*62
$GPGSV,4,4,16,04,21,074,30,12,12,318,30,03,10,038,29,05,02,221,,1*69
$GPGSV,3,1,10,195,67,043,44,196,63,128,45,199,60,167,46,06,50,338,48,8*56
$GPGSV,3,2,10,194,41,171,46,09,32,107,42,14,27,177,45,11,27,284,33,8*52
$GPGSV,3,3,10,04,21,074,38,03,10,038,18,8*63
$GLGSV,3,1,10,68,48,149,42,67,47,063,43,82,37,036,42,83,33,339,30,1*7F
$GLGSV,3,2,10,80,25,231,18,73,23,291,25,69,09,185,,66,07,028,30,1*72
$GLGSV,3,3,10,74,02,329,,79,01,187,,1*71
$GAGSV,2,1,08,24,52,244,35,10,49,333,41,12,48,013,36,11,34,299,20,7*78
$GAGSV,2,2,08,19,31,087,36,04,27,154,40,25,25,308,28,33,15,063,38,7*75
$GAGSV,2,1,08,24,52,244,35,10,49,333,45,12,48,013,42,11,34,299,23,1*7A
$GAGSV,2,2,08,19,31,087,38,04,27,154,41,25,25,308,31,33,15,063,41,1*7A
$GBGSV,4,1,16,40,83,125,41,07,81,249,40,10,72,291,39,33,62,150,44,1*79
$GBGSV,4,2,16,14,61,085,45,08,58,268,37,43,53,053,43,13,49,257,37,1*7F
$GBGSV,4,3,16,42,41,054,42,28,37,323,47,11,33,079,41,41,21,197,,1*7F
$GBGSV,4,4,16,23,19,222,,34,18,096,29,37,17,274,,39,02,178,,1*75
$GBGSV,2,1,06,40,83,125,45,33,62,150,46,43,53,053,44,42,41,054,45,4*78
$GBGSV,2,2,06,28,37,323,42,34,18,096,33,4*7E
$GNGGA,034343.000,2500.8089672,N,12132.4348559,E,2,64,0.45,19.032,M,15.25,M,2,3335*43
$GNRMC,034343.000,A,2500.8089672,N,12132.4348559,E,0.00,238.77,270623,,,D,V*0B
$GPHDT,136.088,T*31
$GNGGA,034343.200,2500.8089612,N,12132.4348499,E,2,64,0.45,19.030,M,15.25,M,2,3335*48
$GNRMC,034343.200,A,2500.8089612,N,12132.4348499,E,0.00,238.77,270623,,,D,V*02
$GPHDT,135.830,T*39
$GNGGA,034343.400,2500.8089612,N,12132.4348439,E,2,64,0.45,19.030,M,15.25,M,2,3335*44
$GNRMC,034343.400,A,2500.8089612,N,12132.4348439,E,0.00,238.77,270623,,,D,V*0E
$GPHDT,136.335,T*34
$GNGGA,034343.600,2500.8089612,N,12132.4348319,E,2,64,0.45,19.031,M,15.25,M,2,3335*42
$GNRMC,034343.600,A,2500.8089612,N,12132.4348319,E,0.00,238.77,270623,,,D,V*09
$GPHDT,136.255,T*33
$GNGGA,034343.800,2500.8089552,N,12132.4348199,E,2,64,0.45,19.030,M,15.25,M,2,3335*40
$GNRMC,034343.800,A,2500.8089552,N,12132.4348199,E,0.00,238.77,270623,,,D,V*0A
$GPHDT,136.309,T*3B
$GNGSA,A,3,195,19,17,196,199,06,194,09,20,14,11,04,0.84,0.45,0.71,1*06
$GNGSA,A,3,12,03,,,,,,,,,,,0.84,0.45,0.71,1*0A
$GNGSA,A,3,68,67,82,83,80,73,,,,,,,0.84,0.45,0.71,2*0B
$GNGSA,A,3,24,10,12,11,19,04,25,33,,,,,0.84,0.45,0.71,3*07
$GNGSA,A,3,40,07,10,33,14,08,43,13,42,28,11,34,0.84,0.45,0.71,4*0E
$GPGSV,4,1,16,195,67,043,39,19,65,017,41,17,64,073,42,196,63,128,40,1*6D
$GPGSV,4,2,16,50,60,167,38,199,60,167,35,06,50,338,45,194,41,171,42,1*6E
$GPGSV,4,3,16,09,32,107,30,20,28,230,21,14,27,177,44,11,27,284,34,1*6E
$GPGSV,4,4,16,04,21,074,29,12,12,318,29,03,10,038,29,05,02,221,,1*69
$GPGSV,3,1,10,195,67,043,44,196,63,128,45,199,60,167,46,06,50,338,48,8*56
$GPGSV,3,2,10,194,41,171,46,09,32,107,42,14,27,177,46,11,27,284,29,8*5A
$GPGSV,3,3,10,04,21,074,39,03,10,038,20,8*69
$GLGSV,2,1,08,68,48,149,42,67,47,063,43,82,37,036,42,83,33,339,28,1*7E
$GLGSV,2,2,08,80,25,231,16,73,23,291,24,66,07,028,30,79,01,187,,1*7E
$GAGSV,2,1,08,24,52,244,33,10,49,333,41,12,48,013,36,11,34,299,20,7*7E
$GAGSV,2,2,08,19,31,087,37,04,27,154,41,25,25,308,31,33,15,063,38,7*7D
$GAGSV,2,1,08,24,52,244,35,10,49,333,45,12,48,013,42,11,34,299,23,1*7A
$GAGSV,2,2,08,19,31,087,38,04,27,154,41,25,25,308,32,33,15,063,41,1*79
$GBGSV,5,1,17,40,83,125,41,07,81,249,40,10,72,291,39,33,62,150,44,1*79
$GBGSV,5,2,17,14,61,085,45,08,58,268,38,43,53,053,44,13,49,257,36,1*76
$GBGSV,5,3,17,42,41,054,44,28,37,323,47,11,33,079,41,41,21,197,,1*79
$GBGSV,5,4,17,23,19,222,,34,18,096,31,37,17,274,,39,02,178,,1*7C
$GBGSV,5,5,17,06,01,189,,1*47
$GBGSV,2,1,06,40,83,125,45,33,62,150,46,43,53,053,44,42,41,054,45,4*78
$GBGSV,2,2,06,28,37,323,42,34,18,096,33,4*7E
$GNGGA,034344.000,2500.8089552,N,12132.4348139,E,2,64,0.45,19.030,M,15.25,M,3,3335*44
$GNRMC,034344.000,A,2500.8089552,N,12132.4348139,E,0.00,238.77,270623,,,D,V*0F
$GPHDT,136.466,T*35
$GNGGA,034344.200,2500.8089552,N,12132.4348079,E,2,64,0.45,19.030,M,15.25,M,3,3335*43
$GNRMC,034344.200,A,2500.8089552,N,12132.4348079,E,0.00,238.77,270623,,,D,V*08
$GPHDT,136.128,T*3A
$GNGGA,034344.400,2500.8089552,N,12132.4347959,E,2,64,0.45,19.033,M,15.25,M,3,3335*42
$GNRMC,034344.400,A,2500.8089552,N,12132.4347959,E,0.00,238.77,270623,,,D,V*0A
$GPHDT,135.981,T*32
$GNGGA,034344.600,2500.8089492,N,12132.4347899,E,2,64,0.45,19.034,M,15.25,M,3,3335*47
$GNRMC,034344.600,A,2500.8089492,N,12132.4347899,E,0.00,238.77,270623,,,D,V*08
$GPHDT,136.033,T*31
$GNGGA,034344.800,2500.8089492,N,12132.4347839,E,2,64,0.45,19.035,M,15.25,M,3,3335*42
$GNRMC,034344.800,A,2500.8089492,N,12132.4347839,E,0.00,238.77,270623,,,D,V*0C
$GPHDT,136.297,T*3D
$GNGSA,A,3,195,19,17,196,199,06,194,09,20,14,11,04,0.84,0.45,0.71,1*06
$GNGSA,A,3,12,03,,,,,,,,,,,0.84,0.45,0.71,1*0A
$GNGSA,A,3,68,67,82,83,80,73,,,,,,,0.84,0.45,0.71,2*0B
$GNGSA,A,3,24,10,12,11,19,04,25,33,,,,,0.84,0.45,0.71,3*07
$GNGSA,A,3,40,07,10,33,14,08,43,13,42,28,11,34,0.84,0.45,0.71,4*0E
$GPGSV,4,1,15,195,67,043,39,19,65,017,41,17,64,073,42,196,63,128,40,1*6E
$GPGSV,4,2,15,50,60,167,38,199,60,167,36,06,50,338,45,194,41,171,42,1*6E
$GPGSV,4,3,15,09,32,107,32,20,28,230,22,14,27,177,44,11,27,284,34,1*6C
$GPGSV,4,4,15,04,21,074,28,12,12,318,29,03,10,038,29,1*5D
$GPGSV,3,1,10,195,67,043,44,196,63,128,45,199,60,167,46,06,50,338,48,8*56
$GPGSV,3,2,10,194,41,171,46,09,32,107,42,14,27,177,46,11,27,284,28,8*5B
$GPGSV,3,3,10,04,21,074,39,03,10,038,20,8*69
$GLGSV,2,1,08,68,48,149,42,67,47,063,43,82,37,036,42,83,33,339,27,1*71
$GLGSV,2,2,08,80,25,231,15,73,23,291,24,66,07,028,31,79,01,187,,1*7C
$GAGSV,2,1,08,24,52,244,33,10,49,333,41,12,48,014,37,11,35,299,18,7*72
$GAGSV,2,2,08,19,31,087,36,04,27,154,41,25,25,308,31,33,15,063,38,7*7C
$GAGSV,2,1,08,24,52,244,35,10,49,333,45,12,48,014,42,11,35,299,23,1*7C
$GAGSV,2,2,08,19,31,087,39,04,27,154,41,25,25,308,32,33,15,063,41,1*78
$GBGSV,4,1,15,40,83,125,41,07,81,249,40,10,72,291,39,33,62,150,44,1*7A
$GBGSV,4,2,15,14,61,085,45,08,58,268,38,43,53,053,44,13,49,257,36,1*75
$GBGSV,4,3,15,42,41,054,44,28,37,323,47,11,33,079,42,41,21,197,,1*79
$GBGSV,4,4,15,23,19,222,,34,18,096,32,37,17,274,,1*4A
$GBGSV,2,1,06,40,83,125,45,33,62,150,46,43,53,053,44,42,41,054,45,4*78
$GBGSV,2,2,06,28,37,323,42,34,18,096,33,4*7E
$GNGGA,034345.000,2500.8089432,N,12132.4347779,E,2,64,0.45,19.042,M,15.25,M,4,3335*4D
$GNRMC,034345.000,A,2500.8089432,N,12132.4347779,E,0.00,238.77,270623,,,D,V*04
$GPHDT,135.972,T*3E
$GNGGA,034345.200,2500.8089432,N,12132.4347659,E,2,64,0.45,19.044,M,15.25,M,4,3335*4A
$GNRMC,034345.200,A,2500.8089432,N,12132.4347659,E,0.00,238.77,270623,,,D,V*05
$GPHDT,135.743,T*32
$GNGGA,034345.400,2500.8089432,N,12132.4347599,E,2,64,0.45,19.047,M,15.25,M,4,3335*40
$GNRMC,034345.400,A,2500.8089432,N,12132.4347599,E,0.00,238.77,270623,,,D,V*0C
$GPHDT,135.918,T*32
$GNGGA,034345.600,2500.8089432,N,12132.4347599,E,2,64,0.45,19.043,M,15.25,M,4,3335*46
$GNRMC,034345.600,A,2500.8089432,N,12132.4347599,E,0.00,238.77,270623,,,D,V*0E
$GPHDT,135.985,T*36
$GNGGA,034345.800,2500.8089432,N,12132.4347599,E,2,64,0.45,19.042,M,15.25,M,4,3335*49
$GNRMC,034345.800,A,2500.8089432,N,12132.4347599,E,0.00,238.77,270623,,,D,V*00
$GPHDT,135.760,T*33
$GNGSA,A,3,195,19,17,196,199,06,194,09,20,14,11,04,0.84,0.45,0.71,1*06
$GNGSA,A,3,12,03,,,,,,,,,,,0.84,0.45,0.71,1*0A
$GNGSA,A,3,68,67,82,83,80,73,,,,,,,0.84,0.45,0.71,2*0B
$GNGSA,A,3,24,10,12,11,19,04,25,33,,,,,0.84,0.45,0.71,3*07
$GNGSA,A,3,40,07,10,33,14,08,43,13,42,28,11,34,0.84,0.45,0.71,4*0E
$GPGSV,4,1,15,195,67,043,39,19,65,017,41,17,64,073,42,196,63,128,40,1*6E
$GPGSV,4,2,15,50,60,167,38,199,60,167,36,06,50,338,45,194,41,171,42,1*6E
$GPGSV,4,3,15,09,32,107,34,20,28,230,22,14,27,177,44,11,27,284,33,1*6D
$GPGSV,4,4,15,04,21,074,29,12,12,318,29,03,10,038,30,1*54
$GPGSV,3,1,10,195,67,043,44,196,63,128,45,199,60,167,46,06,50,338,47,8*59
$GPGSV,3,2,10,194,41,171,46,09,32,107,42,14,27,177,46,11,27,284,29,8*5A
$GPGSV,3,3,10,04,21,074,39,03,10,038,19,8*63
$GLGSV,2,1,08,68,48,149,42,67,47,063,43,82,37,036,42,83,33,339,27,1*71
$GLGSV,2,2,08,80,25,231,15,73,23,291,24,66,07,028,30,79,01,187,,1*7D
$GAGSV,2,1,08,24,52,244,34,10,49,333,41,12,48,014,37,11,35,299,15,7*78
$GAGSV,2,2,08,19,31,087,36,04,27,154,41,25,25,308,31,33,15,063,37,7*73
$GAGSV,2,1,08,24,52,244,35,10,49,333,45,12,48,014,42,11,35,299,23,1*7C
$GAGSV,2,2,08,19,31,087,39,04,27,154,41,25,25,308,31,33,15,063,40,1*7A
$GBGSV,4,1,15,40,83,125,41,07,81,249,40,10,72,291,39,33,62,150,44,1*7A
$GBGSV,4,2,15,14,61,085,45,08,58,268,38,43,53,053,44,13,49,257,36,1*75
$GBGSV,4,3,15,42,41,054,44,28,37,323,47,11,33,079,42,41,21,197,,1*79
$GBGSV,4,4,15,23,19,222,,34,18,096,34,37,17,274,,1*4C
$GBGSV,2,1,06,40,83,125,45,33,62,150,46,43,53,053,44,42,41,054,45,4*78
$GBGSV,2,2,06,28,37,323,42,34,18,096,33,4*7E
$GNGGA,034346.000,2500.8089372,N,12132.4347539,E,2,64,0.45,19.044,M,15.25,M,5,3335*4C
$GNRMC,034346.000,A,2500.8089372,N,12132.4347539,E,0.00,238.77,270623,,,D,V*02
$GPHDT,135.854,T*3B
$GNGGA,034346.200,2500.8089312,N,12132.4347479,E,2,64,0.45,19.050,M,15.25,M,5,3335*48
$GNRMC,034346.200,A,2500.8089312,N,12132.4347479,E,0.00,238.77,270623,,,D,V*03
$GPHDT,135.873,T*3E
$GNGGA,034346.400,2500.8089312,N,12132.4347479,E,2,64,0.45,19.054,M,15.25,M,5,3335*4A
$GNRMC,034346.400,A,2500.8089312,N,12132.4347479,E,0.00,238.77,270623,,,D,V*05
