$FW : RTK35X,V1.1X0314AS,Lib20210517,1*54
$Tool : LOCOSYS , GNSS Firebird , v1.0.0.19*39
$---------------------------------------------------*2D
$GPHDT,226.983,T*31
$GNGSA,A,3,195,19,17,196,199,06,194,09,14,11,04,03,0.85,0.46,0.72,1*06
$GNGSA,A,3,67,68,82,83,80,73,,,,,,,0.85,0.46,0.72,2*0A
$GNGSA,A,3,24,10,12,11,19,04,25,33,,,,,0.85,0.46,0.72,3*06
$GNGSA,A,3,40,07,10,33,14,08,43,13,42,28,11,34,0.85,0.46,0.72,4*0F
$GNGSA,A,3,37,,,,,,,,,,,,0.85,0.46,0.72,4*0A
$GPGSV,4,1,16,195,67,042,42,19,65,016,40,17,64,072,40,196,63,128,40,1*63
$GPGSV,4,2,16,199,60,167,37,50,60,167,39,06,50,337,38,194,42,171,43,1*6A
$GPGSV,4,3,16,09,32,107,39,14,27,177,41,11,27,284,31,20,27,229,13,1*61
$GPGSV,4,4,16,04,21,074,34,12,12,319,17,03,10,038,22,05,02,221,,1*62
$GPGSV,3,1,10,195,67,042,45,196,63,128,45,199,60,167,46,06,50,337,38,8*5E
$GPGSV,3,2,10,194,42,171,44,09,32,107,42,14,27,177,45,11,27,284,37,8*57
$GPGSV,3,3,10,04,21,074,35,03,10,038,28,8*6D
$GLGSV,2,1,08,67,47,064,42,68,47,149,42,82,37,035,43,83,33,339,25,1*78
$GLGSV,2,2,08,80,26,232,17,73,23,292,35,66,07,028,22,79,02,187,,1*7C
$GAGSV,2,1,08,24,52,245,35,10,49,332,38,12,48,013,32,11,34,298,16,7*76
$GAGSV,2,2,08,19,30,088,36,04,26,154,40,25,25,308,30,33,15,063,34,7*7F
$GAGSV,2,1,08,24,52,245,39,10,49,332,41,12,48,013,36,11,34,298,25,1*76
$GAGSV,2,2,08,19,30,088,37,04,26,154,44,25,25,308,17,33,15,063,37,1*7A
$GBGSV,4,1,16,40,84,123,43,07,81,250,40,10,72,292,41,33,62,151,44,1*7F
$GBGSV,4,2,16,14,61,086,44,08,59,268,38,43,53,053,44,13,49,256,42,1*77
$GBGSV,4,3,16,42,41,055,46,28,37,323,44,11,33,078,40,41,21,197,,1*79
$GBGSV,4,4,16,23,19,222,,34,18,096,38,37,17,274,15,39,02,179,,1*70
$GBGSV,2,1,07,40,84,123,44,33,62,151,46,43,53,053,43,42,41,055,45,4*7E
$GBGSV,2,2,07,28,37,323,41,34,18,096,35,37,17,274,32,4*48
$GNGGA,034237.000,2500.8090133,N,12132.4340365,E,4,63,0.46,17.641,M,15.25,M,1,3335*47
$GNRMC,034237.000,A,2500.8090133,N,12132.4340365,E,0.00,238.77,270623,,,R,V*14
$GPHDT,227.032,T*33
$GNGGA,034237.200,2500.8090151,N,12132.4340360,E,4,63,0.46,17.637,M,15.25,M,1,3335*45
$GNRMC,034237.200,A,2500.8090151,N,12132.4340360,E,0.00,238.77,270623,,,R,V*17
$GPHDT,226.901,T*3B
$GNGGA,034237.400,2500.8090124,N,12132.4340368,E,4,63,0.46,17.647,M,15.25,M,1,3335*4E
$GNRMC,034237.400,A,2500.8090124,N,12132.4340368,E,0.00,238.77,270623,,,R,V*1B
$GPHDT,227.226,T*34
$GNGGA,034237.600,2500.8090152,N,12132.4340366,E,4,63,0.46,17.637,M,15.25,M,1,3335*44
$GNRMC,034237.600,A,2500.8090152,N,12132.4340366,E,0.00,238.77,270623,,,R,V*16
$GPHDT,226.795,T*38
$GNGGA,034237.800,2500.8090128,N,12132.4340372,E,4,63,0.46,17.637,M,15.25,M,1,3335*42
$GNRMC,034237.800,A,2500.8090128,N,12132.4340372,E,0.00,238.77,270623,,,R,V*10
$GPHDT,227.007,T*35
$GNGSA,A,3,195,19,17,196,199,06,194,09,14,11,04,03,0.85,0.46,0.72,1*06
$GNGSA,A,3,67,68,82,83,80,73,,,,,,,0.85,0.46,0.72,2*0A
$GNGSA,A,3,24,10,12,11,19,04,25,33,,,,,0.85,0.46,0.72,3*06
$GNGSA,A,3,40,07,10,33,14,08,43,13,42,28,11,34,0.85,0.46,0.72,4*0F
$GNGSA,A,3,37,,,,,,,,,,,,0.85,0.46,0.72,4*0A
$GPGSV,4,1,16,195,67,042,42,19,65,016,40,17,64,072,41,196,63,128,40,1*62
$GPGSV,4,2,16,199,60,167,37,50,60,167,39,06,50,337,38,194,42,171,43,1*6A
$GPGSV,4,3,16,09,32,107,39,14,27,177,41,11,27,284,30,20,27,229,15,1*66
$GPGSV,4,4,16,04,21,074,34,12,12,319,19,03,10,038,22,05,02,221,,1*6C
$GPGSV,3,1,10,195,67,042,45,196,63,128,45,199,60,167,46,06,50,337,38,8*5E
$GPGSV,3,2,10,194,42,171,44,09,32,107,41,14,27,177,45,11,27,284,36,8*55
$GPGSV,3,3,10,04,21,074,35,03,10,038,27,8*62
$GLGSV,2,1,08,67,47,064,42,68,47,149,41,82,37,035,42,83,33,339,25,1*7A
$GLGSV,2,2,08,80,26,232,14,73,23,292,35,66,07,028,22,79,02,187,,1*7F
$GAGSV,2,1,08,24,52,245,35,10,49,332,39,12,48,013,32,11,34,298,14,7*75
$GAGSV,2,2,08,19,30,088,36,04,26,154,40,25,25,308,29,33,15,063,34,7*77
$GAGSV,2,1,08,24,52,245,39,10,49,332,41,12,48,013,36,11,34,298,24,1*77
$GAGSV,2,2,08,19,30,088,37,04,26,154,44,25,25,308,16,33,15,063,37,1*7B
$GBGSV,4,1,16,40,84,123,42,07,81,250,40,10,72,292,41,33,62,151,44,1*7E
$GBGSV,4,2,16,14,61,086,44,08,59,268,38,43,53,053,44,13,49,256,42,1*77
$GBGSV,4,3,16,42,41,055,46,28,37,323,44,11,33,078,40,41,21,197,,1*79
$GBGSV,4,4,16,23,19,222,,34,18,096,38,37,17,274,16,39,02,179,,1*73
$GBGSV,2,1,07,40,84,123,44,33,62,151,46,43,53,053,43,42,41,055,45,4*7E
$GBGSV,2,2,07,28,37,323,41,34,18,096,35,37,17,274,31,4*4B
$GNGGA,034238.000,2500.8090169,N,12132.4340381,E,4,63,0.46,17.650,M,15.25,M,2,3335*4E
$GNRMC,034238.000,A,2500.8090169,N,12132.4340381,E,0.00,238.77,270623,,,R,V*1E
$GPHDT,226.923,T*3B
$GNGGA,034238.200,2500.8090111,N,12132.4340421,E,4,63,0.46,17.656,M,15.25,M,2,3335*48
$GNRMC,034238.200,A,2500.8090111,N,12132.4340421,E,0.00,238.77,270623,,,R,V*1E
$GPHDT,227.349,T*3C
$GNGGA,034238.400,2500.8090107,N,12132.4340362,E,4,64,0.46,17.632,M,15.25,M,2,3335*4C
$GNRMC,034238.400,A,2500.8090107,N,12132.4340362,E,0.00,238.77,270623,,,R,V*1F
$GPHDT,226.862,T*3F
$GNGGA,034238.600,2500.8090087,N,12132.4340367,E,4,64,0.46,17.641,M,15.25,M,2,3335*46
$GNRMC,034238.600,A,2500.8090087,N,12132.4340367,E,0.00,238.77,270623,,,R,V*11
$GPHDT,227.474,T*35
$GNGGA,034238.800,2500.8090118,N,12132.4340373,E,4,64,0.46,17.629,M,15.25,M,2,3335*44
$GNRMC,034238.800,A,2500.8090118,N,12132.4340373,E,0.00,238.77,270623,,,R,V*1D
$GPHDT,227.124,T*35
$GNGSA,A,3,195,19,17,196,199,06,194,09,14,11,04,12,0.84,0.46,0.70,1*05
$GNGSA,A,3,03,,,,,,,,,,,,0.84,0.46,0.70,1*0B
$GNGSA,A,3,67,68,82,83,80,73,,,,,,,0.84,0.46,0.70,2*09
$GNGSA,A,3,24,10,12,11,19,04,25,33,,,,,0.84,0.46,0.70,3*05
$GNGSA,A,3,40,07,10,33,14,08,43,13,42,28,11,34,0.84,0.46,0.70,4*0C
$GNGSA,A,3,37,,,,,,,,,,,,0.84,0.46,0.70,4*09
$GPGSV,4,1,16,195,67,042,41,19,65,016,41,17,64,072,41,196,63,128,39,1*6E
$GPGSV,4,2,16,199,60,167,36,50,60,167,39,06,50,337,36,194,42,171,43,1*65
$GPGSV,4,3,16,09,32,107,39,14,27,177,41,11,27,284,32,20,27,229,17,1*66
$GPGSV,4,4,16,04,21,074,32,12,12,319,18,03,10,038,24,05,02,221,,1*6D
$GPGSV,3,1,10,195,67,042,45,196,63,128,45,199,60,167,46,06,50,337,37,8*51
$GPGSV,3,2,10,194,42,171,44,09,32,107,41,14,27,177,45,11,27,284,37,8*54
$GPGSV,3,3,10,04,21,074,36,03,10,038,27,8*61
$GLGSV,2,1,08,67,47,064,42,68,47,149,42,82,37,035,42,83,33,339,25,1*79
$GLGSV,2,2,08,80,26,232,13,73,23,292,35,66,07,028,22,79,02,187,,1*78
$GAGSV,2,1,08,24,52,245,35,10,49,332,38,12,48,013,32,11,34,298,14,7*74
$GAGSV,2,2,08,19,30,088,37,04,27,154,40,25,25,308,30,33,15,063,37,7*7C
$GAGSV,2,1,08,24,52,245,38,10,49,332,41,12,48,013,36,11,34,298,23,1*71
$GAGSV,2,2,08,19,30,088,35,04,27,154,44,25,25,308,15,33,15,063,36,1*7A
$GBGSV,4,1,16,40,84,123,42,07,81,250,40,10,72,292,41,33,62,151,44,1*7E
$GBGSV,4,2,16,14,61,086,44,08,59,268,38,43,53,053,45,13,49,256,42,1*76
$GBGSV,4,3,16,42,41,055,46,28,37,323,43,11,33,078,38,41,21,197,,1*71
$GBGSV,4,4,16,23,19,222,,34,18,096,38,37,17,274,17,25,03,179,,1*7E
$GBGSV,2,1,07,40,84,123,44,33,62,151,46,43,53,053,44,42,41,055,46,4*7A
$GBGSV,2,2,07,28,37,323,41,34,18,096,33,37,17,274,31,4*4D
$GNGGA,034239.000,2500.8090080,N,12132.4340416,E,4,64,0.46,17.625,M,15.25,M,3,3335*44
$GNRMC,034239.000,A,2500.8090080,N,12132.4340416,E,0.00,238.77,270623,,,R,V*10
$GPHDT,227.143,T*34
$GNGGA,034239.200,2500.8090096,N,12132.4340414,E,4,62,0.47,17.631,M,15.25,M,3,3335*41
$GNRMC,034239.200,A,2500.8090096,N,12132.4340414,E,0.00,238.77,270623,,,R,V*17
$GPHDT,227.154,T*32
$GNGGA,034239.400,2500.8090156,N,12132.4340399,E,4,63,0.47,17.666,M,15.25,M,3,3335*4B
$GNRMC,034239.400,A,2500.8090156,N,12132.4340399,E,0.00,238.77,270623,,,R,V*1E
$GPHDT,227.332,T*30
$GNGGA,034239.600,2500.8090135,N,12132.4340393,E,4,63,0.47,17.645,M,15.25,M,3,3335*47
$GNRMC,034239.600,A,2500.8090135,N,12132.4340393,E,0.00,238.77,270623,,,R,V*13
$GPHDT,226.970,T*3D
$GNGGA,034239.800,2500.8090126,N,12132.4340377,E,4,63,0.47,17.684,M,15.25,M,3,3335*4C
$GNRMC,034239.800,A,2500.8090126,N,12132.4340377,E,0.00,238.77,270623,,,R,V*15
$GPHDT,227.408,T*3E
$GNGSA,A,3,195,19,17,196,199,06,194,09,14,11,04,12,0.85,0.47,0.71,1*04
$GNGSA,A,3,03,,,,,,,,,,,,0.85,0.47,0.71,1*0A
$GNGSA,A,3,67,68,82,83,73,,,,,,,,0.85,0.47,0.71,2*00
$GNGSA,A,3,24,10,12,11,19,04,25,33,,,,,0.85,0.47,0.71,3*04
$GNGSA,A,3,40,07,10,33,14,08,43,13,42,28,11,34,0.85,0.47,0.71,4*0D
$GNGSA,A,3,37,,,,,,,,,,,,0.85,0.47,0.71,4*08
$GPGSV,4,1,16,195,67,042,41,19,65,016,41,17,64,072,39,196,63,128,38,1*60
$GPGSV,4,2,16,199,60,167,35,50,60,167,37,06,50,337,37,194,42,171,43,1*69
$GPGSV,4,3,16,09,32,107,38,14,27,177,41,11,27,284,30,20,27,229,14,1*66
$GPGSV,4,4,16,04,21,074,33,12,12,319,18,03,10,038,25,05,02,221,,1*6D
$GPGSV,3,1,10,195,67,042,45,196,63,128,43,199,60,167,46,06,50,337,36,8*56
$GPGSV,3,2,10,194,42,171,44,09,32,107,42,14,27,177,45,11,27,284,37,8*57
$GPGSV,3,3,10,04,21,074,35,03,10,038,25,8*60
$GLGSV,3,1,09,67,47,064,42,68,47,149,42,82,37,035,42,83,33,339,25,1*79
$GLGSV,3,2,09,80,26,232,14,73,23,292,35,69,08,185,,66,07,028,22,1*76
$GLGSV,3,3,09,79,02,187,,1*43
$GAGSV,2,1,08,24,52,245,34,10,49,332,38,12,48,013,32,11,34,298,16,7*77
$GAGSV,2,2,08,19,30,088,38,04,27,154,40,25,25,308,29,33,15,063,37,7*7B
$GAGSV,2,1,08,24,52,245,38,10,49,332,41,12,48,013,35,11,34,298,24,1*75
$GAGSV,2,2,08,19,30,088,35,04,27,154,44,25,25,308,17,33,15,063,36,1*78
$GBGSV,5,1,17,40,84,123,42,07,81,250,40,10,72,292,41,33,62,151,44,1*7E
$GBGSV,5,2,17,14,61,086,44,08,59,268,38,43,53,053,44,13,49,256,42,1*77
$GBGSV,5,3,17,42,41,055,46,28,37,323,43,11,33,078,38,41,21,197,,1*71
$GBGSV,5,4,17,23,19,222,,34,18,096,39,37,17,274,15,25,03,179,,1*7D
$GBGSV,5,5,17,06,01,189,,1*47
$GBGSV,2,1,07,40,84,123,45,33,62,151,46,43,53,053,44,42,41,055,45,4*78
$GBGSV,2,2,07,28,37,323,41,34,18,096,33,37,17,274,31,4*4D
$GNGGA,034240.000,2500.8090003,N,12132.4340439,E,4,63,0.47,17.618,M,15.25,M,4,3335*43
$GNRMC,034240.000,A,2500.8090003,N,12132.4340439,E,0.00,238.77,270623,,,R,V*18
$GPHDT,227.136,T*36
$GNGGA,034240.200,2500.8090103,N,12132.4340405,E,4,63,0.47,17.641,M,15.25,M,4,3335*43
$GNRMC,034240.200,A,2500.8090103,N,12132.4340405,E,0.00,238.77,270623,,,R,V*14
$GPHDT,227.113,T*31
$GNGGA,034240.400,2500.8090046,N,12132.4340422,E,4,63,0.47,17.627,M,15.25,M,4,3335*40
$GNRMC,034240.400,A,2500.8090046,N,12132.4340422,E,0.00,238.77,270623,,,R,V*17
$GPHDT,227.107,T*34
$GNGGA,034240.600,2500.8090104,N,12132.4340387,E,4,63,0.47,17.642,M,15.25,M,4,3335*4E
$GNRMC,034240.600,A,2500.8090104,N,12132.4340387,E,0.00,238.77,270623,,,R,V*1A
$GPHDT,227.300,T*31
$GNGGA,034240.800,2500.8090113,N,12132.4340401,E,4,63,0.47,17.645,M,15.25,M,4,3335*48
$GNRMC,034240.800,A,2500.8090113,N,12132.4340401,E,0.00,238.77,270623,,,R,V*1B
$GPHDT,227.117,T*35
$GNGSA,A,3,195,19,17,196,199,06,194,09,14,11,04,12,0.85,0.47,0.71,1*04
$GNGSA,A,3,03,,,,,,,,,,,,0.85,0.47,0.71,1*0A
$GNGSA,A,3,67,68,82,83,73,,,,,,,,0.85,0.47,0.71,2*00
$GNGSA,A,3,24,10,12,11,19,04,25,33,,,,,0.85,0.47,0.71,3*04
$GNGSA,A,3,40,07,10,33,14,08,43,13,42,28,11,34,0.85,0.47,0.71,4*0D
$GNGSA,A,3,37,,,,,,,,,,,,0.85,0.47,0.71,4*08
$GPGSV,4,1,16,195,67,042,42,19,65,016,41,17,64,072,39,196,63,128,37,1*6C
$GPGSV,4,2,16,199,60,167,35,50,60,167,38,06,50,337,38,194,42,171,43,1*69
$GPGSV,4,3,16,09,32,107,38,14,27,177,41,11,27,284,30,20,27,229,14,1*66
$GPGSV,4,4,16,04,21,074,34,12,12,319,19,03,10,038,22,05,02,221,,1*6C
$GPGSV,3,1,10,195,67,042,45,196,63,128,43,199,60,167,46,06,50,337,37,8*57
$GPGSV,3,2,10,194,42,171,44,09,32,107,41,14,27,177,45,11,27,284,37,8*54
$GPGSV,3,3,10,04,21,074,34,03,10,038,26,8*62
$GLGSV,3,1,09,67,47,064,42,68,47,149,43,82,37,035,43,83,33,339,24,1*78
$GLGSV,3,2,09,80,26,232,18,73,23,292,35,66,07,028,23,74,02,329,,1*79
$GLGSV,3,3,09,79,02,187,,1*43
$GAGSV,2,1,08,24,52,245,34,10,49,332,38,12,48,013,33,11,34,298,16,7*76
$GAGSV,2,2,08,19,30,088,38,04,27,154,40,25,25,308,30,33,15,063,37,7*73
$GAGSV,2,1,08,24,52,245,38,10,49,332,41,12,48,013,36,11,34,298,24,1*76
$GAGSV,2,2,08,19,30,088,36,04,27,154,44,25,25,308,21,33,15,063,36,1*7E
$GBGSV,4,1,15,40,84,123,42,07,81,250,40,10,72,292,41,33,62,151,43,1*7A
$GBGSV,4,2,15,14,61,086,44,08,59,268,38,43,53,053,44,13,49,256,42,1*74
$GBGSV,4,3,15,42,41,055,46,28,37,323,44,11,33,078,38,41,21,197,,1*75
$GBGSV,4,4,15,23,19,222,,34,18,096,39,37,17,274,14,1*44
$GBGSV,2,1,07,40,84,123,45,33,62,151,44,43,53,053,43,42,41,055,45,4*7D
$GBGSV,2,2,07,28,37,323,41,34,18,096,34,37,17,274,31,4*4A
$GNGGA,034241.000,2500.8090057,N,12132.4340394,E,4,63,0.47,17.640,M,15.25,M,5,3335*4F
$GNRMC,034241.000,A,2500.8090057,N,12132.4340394,E,0.00,238.77,270623,,,R,V*18
$GPHDT,227.142,T*35
$GNGGA,034241.200,2500.8090100,N,12132.4340379,E,4,63,0.47,17.632,M,15.25,M,5,3335*48
$GNRMC,034241.200,A,2500.8090100,N,12132.4340379,E,0.00,238.77,270623,,,R,V*1A
$GPHDT,226.965,T*39
$GNGGA,034241.400,2500.8090050,N,12132.4340425,E,4,63,0.47,17.624,M,15.25,M,5,3335*43
$GNRMC,034241.400,A,2500.8090050,N,12132.4340425,E,0.00,238.77,270623,,,R,V*16
$GPHDT,227.022,T*32
$GNGGA,034241.600,2500.8090043,N,12132.4340429,E,4,63,0.47,17.623,M,15.25,M,5,3335*48
$GNRMC,034241.600,A,2500.8090043,N,12132.4340429,E,0.00,238.77,270623,,,R,V*1A
$GPHDT,227.074,T*31
$GNGGA,034241.800,2500.8090018,N,12132.4340439,E,4,64,0.46,17.627,M,15.25,M,5,3335*4B
$GNRMC,034241.800,A,2500.8090018,N,12132.4340439,E,0.00,238.77,270623,,,R,V*1B
$GPHDT,227.109,T*3A
$GNGSA,A,3,195,19,17,196,199,06,194,09,11,14,04,12,0.84,0.46,0.70,1*05
$GNGSA,A,3,03,,,,,,,,,,,,0.84,0.46,0.70,1*0B
$GNGSA,A,3,67,68,82,83,80,73,,,,,,,0.84,0.46,0.70,2*09
$GNGSA,A,3,24,10,12,11,19,04,25,33,,,,,0.84,0.46,0.70,3*05
$GNGSA,A,3,40,07,10,33,14,08,43,13,42,28,11,34,0.84,0.46,0.70,4*0C
$GNGSA,A,3,37,,,,,,,,,,,,0.84,0.46,0.70,4*09
$GPGSV,4,1,15,195,67,042,42,19,65,016,41,17,64,072,39,196,63,128,38,1*60
$GPGSV,4,2,15,50,60,167,38,199,60,167,35,06,50,337,38,194,42,171,43,1*6A
$GPGSV,4,3,15,09,32,107,38,11,27,284,30,20,27,229,12,14,27,177,41,1*63
$GPGSV,4,4,15,04,21,074,34,12,12,319,19,03,10,038,24,1*5F
$GPGSV,3,1,10,195,67,042,45,196,63,128,43,199,60,167,46,06,50,337,37,8*57
$GPGSV,3,2,10,194,42,171,44,09,32,107,41,14,27,177,45,11,27,284,36,8*55
$GPGSV,3,3,10,04,21,074,34,03,10,038,27,8*63
$GLGSV,3,1,09,67,47,064,42,68,47,149,43,82,37,035,43,83,33,339,24,1*78
$GLGSV,3,2,09,80,26,232,18,73,23,292,35,66,07,028,24,74,02,329,,1*7E
$GLGSV,3,3,09,79,02,187,,1*43
$GAGSV,2,1,08,24,52,245,34,10,49,332,39,12,48,013,33,11,34,298,15,7*74
$GAGSV,2,2,08,19,31,087,38,04,27,154,40,25,25,308,31,33,15,063,37,7*7C
$GAGSV,2,1,08,24,52,245,38,10,49,332,41,12,48,013,36,11,34,298,25,1*77
$GAGSV,2,2,08,19,31,087,36,04,27,154,44,25,25,308,22,33,15,063,36,1*73
$GBGSV,5,1,17,40,84,123,42,07,81,250,40,10,72,292,41,33,62,151,43,1*79
$GBGSV,5,2,17,14,61,086,44,08,59,268,38,43,53,053,44,13,49,256,42,1*77
$GBGSV,5,3,17,42,41,055,46,28,37,323,44,11,33,078,38,41,21,197,,1*76
$GBGSV,5,4,17,23,19,222,,34,18,096,39,37,17,274,16,39,02,179,,1*72
$GBGSV,5,5,17,06,01,189,,1*47
$GBGSV,2,1,07,40,84,123,45,33,62,151,44,43,53,053,43,42,41,055,45,4*7D
$GBGSV,2,2,07,28,37,323,41,34,18,096,35,37,17,274,31,4*4B
$GNGGA,034242.000,2500.8090071,N,12132.4340416,E,4,64,0.46,17.642,M,15.25,M,6,3335*42
$GNRMC,034242.000,A,2500.8090071,N,12132.4340416,E,0.00,238.77,270623,,,R,V*12
$GPHDT,227.021,T*31
$GNGGA,034242.200,2500.8090048,N,12132.4340397,E,4,64,0.46,17.640,M,15.25,M,6,3335*46
$GNRMC,034242.200,A,2500.8090048,N,12132.4340397,E,0.00,238.77,270623,,,R,V*14
$GPHDT,227.110,T*32
$GNGGA,034242.400,2500.8090084,N,12132.4340436,E,4,64,0.46,17.646,M,15.25,M,6,3335*4A
$GNRMC,034242.400,A,2500.8090084,N,12132.4340436,E,0.00,238.77,270623,,,R,V*1E
$GPHDT,227.123,T*32
$GNGGA,034242.600,2500.8090098,N,12132.4340384,E,4,64,0.46,17.658,M,15.25,M,6,3335*44
$GNRMC,034242.600,A,2500.8090098,N,12132.4340384,E,0.00,238.77,270623,,,R,V*1F
$GPHDT,227.262,T*34
$GNGGA,034242.800,2500.8090102,N,12132.4340411,E,4,64,0.46,17.666,M,15.25,M,6,3335*4E
$GNRMC,034242.800,A,2500.8090102,N,12132.4340411,E,0.00,238.77,270623,,,R,V*18
$GPHDT,227.201,T*31
$GNGSA,A,3,195,19,17,196,199,06,194,09,11,14,04,12,0.84,0.46,0.70,1*05
$GNGSA,A,3,03,,,,,,,,,,,,0.84,0.46,0.70,1*0B
$GNGSA,A,3,67,68,82,83,80,73,,,,,,,0.84,0.46,0.70,2*09
$GNGSA,A,3,24,10,12,11,19,04,25,33,,,,,0.84,0.46,0.70,3*05
$GNGSA,A,3,40,07,10,33,14,08,43,13,42,28,11,34,0.84,0.46,0.70,4*0C
$GNGSA,A,3,37,,,,,,,,,,,,0.84,0.46,0.70,4*09
$GPGSV,4,1,15,195,67,042,42,19,65,016,41,17,64,072,39,196,63,128,38,1*60
$GPGSV,4,2,15,50,60,167,38,199,60,167,35,06,50,337,37,194,42,171,43,1*65
$GPGSV,4,3,15,09,32,107,38,11,27,284,29,14,27,177,41,20,27,229,,1*68
$GPGSV,4,4,15,04,21,074,33,12,12,319,19,03,10,038,22,1*5E
$GPGSV,3,1,10,195,67,042,45,196,63,128,43,199,60,167,46,06,50,337,37,8*57
$GPGSV,3,2,10,194,42,171,44,09,32,107,41,14,27,177,45,11,27,284,36,8*55
$GPGSV,3,3,10,04,21,074,34,03,10,038,26,8*62
$GLGSV,2,1,08,67,47,064,42,68,47,149,43,82,37,035,43,83,33,339,22,1*7E
$GLGSV,2,2,08,80,26,232,17,73,23,292,35,66,07,028,24,79,02,187,,1*7A
$GAGSV,2,1,08,24,52,245,34,10,49,332,39,12,48,013,33,11,34,298,14,7*75
$GAGSV,2,2,08,19,31,087,38,04,27,154,40,25,25,308,31,33,15,063,37,7*7C
$GAGSV,2,1,08,24,52,245,38,10,49,332,41,12,48,013,36,11,34,298,24,1*76
$GAGSV,2,2,08,19,31,087,36,04,27,154,44,25,25,308,21,33,15,063,36,1*70
$GBGSV,4,1,15,40,84,123,42,07,81,250,40,10,72,292,41,33,62,151,43,1*7A
$GBGSV,4,2,15,14,61,086,44,08,59,268,38,43,53,053,44,13,49,256,42,1*74
$GBGSV,4,3,15,42,41,055,46,28,37,323,44,11,33,078,39,41,21,197,,1*74
$GBGSV,4,4,15,23,19,222,,34,18,096,39,37,17,274,16,1*46
$GBGSV,2,1,07,40,84,123,45,33,62,151,45,43,53,053,43,42,41,055,45,4*7C
$GBGSV,2,2,07,28,37,323,41,34,18,096,35,37,17,274,31,4*4B
$GNGGA,034243.000,2500.8090062,N,12132.4340423,E,4,64,0.46,17.646,M,15.25,M,5,3335*40
$GNRMC,034243.000,A,2500.8090062,N,12132.4340423,E,0.00,238.77,270623,,,R,V*17
$GPHDT,227.086,T*3C
$GNGGA,034243.200,2500.8090108,N,12132.4340412,E,4,64,0.46,17.635,M,15.25,M,3,3335*4F
$GNRMC,034243.200,A,2500.8090108,N,12132.4340412,E,0.00,238.77,270623,,,R,V*1A
$GPHDT,226.703,T*37
$GNGGA,034243.400,2500.8090082,N,12132.4340449,E,4,64,0.46,17.645,M,15.25,M,1,3335*41
$GNRMC,034243.400,A,2500.8090082,N,12132.4340449,E,0.00,238.77,270623,,,R,V*11
$GPHDT,227.009,T*3B
$GNGGA,034243.600,2500.8090094,N,12132.4340424,E,4,64,0.46,17.626,M,15.25,M,0,3335*4B
$GNRMC,034243.600,A,2500.8090094,N,12132.4340424,E,0.00,238.77,270623,,,R,V*1F
$GPHDT,226.949,T*37
$GNGGA,034243.800,2500.8090067,N,12132.4340437,E,4,64,0.46,17.596,M,15.25,M,0,3335*43
$GNRMC,034243.800,A,2500.8090067,N,12132.4340437,E,0.00,238.77,270623,,,R,V*1F
$GPHDT,226.834,T*3C
$GNGSA,A,3,195,19,17,196,199,06,194,09,14,11,04,12,0.84,0.46,0.70,1*05
$GNGSA,A,3,03,,,,,,,,,,,,0.84,0.46,0.70,1*0B
$GNGSA,A,3,67,68,82,83,80,73,,,,,,,0.84,0.46,0.70,2*09
$GNGSA,A,3,24,10,12,11,19,04,25,33,,,,,0.84,0.46,0.70,3*05
$GNGSA,A,3,40,07,10,33,14,08,43,13,42,28,11,34,0.84,0.46,0.70,4*0C
$GNGSA,A,3,37,,,,,,,,,,,,0.84,0.46,0.70,4*09
$GPGSV,4,1,16,195,67,042,42,19,65,016,41,17,64,072,40,196,63,128,40,1*62
$GPGSV,4,2,16,199,60,167,35,50,60,167,38,06,50,337,37,194,42,171,43,1*66
$GPGSV,4,3,16,09,32,107,38,14,27,177,41,11,27,284,27,20,27,229,,1*65
$GPGSV,4,4,16,04,21,074,33,12,12,319,19,03,10,038,22,05,02,221,,1*6B
$GPGSV,3,1,10,195,67,042,45,196,63,128,44,199,60,167,46,06,50,337,37,8*50
$GPGSV,3,2,10,194,42,171,44,09,32,107,41,14,27,177,45,11,27,284,36,8*55
$GPGSV,3,3,10,04,21,074,35,03,10,038,26,8*63
$GLGSV,3,1,10,67,47,064,42,68,47,149,41,82,37,035,43,83,33,339,21,1*77
$GLGSV,3,2,10,80,26,232,19,73,23,292,35,69,08,185,,66,07,028,25,1*74
$GLGSV,3,3,10,74,02,329,,79,02,187,,1*72
$GAGSV,2,1,08,24,52,245,34,10,49,332,39,12,48,013,33,11,34,298,14,7*75
$GAGSV,2,2,08,19,31,087,37,04,27,154,40,25,25,308,29,33,15,063,37,7*7A
$GAGSV,2,1,08,24,52,245,38,10,49,332,41,12,48,013,36,11,34,298,24,1*76
$GAGSV,2,2,08,19,31,087,36,04,27,154,44,25,25,308,21,33,15,063,36,1*70
$GBGSV,4,1,15,40,84,123,42,07,81,250,40,10,72,292,41,33,62,151,44,1*7D
$GBGSV,4,2,15,14,61,086,44,08,59,268,38,43,53,053,44,13,49,256,42,1*74
$GBGSV,4,3,15,42,41,055,46,28,37,323,44,11,33,078,39,41,21,197,,1*74
$GBGSV,4,4,15,23,19,222,,34,18,096,39,37,17,274,14,1*44
$GBGSV,2,1,07,40,84,123,45,33,62,151,46,43,53,053,43,42,41,055,45,4*7F
$GBGSV,2,2,07,28,37,323,41,34,18,096,35,37,17,274,31,4*4B
$GNGGA,034244.000,2500.8090132,N,12132.4340386,E,4,64,0.46,17.627,M,15.25,M,1,3335*48
$GNRMC,034244.000,A,2500.8090132,N,12132.4340386,E,0.00,238.77,270623,,,R,V*1C
$GPHDT,226.797,T*3A
$GNGGA,034244.200,2500.8090123,N,12132.4340409,E,4,63,0.46,17.613,M,15.25,M,1,3335*4A
$GNRMC,034244.200,A,2500.8090123,N,12132.4340409,E,0.00,238.77,270623,,,R,V*1E
$GPHDT,226.670,T*32
$GNGGA,034244.400,2500.8090152,N,12132.4340406,E,4,63,0.46,17.640,M,15.25,M,1,3335*43
$GNRMC,034244.400,A,2500.8090152,N,12132.4340406,E,0.00,238.77,270623,,,R,V*11
$GPHDT,226.713,T*36
$GNGGA,034244.600,2500.8090110,N,12132.4340403,E,4,63,0.46,17.642,M,15.25,M,0,3335*41
$GNRMC,034244.600,A,2500.8090110,N,12132.4340403,E,0.00,238.77,270623,,,R,V*10
$GPHDT,227.123,T*32
$GNGGA,034244.800,2500.8090116,N,12132.4340371,E,4,63,0.46,17.638,M,15.25,M,0,3335*46
$GNRMC,034244.800,A,2500.8090116,N,12132.4340371,E,0.00,238.77,270623,,,R,V*1A
$GPHDT,226.768,T*3A
$GNGSA,A,3,195,19,17,196,199,06,194,09,14,11,04,12,0.83,0.46,0.69,1*0A
$GNGSA,A,3,03,,,,,,,,,,,,0.83,0.46,0.69,1*04
$GNGSA,A,3,67,68,82,83,80,73,,,,,,,0.83,0.46,0.69,2*06
$GNGSA,A,3,24,10,12,11,19,04,25,33,,,,,0.83,0.46,0.69,3*0A
$GNGSA,A,3,40,07,10,33,14,08,43,13,42,28,11,34,0.83,0.46,0.69,4*03
$GNGSA,A,3,37,,,,,,,,,,,,0.83,0.46,0.69,4*06
$GPGSV,4,1,16,195,67,042,42,19,65,016,41,17,64,072,40,196,63,128,41,1*63
$GPGSV,4,2,16,199,60,167,36,50,60,167,38,06,50,337,37,194,42,171,43,1*65
$GPGSV,4,3,16,09,32,107,38,14,27,177,41,11,27,284,26,20,27,229,,1*64
$GPGSV,4,4,16,04,21,074,32,12,12,319,22,03,10,038,21,05,02,221,,1*61
$GPGSV,3,1,10,195,67,042,45,196,63,128,44,199,60,167,46,06,50,337,37,8*50
$GPGSV,3,2,10,194,42,171,44,09,32,107,40,14,27,177,45,11,27,284,36,8*54
$GPGSV,3,3,10,04,21,074,35,03,10,038,26,8*63
$GLGSV,3,1,09,67,47,064,42,68,47,149,39,82,37,035,44,83,33,339,22,1*74
$GLGSV,3,2,09,80,26,232,17,73,23,292,35,66,07,028,25,74,02,329,,1*70
$GLGSV,3,3,09,79,02,187,,1*43
$GAGSV,2,1,08,24,52,245,35,10,49,332,39,12,48,013,33,11,34,298,15,7*75
$GAGSV,2,2,08,19,31,087,37,04,27,154,40,25,25,308,28,33,15,063,37,7*7B
$GAGSV,2,1,08,24,52,245,38,10,49,332,41,12,48,013,36,11,34,298,24,1*76
$GAGSV,2,2,08,19,31,087,36,04,27,154,44,25,25,308,18,33,15,063,35,1*79
$GBGSV,4,1,16,40,84,123,42,07,81,250,41,10,72,292,41,33,62,151,45,1*7E
$GBGSV,4,2,16,14,61,086,44,08,59,268,38,43,53,053,44,13,49,256,42,1*77
$GBGSV,4,3,16,42,41,055,45,28,37,323,44,11,33,078,39,41,21,197,,1*74
$GBGSV,4,4,16,23,19,222,,34,18,096,39,37,17,274,14,39,02,179,,1*70
$GBGSV,2,1,07,40,84,123,45,33,62,151,46,43,53,053,43,42,41,055,44,4*7E
$GBGSV,2,2,07,28,37,323,41,34,18,096,35,37,17,274,31,4*4B
$GNGGA,034245.000,2500.8090108,N,12132.4340409,E,4,63,0.46,17.640,M,15.25,M,1,3335*46
$GNRMC,034245.000,A,2500.8090108,N,12132.4340409,E,0.00,238.77,270623,,,R,V*14
$GPHDT,226.878,T*34
$GNGGA,034245.200,2500.8090096,N,12132.4340425,E,4,63,0.46,17.645,M,15.25,M,1,3335*49
$GNRMC,034245.200,A,2500.8090096,N,12132.4340425,E,0.00,238.77,270623,,,R,V*1E
$GPHDT,227.027,T*37
$GNGGA,034245.400,2500.8090107,N,12132.4340391,E,4,63,0.46,17.643,M,15.25,M,1,3335*48
$GNRMC,034245.400,A,2500.8090107,N,12132.4340391,E,0.00,238.77,270623,,,R,V*19
$GPHDT,226.895,T*37
$GNGGA,034245.600,2500.8090123,N,12132.4340387,E,4,63,0.46,17.660,M,15.25,M,1,3335*4A
$GNRMC,034245.600,A,2500.8090123,N,12132.4340387,E,0.00,238.77,270623,,,R,V*1A
$GPHDT,226.867,T*3A
$GNGGA,034245.800,2500.8090115,N,12132.4340377,E,4,63,0.46,17.643,M,15.25,M,1,3335*4F
$GNRMC,034245.800,A,2500.8090115,N,12132.4340377,E,0.00,238.77,270623,,,R,V*1E
$GPHDT,226.977,T*3A
$GNGSA,A,3,195,19,17,196,199,06,194,09,11,14,04,12,0.83,0.46,0.69,1*0A
$GNGSA,A,3,03,,,,,,,,,,,,0.83,0.46,0.69,1*04
$GNGSA,A,3,68,67,82,83,80,73,,,,,,,0.83,0.46,0.69,2*06
$GNGSA,A,3,24,10,12,11,19,04,25,33,,,,,0.83,0.46,0.69,3*0A
$GNGSA,A,3,40,07,10,33,14,08,43,13,42,28,11,34,0.83,0.46,0.69,4*03
$GNGSA,A,3,37,,,,,,,,,,,,0.83,0.46,0.69,4*06
$GPGSV,4,1,15,195,67,042,42,19,65,016,41,17,64,072,40,196,63,128,41,1*60
$GPGSV,4,2,15,50,60,167,38,199,60,167,36,06,50,337,37,194,42,171,43,1*66
$GPGSV,4,3,15,09,32,107,38,11,27,284,26,20,27,229,,14,27,177,41,1*67
$GPGSV,4,4,15,04,21,074,32,12,12,319,22,03,10,038,22,1*57
$GPGSV,3,1,10,195,67,042,45,196,63,128,44,199,60,167,47,06,50,337,37,8*51
$GPGSV,3,2,10,194,42,171,44,09,32,107,40,14,27,177,45,11,27,284,36,8*54
$GPGSV,3,3,10,04,21,074,35,03,10,038,26,8*63
$GLGSV,2,1,08,68,48,149,39,67,47,064,42,82,37,035,44,83,33,339,24,1*7D
$GLGSV,2,2,08,80,26,232,14,73,23,292,35,66,07,028,28,79,02,187,,1*75
$GAGSV,2,1,08,24,52,245,36,10,49,332,39,12,48,013,31,11,34,298,15,7*74
$GAGSV,2,2,08,19,31,087,36,04,27,154,40,25,25,308,28,33,15,063,36,7*7B
$GAGSV,2,1,08,24,52,245,39,10,49,332,41,12,48,013,36,11,34,298,24,1*77
$GAGSV,2,2,08,19,31,087,36,04,27,154,44,25,25,308,16,33,15,063,35,1*77
$GBGSV,4,1,16,40,84,123,42,07,81,250,41,10,72,292,41,33,62,151,45,1*7E
$GBGSV,4,2,16,14,61,086,44,08,59,268,38,43,53,053,44,13,49,256,42,1*77
$GBGSV,4,3,16,42,41,055,45,28,37,323,44,11,33,078,39,41,21,197,,1*74
$GBGSV,4,4,16,23,19,222,,34,18,096,39,37,17,274,13,39,02,179,,1*77
$GBGSV,2,1,07,40,84,123,45,33,62,151,46,43,53,053,43,42,41,055,44,4*7E
$GBGSV,2,2,07,28,37,323,41,34,18,096,36,37,17,274,31,4*48
$GNGGA,034246.000,2500.8090107,N,12132.4340388,E,4,63,0.46,17.651,M,15.25,M,2,3335*47
$GNRMC,034246.000,A,2500.8090107,N,12132.4340388,E,0.00,238.77,270623,,,R,V*16
$GPHDT,226.830,T*38
$GNGGA,034246.200,2500.8090105,N,12132.4340393,E,4,63,0.46,17.653,M,15.25,M,2,3335*4F
$GNRMC,034246.200,A,2500.8090105,N,12132.4340393,E,0.00,238.77,270623,,,R,V*1C
$GPHDT,226.830,T*38
$GNGGA,034246.400,2500.8090136,N,12132.4340362,E,4,63,0.46,17.659,M,15.25,M,2,3335*4D
$GNRMC,034246.400,A,2500.8090136,N,12132.4340362,E,0.00,238.77,270623,,,R,V*14
$GPHDT,226.968,T*34
$GNGGA,034246.600,2500.8090057,N,12132.4340413,E,4,63,0.46,17.625,M,15.25,M,2,3335*43
$GNRMC,034246.600,A,2500.8090057,N,12132.4340413,E,0.00,238.77,270623,,,R,V*11
$GPHDT,226.809,T*32
$GNGGA,034246.800,2500.8090059,N,12132.4340408,E,4,63,0.46,17.632,M,15.25,M,2,3335*4F
$GNRMC,034246.800,A,2500.8090059,N,12132.4340408,E,0.00,238.77,270623,,,R,V*1B
$GPHDT,226.948,T*36
$GNGSA,A,3,195,19,17,196,199,06,194,09,11,14,04,12,0.83,0.46,0.69,1*0A
$GNGSA,A,3,03,,,,,,,,,,,,0.83,0.46,0.69,1*04
$GNGSA,A,3,68,67,82,83,80,73,,,,,,,0.83,0.46,0.69,2*06
$GNGSA,A,3,24,10,12,11,19,04,25,33,,,,,0.83,0.46,0.69,3*0A
$GNGSA,A,3,40,07,10,33,14,08,43,13,42,28,11,34,0.83,0.46,0.69,4*03
$GNGSA,A,3,37,,,,,,,,,,,,0.83,0.46,0.69,4*06
$GPGSV,4,1,15,195,67,042,42,19,65,016,41,17,64,072,40,196,63,128,41,1*60
$GPGSV,4,2,15,50,60,167,38,199,60,167,36,06,50,337,37,194,42,171,43,1*66
$GPGSV,4,3,15,09,32,107,38,11,27,284,28,20,27,229,,14,27,177,41,1*69
$GPGSV,4,4,15,04,21,074,32,12,12,319,22,03,10,038,21,1*54
$GPGSV,3,1,10,195,67,042,45,196,63,128,44,199,60,167,47,06,50,337,37,8*51
$GPGSV,3,2,10,194,42,171,44,09,32,107,40,14,27,177,45,11,27,284,35,8*57
$GPGSV,3,3,10,04,21,074,35,03,10,038,27,8*62
$GLGSV,2,1,08,68,48,149,39,67,47,064,42,82,37,035,44,83,33,339,25,1*7C
$GLGSV,2,2,08,80,26,232,15,73,23,291,34,66,07,028,29,79,02,187,,1*77
$GAGSV,2,1,08,24,52,245,36,10,49,332,39,12,48,013,32,11,34,298,15,7*77
$GAGSV,2,2,08,19,31,087,36,04,27,154,40,25,25,308,28,33,15,063,36,7*7B
$GAGSV,2,1,08,24,52,245,39,10,49,332,41,12,48,013,36,11,34,298,22,1*71
$GAGSV,2,2,08,19,31,087,36,04,27,154,44,25,25,308,16,33,15,063,35,1*77
$GBGSV,4,1,16,40,84,123,42,07,81,250,41,10,72,292,41,33,62,151,45,1*7E
$GBGSV,4,2,16,14,61,086,44,08,59,268,38,43,53,053,44,13,49,256,42,1*77
$GBGSV,4,3,16,42,41,055,44,28,37,323,44,11,33,078,40,41,21,197,,1*7B
$GBGSV,4,4,16,23,19,222,,34,18,096,38,37,17,274,14,39,02,179,,1*71
$GBGSV,2,1,07,40,84,123,45,33,62,151,46,43,53,053,43,42,41,055,44,4*7E
$GBGSV,2,2,07,28,37,323,41,34,18,096,36,37,17,274,30,4*49
$GNGGA,034247.000,2500.8090043,N,12132.4340402,E,4,63,0.46,17.632,M,15.25,M,3,3335*46
$GNRMC,034247.000,A,2500.8090043,N,12132.4340402,E,0.00,238.77,270623,,,R,V*13
$GPHDT,226.926,T*3E
$GNGGA,034247.200,2500.8090104,N,12132.4340423,E,4,63,0.46,17.651,M,15.25,M,3,3335*40
$GNRMC,034247.200,A,2500.8090104,N,12132.4340423,E,0.00,238.77,270623,,,R,V*10
$GPHDT,227.091,T*3A
$GNGGA,034247.400,2500.8090055,N,12132.4340431,E,4,63,0.46,17.636,M,15.25,M,3,3335*41
$GNRMC,034247.400,A,2500.8090055,N,12132.4340431,E,0.00,238.77,270623,,,R,V*10
$GPHDT,227.131,T*31
$GNGGA,034247.600,2500.8090122,N,12132.4340414,E,4,63,0.46,17.668,M,15.25,M,3,3335*4E
$GNRMC,034247.600,A,2500.8090122,N,12132.4340414,E,0.00,238.77,270623,,,R,V*14
$GPHDT,227.345,T*30
$GNGGA,034247.800,2500.8090073,N,12132.4340415,E,4,63,0.46,17.639,M,15.25,M,3,3335*40
$GNRMC,034247.800,A,2500.8090073,N,12132.4340415,E,0.00,238.77,270623,,,R,V*1E
$GPHDT,227.002,T*30
$GNGSA,A,3,195,19,17,196,199,06,194,09,11,14,04,12,0.83,0.46,0.69,1*0A
$GNGSA,A,3,03,,,,,,,,,,,,0.83,0.46,0.69,1*04
$GNGSA,A,3,68,67,82,83,80,73,,,,,,,0.83,0.46,0.69,2*06
$GNGSA,A,3,24,10,12,11,19,04,25,33,,,,,0.83,0.46,0.69,3*0A
$GNGSA,A,3,40,07,10,33,14,08,43,13,42,28,11,34,0.83,0.46,0.69,4*03
$GNGSA,A,3,37,,,,,,,,,,,,0.83,0.46,0.69,4*06
$GPGSV,4,1,15,195,67,042,42,19,65,016,41,17,64,072,41,196,63,128,41,1*61
$GPGSV,4,2,15,50,60,167,38,199,60,167,36,06,50,337,39,194,42,171,43,1*68
$GPGSV,4,3,15,09,32,107,38,11,27,284,28,20,27,229,,14,27,177,41,1*69
$GPGSV,4,4,15,04,21,074,29,12,12,319,20,03,10,038,21,1*5C
$GPGSV,3,1,10,195,67,042,45,196,63,128,44,199,60,167,47,06,50,337,39,8*5F
$GPGSV,3,2,10,194,42,171,44,09,32,107,40,14,27,177,45,11,27,284,35,8*57
$GPGSV,3,3,10,04,21,074,36,03,10,038,27,8*61
$GLGSV,3,1,09,68,48,149,39,67,47,064,42,82,37,035,44,83,33,339,26,1*7F
$GLGSV,3,2,09,80,26,232,14,73,23,291,34,69,09,185,,66,07,028,28,1*7F
$GLGSV,3,3,09,79,01,187,,1*40
$GAGSV,2,1,08,24,52,245,37,10,49,332,39,12,48,013,33,11,34,298,15,7*77
$GAGSV,2,2,08,19,31,087,35,04,27,154,40,25,25,308,30,33,15,063,37,7*70
$GAGSV,2,1,08,24,52,245,39,10,49,332,42,12,48,013,37,11,34,298,22,1*73
$GAGSV,2,2,08,19,31,087,36,04,27,154,44,25,25,308,19,33,15,063,36,1*7B
$GBGSV,4,1,16,40,84,123,41,07,81,250,41,10,72,292,40,33,62,151,45,1*7C
$GBGSV,4,2,16,14,61,086,44,08,59,268,38,43,53,053,44,13,49,256,42,1*77
$GBGSV,4,3,16,42,41,055,44,28,37,323,44,11,33,078,40,41,21,197,,1*7B
$GBGSV,4,4,16,23,19,222,,34,18,096,38,37,17,274,14,39,02,179,,1*71
$GBGSV,2,1,07,40,84,123,45,33,62,151,46,43,53,053,43,42,41,055,44,4*7E
$GBGSV,2,2,07,28,37,323,41,34,18,096,35,37,17,274,30,4*4A
$GNGGA,034248.000,2500.8090092,N,12132.4340432,E,4,63,0.46,17.658,M,15.25,M,4,3335*4D
$GNRMC,034248.000,A,2500.8090092,N,12132.4340432,E,0.00,238.77,270623,,,R,V*13
$GPHDT,227.341,T*34
$GNGGA,034248.200,2500.8090098,N,12132.4340417,E,4,63,0.46,17.650,M,15.25,M,4,3335*4A
$GNRMC,034248.200,A,2500.8090098,N,12132.4340417,E,0.00,238.77,270623,,,R,V*1C
$GPHDT,226.867,T*3A
$GNGGA,034248.400,2500.8090078,N,12132.4340444,E,4,63,0.46,17.635,M,15.25,M,4,3335*47
$GNRMC,034248.400,A,2500.8090078,N,12132.4340444,E,0.00,238.77,270623,,,R,V*12
$GPHDT,227.039,T*38
$GNGGA,034248.600,2500.8090055,N,12132.4340475,E,4,63,0.46,17.622,M,15.25,M,4,3335*4E
$GNRMC,034248.600,A,2500.8090055,N,12132.4340475,E,0.00,238.77,270623,,,R,V*1D
$GPHDT,227.365,T*32
$GNGGA,034248.800,2500.8090036,N,12132.4340421,E,4,62,0.47,17.624,M,15.25,M,4,3335*42
$GNR