$FW : RTK35X,V1.1X0314AS,Lib20210517,1*54
$Tool : LOCOSYS , GNSS Firebird , v1.0.0.19*39
$---------------------------------------------------*2D
$GPHDT,3.820,T*3C
$GNGGA,034120.800,2500.8090060,N,12132.4340520,E,4,65,0.43,17.610,M,15.25,M,2,3335*4E
$GNRMC,034120.800,A,2500.8090060,N,12132.4340520,E,0.02,238.77,270623,,,R,V*1B
$GPHDT,4.067,T*30
$GNGSA,A,3,195,19,17,196,199,06,194,09,14,20,11,04,0.73,0.45,0.58,1*05
$GNGSA,A,3,03,,,,,,,,,,,,0.73,0.45,0.58,1*0A
$GNGSA,A,3,67,68,82,83,80,73,,,,,,,0.73,0.45,0.58,2*08
$GNGSA,A,3,24,10,12,11,19,04,25,33,,,,,0.73,0.45,0.58,3*04
$GNGSA,A,3,40,07,10,33,14,08,43,13,42,28,11,34,0.73,0.45,0.58,4*0D
$GNGSA,A,3,37,,,,,,,,,,,,0.73,0.45,0.58,4*08
$GPGSV,4,1,16,195,67,042,43,19,64,015,41,17,64,070,44,196,63,128,38,1*68
$GPGSV,4,2,16,199,60,167,35,50,60,167,38,06,50,336,43,194,42,171,44,1*63
$GPGSV,4,3,16,09,32,108,30,14,28,177,42,20,27,229,18,11,26,283,17,1*62
$GPGSV,4,4,16,04,21,075,35,03,11,038,26,12,11,319,21,05,01,220,,1*63
$GPGSV,3,1,09,195,67,042,46,196,63,128,43,199,60,167,47,06,50,336,45,8*59
$GPGSV,3,2,09,194,42,171,44,09,32,108,37,14,28,177,42,11,26,283,42,8*5E
$GPGSV,3,3,09,03,11,038,26,8*58
$GLGSV,2,1,08,67,47,065,41,68,47,149,42,82,37,034,44,83,33,338,32,1*7B
$GLGSV,2,2,08,80,26,232,20,73,23,292,31,66,08,028,25,79,02,187,,1*74
$GAGSV,2,1,08,24,53,245,35,10,49,331,40,12,48,012,39,11,34,298,23,7*77
$GAGSV,2,2,08,19,30,088,30,04,26,155,37,25,24,309,29,33,15,062,19,7*7E
$GAGSV,2,1,08,24,53,245,41,10,49,331,45,12,48,012,41,11,34,298,28,1*73
$GAGSV,2,2,08,19,30,088,32,04,26,155,39,25,24,309,32,33,15,062,36,1*73
$GBGSV,4,1,16,40,84,121,42,07,82,251,37,10,72,293,39,33,62,152,45,1*72
$GBGSV,4,2,16,14,61,087,44,08,59,267,39,43,53,051,43,13,49,256,40,1*7F
$GBGSV,4,3,16,42,41,055,38,28,36,323,46,11,33,078,40,41,20,197,,1*72
$GBGSV,4,4,16,23,20,222,,34,18,095,41,37,17,275,23,06,01,189,,1*73
$GBGSV,2,1,07,40,84,121,46,33,62,152,46,43,53,051,44,42,41,055,41,4*7C
$GBGSV,2,2,07,28,36,323,41,34,18,095,33,37,17,275,32,4*4D
$GNGGA,034121.000,2500.8090146,N,12132.4340524,E,4,64,0.45,17.656,M,15.25,M,3,3335*42
$GNRMC,034121.000,A,2500.8090146,N,12132.4340524,E,0.02,238.77,270623,,,R,V*13
$GPHDT,3.958,T*32
$GNGGA,034121.200,2500.8090100,N,12132.4340560,E,4,64,0.45,17.636,M,15.25,M,3,3335*44
$GNRMC,034121.200,A,2500.8090100,N,12132.4340560,E,0.01,238.77,270623,,,R,V*10
$GPHDT,3.902,T*3D
$GNGGA,034121.400,2500.8090082,N,12132.4340537,E,4,65,0.43,17.631,M,15.25,M,3,3335*4B
$GNRMC,034121.400,A,2500.8090082,N,12132.4340537,E,0.01,238.77,270623,,,R,V*1F
$GPHDT,3.728,T*3B
$GNGGA,034121.600,2500.8090141,N,12132.4340552,E,4,65,0.43,17.661,M,15.25,M,3,3335*41
$GNRMC,034121.600,A,2500.8090141,N,12132.4340552,E,0.02,238.77,270623,,,R,V*13
$GPHDT,3.539,T*39
$GNGGA,034121.800,2500.8090132,N,12132.4340542,E,4,66,0.43,17.644,M,15.25,M,3,3335*4E
$GNRMC,034121.800,A,2500.8090132,N,12132.4340542,E,0.04,238.77,270623,,,R,V*1E
$GPHDT,3.663,T*35
$GNGSA,A,3,195,19,17,196,199,06,194,09,14,20,11,04,0.72,0.43,0.57,1*0D
$GNGSA,A,3,03,12,,,,,,,,,,,0.72,0.43,0.57,1*01
$GNGSA,A,3,67,68,82,83,80,73,,,,,,,0.72,0.43,0.57,2*00
$GNGSA,A,3,24,10,12,11,19,04,25,33,,,,,0.72,0.43,0.57,3*0C
$GNGSA,A,3,40,07,10,33,14,08,43,13,42,28,11,34,0.72,0.43,0.57,4*05
$GNGSA,A,3,37,,,,,,,,,,,,0.72,0.43,0.57,4*00
$GPGSV,4,1,16,195,67,042,43,19,64,015,41,17,64,070,44,196,63,128,39,1*69
$GPGSV,4,2,16,199,60,167,35,50,60,167,38,06,50,336,43,194,42,171,44,1*63
$GPGSV,4,3,16,09,32,108,30,14,28,177,42,20,27,229,19,11,26,283,15,1*61
$GPGSV,4,4,16,04,21,075,35,03,11,038,28,12,11,319,19,05,01,220,,1*66
$GPGSV,3,1,10,195,67,042,46,196,63,128,43,199,60,167,46,06,50,336,45,8*50
$GPGSV,3,2,10,194,42,171,44,09,32,108,37,14,28,177,42,11,26,283,42,8*56
$GPGSV,3,3,10,04,21,075,27,03,11,038,26,8*60
$GLGSV,3,1,10,67,47,065,41,68,47,149,42,82,37,034,45,83,33,338,31,1*71
$GLGSV,3,2,10,80,26,232,20,73,23,292,32,66,08,028,25,69,08,185,,1*76
$GLGSV,3,3,10,74,02,330,,79,02,187,,1*7A
$GAGSV,2,1,08,24,53,245,34,10,49,331,40,12,48,012,38,11,34,298,23,7*77
$GAGSV,2,2,08,19,30,088,30,04,26,155,37,25,24,309,29,33,15,062,19,7*7E
$GAGSV,2,1,08,24,53,245,41,10,49,331,44,12,48,012,41,11,34,298,28,1*72
$GAGSV,2,2,08,19,30,088,32,04,26,155,39,25,24,309,31,33,15,062,36,1*70
$GBGSV,4,1,15,40,84,121,42,07,82,251,37,10,72,293,39,33,62,152,45,1*71
$GBGSV,4,2,15,14,61,087,44,08,59,267,39,43,53,052,43,13,49,256,40,1*7F
$GBGSV,4,3,15,42,41,055,38,28,36,323,46,11,33,078,40,41,20,197,,1*71
$GBGSV,4,4,15,34,18,095,41,37,17,275,19,06,01,189,,1*48
$GBGSV,2,1,07,40,84,121,45,33,62,152,46,43,53,052,44,42,41,055,41,4*7C
$GBGSV,2,2,07,28,36,323,41,34,18,095,33,37,17,275,32,4*4D
$GNGGA,034122.000,2500.8090163,N,12132.4340511,E,4,66,0.43,17.667,M,15.25,M,3,3335*46
$GNRMC,034122.000,A,2500.8090163,N,12132.4340511,E,0.03,238.77,270623,,,R,V*10
$GPHDT,3.699,T*30
$GNGGA,034122.200,2500.8090172,N,12132.4340550,E,4,66,0.43,17.677,M,15.25,M,3,3335*40
$GNRMC,034122.200,A,2500.8090172,N,12132.4340550,E,0.04,238.77,270623,,,R,V*10
$GPHDT,3.768,T*3F
$GNGGA,034122.400,2500.8090220,N,12132.4340533,E,4,66,0.43,17.679,M,15.25,M,1,3335*4B
$GNRMC,034122.400,A,2500.8090220,N,12132.4340533,E,0.03,238.77,270623,,,R,V*10
$GPHDT,3.581,T*3A
$GNGGA,034122.600,2500.8090147,N,12132.4340593,E,4,66,0.43,17.651,M,15.25,M,0,3335*4A
$GNRMC,034122.600,A,2500.8090147,N,12132.4340593,E,0.03,238.77,270623,,,R,V*1A
$GPHDT,3.530,T*30
$GNGGA,034122.800,2500.8090147,N,12132.4340602,E,4,66,0.43,17.651,M,15.25,M,0,3335*4F
$GNRMC,034122.800,A,2500.8090147,N,12132.4340602,E,0.03,238.77,270623,,,R,V*1F
$GPHDT,3.365,T*36
$GNGSA,A,3,195,19,17,196,199,06,194,09,14,20,11,04,0.72,0.43,0.57,1*0D
$GNGSA,A,3,03,12,,,,,,,,,,,0.72,0.43,0.57,1*01
$GNGSA,A,3,67,68,82,83,80,73,,,,,,,0.72,0.43,0.57,2*00
$GNGSA,A,3,24,10,12,11,19,04,25,33,,,,,0.72,0.43,0.57,3*0C
$GNGSA,A,3,40,07,10,33,14,08,43,13,42,28,11,34,0.72,0.43,0.57,4*05
$GNGSA,A,3,37,,,,,,,,,,,,0.72,0.43,0.57,4*00
$GPGSV,4,1,16,195,67,042,43,19,64,015,41,17,64,070,44,196,63,128,39,1*69
$GPGSV,4,2,16,199,60,167,35,50,60,167,38,06,50,336,43,194,42,171,44,1*63
$GPGSV,4,3,16,09,32,108,28,14,28,177,42,20,27,229,20,11,26,283,17,1*60
$GPGSV,4,4,16,04,21,075,36,03,11,038,28,12,11,319,17,05,01,220,,1*6B
$GPGSV,3,1,09,195,67,042,46,196,63,128,43,199,60,167,46,06,50,336,45,8*58
$GPGSV,3,2,09,194,42,171,44,09,32,108,36,14,28,177,42,11,26,283,42,8*5F
$GPGSV,3,3,09,03,11,038,25,8*5B
$GLGSV,2,1,08,67,47,065,41,68,47,149,42,82,37,034,45,83,33,338,31,1*79
$GLGSV,2,2,08,80,26,232,21,73,23,292,32,66,08,028,25,79,02,187,,1*76
$GAGSV,2,1,08,24,53,245,36,10,49,331,40,12,48,012,38,11,34,298,23,7*75
$GAGSV,2,2,08,19,30,088,31,04,26,155,37,25,24,309,29,33,15,062,19,7*7F
$GAGSV,2,1,08,24,53,245,42,10,49,331,44,12,48,012,41,11,34,298,27,1*7E
$GAGSV,2,2,08,19,30,088,31,04,26,155,39,25,24,309,30,33,15,062,35,1*71
$GBGSV,4,1,15,40,84,121,41,07,82,251,38,10,72,293,39,33,62,152,45,1*7D
$GBGSV,4,2,15,14,61,087,44,08,59,267,40,43,53,052,43,13,49,256,42,1*73
$GBGSV,4,3,15,42,41,055,38,28,36,323,46,11,33,078,40,41,20,197,,1*71
$GBGSV,4,4,15,23,20,222,,34,18,095,40,37,17,275,18,1*4E
$GBGSV,2,1,07,40,84,121,45,33,62,152,46,43,53,052,43,42,41,055,40,4*7A
$GBGSV,2,2,07,28,36,323,41,34,18,095,33,37,17,275,32,4*4D
$GNGGA,034123.000,2500.8090181,N,12132.4340573,E,4,65,0.43,17.662,M,15.25,M,1,3335*4B
$GNRMC,034123.000,A,2500.8090181,N,12132.4340573,E,0.02,238.77,270623,,,R,V*18
$GPHDT,3.748,T*3D
$GNGGA,034123.200,2500.8090139,N,12132.4340577,E,4,65,0.43,17.652,M,15.25,M,1,3335*4D
$GNRMC,034123.200,A,2500.8090139,N,12132.4340577,E,0.02,238.77,270623,,,R,V*1D
$GPHDT,3.960,T*39
$GNGGA,034123.400,2500.8090227,N,12132.4340581,E,4,65,0.43,17.687,M,15.25,M,1,3335*46
$GNRMC,034123.400,A,2500.8090227,N,12132.4340581,E,0.02,238.77,270623,,,R,V*1E
$GPHDT,3.724,T*37
$GNGGA,034123.600,2500.8090200,N,12132.4340543,E,4,65,0.43,17.664,M,15.25,M,1,3335*42
$GNRMC,034123.600,A,2500.8090200,N,12132.4340543,E,0.01,238.77,270623,,,R,V*14
$GPHDT,3.985,T*32
$GNGGA,034123.800,2500.8090133,N,12132.4340584,E,4,65,0.43,17.646,M,15.25,M,1,3335*44
$GNRMC,034123.800,A,2500.8090133,N,12132.4340584,E,0.01,238.77,270623,,,R,V*12
$GPHDT,3.812,T*3D
$GNGSA,A,3,195,17,19,196,199,06,194,09,14,20,11,04,0.72,0.43,0.57,1*0D
$GNGSA,A,3,12,03,,,,,,,,,,,0.72,0.43,0.57,1*01
$GNGSA,A,3,67,68,82,83,80,73,,,,,,,0.72,0.43,0.57,2*00
$GNGSA,A,3,24,10,12,11,19,04,25,33,,,,,0.72,0.43,0.57,3*0C
$GNGSA,A,3,40,07,10,33,14,08,43,13,42,28,11,34,0.72,0.43,0.57,4*05
$GNGSA,A,3,37,,,,,,,,,,,,0.72,0.43,0.57,4*00
$GPGSV,4,1,15,195,67,042,43,17,64,070,44,19,64,015,41,196,63,128,39,1*6A
$GPGSV,4,2,15,199,60,167,35,50,60,167,38,06,50,336,43,194,42,171,44,1*60
$GPGSV,4,3,15,09,32,108,26,14,28,177,42,20,27,229,21,11,26,283,20,1*68
$GPGSV,4,4,15,04,21,075,36,12,11,319,18,03,11,038,28,1*53
$GPGSV,3,1,09,195,67,042,46,196,63,128,44,199,60,167,46,06,50,336,45,8*5F
$GPGSV,3,2,09,194,42,171,44,09,32,108,36,14,28,177,42,11,26,283,42,8*5F
$GPGSV,3,3,09,03,11,038,27,8*59
$GLGSV,2,1,08,67,47,065,42,68,47,149,42,82,37,034,45,83,33,338,31,1*7A
$GLGSV,2,2,08,80,26,232,21,73,23,292,32,66,08,028,24,79,02,187,,1*77
$GAGSV,2,1,08,24,53,245,35,10,49,331,40,12,48,012,38,11,34,298,23,7*76
$GAGSV,2,2,08,19,30,088,32,04,26,155,37,25,24,309,29,33,15,062,17,7*72
$GAGSV,2,1,08,24,53,245,42,10,49,331,44,12,48,012,41,11,34,298,28,1*71
$GAGSV,2,2,08,19,30,088,31,04,26,155,39,25,24,309,30,33,15,062,35,1*71
$GBGSV,4,1,15,40,84,121,41,07,82,251,39,10,72,293,39,33,62,152,45,1*7C
$GBGSV,4,2,15,14,61,087,44,08,59,267,40,43,53,052,43,13,49,256,42,1*73
$GBGSV,4,3,15,42,41,055,38,28,36,323,45,11,33,078,40,41,20,197,,1*72
$GBGSV,4,4,15,23,20,222,,34,18,095,40,37,17,275,18,1*4E
$GBGSV,2,1,07,40,84,121,45,33,62,152,46,43,53,052,43,42,41,055,40,4*7A
$GBGSV,2,2,07,28,36,323,41,34,18,095,32,37,17,275,33,4*4D
$GNGGA,034124.000,2500.8090120,N,12132.4340548,E,4,65,0.43,17.653,M,15.25,M,2,3335*4E
$GNRMC,034124.000,A,2500.8090120,N,12132.4340548,E,0.01,238.77,270623,,,R,V*1F
$GPHDT,3.952,T*38
$GNGGA,034124.200,2500.8090099,N,12132.4340586,E,4,64,0.45,17.639,M,15.25,M,2,3335*46
$GNRMC,034124.200,A,2500.8090099,N,12132.4340586,E,0.01,238.77,270623,,,R,V*1C
$GPHDT,4.214,T*36
$GNGGA,034124.400,2500.8090102,N,12132.4340589,E,4,64,0.45,17.661,M,15.25,M,2,3335*41
$GNRMC,034124.400,A,2500.8090102,N,12132.4340589,E,0.02,238.77,270623,,,R,V*15
$GPHDT,3.662,T*34
$GNGGA,034124.600,2500.8090079,N,12132.4340605,E,4,64,0.45,17.631,M,15.25,M,2,3335*4C
$GNRMC,034124.600,A,2500.8090079,N,12132.4340605,E,0.01,238.77,270623,,,R,V*1E
$GPHDT,3.951,T*3B
$GNGGA,034124.800,2500.8090044,N,12132.4340630,E,4,64,0.45,17.626,M,15.25,M,2,3335*4C
$GNRMC,034124.800,A,2500.8090044,N,12132.4340630,E,0.01,238.77,270623,,,R,V*18
$GPHDT,3.864,T*3C
$GNGSA,A,3,195,19,17,196,199,06,194,09,14,20,11,04,0.85,0.45,0.72,1*04
$GNGSA,A,3,03,,,,,,,,,,,,0.85,0.45,0.72,1*0B
$GNGSA,A,3,67,68,82,83,80,73,,,,,,,0.85,0.45,0.72,2*09
$GNGSA,A,3,24,10,12,11,19,04,25,33,,,,,0.85,0.45,0.72,3*05
$GNGSA,A,3,40,07,10,33,14,08,43,13,42,28,11,34,0.85,0.45,0.72,4*0C
$GNGSA,A,3,37,,,,,,,,,,,,0.85,0.45,0.72,4*09
$GPGSV,4,1,15,195,67,042,43,19,64,015,41,17,64,070,44,196,63,128,39,1*6A
$GPGSV,4,2,15,50,60,167,38,199,60,167,36,06,50,336,43,194,42,171,44,1*63
$GPGSV,4,3,15,09,32,108,26,14,28,177,42,20,27,229,22,11,26,283,22,1*69
$GPGSV,4,4,15,04,21,075,37,12,11,319,19,03,11,038,27,1*5C
$GPGSV,3,1,09,195,67,042,46,196,63,128,44,199,60,167,46,06,50,336,45,8*5F
$GPGSV,3,2,09,194,42,171,44,09,32,108,36,14,28,177,42,11,26,283,41,8*5C
$GPGSV,3,3,09,03,11,038,27,8*59
$GLGSV,2,1,08,67,47,065,42,68,47,149,42,82,37,034,45,83,33,338,32,1*79
$GLGSV,2,2,08,80,26,232,21,73,23,292,32,66,08,028,22,79,02,187,,1*71
$GAGSV,2,1,08,24,53,245,36,10,49,331,40,12,48,012,38,11,34,298,24,7*72
$GAGSV,2,2,08,19,30,088,32,04,26,155,37,25,24,309,30,33,15,062,16,7*7B
$GAGSV,2,1,08,24,53,245,41,10,49,331,44,12,48,012,41,11,34,298,27,1*7D
$GAGSV,2,2,08,19,30,088,31,04,26,155,39,25,24,309,29,33,15,062,35,1*79
$GBGSV,4,1,16,40,84,121,41,07,82,251,39,10,72,293,39,33,62,152,45,1*7F
$GBGSV,4,2,16,14,61,087,44,08,59,267,40,43,53,052,42,13,49,256,42,1*71
$GBGSV,4,3,16,42,41,055,38,28,36,323,44,11,33,078,40,23,20,222,,1*79
$GBGSV,4,4,16,41,20,197,,34,18,095,39,37,17,275,19,06,01,189,,1*7C
$GBGSV,2,1,07,40,84,121,45,33,62,152,46,43,53,052,43,42,41,055,40,4*7A
$GBGSV,2,2,07,28,36,323,41,34,18,095,31,37,17,275,33,4*4E
$GNGGA,034125.000,2500.8090077,N,12132.4340603,E,4,64,0.45,17.637,M,15.25,M,3,3335*44
$GNRMC,034125.000,A,2500.8090077,N,12132.4340603,E,0.01,238.77,270623,,,R,V*11
$GPHDT,3.885,T*33
$GNGGA,034125.200,2500.8090076,N,12132.4340591,E,4,64,0.45,17.630,M,15.25,M,3,3335*48
$GNRMC,034125.200,A,2500.8090076,N,12132.4340591,E,0.00,238.77,270623,,,R,V*1B
$GPHDT,4.087,T*3E
$GNGGA,034125.400,2500.8090039,N,12132.4340583,E,4,65,0.45,17.618,M,15.25,M,3,3335*4D
$GNRMC,034125.400,A,2500.8090039,N,12132.4340583,E,0.00,238.77,270623,,,R,V*15
$GPHDT,4.463,T*30
$GNGGA,034125.600,2500.8090050,N,12132.4340592,E,4,65,0.45,17.629,M,15.25,M,3,3335*42
$GNRMC,034125.600,A,2500.8090050,N,12132.4340592,E,0.01,238.77,270623,,,R,V*19
$GPHDT,4.184,T*3C
$GNGGA,034125.800,2500.8090047,N,12132.4340592,E,4,66,0.43,17.628,M,15.25,M,3,3335*4E
$GNRMC,034125.800,A,2500.8090047,N,12132.4340592,E,0.01,238.77,270623,,,R,V*11
$GPHDT,4.323,T*33
$GNGSA,A,3,195,19,17,196,199,06,194,09,14,20,11,04,0.82,0.43,0.69,1*0F
$GNGSA,A,3,12,03,,,,,,,,,,,0.82,0.43,0.69,1*03
$GNGSA,A,3,67,68,82,83,80,73,,,,,,,0.82,0.43,0.69,2*02
$GNGSA,A,3,24,10,12,11,19,04,25,33,,,,,0.82,0.43,0.69,3*0E
$GNGSA,A,3,40,07,10,33,14,08,43,13,42,28,11,34,0.82,0.43,0.69,4*07
$GNGSA,A,3,37,,,,,,,,,,,,0.82,0.43,0.69,4*02
$GPGSV,4,1,15,195,67,042,43,19,64,015,41,17,64,070,44,196,63,128,39,1*6A
$GPGSV,4,2,15,50,60,167,38,199,60,167,36,06,50,336,43,194,42,171,44,1*63
$GPGSV,4,3,15,09,32,108,26,14,28,177,42,20,27,229,23,11,26,283,23,1*69
$GPGSV,4,4,15,04,21,075,37,12,11,319,19,03,11,038,27,1*5C
$GPGSV,3,1,10,195,67,042,46,196,63,128,44,199,60,167,46,06,50,336,45,8*57
$GPGSV,3,2,10,194,42,171,44,09,32,108,36,14,28,177,42,11,26,283,41,8*54
$GPGSV,3,3,10,04,21,075,26,03,11,038,27,8*60
$GLGSV,2,1,08,67,47,065,42,68,47,149,42,82,37,034,45,83,33,338,32,1*79
$GLGSV,2,2,08,80,26,232,24,73,23,292,32,66,08,028,21,79,02,187,,1*77
$GAGSV,2,1,08,24,53,245,36,10,49,331,40,12,48,012,38,11,34,298,23,7*75
$GAGSV,2,2,08,19,30,088,32,04,26,155,37,25,24,309,30,33,15,062,17,7*7A
$GAGSV,2,1,08,24,53,245,41,10,49,331,44,12,48,012,41,11,34,298,27,1*7D
$GAGSV,2,2,08,19,30,088,31,04,26,155,39,25,24,309,29,33,15,062,35,1*79
$GBGSV,4,1,16,40,84,121,41,07,82,251,39,10,72,293,39,33,62,152,45,1*7F
$GBGSV,4,2,16,14,61,087,44,08,59,267,40,43,53,052,42,13,49,256,42,1*71
$GBGSV,4,3,16,42,41,055,36,28,36,323,44,11,33,078,40,23,20,222,,1*77
$GBGSV,4,4,16,41,20,197,,34,18,095,38,37,17,275,20,06,01,189,,1*77
$GBGSV,2,1,07,40,84,121,45,33,62,152,46,43,53,052,43,42,41,055,40,4*7A
$GBGSV,2,2,07,28,36,323,41,34,18,095,31,37,17,275,33,4*4E
$GNGGA,034126.000,2500.8090074,N,12132.4340614,E,4,66,0.43,17.643,M,15.25,M,4,3335*42
$GNRMC,034126.000,A,2500.8090074,N,12132.4340614,E,0.00,238.77,270623,,,R,V*16
$GPHDT,4.136,T*35
$GNGGA,034126.200,2500.8090071,N,12132.4340577,E,4,66,0.43,17.631,M,15.25,M,4,3335*46
$GNRMC,034126.200,A,2500.8090071,N,12132.4340577,E,0.00,238.77,270623,,,R,V*17
$GPHDT,3.928,T*35
$GNGGA,034126.400,2500.8090054,N,12132.4340619,E,4,65,0.45,17.635,M,15.25,M,4,3335*4D
$GNRMC,034126.400,A,2500.8090054,N,12132.4340619,E,0.00,238.77,270623,,,R,V*1D
$GPHDT,3.855,T*3E
$GNGGA,034126.600,2500.8090082,N,12132.4340622,E,4,65,0.45,17.630,M,15.25,M,4,3335*49
$GNRMC,034126.600,A,2500.8090082,N,12132.4340622,E,0.01,238.77,270623,,,R,V*1D
$GPHDT,3.979,T*31
$GNGGA,034126.800,2500.8090047,N,12132.4340602,E,4,65,0.45,17.627,M,15.25,M,4,3335*4A
$GNRMC,034126.800,A,2500.8090047,N,12132.4340602,E,0.01,238.77,270623,,,R,V*18
$GPHDT,4.213,T*31
$GNGSA,A,3,195,17,19,196,199,06,194,09,14,20,11,04,0.82,0.43,0.69,1*0F
$GNGSA,A,3,12,03,,,,,,,,,,,0.82,0.43,0.69,1*03
$GNGSA,A,3,67,68,82,83,80,73,,,,,,,0.82,0.43,0.69,2*02
$GNGSA,A,3,24,10,12,11,19,04,25,33,,,,,0.82,0.43,0.69,3*0E
$GNGSA,A,3,40,07,10,33,14,08,43,13,42,28,11,34,0.82,0.43,0.69,4*07
$GNGSA,A,3,37,,,,,,,,,,,,0.82,0.43,0.69,4*02
$GPGSV,4,1,15,195,67,042,43,17,64,070,44,19,64,015,41,196,63,128,39,1*6A
$GPGSV,4,2,15,199,60,167,36,50,60,167,38,06,50,336,43,194,42,171,44,1*63
$GPGSV,4,3,15,09,32,108,27,14,28,177,42,20,27,229,22,11,26,283,24,1*6E
$GPGSV,4,4,15,04,21,075,37,12,11,319,20,03,11,038,27,1*56
$GPGSV,3,1,10,195,67,042,46,196,63,128,44,199,60,167,46,06,50,336,45,8*57
$GPGSV,3,2,10,194,42,171,44,09,32,108,36,14,28,177,42,11,26,283,41,8*54
$GPGSV,3,3,10,04,21,075,24,03,11,038,26,8*63
$GLGSV,2,1,08,67,47,065,42,68,47,149,42,82,37,034,45,83,33,338,32,1*79
$GLGSV,2,2,08,80,26,232,23,73,23,292,32,66,08,028,21,79,02,187,,1*70
$GAGSV,2,1,08,24,53,245,36,10,49,331,40,12,48,012,38,11,34,298,23,7*75
$GAGSV,2,2,08,19,30,088,33,04,26,155,37,25,24,309,29,33,15,062,19,7*7D
$GAGSV,2,1,08,24,53,245,41,10,49,331,44,12,48,012,41,11,34,298,27,1*7D
$GAGSV,2,2,08,19,30,088,31,04,26,155,39,25,24,309,29,33,15,062,35,1*79
$GBGSV,4,1,15,40,84,121,41,07,82,251,39,10,72,293,39,33,62,152,45,1*7C
$GBGSV,4,2,15,14,61,087,44,08,59,267,40,43,53,052,42,13,49,256,42,1*72
$GBGSV,4,3,15,42,41,055,36,28,36,323,44,11,33,078,40,41,20,197,,1*7D
$GBGSV,4,4,15,23,20,222,,34,18,095,38,37,17,275,21,1*4B
$GBGSV,2,1,07,40,84,121,45,33,62,152,46,43,53,052,43,42,41,055,40,4*7A
$GBGSV,2,2,07,28,36,323,41,34,18,095,30,37,17,275,33,4*4F
$GNGGA,034127.000,2500.8090074,N,12132.4340614,E,4,66,0.43,17.613,M,15.25,M,5,3335*47
$GNRMC,034127.000,A,2500.8090074,N,12132.4340614,E,0.00,238.77,270623,,,R,V*17
$GPHDT,4.054,T*30
$GNGGA,034127.200,2500.8090064,N,12132.4340600,E,4,66,0.43,17.633,M,15.25,M,5,3335*43
$GNRMC,034127.200,A,2500.8090064,N,12132.4340600,E,0.00,238.77,270623,,,R,V*11
$GPHDT,4.118,T*39
$GNGGA,034127.400,2500.8090081,N,12132.4340603,E,4,66,0.43,17.654,M,15.25,M,5,3335*4C
$GNRMC,034127.400,A,2500.8090081,N,12132.4340603,E,0.00,238.77,270623,,,R,V*1F
$GPHDT,3.883,T*35
$GNGGA,034127.600,2500.8090054,N,12132.4340604,E,4,66,0.43,17.606,M,15.25,M,5,3335*46
$GNRMC,034127.600,A,2500.8090054,N,12132.4340604,E,0.00,238.77,270623,,,R,V*12
$GPHDT,4.120,T*32
$GNGGA,034127.800,2500.8090051,N,12132.4340627,E,4,65,0.43,17.620,M,15.25,M,5,3335*4B
$GNRMC,034127.800,A,2500.8090051,N,12132.4340627,E,0.00,238.77,270623,,,R,V*18
$GPHDT,4.000,T*31
$GNGSA,A,3,195,19,17,196,199,06,194,09,14,20,11,04,0.82,0.43,0.69,1*0F
$GNGSA,A,3,12,03,,,,,,,,,,,0.82,0.43,0.69,1*03
$GNGSA,A,3,67,68,82,83,80,73,,,,,,,0.82,0.43,0.69,2*02
$GNGSA,A,3,24,10,12,11,19,04,25,33,,,,,0.82,0.43,0.69,3*0E
$GNGSA,A,3,40,07,10,33,14,08,43,13,42,28,11,34,0.82,0.43,0.69,4*07
$GNGSA,A,3,37,,,,,,,,,,,,0.82,0.43,0.69,4*02
$GPGSV,4,1,16,195,67,042,43,19,64,015,41,17,64,070,44,196,63,128,39,1*69
$GPGSV,4,2,16,199,60,167,36,50,60,167,39,06,50,336,43,194,42,171,44,1*61
$GPGSV,4,3,16,09,32,108,26,14,27,177,42,20,27,229,21,11,26,283,23,1*67
$GPGSV,4,4,16,04,21,075,37,12,12,319,19,03,11,038,26,05,01,220,,1*69
$GPGSV,3,1,09,195,67,042,46,196,63,128,44,199,60,167,46,06,50,336,45,8*5F
$GPGSV,3,2,09,194,42,171,44,09,32,108,36,14,27,177,42,11,26,283,41,8*53
$GPGSV,3,3,09,03,11,038,26,8*58
$GLGSV,3,1,10,67,47,065,42,68,47,149,42,82,37,034,45,83,33,338,32,1*71
$GLGSV,3,2,10,80,26,232,23,73,23,292,32,66,08,028,21,69,08,185,,1*71
$GLGSV,3,3,10,74,02,330,,79,02,187,,1*7A
$GAGSV,2,1,08,24,53,245,36,10,49,331,40,12,48,012,38,11,34,298,23,7*75
$GAGSV,2,2,08,19,30,088,33,04,26,155,37,25,24,309,29,33,15,062,19,7*7D
$GAGSV,2,1,08,24,53,245,41,10,49,331,44,12,48,012,41,11,34,298,27,1*7D
$GAGSV,2,2,08,19,30,088,31,04,26,155,39,25,24,309,29,33,15,062,35,1*79
$GBGSV,4,1,16,40,84,121,41,07,82,251,39,10,72,293,39,33,62,152,45,1*7F
$GBGSV,4,2,16,14,61,087,44,08,59,267,40,43,53,052,42,13,49,256,41,1*72
$GBGSV,4,3,16,42,41,055,36,28,36,323,44,11,33,078,40,41,20,197,,1*7E
$GBGSV,4,4,16,23,20,222,,34,18,095,38,37,17,275,22,39,02,179,,1*7C
$GBGSV,2,1,07,40,84,121,45,33,62,152,46,43,53,052,43,42,41,055,40,4*7A
$GBGSV,2,2,07,28,36,323,41,34,18,095,30,37,17,275,33,4*4F
$GNGGA,034128.000,2500.8090035,N,12132.4340628,E,4,65,0.43,17.606,M,15.25,M,6,3335*46
$GNRMC,034128.000,A,2500.8090035,N,12132.4340628,E,0.00,238.77,270623,,,R,V*12
$GPHDT,3.795,T*3D
$GNGGA,034128.200,2500.8090050,N,12132.4340610,E,4,65,0.43,17.635,M,15.25,M,6,3335*4C
$GNRMC,034128.200,A,2500.8090050,N,12132.4340610,E,0.00,238.77,270623,,,R,V*18
$GPHDT,4.309,T*3B
$GNGGA,034128.400,2500.8090071,N,12132.4340652,E,4,65,0.43,17.628,M,15.25,M,6,3335*43
$GNRMC,034128.400,A,2500.8090071,N,12132.4340652,E,0.00,238.77,270623,,,R,V*1B
$GPHDT,3.951,T*3B
$GNGGA,034128.600,2500.8090029,N,12132.4340641,E,4,65,0.43,17.626,M,15.25,M,6,3335*40
$GNRMC,034128.600,A,2500.8090029,N,12132.4340641,E,0.00,238.77,270623,,,R,V*16
$GPHDT,4.086,T*3F
$GNGGA,034128.800,2500.8090056,N,12132.4340617,E,4,65,0.43,17.619,M,15.25,M,6,3335*49
$GNRMC,034128.800,A,2500.8090056,N,12132.4340617,E,0.00,238.77,270623,,,R,V*13
$GPHDT,3.918,T*36
$GNGSA,A,3,195,19,17,196,199,06,194,09,20,14,11,04,0.85,0.45,0.72,1*04
$GNGSA,A,3,03,,,,,,,,,,,,0.85,0.45,0.72,1*0B
$GNGSA,A,3,67,68,82,83,80,73,,,,,,,0.85,0.45,0.72,2*09
$GNGSA,A,3,24,10,12,11,19,04,25,33,,,,,0.85,0.45,0.72,3*05
$GNGSA,A,3,40,07,10,33,14,08,43,13,42,28,11,34,0.85,0.45,0.72,4*0C
$GNGSA,A,3,37,,,,,,,,,,,,0.85,0.45,0.72,4*09
$GPGSV,4,1,15,195,67,042,43,19,65,015,41,17,64,071,44,196,63,128,39,1*6A
$GPGSV,4,2,15,50,60,167,39,199,60,167,36,06,50,336,43,194,42,171,44,1*62
$GPGSV,4,3,15,09,32,108,26,20,27,229,19,14,27,177,42,11,26,283,24,1*68
$GPGSV,4,4,15,04,21,075,37,12,12,319,20,03,11,038,26,1*54
$GPGSV,3,1,09,195,67,042,46,196,63,128,44,199,60,167,46,06,50,336,45,8*5F
$GPGSV,3,2,09,194,42,171,44,09,32,108,36,14,27,177,42,11,26,283,41,8*53
$GPGSV,3,3,09,03,11,038,27,8*59
$GLGSV,3,1,09,67,47,065,42,68,47,149,42,82,37,034,45,83,33,338,32,1*79
$GLGSV,3,2,09,80,26,232,22,73,23,292,32,66,08,028,22,74,02,330,,1*71
$GLGSV,3,3,09,79,02,187,,1*43
$GAGSV,2,1,08,24,53,245,35,10,49,331,40,12,48,012,38,11,34,298,23,7*76
$GAGSV,2,2,08,19,30,088,33,04,26,155,38,25,24,309,29,33,15,062,20,7*78
$GAGSV,2,1,08,24,53,245,41,10,49,331,44,12,48,012,41,11,34,298,27,1*7D
$GAGSV,2,2,08,19,30,088,31,04,26,155,39,25,24,309,29,33,15,062,35,1*79
$GBGSV,4,1,16,40,84,121,41,07,82,251,39,10,72,293,39,33,62,152,45,1*7F
$GBGSV,4,2,16,14,61,087,44,08,59,267,40,43,53,052,42,13,49,256,41,1*72
$GBGSV,4,3,16,42,41,055,36,28,36,323,44,11,33,078,40,41,20,197,,1*7E
$GBGSV,4,4,16,23,20,222,,34,18,095,38,37,17,275,22,06,01,189,,1*7C
$GBGSV,2,1,07,40,84,121,45,33,62,152,46,43,53,052,43,42,41,055,40,4*7A
$GBGSV,2,2,07,28,36,323,41,34,18,095,30,37,17,275,33,4*4F
$GNGGA,034129.000,2500.8090039,N,12132.4340630,E,4,64,0.45,17.625,M,15.25,M,7,3335*45
$GNRMC,034129.000,A,2500.8090039,N,12132.4340630,E,0.00,238.77,270623,,,R,V*16
$GPHDT,3.960,T*39
$GNGGA,034129.200,2500.8090047,N,12132.4340653,E,4,65,0.45,17.629,M,15.25,M,7,3335*46
$GNRMC,034129.200,A,2500.8090047,N,12132.4340653,E,0.00,238.77,270623,,,R,V*18
$GPHDT,4.136,T*35
$GNGGA,034129.400,2500.8090043,N,12132.4340641,E,4,65,0.45,17.620,M,15.25,M,7,3335*4E
$GNRMC,034129.400,A,2500.8090043,N,12132.4340641,E,0.00,238.77,270623,,,R,V*19
$GPHDT,4.337,T*36
$GNGGA,034129.600,2500.8090005,N,12132.4340620,E,4,65,0.45,17.607,M,15.25,M,7,3335*4C
$GNRMC,034129.600,A,2500.8090005,N,12132.4340620,E,0.00,238.77,270623,,,R,V*1E
$GPHDT,4.121,T*33
$GNGGA,034129.800,2500.8090015,N,12132.4340649,E,4,65,0.45,17.614,M,15.25,M,7,3335*4E
$GNRMC,034129.800,A,2500.8090015,N,12132.4340649,E,0.00,238.77,270623,,,R,V*1E
$GPHDT,4.003,T*32
$GNGSA,A,3,195,19,17,196,199,06,194,09,14,20,11,04,0.85,0.45,0.72,1*04
$GNGSA,A,3,03,,,,,,,,,,,,0.85,0.45,0.72,1*0B
$GNGSA,A,3,67,68,82,83,80,73,,,,,,,0.85,0.45,0.72,2*09
$GNGSA,A,3,24,10,12,11,19,04,25,33,,,,,0.85,0.45,0.72,3*05
$GNGSA,A,3,40,07,10,33,14,08,43,13,42,28,11,34,0.85,0.45,0.72,4*0C
$GNGSA,A,3,37,,,,,,,,,,,,0.85,0.45,0.72,4*09
$GPGSV,4,1,16,195,67,042,43,19,65,015,41,17,64,071,44,196,63,128,39,1*69
$GPGSV,4,2,16,199,60,167,36,50,60,167,39,06,50,336,43,194,42,171,44,1*61
$GPGSV,4,3,16,09,32,108,29,14,27,177,42,20,27,229,18,11,26,283,24,1*65
$GPGSV,4,4,16,04,21,075,37,12,12,319,19,03,11,038,26,05,01,220,,1*69
$GPGSV,3,1,10,195,67,042,46,196,63,128,44,199,60,167,46,06,50,336,45,8*57
$GPGSV,3,2,10,194,42,171,44,09,32,108,36,14,27,177,42,11,26,283,41,8*5B
$GPGSV,3,3,10,04,21,075,26,03,11,038,27,8*60
$GLGSV,3,1,10,67,47,065,43,68,47,149,42,82,37,034,45,83,33,338,32,1*70
$GLGSV,3,2,10,80,26,232,22,73,23,292,32,66,08,028,21,69,08,185,,1*70
$GLGSV,3,3,10,74,02,330,,79,02,187,,1*7A
$GAGSV,2,1,08,24,53,245,37,10,49,331,40,12,48,012,37,11,34,298,23,7*7B
$GAGSV,2,2,08,19,30,088,33,04,26,155,38,25,24,309,29,33,15,062,20,7*78
$GAGSV,2,1,08,24,53,245,41,10,49,331,44,12,48,012,41,11,34,298,27,1*7D
$GAGSV,2,2,08,19,30,088,31,04,26,155,39,25,24,309,27,33,15,062,34,1*76
$GBGSV,4,1,15,40,84,121,41,07,82,251,39,10,72,293,39,33,62,152,45,1*7C
$GBGSV,4,2,15,14,61,087,44,08,59,267,40,43,53,052,42,13,49,256,42,1*72
$GBGSV,4,3,15,42,41,055,36,28,36,323,44,11,33,078,40,41,20,197,,1*7D
$GBGSV,4,4,15,23,20,222,,34,18,095,38,37,17,275,23,1*49
$GBGSV,2,1,07,40,84,121,45,33,62,152,46,43,53,052,43,42,41,055,40,4*7A
$GBGSV,2,2,07,28,36,323,41,34,18,095,30,37,17,275,33,4*4F
$GNGGA,034130.000,2500.8090036,N,12132.4340638,E,4,65,0.45,17.615,M,15.25,M,8,3335*47
$GNRMC,034130.000,A,2500.8090036,N,12132.4340638,E,0.00,238.77,270623,,,R,V*19
$GPHDT,4.170,T*37
$GNGGA,034130.200,2500.8090063,N,12132.4340652,E,4,65,0.45,17.625,M,15.25,M,8,3335*4A
$GNRMC,034130.200,A,2500.8090063,N,12132.4340652,E,0.00,238.77,270623,,,R,V*17
$GPHDT,3.869,T*31
$GNGGA,034130.400,2500.8090060,N,12132.4340625,E,4,65,0.45,17.640,M,15.25,M,8,3335*4C
$GNRMC,034130.400,A,2500.8090060,N,12132.4340625,E,0.00,238.77,270623,,,R,V*12
$GPHDT,3.927,T*3A
$GNGGA,034130.600,2500.8090060,N,12132.4340667,E,4,65,0.45,17.625,M,15.25,M,8,3335*4B
$GNRMC,034130.600,A,2500.8090060,N,12132.4340667,E,0.00,238.77,270623,,,R,V*16
$GPHDT,3.716,T*36
$GNGGA,034130.800,2500.8090008,N,12132.4340665,E,4,66,0.43,17.614,M,15.25,M,8,3335*4E
$GNRMC,034130.800,A,2500.8090008,N,12132.4340665,E,0.00,238.77,270623,,,R,V*14
$GPHDT,3.898,T*3F
$GNGSA,A,3,195,19,17,196,199,06,194,09,14,20,11,04,0.82,0.43,0.69,1*0F
$GNGSA,A,3,12,03,,,,,,,,,,,0.82,0.43,0.69,1*03
$GNGSA,A,3,67,68,82,83,80,73,,,,,,,0.82,0.43,0.69,2*02
$GNGSA,A,3,24,10,12,11,19,04,25,33,,,,,0.82,0.43,0.69,3*0E
$GNGSA,A,3,40,07,10,33,14,08,43,13,42,28,11,34,0.82,0.43,0.69,4*07
$GNGSA,A,3,37,,,,,,,,,,,,0.82,0.43,0.69,4*02
$GPGSV,4,1,16,195,67,042,43,19,65,015,41,17,64,071,44,196,63,128,39,1*69
$GPGSV,4,2,16,199,60,167,35,50,60,167,38,06,50,336,43,194,42,171,44,1*63
$GPGSV,4,3,16,09,32,108,29,14,27,177,42,20,27,229,18,11,26,283,20,1*61
$GPGSV,4,4,16,04,21,075,37,12,12,319,22,03,11,038,24,05,01,220,,1*63
$GPGSV,3,1,10,195,67,042,46,196,63,128,44,199,60,167,46,06,50,336,45,8*57
$GPGSV,3,2,10,194,42,171,44,09,32,108,35,14,27,177,42,11,26,283,41,8*58
$GPGSV,3,3,10,04,21,075,26,03,11,038,28,8*6F
$GLGSV,3,1,09,67,47,065,43,68,47,149,42,82,37,034,45,83,33,338,32,1*78
$GLGSV,3,2,09,80,26,232,23,73,23,292,33,66,08,028,21,74,02,330,,1*72
$GLGSV,3,3,09,79,02,187,,1*43
$GAGSV,2,1,08,24,53,245,36,10,49,331,40,12,48,012,37,11,34,298,24,7*7D
$GAGSV,2,2,08,19,30,088,33,04,26,155,38,25,24,309,29,33,15,062,21,7*79
$GAGSV,2,1,08,24,53,245,41,10,49,331,44,12,48,012,41,11,34,298,28,1*72
$GAGSV,2,2,08,19,30,088,32,04,26,155,40,25,24,309,24,33,15,062,32,1*7E
$GBGSV,4,1,15,40,84,121,41,07,82,251,39,10,72,293,39,33,62,152,45,1*7C
$GBGSV,4,2,15,14,61,087,44,08,59,267,40,43,53,052,42,13,49,256,42,1*72
$GBGSV,4,3,15,42,41,055,36,28,36,323,44,11,33,078,40,41,20,197,,1*7D
$GBGSV,4,4,15,23,20,222,,34,18,095,37,37,17,275,22,1*47
$GBGSV,2,1,06,40,84,121,45,33,62,152,46,43,53,052,44,42,41,055,41,4*7D
$GBGSV,2,2,06,28,36,323,41,37,17,275,33,4*7F
$GNGGA,034131.000,2500.8090055,N,12132.4340698,E,4,65,0.43,17.636,M,15.25,M,9,3335*4F
$GNRMC,034131.000,A,2500.8090055,N,12132.4340698,E,0.00,238.77,270623,,,R,V*17
$GPHDT,3.490,T*3B
$GNGGA,034131.200,2500.8090044,N,12132.4340682,E,4,66,0.43,17.624,M,15.25,M,9,3335*46
$GNRMC,034131.200,A,2500.8090044,N,12132.4340682,E,0.00,238.77,270623,,,R,V*1E
$GPHDT,3.725,T*36
$GNGGA,034131.400,2500.8090025,N,12132.4340665,E,4,65,0.45,17.617,M,15.25,M,9,3335*4B
$GNRMC,034131.400,A,2500.8090025,N,12132.4340665,E,0.00,238.77,270623,,,R,V*16
$GPHDT,3.724,T*37
$GNGGA,034131.600,2500.8089965,N,12132.4340719,E,4,65,0.45,17.569,M,15.25,M,9,3335*4C
$GNRMC,034131.600,A,2500.8089965,N,12132.4340719,E,0.00,238.77,270623,,,R,V*1B
$GPHDT,3.791,T*39
$GNGGA,034131.800,2500.8090014,N,12132.4340666,E,4,66,0.43,17.633,M,15.25,M,9,3335*45
$GNRMC,034131.800,A,2500.8090014,N,12132.4340666,E,0.00,238.77,270623,,,R,V*1B
$GPHDT,3.647,T*33
$GNGSA,A,3,195,19,17,196,199,06,194,09,20,14,11,04,0.82,0.43,0.69,1*0F
$GNGSA,A,3,12,03,,,,,,,,,,,0.82,0.43,0.69,1*03
$GNGSA,A,3,67,68,82,83,80,73,,,,,,,0.82,0.43,0.69,2*02
$GNGSA,A,3,24,10,12,11,19,04,25,33,,,,,0.82,0.43,0.69,3*0E
$GNGSA,A,3,40,07,10,33,14,08,43,13,42,28,11,34,0.82,0.43,0.69,4*07
$GNGSA,A,3,37,,,,,,,,,,,,0.82,0.43,0.69,4*02
$GPGSV,4,1,15,195,67,042,43,19,65,015,41,17,64,071,44,196,63,128,37,1*64
$GPGSV,4,2,15,50,60,167,37,199,60,167,35,06,50,336,43,194,42,171,43,1*68
$GPGSV,4,3,15,09,32,108,29,20,27,229,18,14,27,177,43,11,26,283,18,1*68
$GPGSV,4,4,15,04,21,075,37,12,12,319,25,03,11,038,22,1*55
$GPGSV,3,1,09,195,67,042,46,196,63,128,42,199,60,167,46,06,50,336,45,8*59
$GPGSV,3,2,09,194,42,171,44,09,32,108,35,14,27,177,42,11,26,283,41,8*50
$GPGSV,3,3,09,03,11,038,28,8*56
$GLGSV,2,1,08,67,47,065,43,68,47,149,42,82,37,034,45,83,33,338,32,1*78
$GLGSV,2,2,08,80,26,232,23,73,23,292,33,66,08,028,22,79,02,187,,1*72
$GAGSV,2,1,08,24,53,245,36,10,49,331,40,12,48,012,37,11,34,298,27,7*7E
$GAGSV,2,2,08,19,30,088,31,04,26,155,39,25,24,309,29,33,15,062,19,7*71
$GAGSV,2,1,08,24,53,245,42,10,49,331,44,12,48,012,41,11,34,298,28,1*71
$GAGSV,2,2,08,19,30,088,32,04,26,155,41,25,24,309,24,33,15,062,32,1*7F
$GBGSV,4,1,16,40,84,121,42,07,82,251,39,10,72,293,39,33,62,152,45,1*7C
$GBGSV,4,2,16,14,61,087,43,08,59,267,40,43,53,052,43,13,49,256,42,1*77
$GBGSV,4,3,16,42,41,055,37,28,36,323,46,11,33,078,40,23,20,222,,1*74
$GBGSV,4,4,16,41,20,197,,34,18,095,38,37,17,275,23,06,01,189,,1*74
$GBGSV,2,1,07,40,84,121,45,33,62,152,45,43,53,052,44,42,41,055,40,4*7E
$GBGSV,2,2,07,28,36,323,41,34,18,095,31,37,17,275,33,4*4E
$GNGGA,034132.000,2500.8089964,N,12132.4340732,E,4,65,0.43,17.600,M,15.25,M,10,3335*73
$GNRMC,034132.000,A,2500.8089964,N,12132.4340732,E,0.00,238.77,270623,,,R,V*16
$GPHDT,3.748,T*3D
$GNGGA,034132.200,2500.8090010,N,12132.4340726,E,4,66,0.43,17.642,M,15.25,M,10,3335*73
$GNRMC,034132.200,A,2500.8090010,N,12132.4340726,E,0.00,238.77,270623,,,R,V*13
