$FW : RTK35X,V1.1X0314AS,Lib20210517,1*54
$Tool : LOCOSYS , GNSS Firebird , v1.0.0.19*39
$---------------------------------------------------*2D
$GNGGA,034050.800,2500.8089972,N,12132.4340544,E,4,66,0.43,17.581,M,15.25,M,3,3335*41
$GNRMC,034050.800,A,2500.8089972,N,12132.4340544,E,0.00,238.77,270623,,,R,V*1F
$GPHDT,46.562,T*06
$GNGSA,A,3,195,19,17,196,199,06,194,09,14,20,11,04,0.82,0.43,0.70,1*07
$GNGSA,A,3,03,12,,,,,,,,,,,0.82,0.43,0.70,1*0B
$GNGSA,A,3,67,68,82,83,80,73,,,,,,,0.82,0.43,0.70,2*0A
$GNGSA,A,3,24,10,12,11,19,31,04,25,33,,,,0.82,0.43,0.70,3*04
$GNGSA,A,3,40,07,10,14,33,08,43,13,42,28,11,34,0.82,0.43,0.70,4*0F
$GPGSV,4,1,16,195,67,042,41,19,64,014,42,17,64,069,44,196,63,128,40,1*6F
$GPGSV,4,2,16,199,60,167,36,06,50,336,41,50,50,134,39,194,42,171,45,1*67
$GPGSV,4,3,16,09,32,109,23,14,28,177,45,20,27,229,20,11,26,283,31,1*69
$GPGSV,4,4,16,04,21,075,35,03,11,038,25,12,11,319,23,05,01,220,,1*62
$GPGSV,3,1,10,195,67,042,46,196,63,128,45,199,60,167,47,06,50,336,46,8*54
$GPGSV,3,2,10,194,42,171,45,09,32,109,29,14,28,177,45,11,26,283,38,8*53
$GPGSV,3,3,10,04,21,075,32,03,11,038,27,8*65
$GLGSV,2,1,08,67,48,066,44,68,47,150,42,82,37,034,39,83,32,338,32,1*71
$GLGSV,2,2,08,80,26,232,15,73,23,293,28,66,08,028,31,79,02,187,,1*7E
$GAGSV,3,1,09,24,53,246,36,10,49,331,39,12,49,012,38,11,34,297,17,7*71
$GAGSV,3,2,09,19,30,088,28,31,29,182,38,04,26,155,41,25,24,309,30,7*7F
$GAGSV,3,3,09,33,15,062,40,7*4E
$GAGSV,3,1,09,24,53,246,42,10,49,331,45,12,49,012,40,11,34,297,29,1*7D
$GAGSV,3,2,09,19,30,088,33,31,29,182,41,04,26,155,44,25,24,309,30,1*78
$GAGSV,3,3,09,33,15,062,31,1*4E
$GBGSV,4,1,16,40,84,119,40,07,82,252,40,10,72,293,38,14,61,088,43,1*7F
$GBGSV,4,2,16,33,61,152,46,08,59,267,38,43,53,051,44,13,49,256,42,1*75
$GBGSV,4,3,16,42,41,056,46,28,36,322,43,11,33,078,39,41,20,197,,1*72
$GBGSV,4,4,16,23,20,223,,34,18,095,30,37,17,275,,39,02,179,,1*75
$GBGSV,2,1,06,40,84,119,45,33,61,152,45,43,53,051,45,42,41,056,45,4*73
$GBGSV,2,2,06,28,36,322,45,34,18,095,32,4*7B
$GNGGA,034051.000,2500.8089930,N,12132.4340549,E,4,66,0.43,17.571,M,15.25,M,4,3335*4B
$GNRMC,034051.000,A,2500.8089930,N,12132.4340549,E,0.00,238.77,270623,,,R,V*1D
$GPHDT,45.970,T*0A
$GNGGA,034051.200,2500.8089980,N,12132.4340509,E,4,65,0.45,17.595,M,15.25,M,4,3335*49
$GNRMC,034051.200,A,2500.8089980,N,12132.4340509,E,0.00,238.77,270623,,,R,V*10
$GPHDT,45.921,T*0E
$GNGGA,034051.400,2500.8089922,N,12132.4340531,E,4,64,0.45,17.588,M,15.25,M,4,3335*41
$GNRMC,034051.400,A,2500.8089922,N,12132.4340531,E,0.00,238.77,270623,,,R,V*15
$GPHDT,46.429,T*08
$GNGGA,034051.600,2500.8089935,N,12132.4340518,E,4,64,0.45,17.580,M,15.25,M,4,3335*46
$GNRMC,034051.600,A,2500.8089935,N,12132.4340518,E,0.00,238.77,270623,,,R,V*1A
$GPHDT,46.088,T*07
$GNGGA,034051.800,2500.8090011,N,12132.4340494,E,4,65,0.45,17.601,M,15.25,M,4,3335*41
$GNRMC,034051.800,A,2500.8090011,N,12132.4340494,E,0.00,238.77,270623,,,R,V*16
$GPHDT,46.267,T*04
$GNGSA,A,3,195,19,17,196,199,06,194,09,14,20,11,04,0.84,0.45,0.71,1*06
$GNGSA,A,3,03,12,,,,,,,,,,,0.84,0.45,0.71,1*0A
$GNGSA,A,3,67,68,82,83,73,,,,,,,,0.84,0.45,0.71,2*03
$GNGSA,A,3,24,10,12,11,19,31,04,25,33,,,,0.84,0.45,0.71,3*05
$GNGSA,A,3,40,07,10,33,14,08,43,13,42,28,11,34,0.84,0.45,0.71,4*0E
$GPGSV,4,1,15,195,67,042,41,19,64,014,42,17,64,069,44,196,63,128,40,1*6C
$GPGSV,4,2,15,199,60,167,36,50,50,134,39,06,50,336,41,194,42,171,45,1*64
$GPGSV,4,3,15,09,32,109,23,14,28,177,45,20,27,229,19,11,26,283,30,1*61
$GPGSV,4,4,15,04,21,075,35,03,11,038,26,12,11,319,23,1*56
$GPGSV,3,1,10,195,67,042,45,196,63,128,45,199,60,167,47,06,50,336,46,8*57
$GPGSV,3,2,10,194,42,171,45,09,32,109,29,14,28,177,44,11,26,283,38,8*52
$GPGSV,3,3,10,04,21,075,30,03,11,038,27,8*67
$GLGSV,2,1,08,67,48,066,44,68,47,150,42,82,37,034,39,83,32,338,32,1*71
$GLGSV,2,2,08,80,26,232,15,73,23,293,27,66,08,028,31,79,02,187,,1*71
$GAGSV,3,1,09,24,53,246,36,10,49,331,39,12,49,012,38,11,34,297,15,7*73
$GAGSV,3,2,09,19,30,088,29,31,29,182,38,04,26,155,41,25,24,309,30,7*7E
$GAGSV,3,3,09,33,15,062,40,7*4E
$GAGSV,3,1,09,24,53,246,42,10,49,331,45,12,49,012,40,11,34,297,29,1*7D
$GAGSV,3,2,09,19,30,088,33,31,29,182,41,04,26,155,44,25,24,309,29,1*70
$GAGSV,3,3,09,33,15,062,30,1*4F
$GBGSV,4,1,16,40,84,119,40,07,82,252,40,10,72,293,38,33,61,152,46,1*79
$GBGSV,4,2,16,14,61,088,43,08,59,267,38,43,53,051,44,13,49,256,42,1*73
$GBGSV,4,3,16,42,41,056,46,28,36,322,43,11,33,078,39,23,20,223,,1*7A
$GBGSV,4,4,16,41,20,197,,34,18,095,32,37,17,275,,39,02,179,,1*7F
$GBGSV,2,1,06,40,84,119,45,33,61,152,45,43,53,051,45,42,41,056,45,4*73
$GBGSV,2,2,06,28,36,322,45,34,18,095,32,4*7B
$GNGGA,034052.000,2500.8089947,N,12132.4340547,E,4,65,0.45,17.576,M,15.25,M,5,3335*45
$GNRMC,034052.000,A,2500.8089947,N,12132.4340547,E,0.00,238.77,270623,,,R,V*10
$GPHDT,46.097,T*09
$GNGGA,034052.200,2500.8089960,N,12132.4340519,E,4,65,0.45,17.595,M,15.25,M,5,3335*44
$GNRMC,034052.200,A,2500.8089960,N,12132.4340519,E,0.00,238.77,270623,,,R,V*1C
$GPHDT,46.022,T*07
$GNGGA,034052.400,2500.8089918,N,12132.4340588,E,4,65,0.45,17.578,M,15.25,M,5,3335*46
$GNRMC,034052.400,A,2500.8089918,N,12132.4340588,E,0.00,238.77,270623,,,R,V*1D
$GPHDT,45.808,T*04
$GNGGA,034052.600,2500.8089943,N,12132.4340562,E,4,65,0.45,17.587,M,15.25,M,5,3335*4E
$GNRMC,034052.600,A,2500.8089943,N,12132.4340562,E,0.00,238.77,270623,,,R,V*15
$GPHDT,46.276,T*04
$GNGGA,034052.800,2500.8089947,N,12132.4340517,E,4,64,0.45,17.603,M,15.25,M,5,3335*48
$GNRMC,034052.800,A,2500.8089947,N,12132.4340517,E,0.00,238.77,270623,,,R,V*1D
$GPHDT,46.159,T*0A
$GNGSA,A,3,195,19,17,196,199,06,194,09,14,20,11,04,0.84,0.45,0.71,1*06
$GNGSA,A,3,03,12,,,,,,,,,,,0.84,0.45,0.71,1*0A
$GNGSA,A,3,67,68,82,83,73,,,,,,,,0.84,0.45,0.71,2*03
$GNGSA,A,3,24,10,12,11,19,31,04,25,33,,,,0.84,0.45,0.71,3*05
$GNGSA,A,3,40,07,10,33,14,08,43,13,42,28,11,34,0.84,0.45,0.71,4*0E
$GPGSV,4,1,15,195,67,042,41,19,64,014,42,17,64,069,44,196,63,128,40,1*6C
$GPGSV,4,2,15,199,60,167,36,50,50,134,38,06,50,336,41,194,42,171,45,1*65
$GPGSV,4,3,15,09,32,109,26,14,28,177,45,20,27,229,20,11,26,283,29,1*66
$GPGSV,4,4,15,04,21,075,35,03,11,038,26,12,11,319,22,1*57
$GPGSV,3,1,09,195,67,042,45,196,63,128,45,199,60,167,47,06,50,336,46,8*5F
$GPGSV,3,2,09,194,42,171,45,09,32,109,29,14,28,177,44,11,26,283,38,8*5A
$GPGSV,3,3,09,03,11,038,27,8*59
$GLGSV,2,1,08,67,48,066,44,68,47,150,42,82,37,034,39,83,32,338,32,1*71
$GLGSV,2,2,08,80,26,232,15,73,23,293,27,66,08,028,31,79,02,187,,1*71
$GAGSV,3,1,09,24,53,246,36,10,49,331,39,12,49,012,38,11,34,297,15,7*73
$GAGSV,3,2,09,19,30,088,28,31,29,182,38,04,26,155,41,25,24,309,31,7*7E
$GAGSV,3,3,09,33,15,062,40,7*4E
$GAGSV,3,1,09,24,53,246,42,10,49,331,45,12,49,012,41,11,34,297,29,1*7C
$GAGSV,3,2,09,19,30,088,33,31,29,182,41,04,26,155,44,25,24,309,30,1*78
$GAGSV,3,3,09,33,15,062,31,1*4E
$GBGSV,4,1,16,40,84,119,40,07,82,252,40,10,72,293,38,33,61,152,46,1*79
$GBGSV,4,2,16,14,61,088,43,08,59,267,38,43,53,051,44,13,49,256,42,1*73
$GBGSV,4,3,16,42,41,056,46,28,36,322,43,11,33,078,39,23,20,223,,1*7A
$GBGSV,4,4,16,41,20,197,,34,18,095,32,37,17,275,,39,02,179,,1*7F
$GBGSV,2,1,06,40,84,119,45,33,61,152,45,43,53,051,45,42,41,056,45,4*73
$GBGSV,2,2,06,28,36,322,45,34,18,095,32,4*7B
$GNGGA,034053.000,2500.8089936,N,12132.4340539,E,4,64,0.45,17.581,M,15.25,M,6,3335*41
$GNRMC,034053.000,A,2500.8089936,N,12132.4340539,E,0.00,238.77,270623,,,R,V*1E
$GPHDT,46.102,T*04
$GNGGA,034053.200,2500.8089937,N,12132.4340505,E,4,64,0.45,17.582,M,15.25,M,6,3335*4E
$GNRMC,034053.200,A,2500.8089937,N,12132.4340505,E,0.00,238.77,270623,,,R,V*12
$GPHDT,46.213,T*07
$GNGGA,034053.400,2500.8089946,N,12132.4340524,E,4,65,0.45,17.589,M,15.25,M,6,3335*47
$GNRMC,034053.400,A,2500.8089946,N,12132.4340524,E,0.00,238.77,270623,,,R,V*11
$GPHDT,46.025,T*00
$GNGGA,034053.600,2500.8089908,N,12132.4340555,E,4,65,0.43,17.576,M,15.25,M,5,3335*4C
$GNRMC,034053.600,A,2500.8089908,N,12132.4340555,E,0.00,238.77,270623,,,R,V*1F
$GPHDT,46.514,T*07
$GNGGA,034053.800,2500.8089976,N,12132.4340533,E,4,65,0.43,17.577,M,15.25,M,3,3335*4C
$GNRMC,034053.800,A,2500.8089976,N,12132.4340533,E,0.00,238.77,270623,,,R,V*18
$GPHDT,46.138,T*0D
$GNGSA,A,3,195,19,17,196,199,06,194,09,14,20,11,04,0.82,0.43,0.70,1*07
$GNGSA,A,3,03,12,,,,,,,,,,,0.82,0.43,0.70,1*0B
$GNGSA,A,3,67,68,82,83,80,73,,,,,,,0.82,0.43,0.70,2*0A
$GNGSA,A,3,24,10,12,11,19,31,04,25,33,,,,0.82,0.43,0.70,3*04
$GNGSA,A,3,40,07,10,33,14,08,43,13,42,28,11,34,0.82,0.43,0.70,4*0F
$GPGSV,4,1,15,195,67,042,41,19,64,014,42,17,64,069,44,196,63,128,40,1*6C
$GPGSV,4,2,15,199,60,167,36,50,50,134,38,06,50,336,41,194,42,171,45,1*65
$GPGSV,4,3,15,09,32,109,24,14,28,177,45,20,27,229,18,11,26,283,30,1*67
$GPGSV,4,4,15,04,21,075,35,03,11,038,24,12,11,319,24,1*53
$GPGSV,3,1,10,195,67,042,45,196,63,128,45,199,60,167,47,06,50,336,46,8*57
$GPGSV,3,2,10,194,42,171,45,09,32,109,30,14,28,177,44,11,26,283,39,8*5B
$GPGSV,3,3,10,04,21,075,31,03,11,038,28,8*69
$GLGSV,2,1,08,67,48,066,44,68,47,150,42,82,37,034,38,83,32,338,32,1*70
$GLGSV,2,2,08,80,26,232,15,73,23,293,26,66,08,028,31,79,02,187,,1*70
$GAGSV,3,1,09,24,53,246,36,10,49,331,39,12,49,012,38,11,34,297,18,7*7E
$GAGSV,3,2,09,19,30,088,29,31,29,182,38,04,26,155,41,25,24,309,30,7*7E
$GAGSV,3,3,09,33,15,062,40,7*4E
$GAGSV,3,1,09,24,53,246,42,10,49,331,45,12,49,012,41,11,34,297,29,1*7C
$GAGSV,3,2,09,19,30,088,33,31,29,182,41,04,26,155,44,25,24,309,30,1*78
$GAGSV,3,3,09,33,15,062,31,1*4E
$GBGSV,4,1,16,40,84,119,40,07,82,252,40,10,72,293,38,33,61,152,46,1*79
$GBGSV,4,2,16,14,61,088,43,08,59,267,37,43,53,051,44,13,49,256,42,1*7C
$GBGSV,4,3,16,42,41,056,46,28,36,322,43,11,33,078,39,23,20,223,,1*7A
$GBGSV,4,4,16,41,20,197,,34,18,095,31,37,17,275,,06,01,189,,1*7C
$GBGSV,2,1,06,40,84,119,45,33,61,152,45,43,53,051,45,42,41,056,45,4*73
$GBGSV,2,2,06,28,36,322,45,34,18,095,32,4*7B
$GNGGA,034054.000,2500.8090033,N,12132.4340505,E,4,66,0.43,17.605,M,15.25,M,1,3335*41
$GNRMC,034054.000,A,2500.8090033,N,12132.4340505,E,0.00,238.77,270623,,,R,V*12
$GPHDT,46.412,T*00
$GNGGA,034054.200,2500.8089997,N,12132.4340500,E,4,66,0.43,17.608,M,15.25,M,1,3335*44
$GNRMC,034054.200,A,2500.8089997,N,12132.4340500,E,0.00,238.77,270623,,,R,V*1A
$GPHDT,46.075,T*05
$GNGGA,034054.400,2500.8090019,N,12132.4340468,E,4,66,0.43,17.596,M,15.25,M,1,3335*4E
$GNRMC,034054.400,A,2500.8090019,N,12132.4340468,E,0.00,238.77,270623,,,R,V*14
$GPHDT,46.487,T*0C
$GNGGA,034054.600,2500.8090030,N,12132.4340531,E,4,65,0.44,17.600,M,15.25,M,1,3335*42
$GNRMC,034054.600,A,2500.8090030,N,12132.4340531,E,0.00,238.77,270623,,,R,V*10
$GPHDT,46.189,T*07
$GNGGA,034054.800,2500.8090026,N,12132.4340490,E,4,65,0.44,17.617,M,15.25,M,1,3335*47
$GNRMC,034054.800,A,2500.8090026,N,12132.4340490,E,0.00,238.77,270623,,,R,V*13
$GPHDT,46.492,T*08
$GNGSA,A,3,195,19,17,196,199,06,194,09,14,20,11,04,0.82,0.43,0.70,1*07
$GNGSA,A,3,03,12,,,,,,,,,,,0.82,0.43,0.70,1*0B
$GNGSA,A,3,67,68,82,83,80,73,,,,,,,0.82,0.43,0.70,2*0A
$GNGSA,A,3,24,10,12,11,19,31,04,25,33,,,,0.82,0.43,0.70,3*04
$GNGSA,A,3,40,07,10,14,33,08,43,13,42,28,11,34,0.82,0.43,0.70,4*0F
$GPGSV,4,1,15,195,67,042,41,19,64,014,42,17,64,069,44,196,63,128,40,1*6C
$GPGSV,4,2,15,199,60,167,36,50,50,134,38,06,50,336,41,194,42,171,45,1*65
$GPGSV,4,3,15,09,32,108,26,14,28,177,45,20,27,229,16,11,26,283,30,1*6A
$GPGSV,4,4,15,04,21,075,35,03,11,038,26,12,11,319,23,1*56
$GPGSV,3,1,10,195,67,042,45,196,63,128,45,199,60,167,47,06,50,336,46,8*57
$GPGSV,3,2,10,194,42,171,45,09,32,108,29,14,28,177,44,11,26,283,39,8*52
$GPGSV,3,3,10,04,21,075,30,03,11,038,27,8*67
$GLGSV,3,1,10,67,48,066,44,68,47,150,42,82,37,034,38,83,32,338,32,1*78
$GLGSV,3,2,10,80,26,232,18,73,23,293,27,66,08,028,31,69,08,185,,1*7D
$GLGSV,3,3,10,74,02,330,,79,02,187,,1*7A
$GAGSV,3,1,09,24,53,246,36,10,49,331,39,12,49,012,38,11,34,297,18,7*7E
$GAGSV,3,2,09,19,30,088,30,31,29,182,38,04,26,155,41,25,24,309,29,7*7E
$GAGSV,3,3,09,33,15,062,40,7*4E
$GAGSV,3,1,09,24,53,246,42,10,49,331,45,12,49,012,41,11,34,297,29,1*7C
$GAGSV,3,2,09,19,30,088,33,31,29,182,41,04,26,155,44,25,24,309,30,1*78
$GAGSV,3,3,09,33,15,062,31,1*4E
$GBGSV,4,1,15,40,84,119,40,07,82,252,40,10,72,293,38,14,61,088,43,1*7C
$GBGSV,4,2,15,33,61,152,46,08,59,267,37,43,53,051,44,13,49,256,41,1*7A
$GBGSV,4,3,15,42,41,056,47,28,36,322,43,11,33,078,38,41,20,197,,1*71
$GBGSV,4,4,15,23,20,223,,34,18,095,31,37,17,275,,1*40
$GBGSV,2,1,06,40,84,119,45,33,61,152,45,43,53,051,45,42,41,056,45,4*73
$GBGSV,2,2,06,28,36,322,45,34,18,095,32,4*7B
$GNGGA,034055.000,2500.8090040,N,12132.4340513,E,4,66,0.43,17.609,M,15.25,M,2,3335*4C
$GNRMC,034055.000,A,2500.8090040,N,12132.4340513,E,0.00,238.77,270623,,,R,V*10
$GPHDT,46.400,T*03
$GNGGA,034055.200,2500.8090007,N,12132.4340547,E,4,66,0.43,17.598,M,15.25,M,2,3335*47
$GNRMC,034055.200,A,2500.8090007,N,12132.4340547,E,0.00,238.77,270623,,,R,V*10
$GPHDT,46.198,T*07
$GNGGA,034055.400,2500.8090044,N,12132.4340513,E,4,65,0.44,17.599,M,15.25,M,1,3335*41
$GNRMC,034055.400,A,2500.8090044,N,12132.4340513,E,0.00,238.77,270623,,,R,V*10
$GPHDT,46.441,T*06
$GNGGA,034055.600,2500.8090087,N,12132.4340484,E,4,65,0.44,17.634,M,15.25,M,0,3335*46
$GNRMC,034055.600,A,2500.8090087,N,12132.4340484,E,0.00,238.77,270623,,,R,V*12
$GPHDT,46.304,T*00
$GNGGA,034055.800,2500.8090101,N,12132.4340491,E,4,66,0.43,17.646,M,15.25,M,0,3335*42
$GNRMC,034055.800,A,2500.8090101,N,12132.4340491,E,0.00,238.77,270623,,,R,V*17
$GPHDT,46.095,T*0B
$GNGSA,A,3,195,19,17,196,199,06,194,09,14,20,11,04,0.82,0.43,0.70,1*07
$GNGSA,A,3,03,12,,,,,,,,,,,0.82,0.43,0.70,1*0B
$GNGSA,A,3,67,68,82,83,80,73,,,,,,,0.82,0.43,0.70,2*0A
$GNGSA,A,3,24,10,12,11,19,31,04,25,33,,,,0.82,0.43,0.70,3*04
$GNGSA,A,3,40,07,10,33,14,08,43,13,42,28,11,34,0.82,0.43,0.70,4*0F
$GPGSV,4,1,15,195,67,042,41,19,64,014,42,17,64,069,44,196,63,128,40,1*6C
$GPGSV,4,2,15,199,60,167,36,50,50,134,38,06,50,336,40,194,42,171,45,1*64
$GPGSV,4,3,15,09,32,108,27,14,28,177,45,20,27,229,16,11,26,283,30,1*6B
$GPGSV,4,4,15,04,21,075,35,03,11,038,26,12,11,319,24,1*51
$GPGSV,3,1,10,195,67,042,45,196,63,128,45,199,60,167,47,06,50,336,46,8*57
$GPGSV,3,2,10,194,42,171,45,09,32,108,29,14,28,177,44,11,26,283,39,8*52
$GPGSV,3,3,10,04,21,075,32,03,11,038,28,8*6A
$GLGSV,2,1,08,67,48,066,44,68,47,150,42,82,37,034,38,83,32,338,32,1*70
$GLGSV,2,2,08,80,26,232,20,73,23,293,27,66,08,028,31,79,02,187,,1*77
$GAGSV,3,1,09,24,53,246,36,10,49,331,39,12,49,012,38,11,34,297,18,7*7E
$GAGSV,3,2,09,19,30,088,30,31,29,182,38,04,26,155,41,25,24,309,29,7*7E
$GAGSV,3,3,09,33,15,062,40,7*4E
$GAGSV,3,1,09,24,53,246,42,10,49,331,45,12,49,012,41,11,34,297,29,1*7C
$GAGSV,3,2,09,19,30,088,33,31,29,182,41,04,26,155,44,25,24,309,30,1*78
$GAGSV,3,3,09,33,15,062,30,1*4F
$GBGSV,4,1,15,40,84,119,40,07,82,252,40,10,72,293,38,33,61,152,46,1*7A
$GBGSV,4,2,15,14,61,088,43,08,59,267,37,43,53,051,44,13,49,256,41,1*7C
$GBGSV,4,3,15,42,41,056,47,28,36,322,43,11,33,078,38,23,20,223,,1*79
$GBGSV,4,4,15,41,20,197,,34,18,095,32,37,17,275,,1*4B
$GBGSV,2,1,06,40,84,119,45,33,61,152,45,43,53,051,45,42,41,056,45,4*73
$GBGSV,2,2,06,28,36,322,45,34,18,095,32,4*7B
$GNGGA,034056.000,2500.8090126,N,12132.4340482,E,4,66,0.43,17.652,M,15.25,M,1,3335*4A
$GNRMC,034056.000,A,2500.8090126,N,12132.4340482,E,0.00,238.77,270623,,,R,V*1B
$GPHDT,46.199,T*06
$GNGGA,034056.200,2500.8090080,N,12132.4340500,E,4,65,0.45,17.625,M,15.25,M,1,3335*4B
$GNRMC,034056.200,A,2500.8090080,N,12132.4340500,E,0.00,238.77,270623,,,R,V*1F
$GPHDT,46.205,T*00
$GNGGA,034056.400,2500.8090087,N,12132.4340469,E,4,65,0.45,17.629,M,15.25,M,1,3335*48
$GNRMC,034056.400,A,2500.8090087,N,12132.4340469,E,0.00,238.77,270623,,,R,V*10
$GPHDT,46.453,T*05
$GNGGA,034056.600,2500.8090119,N,12132.4340453,E,4,65,0.45,17.650,M,15.25,M,1,3335*4B
$GNRMC,034056.600,A,2500.8090119,N,12132.4340453,E,0.00,238.77,270623,,,R,V*1D
$GPHDT,46.241,T*00
$GNGGA,034056.800,2500.8090090,N,12132.4340495,E,4,65,0.45,17.629,M,15.25,M,1,3335*41
$GNRMC,034056.800,A,2500.8090090,N,12132.4340495,E,0.00,238.77,270623,,,R,V*19
$GPHDT,46.227,T*00
$GNGSA,A,3,195,19,17,196,199,06,194,09,14,11,04,03,0.84,0.45,0.71,1*07
$GNGSA,A,3,12,,,,,,,,,,,,0.84,0.45,0.71,1*09
$GNGSA,A,3,67,68,82,83,80,73,,,,,,,0.84,0.45,0.71,2*0B
$GNGSA,A,3,24,10,12,11,19,31,04,25,33,,,,0.84,0.45,0.71,3*05
$GNGSA,A,3,40,07,10,33,14,08,43,13,42,28,11,34,0.84,0.45,0.71,4*0E
$GPGSV,4,1,15,195,67,042,41,19,64,015,41,17,64,070,44,196,63,128,40,1*66
$GPGSV,4,2,15,199,60,167,36,50,50,134,38,06,50,336,39,194,42,171,45,1*6A
$GPGSV,4,3,15,09,32,108,27,14,28,177,45,20,27,229,15,11,26,283,30,1*68
$GPGSV,4,4,15,04,21,075,35,03,11,038,26,12,11,319,23,1*56
$GPGSV,3,1,10,195,67,042,45,196,63,128,45,199,60,167,47,06,50,336,46,8*57
$GPGSV,3,2,10,194,42,171,44,09,32,108,29,14,28,177,44,11,26,283,39,8*53
$GPGSV,3,3,10,04,21,075,31,03,11,038,28,8*69
$GLGSV,2,1,08,67,48,066,44,68,47,150,42,82,37,034,37,83,32,338,32,1*7F
$GLGSV,2,2,08,80,26,232,18,73,23,293,28,66,08,028,31,79,02,187,,1*73
$GAGSV,3,1,09,24,53,246,36,10,49,331,39,12,49,012,38,11,34,297,17,7*71
$GAGSV,3,2,09,19,30,088,30,31,29,182,38,04,26,155,41,25,24,309,29,7*7E
$GAGSV,3,3,09,33,15,062,40,7*4E
$GAGSV,3,1,09,24,53,246,42,10,49,331,45,12,49,012,41,11,34,297,30,1*74
$GAGSV,3,2,09,19,30,088,33,31,29,182,41,04,26,155,44,25,24,309,30,1*78
$GAGSV,3,3,09,33,15,062,29,1*47
$GBGSV,4,1,15,40,84,119,40,07,82,252,40,10,72,293,38,33,61,152,46,1*7A
$GBGSV,4,2,15,14,61,088,43,08,59,267,35,43,53,051,44,13,49,256,41,1*7E
$GBGSV,4,3,15,42,41,056,47,28,36,322,43,11,33,078,39,23,20,223,,1*78
$GBGSV,4,4,15,41,20,197,,34,18,095,33,37,17,275,,1*4A
$GBGSV,2,1,06,40,84,119,45,33,61,152,45,43,53,051,45,42,41,056,45,4*73
$GBGSV,2,2,06,28,36,322,45,34,18,095,31,4*78
$GNGGA,034057.000,2500.8090083,N,12132.4340534,E,4,65,0.45,17.630,M,15.25,M,2,3335*4B
$GNRMC,034057.000,A,2500.8090083,N,12132.4340534,E,0.00,238.77,270623,,,R,V*18
$GPHDT,46.160,T*00
$GNGGA,034057.200,2500.8090114,N,12132.4340497,E,4,65,0.45,17.635,M,15.25,M,2,3335*4B
$GNRMC,034057.200,A,2500.8090114,N,12132.4340497,E,0.00,238.77,270623,,,R,V*1D
$GPHDT,46.165,T*05
$GNGGA,034057.400,2500.8090074,N,12132.4340516,E,4,65,0.45,17.627,M,15.25,M,2,3335*41
$GNRMC,034057.400,A,2500.8090074,N,12132.4340516,E,0.00,238.77,270623,,,R,V*14
$GPHDT,46.285,T*08
$GNGGA,034057.600,2500.8090110,N,12132.4340530,E,4,65,0.45,17.635,M,15.25,M,2,3335*47
$GNRMC,034057.600,A,2500.8090110,N,12132.4340530,E,0.00,238.77,270623,,,R,V*11
$GPHDT,46.100,T*06
$GNGGA,034057.800,2500.8090092,N,12132.4340506,E,4,65,0.45,17.622,M,15.25,M,2,3335*41
$GNRMC,034057.800,A,2500.8090092,N,12132.4340506,E,0.00,238.77,270623,,,R,V*11
$GPHDT,46.435,T*05
$GNGSA,A,3,195,19,17,196,199,06,194,09,14,11,04,03,0.84,0.45,0.71,1*07
$GNGSA,A,3,12,,,,,,,,,,,,0.84,0.45,0.71,1*09
$GNGSA,A,3,67,68,82,83,80,73,,,,,,,0.84,0.45,0.71,2*0B
$GNGSA,A,3,24,10,12,11,19,31,04,25,33,,,,0.84,0.45,0.71,3*05
$GNGSA,A,3,40,07,10,33,14,08,43,13,42,28,11,34,0.84,0.45,0.71,4*0E
$GPGSV,4,1,15,195,67,042,41,19,64,015,41,17,64,070,44,196,63,128,40,1*66
$GPGSV,4,2,15,199,60,167,36,50,50,134,38,06,50,336,39,194,42,171,45,1*6A
$GPGSV,4,3,15,09,32,108,29,14,28,177,45,20,27,229,16,11,26,283,29,1*6D
$GPGSV,4,4,15,04,21,075,35,03,11,038,26,12,11,319,22,1*57
$GPGSV,3,1,10,195,67,042,45,196,63,128,45,199,60,167,47,06,50,336,46,8*57
$GPGSV,3,2,10,194,42,171,44,09,32,108,29,14,28,177,44,11,26,283,39,8*53
$GPGSV,3,3,10,04,21,075,30,03,11,038,27,8*67
$GLGSV,2,1,08,67,48,066,44,68,47,150,42,82,37,034,37,83,32,338,32,1*7F
$GLGSV,2,2,08,80,26,232,18,73,23,293,28,66,08,028,30,79,02,187,,1*72
$GAGSV,3,1,09,24,53,246,36,10,49,331,40,12,49,012,38,11,34,297,17,7*7F
$GAGSV,3,2,09,19,30,088,31,31,29,182,38,04,26,155,41,25,24,309,28,7*7E
$GAGSV,3,3,09,33,15,062,40,7*4E
$GAGSV,3,1,09,24,53,246,42,10,49,331,45,12,49,012,40,11,34,297,29,1*7D
$GAGSV,3,2,09,19,30,088,33,31,29,182,41,04,26,155,44,25,24,309,30,1*78
$GAGSV,3,3,09,33,15,062,28,1*46
$GBGSV,4,1,16,40,84,119,40,07,82,252,40,10,72,293,38,33,61,152,46,1*79
$GBGSV,4,2,16,14,61,088,43,08,59,267,35,43,53,051,44,13,49,256,41,1*7D
$GBGSV,4,3,16,42,41,056,47,28,36,322,43,11,33,078,39,23,20,223,,1*7B
$GBGSV,4,4,16,41,20,197,,34,18,095,33,37,17,275,,06,01,189,,1*7E
$GBGSV,2,1,06,40,84,119,45,33,61,152,45,43,53,051,45,42,41,056,45,4*73
$GBGSV,2,2,06,28,36,322,45,34,18,095,32,4*7B
$GNGGA,034058.000,2500.8090102,N,12132.4340496,E,4,65,0.45,17.626,M,15.25,M,3,3335*43
$GNRMC,034058.000,A,2500.8090102,N,12132.4340496,E,0.00,238.77,270623,,,R,V*16
$GPHDT,46.484,T*0F
$GNGGA,034058.200,2500.8090031,N,12132.4340548,E,4,65,0.45,17.611,M,15.25,M,3,3335*46
$GNRMC,034058.200,A,2500.8090031,N,12132.4340548,E,0.00,238.77,270623,,,R,V*17
$GPHDT,46.031,T*05
$GNGGA,034058.400,2500.8090057,N,12132.4340521,E,4,65,0.45,17.604,M,15.25,M,3,3335*4B
$GNRMC,034058.400,A,2500.8090057,N,12132.4340521,E,0.00,238.77,270623,,,R,V*1E
$GPHDT,46.543,T*05
$GNGGA,034058.600,2500.8090052,N,12132.4340564,E,4,66,0.43,17.616,M,15.25,M,3,3335*4B
$GNRMC,034058.600,A,2500.8090052,N,12132.4340564,E,0.00,238.77,270623,,,R,V*18
$GPHDT,46.214,T*00
$GNGGA,034058.800,2500.8090033,N,12132.4340569,E,4,66,0.43,17.599,M,15.25,M,3,3335*4B
$GNRMC,034058.800,A,2500.8090033,N,12132.4340569,E,0.00,238.77,270623,,,R,V*1C
$GPHDT,46.112,T*05
$GNGSA,A,3,195,19,17,196,199,06,194,09,14,20,11,04,0.86,0.44,0.74,1*00
$GNGSA,A,3,03,,,,,,,,,,,,0.86,0.44,0.74,1*0F
$GNGSA,A,3,67,68,82,83,80,73,,,,,,,0.86,0.44,0.74,2*0D
$GNGSA,A,3,24,10,12,11,19,31,04,25,33,,,,0.86,0.44,0.74,3*03
$GNGSA,A,3,40,07,10,33,14,08,43,13,42,28,11,34,0.86,0.44,0.74,4*08
$GPGSV,4,1,15,195,67,042,41,19,64,015,41,17,64,070,44,196,63,128,40,1*66
$GPGSV,4,2,15,199,60,167,36,50,50,134,38,06,50,336,39,194,42,171,45,1*6A
$GPGSV,4,3,15,09,32,108,30,14,28,177,45,20,27,229,17,11,26,283,28,1*65
$GPGSV,4,4,15,04,21,075,35,03,11,038,26,12,11,319,23,1*56
$GPGSV,3,1,10,195,67,042,45,196,63,128,45,199,60,167,47,06,50,336,46,8*57
$GPGSV,3,2,10,194,42,171,44,09,32,108,29,14,28,177,44,11,26,283,40,8*5D
$GPGSV,3,3,10,04,21,075,29,03,11,038,26,8*6E
$GLGSV,2,1,08,67,48,066,44,68,47,150,42,82,37,034,37,83,32,338,32,1*7F
$GLGSV,2,2,08,80,26,232,17,73,23,293,28,66,08,028,29,79,02,187,,1*75
$GAGSV,3,1,09,24,53,246,36,10,49,331,40,12,49,012,38,11,34,297,17,7*7F
$GAGSV,3,2,09,19,30,088,31,31,29,182,38,04,26,155,41,25,24,309,29,7*7F
$GAGSV,3,3,09,33,15,062,40,7*4E
$GAGSV,3,1,09,24,53,246,42,10,49,331,45,12,49,012,40,11,34,297,29,1*7D
$GAGSV,3,2,09,19,30,088,33,31,29,182,41,04,26,155,44,25,24,309,30,1*78
$GAGSV,3,3,09,33,15,062,29,1*47
$GBGSV,4,1,15,40,84,119,40,07,82,252,40,10,72,293,39,33,61,152,46,1*7B
$GBGSV,4,2,15,14,61,088,43,08,59,267,34,43,53,051,44,13,49,256,41,1*7F
$GBGSV,4,3,15,42,41,056,47,28,36,322,43,11,33,078,39,23,20,223,,1*78
$GBGSV,4,4,15,41,20,197,,34,18,095,33,37,17,275,,1*4A
$GBGSV,2,1,06,40,84,119,45,33,61,152,45,43,53,051,45,42,41,056,45,4*73
$GBGSV,2,2,06,28,36,322,45,34,18,095,33,4*7A
$GNGGA,034059.000,2500.8089990,N,12132.4340578,E,4,65,0.44,17.589,M,15.25,M,4,3335*48
$GNRMC,034059.000,A,2500.8089990,N,12132.4340578,E,0.00,238.77,270623,,,R,V*1D
$GPHDT,46.176,T*07
$GNGGA,034059.200,2500.8089995,N,12132.4340538,E,4,65,0.44,17.597,M,15.25,M,4,3335*44
$GNRMC,034059.200,A,2500.8089995,N,12132.4340538,E,0.00,238.77,270623,,,R,V*1E
$GPHDT,46.228,T*0F
$GNGGA,034059.400,2500.8089983,N,12132.4340570,E,4,65,0.45,17.592,M,15.25,M,4,3335*4D
$GNRMC,034059.400,A,2500.8089983,N,12132.4340570,E,0.00,238.77,270623,,,R,V*13
$GPHDT,46.455,T*03
$GNGGA,034059.600,2500.8090017,N,12132.4340527,E,4,65,0.45,17.601,M,15.25,M,4,3335*48
$GNRMC,034059.600,A,2500.8090017,N,12132.4340527,E,0.00,238.77,270623,,,R,V*1F
$GPHDT,46.329,T*0F
$GNGGA,034059.800,2500.8090003,N,12132.4340575,E,4,64,0.45,17.586,M,15.25,M,4,3335*49
$GNRMC,034059.800,A,2500.8090003,N,12132.4340575,E,0.00,238.77,270623,,,R,V*13
$GPHDT,46.202,T*07
$GNGSA,A,3,195,19,17,196,199,06,194,09,14,11,04,03,0.88,0.45,0.75,1*0F
$GNGSA,A,3,67,68,82,83,80,73,,,,,,,0.88,0.45,0.75,2*03
$GNGSA,A,3,24,10,12,11,19,31,04,25,33,,,,0.88,0.45,0.75,3*0D
$GNGSA,A,3,40,07,10,33,14,08,43,13,42,28,11,34,0.88,0.45,0.75,4*06
$GPGSV,4,1,15,195,67,042,41,19,64,015,41,17,64,070,44,196,63,128,40,1*66
$GPGSV,4,2,15,199,60,167,36,50,50,134,38,06,50,336,39,194,42,171,45,1*6A
$GPGSV,4,3,15,09,32,108,30,14,28,177,45,20,27,229,15,11,26,283,28,1*67
$GPGSV,4,4,15,04,21,075,35,03,11,038,26,12,11,319,21,1*54
$GPGSV,3,1,10,195,67,042,45,196,63,128,45,199,60,167,47,06,50,336,46,8*57
$GPGSV,3,2,10,194,42,171,44,09,32,108,29,14,28,177,44,11,26,283,40,8*5D
$GPGSV,3,3,10,04,21,075,30,03,11,038,28,8*68
$GLGSV,2,1,08,67,48,066,44,68,47,150,42,82,37,034,38,83,32,338,32,1*70
$GLGSV,2,2,08,80,26,232,16,73,23,293,28,66,08,028,29,79,02,187,,1*74
$GAGSV,3,1,09,24,53,246,36,10,49,331,40,12,49,012,38,11,34,297,17,7*7F
$GAGSV,3,2,09,19,30,088,30,31,29,182,38,04,26,155,41,25,24,309,30,7*76
$GAGSV,3,3,09,33,15,062,40,7*4E
$GAGSV,3,1,09,24,53,246,42,10,49,331,45,12,49,012,40,11,34,297,29,1*7D
$GAGSV,3,2,09,19,30,088,33,31,29,182,41,04,26,155,44,25,24,309,30,1*78
$GAGSV,3,3,09,33,15,062,29,1*47
$GBGSV,4,1,15,40,84,119,40,07,82,252,40,10,72,293,39,33,61,152,46,1*7B
$GBGSV,4,2,15,14,61,088,43,08,59,267,34,43,53,051,44,13,49,256,41,1*7F
$GBGSV,4,3,15,42,41,056,47,28,36,322,43,11,33,078,39,23,20,223,,1*78
$GBGSV,4,4,15,41,20,197,,34,18,095,34,37,17,275,,1*4D
$GBGSV,2,1,06,40,84,119,45,33,61,152,45,43,53,051,45,42,41,056,45,4*73
$GBGSV,2,2,06,28,36,322,45,34,18,095,33,4*7A
$GNGGA,034100.000,2500.8090003,N,12132.4340529,E,4,64,0.45,17.602,M,15.25,M,5,3335*4B
$GNRMC,034100.000,A,2500.8090003,N,12132.4340529,E,0.00,238.77,270623,,,R,V*1F
$GPHDT,46.505,T*07
$GNGGA,034100.200,2500.8089970,N,12132.4340571,E,4,65,0.45,17.578,M,15.25,M,5,3335*4E
$GNRMC,034100.200,A,2500.8089970,N,12132.4340571,E,0.00,238.77,270623,,,R,V*15
$GPHDT,46.404,T*07
$GNGGA,034100.400,2500.8089939,N,12132.4340577,E,4,64,0.45,17.572,M,15.25,M,5,3335*48
$GNRMC,034100.400,A,2500.8089939,N,12132.4340577,E,0.00,238.77,270623,,,R,V*18
$GPHDT,46.484,T*0F
$GNGGA,034100.600,2500.8089977,N,12132.4340549,E,4,64,0.45,17.581,M,15.25,M,5,3335*41
$GNRMC,034100.600,A,2500.8089977,N,12132.4340549,E,0.00,238.77,270623,,,R,V*1D
$GPHDT,46.374,T*07
$GNGGA,034100.800,2500.8089975,N,12132.4340576,E,4,64,0.45,17.589,M,15.25,M,5,3335*49
$GNRMC,034100.800,A,2500.8089975,N,12132.4340576,E,0.00,238.77,270623,,,R,V*1D
$GPHDT,46.291,T*0D
$GNGSA,A,3,195,19,17,196,199,06,194,09,14,11,04,03,0.88,0.45,0.75,1*0F
$GNGSA,A,3,67,68,82,83,80,73,,,,,,,0.88,0.45,0.75,2*03
$GNGSA,A,3,24,12,10,11,19,31,04,25,33,,,,0.88,0.45,0.75,3*0D
$GNGSA,A,3,40,07,10,33,14,08,43,13,42,28,11,34,0.88,0.45,0.75,4*06
$GPGSV,4,1,16,195,67,042,41,19,64,015,41,17,64,070,44,196,63,128,40,1*65
$GPGSV,4,2,16,199,60,167,36,50,60,167,38,06,50,336,39,194,42,171,45,1*6C
$GPGSV,4,3,16,09,32,108,30,14,28,177,45,20,27,229,17,11,26,283,29,1*67
$GPGSV,4,4,16,04,21,075,36,03,11,038,26,12,11,319,20,05,01,220,,1*61
$GPGSV,3,1,10,195,67,042,45,196,63,128,45,199,60,167,47,06,50,336,46,8*57
$GPGSV,3,2,10,194,42,171,44,09,32,108,27,14,28,177,44,11,26,283,40,8*53
$GPGSV,3,3,10,04,21,075,30,03,11,038,27,8*67
$GLGSV,3,1,10,67,48,066,44,68,47,150,42,82,37,034,38,83,32,338,33,1*79
$GLGSV,3,2,10,80,26,232,16,73,23,293,27,66,08,028,29,69,08,185,,1*7A
$GLGSV,3,3,10,74,02,330,,79,02,187,,1*7A
$GAGSV,3,1,09,24,53,246,36,12,49,012,38,10,49,331,40,11,34,297,17,7*7F
$GAGSV,3,2,09,19,30,088,28,31,29,182,38,04,26,155,41,25,24,309,30,7*7F
$GAGSV,3,3,09,33,15,062,40,7*4E
$GAGSV,3,1,09,24,53,246,42,10,49,331,45,12,49,012,40,11,34,297,29,1*7D
$GAGSV,3,2,09,19,30,088,33,31,29,182,41,04,26,155,44,25,24,309,30,1*78
$GAGSV,3,3,09,33,15,062,29,1*47
$GBGSV,4,1,16,40,84,119,40,07,82,252,40,10,72,293,39,33,61,152,46,1*78
$GBGSV,4,2,16,14,61,088,43,08,59,267,34,43,53,051,44,13,49,256,41,1*7C
$GBGSV,4,3,16,42,41,056,47,28,36,322,43,11,33,078,39,41,20,197,,1*73
$GBGSV,4,4,16,23,20,223,,34,18,095,35,37,17,275,,39,02,179,,1*70
$GBGSV,2,1,06,40,84,119,45,33,61,152,45,43,53,051,45,42,41,056,45,4*73
$GBGSV,2,2,06,28,36,322,45,34,18,095,33,4*7A
$GNGGA,034101.000,2500.8089962,N,12132.4340601,E,4,64,0.45,17.583,M,15.25,M,6,3335*4C
$GNRMC,034101.000,A,2500.8089962,N,12132.4340601,E,0.00,238.77,270623,,,R,V*11
$GPHDT,46.281,T*0C
$GNGGA,034101.200,2500.8090001,N,12132.4340572,E,4,65,0.45,17.602,M,15.25,M,6,3335*46
$GNRMC,034101.200,A,2500.8090001,N,12132.4340572,E,0.00,238.77,270623,,,R,V*10
$GPHDT,46.291,T*0D
$GNGGA,034101.400,2500.8090001,N,12132.4340557,E,4,65,0.45,17.600,M,15.25,M,5,3335*46
$GNRMC,034101.400,A,2500.8090001,N,12132.4340557,E,0.00,238.77,270623,,,R,V*11
$GPHDT,46.669,T*0E
$GNGGA,034101.600,2500.8089996,N,12132.4340542,E,4,65,0.45,17.619,M,15.25,M,5,3335*47
$GNRMC,034101.600,A,2500.8089996,N,12132.4340542,E,0.00,238.77,270623,,,R,V*18
