$FW : RTK35X,V1.1X0314AS,Lib20210517,1*54
$Tool : LOCOSYS , GNSS Firebird , v1.0.0.19*39
$---------------------------------------------------*2D
$GNGGA,034147.600,2500.8090057,N,12132.4340515,E,4,65,0.43,17.629,M,15.25,M,2,3335*49
$GNRMC,034147.600,A,2500.8090057,N,12132.4340515,E,0.00,238.77,270623,,,R,V*14
$GPHDT,316.907,T*3F
$GNGGA,034147.800,2500.8090041,N,12132.4340497,E,4,64,0.43,17.635,M,15.25,M,2,3335*47
$GNRMC,034147.800,A,2500.8090041,N,12132.4340497,E,0.00,238.77,270623,,,R,V*16
$GPHDT,316.946,T*3A
$GNGSA,A,3,195,19,17,196,199,06,194,09,20,14,11,04,0.82,0.43,0.69,1*0F
$GNGSA,A,3,12,03,,,,,,,,,,,0.82,0.43,0.69,1*03
$GNGSA,A,3,67,68,82,83,80,73,,,,,,,0.82,0.43,0.69,2*02
$GNGSA,A,3,24,10,12,11,19,04,25,33,,,,,0.82,0.43,0.69,3*0E
$GNGSA,A,3,40,07,10,33,14,08,43,13,42,28,11,34,0.82,0.43,0.69,4*07
$GNGSA,A,3,37,,,,,,,,,,,,0.82,0.43,0.69,4*02
$GPGSV,4,1,15,195,67,042,42,19,65,015,44,17,64,071,41,196,63,128,40,1*65
$GPGSV,4,2,15,50,60,167,36,199,60,167,34,06,50,336,43,194,42,171,43,1*68
$GPGSV,4,3,15,09,32,108,39,20,27,229,18,14,27,177,43,11,26,283,27,1*65
$GPGSV,4,4,15,04,21,075,36,12,12,319,24,03,11,038,23,1*54
$GPGSV,3,1,09,195,67,042,45,196,63,128,45,199,60,167,46,06,50,336,45,8*5D
$GPGSV,3,2,09,194,42,171,44,09,32,108,42,14,27,177,45,11,26,283,38,8*59
$GPGSV,3,3,09,03,11,038,20,8*5E
$GLGSV,2,1,08,67,47,065,36,68,47,149,42,82,37,035,42,83,33,338,32,1*7C
$GLGSV,2,2,08,80,26,232,15,73,23,292,30,66,07,028,24,79,02,187,,1*7D
$GAGSV,2,1,08,24,53,245,37,10,49,332,39,12,48,013,37,11,34,298,27,7*73
$GAGSV,2,2,08,19,30,088,32,04,26,155,37,25,24,309,28,33,15,063,35,7*72
$GAGSV,2,1,08,24,53,245,41,10,49,332,44,12,48,013,41,11,34,298,23,1*7B
$GAGSV,2,2,08,19,30,088,35,04,26,155,41,25,24,309,26,33,15,063,34,1*7D
$GBGSV,4,1,16,40,84,121,41,07,81,250,38,10,72,292,40,33,62,152,43,1*75
$GBGSV,4,2,16,14,61,087,38,08,59,268,40,43,53,052,29,13,49,256,42,1*78
$GBGSV,4,3,16,42,41,055,28,28,36,323,46,11,33,078,39,23,20,222,,1*74
$GBGSV,4,4,16,41,20,197,,34,18,095,41,37,17,275,,25,03,179,,1*77
$GBGSV,2,1,07,40,84,121,45,33,62,152,45,43,53,052,35,42,41,055,34,4*7B
$GBGSV,2,2,07,28,36,323,42,34,18,095,33,37,17,275,30,4*4C
$GNGGA,034148.000,2500.8090059,N,12132.4340478,E,4,64,0.43,17.645,M,15.25,M,3,3335*4E
$GNRMC,034148.000,A,2500.8090059,N,12132.4340478,E,0.00,238.77,270623,,,R,V*19
$GPHDT,317.074,T*33
$GNGGA,034148.200,2500.8090047,N,12132.4340535,E,4,64,0.43,17.626,M,15.25,M,3,3335*4E
$GNRMC,034148.200,A,2500.8090047,N,12132.4340535,E,0.00,238.77,270623,,,R,V*1C
$GPHDT,316.629,T*3C
$GNGGA,034148.400,2500.8090057,N,12132.4340508,E,4,64,0.43,17.633,M,15.25,M,3,3335*43
$GNRMC,034148.400,A,2500.8090057,N,12132.4340508,E,0.00,238.77,270623,,,R,V*15
$GPHDT,316.880,T*31
$GNGGA,034148.600,2500.8090040,N,12132.4340529,E,4,66,0.43,17.638,M,15.25,M,3,3335*4D
$GNRMC,034148.600,A,2500.8090040,N,12132.4340529,E,0.00,238.77,270623,,,R,V*12
$GPHDT,316.600,T*37
$GNGGA,034148.800,2500.8090052,N,12132.4340554,E,4,65,0.43,17.628,M,15.25,M,3,3335*48
$GNRMC,034148.800,A,2500.8090052,N,12132.4340554,E,0.00,238.77,270623,,,R,V*15
$GPHDT,316.462,T*31
$GNGSA,A,3,195,19,17,196,199,06,194,09,14,20,11,04,0.82,0.43,0.69,1*0F
$GNGSA,A,3,12,03,,,,,,,,,,,0.82,0.43,0.69,1*03
$GNGSA,A,3,67,68,82,83,80,73,,,,,,,0.82,0.43,0.69,2*02
$GNGSA,A,3,24,10,12,11,19,04,25,33,,,,,0.82,0.43,0.69,3*0E
$GNGSA,A,3,40,07,10,33,14,08,43,13,42,28,11,34,0.82,0.43,0.69,4*07
$GNGSA,A,3,37,,,,,,,,,,,,0.82,0.43,0.69,4*02
$GPGSV,4,1,16,195,67,042,42,19,65,015,43,17,64,071,41,196,63,128,40,1*61
$GPGSV,4,2,16,199,60,167,34,50,60,167,36,06,50,336,43,194,42,171,43,1*6B
$GPGSV,4,3,16,09,32,108,39,14,27,177,43,20,27,229,19,11,26,283,27,1*67
$GPGSV,4,4,16,04,21,075,35,12,12,319,21,03,11,038,24,05,01,220,,1*62
$GPGSV,3,1,09,195,67,042,45,196,63,128,45,199,60,167,46,06,50,336,45,8*5D
$GPGSV,3,2,09,194,42,171,44,09,32,108,42,14,27,177,45,11,26,283,38,8*59
$GPGSV,3,3,09,03,11,038,22,8*5C
$GLGSV,3,1,10,67,47,065,36,68,47,149,42,82,37,035,43,83,33,338,31,1*76
$GLGSV,3,2,10,80,26,232,16,73,23,292,30,69,08,185,,66,07,028,23,1*78
$GLGSV,3,3,10,74,02,330,,79,02,187,,1*7A
$GAGSV,2,1,08,24,53,245,37,10,49,332,39,12,48,013,37,11,34,298,26,7*72
$GAGSV,2,2,08,19,30,088,32,04,26,155,37,25,24,309,29,33,15,063,35,7*73
$GAGSV,2,1,08,24,53,245,41,10,49,332,44,12,48,013,41,11,34,298,23,1*7B
$GAGSV,2,2,08,19,30,088,35,04,26,155,41,25,24,309,26,33,15,063,35,1*7C
$GBGSV,4,1,16,40,84,121,41,07,81,250,38,10,72,292,40,33,62,152,43,1*75
$GBGSV,4,2,16,14,61,087,38,08,59,268,40,43,53,052,32,13,49,256,42,1*72
$GBGSV,4,3,16,42,41,055,28,28,36,323,46,11,33,078,38,41,20,197,,1*7C
$GBGSV,4,4,16,23,20,222,,34,18,095,41,37,17,275,24,39,02,179,,1*74
$GBGSV,2,1,07,40,84,121,45,33,62,152,45,43,53,052,35,42,41,055,34,4*7B
$GBGSV,2,2,07,28,36,323,42,34,18,095,33,37,17,275,29,4*44
$GNGGA,034149.000,2500.8090028,N,12132.4340447,E,4,65,0.43,17.648,M,15.25,M,4,3335*4E
$GNRMC,034149.000,A,2500.8090028,N,12132.4340447,E,0.00,238.77,270623,,,R,V*12
$GPHDT,316.934,T*3F
$GNGGA,034149.200,2500.8090061,N,12132.4340485,E,4,65,0.43,17.658,M,15.25,M,4,3335*4E
$GNRMC,034149.200,A,2500.8090061,N,12132.4340485,E,0.00,238.77,270623,,,R,V*13
$GPHDT,316.875,T*3B
$GNGGA,034149.400,2500.8090053,N,12132.4340560,E,4,66,0.43,17.633,M,15.25,M,4,3335*4D
$GNRMC,034149.400,A,2500.8090053,N,12132.4340560,E,0.00,238.77,270623,,,R,V*1E
$GPHDT,316.703,T*35
$GNGGA,034149.600,2500.8090075,N,12132.4340431,E,4,64,0.43,17.660,M,15.25,M,4,3335*4A
$GNRMC,034149.600,A,2500.8090075,N,12132.4340431,E,0.00,238.77,270623,,,R,V*1D
$GPHDT,316.807,T*3E
$GNGGA,034149.800,2500.8090033,N,12132.4340474,E,4,65,0.43,17.632,M,15.25,M,4,3335*41
$GNRMC,034149.800,A,2500.8090033,N,12132.4340474,E,0.00,238.77,270623,,,R,V*10
$GPHDT,316.626,T*33
$GNGSA,A,3,195,19,17,196,199,06,194,09,20,14,11,04,0.82,0.43,0.69,1*0F
$GNGSA,A,3,12,03,,,,,,,,,,,0.82,0.43,0.69,1*03
$GNGSA,A,3,67,68,82,83,80,73,,,,,,,0.82,0.43,0.69,2*02
$GNGSA,A,3,24,10,12,11,19,04,25,33,,,,,0.82,0.43,0.69,3*0E
$GNGSA,A,3,40,07,10,33,14,08,43,13,42,28,11,34,0.82,0.43,0.69,4*07
$GNGSA,A,3,37,,,,,,,,,,,,0.82,0.43,0.69,4*02
$GPGSV,4,1,15,195,67,042,42,19,65,015,43,17,64,071,41,196,63,128,39,1*6C
$GPGSV,4,2,15,50,60,167,36,199,60,167,33,06,50,336,44,194,42,171,42,1*69
$GPGSV,4,3,15,09,32,108,40,20,27,229,19,14,27,177,43,11,26,283,25,1*68
$GPGSV,4,4,15,04,21,075,35,12,12,319,21,03,11,038,24,1*55
$GPGSV,3,1,10,195,67,042,45,196,63,128,45,199,60,167,46,06,50,336,45,8*55
$GPGSV,3,2,10,194,42,171,44,09,32,108,42,14,27,177,45,11,26,283,38,8*51
$GPGSV,3,3,10,04,21,075,36,03,11,038,23,8*65
$GLGSV,2,1,08,67,47,065,36,68,47,149,42,82,37,035,43,83,33,338,31,1*7E
$GLGSV,2,2,08,80,26,232,14,73,23,292,31,66,07,028,23,79,02,187,,1*7A
$GAGSV,2,1,08,24,53,245,37,10,49,332,39,12,48,013,37,11,34,298,25,7*71
$GAGSV,2,2,08,19,30,088,32,04,26,155,37,25,24,309,28,33,15,063,36,7*71
$GAGSV,2,1,08,24,53,245,41,10,49,332,44,12,48,013,41,11,34,298,24,1*7C
$GAGSV,2,2,08,19,30,088,35,04,26,155,41,25,24,309,26,33,15,063,35,1*7C
$GBGSV,5,1,17,40,84,121,41,07,81,250,38,10,72,292,40,33,62,152,43,1*75
$GBGSV,5,2,17,14,61,087,38,08,59,268,40,43,53,052,31,13,49,256,42,1*71
$GBGSV,5,3,17,42,41,055,29,28,36,323,46,11,33,078,38,23,20,222,,1*74
$GBGSV,5,4,17,41,20,197,,34,18,095,41,37,17,275,22,25,03,179,,1*77
$GBGSV,5,5,17,06,01,189,,1*47
$GBGSV,2,1,07,40,84,121,45,33,62,152,45,43,53,052,35,42,41,055,32,4*7D
$GBGSV,2,2,07,28,36,323,42,34,18,095,33,37,17,275,29,4*44
$GNGGA,034150.000,2500.8090052,N,12132.4340485,E,4,66,0.43,17.646,M,15.25,M,5,3335*49
$GNRMC,034150.000,A,2500.8090052,N,12132.4340485,E,0.00,238.77,270623,,,R,V*19
$GPHDT,316.740,T*32
$GNGGA,034150.200,2500.8089999,N,12132.4340509,E,4,64,0.43,17.619,M,15.25,M,5,3335*40
$GNRMC,034150.200,A,2500.8089999,N,12132.4340509,E,0.00,238.77,270623,,,R,V*18
$GPHDT,316.889,T*38
$GNGGA,034150.400,2500.8090031,N,12132.4340435,E,4,66,0.43,17.645,M,15.25,M,5,3335*40
$GNRMC,034150.400,A,2500.8090031,N,12132.4340435,E,0.00,238.77,270623,,,R,V*13
$GPHDT,316.815,T*3D
$GNGGA,034150.600,2500.8090012,N,12132.4340477,E,4,65,0.43,17.643,M,15.25,M,5,3335*40
$GNRMC,034150.600,A,2500.8090012,N,12132.4340477,E,0.00,238.77,270623,,,R,V*16
$GPHDT,316.910,T*39
$GNGGA,034150.800,2500.8090049,N,12132.4340497,E,4,65,0.43,17.639,M,15.25,M,5,3335*43
$GNRMC,034150.800,A,2500.8090049,N,12132.4340497,E,0.00,238.77,270623,,,R,V*18
$GPHDT,316.373,T*36
$GNGSA,A,3,195,19,17,196,199,06,194,09,14,20,11,04,0.84,0.46,0.70,1*04
$GNGSA,A,3,12,03,,,,,,,,,,,0.84,0.46,0.70,1*08
$GNGSA,A,3,67,68,82,83,73,,,,,,,,0.84,0.46,0.70,2*01
$GNGSA,A,3,24,10,12,11,19,04,25,33,,,,,0.84,0.46,0.70,3*05
$GNGSA,A,3,40,07,10,33,14,08,43,13,42,28,11,34,0.84,0.46,0.70,4*0C
$GNGSA,A,3,37,,,,,,,,,,,,0.84,0.46,0.70,4*09
$GPGSV,4,1,16,195,67,042,42,19,65,015,43,17,64,071,41,196,63,128,39,1*6F
$GPGSV,4,2,16,199,60,167,33,50,60,167,35,06,50,336,44,194,42,171,42,1*69
$GPGSV,4,3,16,09,32,108,40,14,27,177,43,20,27,229,19,11,26,283,25,1*6B
$GPGSV,4,4,16,04,21,075,35,12,12,319,20,03,11,038,23,05,01,220,,1*64
$GPGSV,3,1,09,195,67,042,45,196,63,128,45,199,60,167,46,06,50,336,45,8*5D
$GPGSV,3,2,09,194,42,171,44,09,32,108,42,14,27,177,45,11,26,283,38,8*59
$GPGSV,3,3,09,03,11,038,22,8*5C
$GLGSV,2,1,08,67,47,065,36,68,47,149,42,82,37,035,43,83,33,338,31,1*7E
$GLGSV,2,2,08,80,26,232,15,73,23,292,32,66,07,028,23,79,02,187,,1*78
$GAGSV,2,1,08,24,53,245,37,10,49,332,39,12,48,013,36,11,34,298,26,7*73
$GAGSV,2,2,08,19,30,088,32,04,26,155,37,25,24,309,30,33,15,063,35,7*7B
$GAGSV,2,1,08,24,53,245,41,10,49,332,44,12,48,013,41,11,34,298,25,1*7D
$GAGSV,2,2,08,19,30,088,35,04,26,155,41,25,24,309,27,33,15,063,35,1*7D
$GBGSV,4,1,15,40,84,121,41,07,81,250,38,10,72,292,40,33,62,152,43,1*76
$GBGSV,4,2,15,14,61,087,38,08,59,268,40,43,53,052,30,13,49,256,42,1*73
$GBGSV,4,3,15,42,41,055,29,28,37,323,46,11,33,078,39,41,20,197,,1*7E
$GBGSV,4,4,15,23,20,222,,34,18,095,41,37,17,275,25,1*41
$GBGSV,2,1,07,40,84,121,45,33,62,152,45,43,53,052,35,42,41,055,34,4*7B
$GBGSV,2,2,07,28,37,323,42,34,18,095,33,37,17,275,30,4*4D
$GNGGA,034151.000,2500.8090047,N,12132.4340477,E,4,64,0.46,17.643,M,15.25,M,6,3335*40
$GNRMC,034151.000,A,2500.8090047,N,12132.4340477,E,0.00,238.77,270623,,,R,V*11
$GPHDT,316.749,T*3B
$GNGGA,034151.200,2500.8090040,N,12132.4340511,E,4,64,0.46,17.642,M,15.25,M,6,3335*45
$GNRMC,034151.200,A,2500.8090040,N,12132.4340511,E,0.00,238.77,270623,,,R,V*15
$GPHDT,316.962,T*3C
$GNGGA,034151.400,2500.8090035,N,12132.4340508,E,4,64,0.46,17.642,M,15.25,M,6,3335*49
$GNRMC,034151.400,A,2500.8090035,N,12132.4340508,E,0.00,238.77,270623,,,R,V*19
$GPHDT,316.503,T*37
$GNGGA,034151.600,2500.8090046,N,12132.4340541,E,4,65,0.46,17.632,M,15.25,M,6,3335*44
$GNRMC,034151.600,A,2500.8090046,N,12132.4340541,E,0.00,238.77,270623,,,R,V*12
$GPHDT,316.402,T*37
$GNGGA,034151.800,2500.8090046,N,12132.4340432,E,4,64,0.46,17.627,M,15.25,M,4,3335*48
$GNRMC,034151.800,A,2500.8090046,N,12132.4340432,E,0.00,238.77,270623,,,R,V*19
$GPHDT,316.898,T*38
$GNGSA,A,3,195,19,17,196,199,06,194,09,20,14,11,04,0.84,0.46,0.70,1*04
$GNGSA,A,3,12,03,,,,,,,,,,,0.84,0.46,0.70,1*08
$GNGSA,A,3,67,68,82,83,73,,,,,,,,0.84,0.46,0.70,2*01
$GNGSA,A,3,24,10,12,11,19,04,25,33,,,,,0.84,0.46,0.70,3*05
$GNGSA,A,3,40,07,10,33,14,08,43,13,28,11,34,37,0.84,0.46,0.70,4*0E
$GNGSA,A,3,42,,,,,,,,,,,,0.84,0.46,0.70,4*0B
$GPGSV,4,1,15,195,67,042,42,19,65,015,43,17,64,071,41,196,63,128,39,1*6C
$GPGSV,4,2,15,50,60,167,35,199,60,167,33,06,50,336,44,194,42,171,42,1*6A
$GPGSV,4,3,15,09,32,108,40,20,27,229,19,14,27,177,43,11,26,283,25,1*68
$GPGSV,4,4,15,04,21,075,35,12,12,319,20,03,11,038,23,1*53
$GPGSV,3,1,09,195,67,042,45,196,63,128,45,199,60,167,46,06,50,336,45,8*5D
$GPGSV,3,2,09,194,42,171,44,09,32,108,42,14,27,177,45,11,26,283,38,8*59
$GPGSV,3,3,09,03,11,038,23,8*5D
$GLGSV,3,1,09,67,47,065,37,68,47,149,42,82,37,035,43,83,33,338,31,1*7F
$GLGSV,3,2,09,80,26,232,16,73,23,292,32,66,07,028,23,74,02,330,,1*78
$GLGSV,3,3,09,79,02,187,,1*43
$GAGSV,2,1,08,24,53,245,37,10,49,332,39,12,48,013,36,11,34,298,26,7*73
$GAGSV,2,2,08,19,30,088,32,04,26,155,38,25,24,309,31,33,15,063,35,7*75
$GAGSV,2,1,08,24,53,245,41,10,49,332,44,12,48,013,41,11,34,298,24,1*7C
$GAGSV,2,2,08,19,30,088,35,04,26,155,41,25,24,309,28,33,15,063,34,1*73
$GBGSV,4,1,16,40,84,121,41,07,81,250,38,10,72,292,40,33,62,151,43,1*76
$GBGSV,4,2,16,14,61,087,38,08,59,268,40,43,53,052,28,13,49,256,42,1*79
$GBGSV,4,3,16,42,41,055,,28,37,323,46,11,33,078,39,41,20,197,,1*76
$GBGSV,4,4,16,23,20,222,,34,18,095,41,37,17,275,23,39,02,179,,1*73
$GBGSV,2,1,07,40,84,121,45,33,62,151,45,43,53,052,35,42,41,055,34,4*78
$GBGSV,2,2,07,28,37,323,42,34,18,095,33,37,17,275,30,4*4D
$GNGGA,034152.000,2500.8090069,N,12132.4340523,E,4,63,0.46,17.614,M,15.25,M,3,3335*4F
$GNRMC,034152.000,A,2500.8090069,N,12132.4340523,E,0.00,238.77,270623,,,R,V*1E
$GPHDT,316.504,T*30
$GNGGA,034152.200,2500.8090073,N,12132.4340568,E,4,63,0.46,17.613,M,15.25,M,1,3335*4C
$GNRMC,034152.200,A,2500.8090073,N,12132.4340568,E,0.00,238.77,270623,,,R,V*18
$GPHDT,316.591,T*3C
$GNGGA,034152.400,2500.8090058,N,12132.4340546,E,4,64,0.46,17.619,M,15.25,M,1,3335*42
$GNRMC,034152.400,A,2500.8090058,N,12132.4340546,E,0.00,238.77,270623,,,R,V*1B
$GPHDT,316.761,T*31
$GNGGA,034152.600,2500.8090062,N,12132.4340536,E,4,65,0.46,17.621,M,15.25,M,1,3335*44
$GNRMC,034152.600,A,2500.8090062,N,12132.4340536,E,0.00,238.77,270623,,,R,V*17
$GPHDT,316.961,T*3F
$GNGGA,034152.800,2500.8090055,N,12132.4340526,E,4,63,0.46,17.613,M,15.25,M,1,3335*48
$GNRMC,034152.800,A,2500.8090055,N,12132.4340526,E,0.00,238.77,270623,,,R,V*1C
$GPHDT,316.905,T*3D
$GNGSA,A,3,195,19,17,196,199,06,194,09,20,14,11,04,0.84,0.46,0.70,1*04
$GNGSA,A,3,12,03,,,,,,,,,,,0.84,0.46,0.70,1*08
$GNGSA,A,3,67,68,82,83,73,,,,,,,,0.84,0.46,0.70,2*01
$GNGSA,A,3,24,10,12,11,19,04,25,33,,,,,0.84,0.46,0.70,3*05
$GNGSA,A,3,40,07,10,33,14,08,43,13,42,28,11,34,0.84,0.46,0.70,4*0C
$GNGSA,A,3,37,,,,,,,,,,,,0.84,0.46,0.70,4*09
$GPGSV,4,1,15,195,67,042,42,19,65,015,43,17,64,071,41,196,63,128,39,1*6C
$GPGSV,4,2,15,50,60,167,35,199,60,167,33,06,50,336,44,194,42,171,42,1*6A
$GPGSV,4,3,15,09,32,108,41,20,27,229,19,14,27,177,43,11,26,283,26,1*6A
$GPGSV,4,4,15,04,21,075,34,12,12,319,20,03,11,038,23,1*52
$GPGSV,3,1,09,195,67,042,45,196,63,128,45,199,60,167,46,06,50,336,45,8*5D
$GPGSV,3,2,09,194,42,171,44,09,32,108,42,14,27,177,45,11,26,283,38,8*59
$GPGSV,3,3,09,03,11,038,22,8*5C
$GLGSV,3,1,09,67,47,065,37,68,47,149,43,82,37,035,42,83,33,338,31,1*7F
$GLGSV,3,2,09,80,26,232,17,73,23,292,33,66,07,028,24,74,02,330,,1*7F
$GLGSV,3,3,09,79,02,187,,1*43
$GAGSV,2,1,08,24,53,245,37,10,49,332,39,12,48,013,36,11,34,298,26,7*73
$GAGSV,2,2,08,19,30,088,32,04,26,155,38,25,24,309,30,33,15,063,35,7*74
$GAGSV,2,1,08,24,53,245,41,10,49,332,45,12,48,013,41,11,34,298,24,1*7D
$GAGSV,2,2,08,19,30,088,35,04,26,155,41,25,24,309,27,33,15,063,33,1*7B
$GBGSV,5,1,17,40,84,122,41,07,81,250,38,10,72,292,40,33,62,151,43,1*75
$GBGSV,5,2,17,14,61,087,38,08,59,268,40,43,53,052,29,13,49,256,42,1*78
$GBGSV,5,3,17,42,41,055,28,28,37,323,46,11,33,078,39,23,20,222,,1*75
$GBGSV,5,4,17,41,20,197,,34,18,095,41,37,17,275,25,39,02,179,,1*7C
$GBGSV,5,5,17,06,01,189,,1*47
$GBGSV,2,1,07,40,84,122,45,33,62,151,45,43,53,052,35,42,41,055,34,4*7B
$GBGSV,2,2,07,28,37,323,42,34,18,095,34,37,17,275,31,4*4B
$GNGGA,034153.000,2500.8090062,N,12132.4340571,E,4,64,0.46,17.610,M,15.25,M,2,3335*40
$GNRMC,034153.000,A,2500.8090062,N,12132.4340571,E,0.00,238.77,270623,,,R,V*13
$GPHDT,316.670,T*30
$GNGGA,034153.200,2500.8090060,N,12132.4340526,E,4,64,0.46,17.621,M,15.25,M,2,3335*40
$GNRMC,034153.200,A,2500.8090060,N,12132.4340526,E,0.00,238.77,270623,,,R,V*11
$GPHDT,316.640,T*33
$GNGGA,034153.400,2500.8090058,N,12132.4340553,E,4,64,0.46,17.610,M,15.25,M,2,3335*4D
$GNRMC,034153.400,A,2500.8090058,N,12132.4340553,E,0.00,238.77,270623,,,R,V*1E
$GPHDT,316.643,T*30
$GNGGA,034153.600,2500.8090034,N,12132.4340526,E,4,66,0.43,17.614,M,15.25,M,2,3335*44
$GNRMC,034153.600,A,2500.8090034,N,12132.4340526,E,0.00,238.77,270623,,,R,V*14
$GPHDT,316.870,T*3E
$GNGGA,034153.800,2500.8090025,N,12132.4340592,E,4,66,0.43,17.596,M,15.25,M,2,3335*4C
$GNRMC,034153.800,A,2500.8090025,N,12132.4340592,E,0.00,238.77,270623,,,R,V*15
$GPHDT,316.841,T*3C
$GNGSA,A,3,195,19,17,196,199,06,194,09,20,14,11,04,0.82,0.43,0.69,1*0F
$GNGSA,A,3,12,03,,,,,,,,,,,0.82,0.43,0.69,1*03
$GNGSA,A,3,67,68,82,83,80,73,,,,,,,0.82,0.43,0.69,2*02
$GNGSA,A,3,24,10,12,11,19,04,25,33,,,,,0.82,0.43,0.69,3*0E
$GNGSA,A,3,40,07,10,33,14,08,43,13,42,28,11,34,0.82,0.43,0.69,4*07
$GNGSA,A,3,37,,,,,,,,,,,,0.82,0.43,0.69,4*02
$GPGSV,4,1,15,195,67,042,42,19,65,015,43,17,64,071,41,196,63,128,39,1*6C
$GPGSV,4,2,15,50,60,167,35,199,60,167,33,06,50,336,44,194,42,171,42,1*6A
$GPGSV,4,3,15,09,32,108,41,20,27,229,20,14,27,177,43,11,26,283,26,1*60
$GPGSV,4,4,15,04,21,075,34,12,12,319,19,03,11,038,21,1*5A
$GPGSV,3,1,10,195,67,042,45,196,63,128,45,199,60,167,46,06,50,336,45,8*55
$GPGSV,3,2,10,194,42,171,44,09,32,108,42,14,27,177,45,11,26,283,37,8*5E
$GPGSV,3,3,10,04,21,075,35,03,11,038,22,8*67
$GLGSV,2,1,08,67,47,065,37,68,47,149,43,82,37,035,42,83,33,338,31,1*7F
$GLGSV,2,2,08,80,26,232,18,73,23,292,33,66,07,028,23,79,02,187,,1*74
$GAGSV,2,1,08,24,53,245,37,10,49,332,39,12,48,013,37,11,34,298,27,7*73
$GAGSV,2,2,08,19,30,088,32,04,26,155,38,25,24,309,30,33,15,063,35,7*74
$GAGSV,2,1,08,24,53,245,41,10,49,332,45,12,48,013,41,11,34,298,24,1*7D
$GAGSV,2,2,08,19,30,088,35,04,26,155,41,25,24,309,26,33,15,063,34,1*7D
$GBGSV,5,1,17,40,84,122,41,07,81,250,38,10,72,292,40,33,62,151,43,1*75
$GBGSV,5,2,17,14,61,087,38,08,59,268,40,43,53,052,29,13,49,256,42,1*78
$GBGSV,5,3,17,42,41,055,30,28,37,323,46,11,33,078,38,23,20,222,,1*7D
$GBGSV,5,4,17,41,20,197,,34,18,095,41,37,17,275,25,25,03,179,,1*70
$GBGSV,5,5,17,06,01,189,,1*47
$GBGSV,2,1,07,40,84,122,45,33,62,151,45,43,53,052,32,42,41,055,33,4*7B
$GBGSV,2,2,07,28,37,323,42,34,18,095,34,37,17,275,31,4*4B
$GNGGA,034154.000,2500.8090045,N,12132.4340579,E,4,66,0.43,17.617,M,15.25,M,3,3335*4B
$GNRMC,034154.000,A,2500.8090045,N,12132.4340579,E,0.00,238.77,270623,,,R,V*19
$GPHDT,316.567,T*35
$GNGGA,034154.200,2500.8090030,N,12132.4340554,E,4,66,0.43,17.602,M,15.25,M,3,3335*40
$GNRMC,034154.200,A,2500.8090030,N,12132.4340554,E,0.00,238.77,270623,,,R,V*16
$GPHDT,316.433,T*35
$GNGGA,034154.400,2500.8090043,N,12132.4340610,E,4,66,0.43,17.606,M,15.25,M,3,3335*45
$GNRMC,034154.400,A,2500.8090043,N,12132.4340610,E,0.00,238.77,270623,,,R,V*17
$GPHDT,316.535,T*32
$GNGGA,034154.600,2500.8090057,N,12132.4340536,E,4,66,0.43,17.622,M,15.25,M,3,3335*43
$GNRMC,034154.600,A,2500.8090057,N,12132.4340536,E,0.00,238.77,270623,,,R,V*17
$GPHDT,316.723,T*37
$GNGGA,034154.800,2500.8090045,N,12132.4340573,E,4,66,0.43,17.603,M,15.25,M,3,3335*4C
$GNRMC,034154.800,A,2500.8090045,N,12132.4340573,E,0.00,238.77,270623,,,R,V*1B
$GPHDT,316.650,T*32
$GNGSA,A,3,195,19,17,196,199,06,194,09,20,14,11,04,0.82,0.43,0.69,1*0F
$GNGSA,A,3,12,03,,,,,,,,,,,0.82,0.43,0.69,1*03
$GNGSA,A,3,67,68,82,83,80,73,,,,,,,0.82,0.43,0.69,2*02
$GNGSA,A,3,24,10,12,11,19,04,25,33,,,,,0.82,0.43,0.69,3*0E
$GNGSA,A,3,40,07,10,33,14,08,43,13,42,28,11,34,0.82,0.43,0.69,4*07
$GNGSA,A,3,37,,,,,,,,,,,,0.82,0.43,0.69,4*02
$GPGSV,4,1,15,195,67,042,42,19,65,015,43,17,64,071,41,196,63,128,39,1*6C
$GPGSV,4,2,15,50,60,167,36,199,60,167,33,06,50,336,44,194,42,171,42,1*69
$GPGSV,4,3,15,09,32,108,41,20,27,229,20,14,27,177,43,11,26,283,27,1*61
$GPGSV,4,4,15,04,21,075,33,12,12,319,20,03,11,038,24,1*52
$GPGSV,3,1,10,195,67,042,46,196,63,128,45,199,60,167,46,06,50,336,45,8*56
$GPGSV,3,2,10,194,42,171,44,09,32,108,42,14,27,177,45,11,26,283,37,8*5E
$GPGSV,3,3,10,04,21,075,35,03,11,038,23,8*66
$GLGSV,2,1,08,67,47,065,37,68,47,149,43,82,37,035,42,83,33,338,31,1*7F
$GLGSV,2,2,08,80,26,232,22,73,23,292,33,66,07,028,23,79,02,187,,1*7D
$GAGSV,2,1,08,24,53,245,37,10,49,332,38,12,48,013,37,11,34,298,27,7*72
$GAGSV,2,2,08,19,30,088,31,04,26,155,37,25,24,309,30,33,15,063,35,7*78
$GAGSV,2,1,08,24,53,245,41,10,49,332,45,12,48,013,41,11,34,298,24,1*7D
$GAGSV,2,2,08,19,30,088,36,04,26,155,41,25,24,309,25,33,15,063,34,1*7D
$GBGSV,4,1,15,40,84,122,41,07,81,250,38,10,72,292,40,33,62,151,43,1*76
$GBGSV,4,2,15,14,61,087,38,08,59,268,40,43,53,052,30,13,49,256,42,1*73
$GBGSV,4,3,15,42,41,055,28,28,37,323,47,11,33,078,38,41,20,197,,1*7F
$GBGSV,4,4,15,23,20,222,,34,18,095,41,37,17,275,24,1*40
$GBGSV,2,1,07,40,84,122,45,33,62,151,45,43,53,052,32,42,41,055,34,4*7C
$GBGSV,2,2,07,28,37,323,42,34,18,095,34,37,17,275,31,4*4B
$GNGGA,034155.000,2500.8090007,N,12132.4340571,E,4,66,0.43,17.605,M,15.25,M,4,3335*40
$GNRMC,034155.000,A,2500.8090007,N,12132.4340571,E,0.00,238.77,270623,,,R,V*16
$GPHDT,316.843,T*3E
$GNGGA,034155.200,2500.8090039,N,12132.4340542,E,4,65,0.43,17.625,M,15.25,M,4,3335*4E
$GNRMC,034155.200,A,2500.8090039,N,12132.4340542,E,0.00,238.77,270623,,,R,V*19
$GPHDT,316.742,T*30
$GNGGA,034155.400,2500.8090019,N,12132.4340608,E,4,66,0.43,17.615,M,15.25,M,4,3335*47
$GNRMC,034155.400,A,2500.8090019,N,12132.4340608,E,0.00,238.77,270623,,,R,V*10
$GPHDT,316.924,T*3E
$GNGGA,034155.600,2500.8090023,N,12132.4340562,E,4,66,0.43,17.606,M,15.25,M,4,3335*41
$GNRMC,034155.600,A,2500.8090023,N,12132.4340562,E,0.00,238.77,270623,,,R,V*14
$GPHDT,316.743,T*31
$GNGGA,034155.800,2500.8090024,N,12132.4340559,E,4,66,0.43,17.614,M,15.25,M,4,3335*43
$GNRMC,034155.800,A,2500.8090024,N,12132.4340559,E,0.00,238.77,270623,,,R,V*15
$GPHDT,316.781,T*3F
$GNGSA,A,3,195,19,17,196,199,06,194,09,20,14,11,04,0.82,0.43,0.69,1*0F
$GNGSA,A,3,12,03,,,,,,,,,,,0.82,0.43,0.69,1*03
$GNGSA,A,3,67,68,82,83,80,73,,,,,,,0.82,0.43,0.69,2*02
$GNGSA,A,3,24,10,12,11,19,04,25,33,,,,,0.82,0.43,0.69,3*0E
$GNGSA,A,3,40,07,10,33,14,08,43,13,42,28,11,34,0.82,0.43,0.69,4*07
$GNGSA,A,3,37,,,,,,,,,,,,0.82,0.43,0.69,4*02
$GPGSV,4,1,15,195,67,042,42,19,65,015,43,17,64,071,41,196,63,128,40,1*62
$GPGSV,4,2,15,50,60,167,37,199,60,167,35,06,50,336,44,194,42,171,42,1*6E
$GPGSV,4,3,15,09,32,108,41,20,27,229,19,14,27,177,43,11,26,283,27,1*6B
$GPGSV,4,4,15,04,21,075,32,12,12,319,19,03,11,038,23,1*5E
$GPGSV,3,1,09,195,67,042,46,196,63,128,45,199,60,167,46,06,50,336,45,8*5E
$GPGSV,3,2,09,194,42,171,44,09,32,108,42,14,27,177,45,11,26,283,37,8*56
$GPGSV,3,3,09,03,11,038,23,8*5D
$GLGSV,3,1,10,67,47,065,37,68,47,149,43,82,37,035,42,83,33,338,31,1*77
$GLGSV,3,2,10,80,26,232,19,73,23,292,33,69,08,185,,66,07,028,24,1*73
$GLGSV,3,3,10,74,02,330,,79,02,187,,1*7A
$GAGSV,2,1,08,24,53,245,37,10,49,332,38,12,48,013,37,11,34,298,26,7*73
$GAGSV,2,2,08,19,30,088,31,04,26,155,37,25,24,309,30,33,15,063,35,7*78
$GAGSV,2,1,08,24,53,245,41,10,49,332,45,12,48,013,41,11,34,298,23,1*7A
$GAGSV,2,2,08,19,30,088,36,04,26,155,41,25,24,309,25,33,15,063,33,1*7A
$GBGSV,4,1,16,40,84,122,41,07,81,250,38,10,72,292,40,33,62,151,43,1*75
$GBGSV,4,2,16,14,61,087,38,08,59,268,40,43,53,052,30,13,49,256,42,1*70
$GBGSV,4,3,16,42,41,055,29,28,37,323,47,11,33,078,38,23,20,222,,1*74
$GBGSV,4,4,16,41,20,197,,34,18,095,41,37,17,275,23,39,02,179,,1*7A
$GBGSV,2,1,07,40,84,122,45,33,62,151,45,43,53,052,33,42,41,055,33,4*7A
$GBGSV,2,2,07,28,37,323,42,34,18,095,34,37,17,275,31,4*4B
$GNGGA,034156.000,2500.8090012,N,12132.4340640,E,4,65,0.43,17.608,M,15.25,M,5,3335*49
$GNRMC,034156.000,A,2500.8090012,N,12132.4340640,E,0.00,238.77,270623,,,R,V*10
$GPHDT,316.679,T*39
$GNGGA,034156.200,2500.8089998,N,12132.4340576,E,4,65,0.43,17.608,M,15.25,M,5,3335*4E
$GNRMC,034156.200,A,2500.8089998,N,12132.4340576,E,0.00,238.77,270623,,,R,V*17
$GPHDT,316.811,T*39
$GNGGA,034156.400,2500.8090011,N,12132.4340558,E,4,66,0.43,17.615,M,15.25,M,5,3335*4B
$GNRMC,034156.400,A,2500.8090011,N,12132.4340558,E,0.00,238.77,270623,,,R,V*1D
$GPHDT,316.727,T*33
$GNGGA,034156.600,2500.8090015,N,12132.4340558,E,4,66,0.43,17.614,M,15.25,M,5,3335*4C
$GNRMC,034156.600,A,2500.8090015,N,12132.4340558,E,0.00,238.77,270623,,,R,V*1B
$GPHDT,316.922,T*38
$GNGGA,034156.800,2500.8090014,N,12132.4340560,E,4,65,0.43,17.616,M,15.25,M,5,3335*49
$GNRMC,034156.800,A,2500.8090014,N,12132.4340560,E,0.00,238.77,270623,,,R,V*1F
$GPHDT,316.741,T*33
$GNGSA,A,3,195,19,17,196,199,06,194,09,14,20,11,04,0.82,0.43,0.69,1*0F
$GNGSA,A,3,12,03,,,,,,,,,,,0.82,0.43,0.69,1*03
$GNGSA,A,3,67,68,82,83,80,73,,,,,,,0.82,0.43,0.69,2*02
$GNGSA,A,3,24,10,12,11,19,04,25,33,,,,,0.82,0.43,0.69,3*0E
$GNGSA,A,3,40,07,10,33,14,08,43,13,42,28,11,34,0.82,0.43,0.69,4*07
$GNGSA,A,3,37,,,,,,,,,,,,0.82,0.43,0.69,4*02
$GPGSV,4,1,16,195,67,042,42,19,65,015,43,17,64,071,41,196,63,128,40,1*61
$GPGSV,4,2,16,199,60,167,35,50,60,167,38,06,50,336,44,194,42,171,42,1*62
$GPGSV,4,3,16,09,32,108,41,14,27,177,42,20,27,229,19,11,26,283,26,1*68
$GPGSV,4,4,16,04,21,075,33,12,12,319,16,03,11,038,23,05,01,220,,1*67
$GPGSV,3,1,09,195,67,042,46,196,63,128,45,199,60,167,46,06,50,336,45,8*5E
$GPGSV,3,2,09,194,42,171,44,09,32,108,42,14,27,177,45,11,26,283,37,8*56
$GPGSV,3,3,09,03,11,038,22,8*5C
$GLGSV,3,1,09,67,47,065,37,68,47,149,43,82,37,035,42,83,33,338,31,1*7F
$GLGSV,3,2,09,80,26,232,19,73,23,292,34,66,07,028,24,74,02,330,,1*76
$GLGSV,3,3,09,79,02,187,,1*43
$GAGSV,2,1,08,24,53,245,37,10,49,332,39,12,48,013,37,11,34,298,26,7*72
$GAGSV,2,2,08,19,30,088,31,04,26,155,37,25,24,309,30,33,15,063,35,7*78
$GAGSV,2,1,08,24,53,245,42,10,49,332,45,12,48,013,42,11,34,298,24,1*7D
$GAGSV,2,2,08,19,30,088,36,04,26,155,41,25,24,309,26,33,15,063,32,1*78
$GBGSV,4,1,16,40,84,122,41,07,81,250,38,10,72,292,40,33,62,151,43,1*75
$GBGSV,4,2,16,14,61,087,38,08,59,268,40,43,53,052,29,13,49,256,42,1*78
$GBGSV,4,3,16,42,41,055,30,28,37,323,47,11,33,078,38,41,20,197,,1*75
$GBGSV,4,4,16,23,20,222,,34,18,095,41,37,17,275,22,39,02,179,,1*72
$GBGSV,2,1,07,40,84,122,45,33,62,151,45,43,53,052,34,42,41,055,34,4*7A
$GBGSV,2,2,07,28,37,323,42,34,18,095,34,37,17,275,31,4*4B
$GNGGA,034157.000,2500.8090026,N,12132.4340572,E,4,65,0.43,17.617,M,15.25,M,6,3335*40
$GNRMC,034157.000,A,2500.8090026,N,12132.4340572,E,0.00,238.77,270623,,,R,V*14
$GPHDT,316.749,T*3B
$GNGGA,034157.200,2500.8089992,N,12132.4340614,E,4,65,0.43,17.611,M,15.25,M,6,3335*49
$GNRMC,034157.200,A,2500.8089992,N,12132.4340614,E,0.00,238.77,270623,,,R,V*1B
$GPHDT,316.753,T*30
$GNGGA,034157.400,2500.8090027,N,12132.4340561,E,4,65,0.43,17.632,M,15.25,M,6,3335*40
$GNRMC,034157.400,A,2500.8090027,N,12132.4340561,E,0.00,238.77,270623,,,R,V*13
$GPHDT,316.606,T*31
$GNGGA,034157.600,2500.8090054,N,12132.4340537,E,4,65,0.43,17.635,M,15.25,M,4,3335*40
$GNRMC,034157.600,A,2500.8090054,N,12132.4340537,E,0.00,238.77,270623,,,R,V*16
$GPHDT,316.774,T*35
$GNGGA,034157.800,2500.8090041,N,12132.4340578,E,4,65,0.43,17.611,M,15.25,M,2,3335*41
$GNRMC,034157.800,A,2500.8090041,N,12132.4340578,E,0.00,238.77,270623,,,R,V*17
$GPHDT,316.727,T*33
$GNGSA,A,3,195,19,17,196,199,06,194,09,20,14,11,04,0.82,0.43,0.69,1*0F
$GNGSA,A,3,12,03,,,,,,,,,,,0.82,0.43,0.69,1*03
$GNGSA,A,3,67,68,82,83,80,73,,,,,,,0.82,0.43,0.69,2*02
$GNGSA,A,3,24,10,12,11,19,04,25,33,,,,,0.82,0.43,0.69,3*0E
$GNGSA,A,3,40,07,10,33,14,08,43,13,42,28,11,34,0.82,0.43,0.69,4*07
$GNGSA,A,3,37,,,,,,,,,,,,0.82,0.43,0.69,4*02
$GPGSV,4,1,15,195,67,042,42,19,65,015,43,17,64,071,41,196,63,128,40,1*62
$GPGSV,4,2,15,50,60,167,38,199,60,167,35,06,50,336,44,194,42,171,42,1*61
$GPGSV,4,3,15,09,32,108,41,20,27,229,18,14,27,177,42,11,26,283,25,1*69
$GPGSV,4,4,15,04,21,075,31,12,12,319,14,03,11,038,23,1*50
$GPGSV,3,1,09,195,67,042,46,196,63,128,45,199,60,167,46,06,50,336,45,8*5E
$GPGSV,3,2,09,194,42,171,44,09,32,108,42,14,27,177,45,11,26,283,37,8*56
$GPGSV,3,3,09,03,11,038,22,8*5C
$GLGSV,2,1,08,67,47,065,37,68,47,149,43,82,37,035,42,83,33,338,31,1*7F
$GLGSV,2,2,08,80,26,232,19,73,23,292,35,66,07,028,24,79,02,187,,1*74
$GAGSV,2,1,08,24,53,245,37,10,49,332,39,12,48,013,37,11,34,298,26,7*72
$GAGSV,2,2,08,19,30,088,32,04,26,155,37,25,24,309,30,33,15,063,35,7*7B
$GAGSV,2,1,08,24,53,245,42,10,49,332,45,12,48,013,42,11,34,298,25,1*7C
$GAGSV,2,2,08,19,30,088,36,04,26,155,41,25,24,309,25,33,15,063,33,1*7A
$GBGSV,4,1,16,40,84,122,41,07,81,250,38,10,72,292,40,33,62,151,43,1*75
$GBGSV,4,2,16,14,61,087,38,08,59,268,40,43,53,052,28,13,49,256,42,1*79
$GBGSV,4,3,16,42,41,055,32,28,37,323,47,11,33,078,38,23,20,222,,1*7E
$GBGSV,4,4,16,41,20,197,,34,18,095,41,37,17,275,23,06,01,189,,1*7A
$GBGSV,2,1,07,40,84,122,45,33,62,151,45,43,53,052,34,42,41,055,34,4*7A
$GBGSV,2,2,07,28,37,323,42,34,18,095,34,37,17,275,31,4*4B
$GNGGA,034158.000,2500.8090090,N,12132.4340494,E,4,65,0.43,17.626,M,15.25,M,1,3335*4E
$GNRMC,034158.000,A,2500.8090090,N,12132.4340494,E,0.00,238.77,270623,,,R,V*1F
$GPHDT,316.768,T*38
$GNGGA,034158.200,2500.8090080,N,12132.4340457,E,4,65,0.43,17.624,M,15.25,M,1,3335*40
$GNRMC,034158.200,A,2500.8090080,N,12132.4340457,E,0.00,238.77,270623,,,R,V*13
$GPHDT,316.847,T*3A
$GNGGA,034158.400,2500.8090064,N,12132.4340462,E,4,65,0.43,17.614,M,15.25,M,1,3335*49
$GNRMC,034158.400,A,2500.8090064,N,12132.4340462,E,0.00,238.77,270623,,,R,V*19
$GPHDT,316.796,T*39
$GNGGA,034158.600,2500.8090100,N,12132.4340404,E,4,66,0.43,17.644,M,15.25,M,1,3335*4E
$GNRMC,034158.600,A,2500.8090100,N,12132.4340404,E,0.00,238.77,270623,,,R,V*18
