$FW : RTK35X,V1.1X0314AS,Lib20210517,1*54
$Tool : LOCOSYS , GNSS Firebird , v1.0.0.19*39
$---------------------------------------------------*2D
$GNGSA,A,3,195,19,17,196,199,06,194,09,14,11,04,12,0.84,0.46,0.70,1*05
$GNGSA,A,3,03,,,,,,,,,,,,0.84,0.46,0.70,1*0B
$GNGSA,A,3,67,68,82,83,80,73,,,,,,,0.84,0.46,0.70,2*09
$GNGSA,A,3,24,10,12,11,19,04,25,33,,,,,0.84,0.46,0.70,3*05
$GNGSA,A,3,40,07,10,33,14,08,43,13,42,28,11,34,0.84,0.46,0.70,4*0C
$GNGSA,A,3,37,,,,,,,,,,,,0.84,0.46,0.70,4*09
$GPGSV,4,1,16,195,67,042,42,19,65,016,37,17,64,071,40,196,63,128,42,1*62
$GPGSV,4,2,16,199,60,167,36,50,60,167,38,06,50,337,33,194,42,171,43,1*61
$GPGSV,4,3,16,09,32,108,41,14,27,177,41,11,27,283,32,20,27,229,13,1*65
$GPGSV,4,4,16,04,21,075,35,12,12,319,15,03,10,038,24,05,02,221,,1*66
$GPGSV,3,1,10,195,67,042,45,196,63,128,44,199,60,167,47,06,50,337,35,8*53
$GPGSV,3,2,10,194,42,171,44,09,32,108,41,14,27,177,47,11,27,283,37,8*5E
$GPGSV,3,3,10,04,21,075,35,03,10,038,31,8*64
$GLGSV,2,1,08,67,47,065,44,68,47,149,41,82,37,035,44,83,33,338,22,1*7D
$GLGSV,2,2,08,80,26,232,17,73,23,292,35,66,07,028,24,79,02,187,,1*7A
$GAGSV,2,1,08,24,53,245,38,10,49,332,36,12,48,013,35,11,34,298,23,7*75
$GAGSV,2,2,08,19,30,088,35,04,26,154,38,25,24,309,25,33,15,063,37,7*74
$GAGSV,2,1,08,24,53,245,39,10,49,332,39,12,48,013,36,11,34,298,25,1*78
$GAGSV,2,2,08,19,30,088,37,04,26,154,44,25,24,309,17,33,15,063,38,1*75
$GBGSV,4,1,15,40,84,122,42,07,81,250,41,10,72,292,41,33,62,151,44,1*7D
$GBGSV,4,2,15,14,61,087,39,08,59,268,38,43,53,052,44,13,49,256,42,1*7E
$GBGSV,4,3,15,42,41,055,46,28,37,323,43,11,33,078,42,41,20,197,,1*7E
$GBGSV,4,4,15,23,20,222,,34,18,095,38,37,17,275,25,1*4F
$GBGSV,2,1,07,40,84,122,43,33,62,151,45,43,53,052,44,42,41,055,44,4*7C
$GBGSV,2,2,07,28,37,323,36,34,18,095,27,37,17,275,30,4*4B
$GNGGA,034209.000,2500.8090006,N,12132.4340542,E,4,65,0.46,17.637,M,15.25,M,5,3335*4D
$GNRMC,034209.000,A,2500.8090006,N,12132.4340542,E,0.00,238.77,270623,,,R,V*1D
$GPHDT,269.548,T*31
$GNGGA,034209.200,2500.8090041,N,12132.4340509,E,4,65,0.46,17.649,M,15.25,M,5,3335*4A
$GNRMC,034209.200,A,2500.8090041,N,12132.4340509,E,0.01,238.77,270623,,,R,V*12
$GPHDT,269.083,T*33
$GNGGA,034209.400,2500.8090053,N,12132.4340508,E,4,64,0.46,17.653,M,15.25,M,5,3335*44
$GNRMC,034209.400,A,2500.8090053,N,12132.4340508,E,0.00,238.77,270623,,,R,V*17
$GPHDT,269.101,T*38
$GNGGA,034209.600,2500.8090076,N,12132.4340569,E,4,64,0.46,17.642,M,15.25,M,5,3335*46
$GNRMC,034209.600,A,2500.8090076,N,12132.4340569,E,0.00,238.77,270623,,,R,V*15
$GPHDT,269.252,T*3D
$GNGGA,034209.800,2500.8090016,N,12132.4340565,E,4,64,0.46,17.629,M,15.25,M,5,3335*4F
$GNRMC,034209.800,A,2500.8090016,N,12132.4340565,E,0.00,238.77,270623,,,R,V*11
$GPHDT,269.524,T*3B
$GNGSA,A,3,195,19,17,196,199,06,194,09,11,14,04,03,0.85,0.46,0.72,1*06
$GNGSA,A,3,67,68,82,83,80,73,,,,,,,0.85,0.46,0.72,2*0A
$GNGSA,A,3,24,10,12,11,19,04,25,33,,,,,0.85,0.46,0.72,3*06
$GNGSA,A,3,40,07,10,33,14,08,43,13,42,28,11,34,0.85,0.46,0.72,4*0F
$GNGSA,A,3,37,,,,,,,,,,,,0.85,0.46,0.72,4*0A
$GPGSV,4,1,15,195,67,042,42,19,65,016,37,17,64,071,40,196,63,128,42,1*61
$GPGSV,4,2,15,50,60,167,38,199,60,167,36,06,50,337,36,194,42,171,43,1*67
$GPGSV,4,3,15,09,32,108,41,11,27,283,33,20,27,229,16,14,27,177,41,1*62
$GPGSV,4,4,15,04,21,075,35,12,12,319,14,03,10,038,24,1*52
$GPGSV,3,1,10,195,67,042,45,196,63,128,44,199,60,167,47,06,50,337,35,8*53
$GPGSV,3,2,10,194,42,171,44,09,32,108,40,14,27,177,47,11,27,283,37,8*5F
$GPGSV,3,3,10,04,21,075,36,03,10,038,31,8*67
$GLGSV,3,1,10,67,47,065,44,68,47,149,41,82,37,035,44,83,33,338,22,1*75
$GLGSV,3,2,10,80,26,232,17,73,23,292,35,69,08,185,,66,07,028,23,1*7C
$GLGSV,3,3,10,74,02,330,,79,02,187,,1*7A
$GAGSV,2,1,08,24,53,245,38,10,49,332,37,12,48,013,35,11,34,298,24,7*73
$GAGSV,2,2,08,19,30,088,34,04,26,154,38,25,24,309,22,33,15,063,37,7*72
$GAGSV,2,1,08,24,53,245,39,10,49,332,39,12,48,013,36,11,34,298,25,1*78
$GAGSV,2,2,08,19,30,088,37,04,26,154,43,25,24,309,19,33,15,063,38,1*7C
$GBGSV,4,1,16,40,84,122,42,07,81,250,41,10,72,292,41,33,62,151,44,1*7E
$GBGSV,4,2,16,14,61,087,39,08,59,268,38,43,53,052,44,13,49,256,41,1*7E
$GBGSV,4,3,16,42,41,055,46,28,37,323,43,11,33,078,42,23,20,222,,1*74
$GBGSV,4,4,16,41,20,197,,34,18,095,37,37,17,275,27,39,02,179,,1*7F
$GBGSV,2,1,07,40,84,122,43,33,62,151,45,43,53,052,44,42,41,055,44,4*7C
$GBGSV,2,2,07,28,37,323,37,34,18,095,30,37,17,275,30,4*4C
$GNGGA,034210.000,2500.8090060,N,12132.4340528,E,4,64,0.46,17.652,M,15.25,M,6,3335*48
$GNRMC,034210.000,A,2500.8090060,N,12132.4340528,E,0.00,238.77,270623,,,R,V*19
$GPHDT,269.117,T*3F
$GNGGA,034210.200,2500.8090042,N,12132.4340566,E,4,64,0.46,17.638,M,15.25,M,6,3335*4C
$GNRMC,034210.200,A,2500.8090042,N,12132.4340566,E,0.00,238.77,270623,,,R,V*11
$GPHDT,268.942,T*36
$GNGGA,034210.400,2500.8089999,N,12132.4340507,E,4,64,0.46,17.640,M,15.25,M,6,3335*45
$GNRMC,034210.400,A,2500.8089999,N,12132.4340507,E,0.00,238.77,270623,,,R,V*17
$GPHDT,269.280,T*32
$GNGGA,034210.600,2500.8090105,N,12132.4340438,E,4,64,0.46,17.662,M,15.25,M,4,3335*4D
$GNRMC,034210.600,A,2500.8090105,N,12132.4340438,E,0.00,238.77,270623,,,R,V*1D
$GPHDT,269.220,T*38
$GNGGA,034210.800,2500.8090117,N,12132.4340405,E,4,64,0.46,17.654,M,15.25,M,2,3335*4D
$GNRMC,034210.800,A,2500.8090117,N,12132.4340405,E,0.00,238.77,270623,,,R,V*1E
$GPHDT,269.202,T*38
$GNGSA,A,3,195,19,17,196,199,06,194,09,11,14,04,03,0.85,0.46,0.72,1*06
$GNGSA,A,3,67,68,82,83,80,73,,,,,,,0.85,0.46,0.72,2*0A
$GNGSA,A,3,24,10,12,11,19,04,25,33,,,,,0.85,0.46,0.72,3*06
$GNGSA,A,3,40,07,10,33,14,08,43,13,42,28,11,34,0.85,0.46,0.72,4*0F
$GNGSA,A,3,37,,,,,,,,,,,,0.85,0.46,0.72,4*0A
$GPGSV,4,1,15,195,67,042,42,19,65,016,38,17,64,071,40,196,63,128,41,1*6D
$GPGSV,4,2,15,50,60,167,38,199,60,167,35,06,50,337,36,194,42,171,43,1*64
$GPGSV,4,3,15,09,32,108,39,11,27,283,32,20,27,229,16,14,27,177,42,1*6F
$GPGSV,4,4,15,04,21,075,35,12,12,319,17,03,10,038,24,1*51
$GPGSV,3,1,10,195,67,042,45,196,63,128,44,199,60,167,47,06,50,337,35,8*53
$GPGSV,3,2,10,194,42,171,44,09,32,108,40,14,27,177,47,11,27,283,37,8*5F
$GPGSV,3,3,10,04,21,075,33,03,10,038,31,8*62
$GLGSV,2,1,08,67,47,065,43,68,47,149,42,82,37,035,44,83,33,338,19,1*71
$GLGSV,2,2,08,80,26,232,20,73,23,292,35,66,07,028,24,79,02,187,,1*7E
$GAGSV,2,1,08,24,52,245,37,10,49,332,37,12,48,013,35,11,34,298,23,7*7A
$GAGSV,2,2,08,19,30,088,36,04,26,154,38,25,25,308,24,33,15,063,37,7*76
$GAGSV,2,1,08,24,52,245,39,10,49,332,40,12,48,013,37,11,34,298,24,1*77
$GAGSV,2,2,08,19,30,088,37,04,26,154,42,25,25,308,21,33,15,063,38,1*76
$GBGSV,4,1,16,40,84,122,42,07,81,250,41,10,72,292,41,33,62,151,44,1*7E
$GBGSV,4,2,16,14,61,087,38,08,59,268,38,43,53,052,44,13,49,256,41,1*7F
$GBGSV,4,3,16,42,41,055,46,28,37,323,43,11,33,078,42,23,20,222,,1*74
$GBGSV,4,4,16,41,20,197,,34,18,095,37,37,17,275,27,39,02,179,,1*7F
$GBGSV,2,1,07,40,84,122,43,33,62,151,46,43,53,052,44,42,41,055,44,4*7F
$GBGSV,2,2,07,28,37,323,37,34,18,095,31,37,17,275,30,4*4D
$GNGGA,034211.000,2500.8090129,N,12132.4340462,E,4,64,0.46,17.636,M,15.25,M,3,3335*4D
$GNRMC,034211.000,A,2500.8090129,N,12132.4340462,E,0.00,238.77,270623,,,R,V*1B
$GPHDT,268.977,T*30
$GNGGA,034211.200,2500.8090139,N,12132.4340368,E,4,64,0.46,17.664,M,15.25,M,1,3335*46
$GNRMC,034211.200,A,2500.8090139,N,12132.4340368,E,0.00,238.77,270623,,,R,V*15
$GPHDT,269.146,T*3B
$GNGGA,034211.400,2500.8090128,N,12132.4340364,E,4,64,0.46,17.656,M,15.25,M,1,3335*4D
$GNRMC,034211.400,A,2500.8090128,N,12132.4340364,E,0.00,238.77,270623,,,R,V*1F
$GPHDT,269.268,T*34
$GNGGA,034211.600,2500.8090134,N,12132.4340380,E,4,64,0.46,17.652,M,15.25,M,1,3335*4C
$GNRMC,034211.600,A,2500.8090134,N,12132.4340380,E,0.00,238.77,270623,,,R,V*1A
$GPHDT,269.355,T*3B
$GNGGA,034211.800,2500.8090184,N,12132.4340309,E,4,64,0.46,17.674,M,15.25,M,1,3335*4C
$GNRMC,034211.800,A,2500.8090184,N,12132.4340309,E,0.00,238.77,270623,,,R,V*1E
$GPHDT,269.274,T*39
$GNGSA,A,3,195,19,17,196,199,06,194,09,11,14,04,03,0.85,0.46,0.72,1*06
$GNGSA,A,3,67,68,82,83,80,73,,,,,,,0.85,0.46,0.72,2*0A
$GNGSA,A,3,24,10,12,11,19,04,25,33,,,,,0.85,0.46,0.72,3*06
$GNGSA,A,3,40,07,10,33,14,08,43,13,42,28,11,34,0.85,0.46,0.72,4*0F
$GNGSA,A,3,37,,,,,,,,,,,,0.85,0.46,0.72,4*0A
$GPGSV,4,1,15,195,67,042,42,19,65,016,38,17,64,071,40,196,63,128,38,1*63
$GPGSV,4,2,15,50,60,167,37,199,60,167,34,06,50,337,38,194,42,171,43,1*64
$GPGSV,4,3,15,09,32,108,39,11,27,283,32,14,27,177,42,20,27,229,18,1*61
$GPGSV,4,4,15,04,21,075,31,12,12,319,17,03,10,038,24,1*55
$GPGSV,3,1,10,195,67,042,45,196,63,128,44,199,60,167,46,06,50,337,35,8*52
$GPGSV,3,2,10,194,42,171,45,09,32,108,41,14,27,177,47,11,27,283,37,8*5F
$GPGSV,3,3,10,04,21,075,32,03,10,038,31,8*63
$GLGSV,2,1,08,67,47,065,43,68,47,149,43,82,37,035,44,83,33,338,19,1*70
$GLGSV,2,2,08,80,26,232,20,73,23,292,35,66,07,028,24,79,02,187,,1*7E
$GAGSV,2,1,08,24,52,245,37,10,49,332,37,12,48,013,35,11,34,298,24,7*7D
$GAGSV,2,2,08,19,30,088,36,04,26,154,38,25,25,308,24,33,15,063,37,7*76
$GAGSV,2,1,08,24,52,245,39,10,49,332,40,12,48,013,37,11,34,298,23,1*70
$GAGSV,2,2,08,19,30,088,37,04,26,154,42,25,25,308,23,33,15,063,38,1*74
$GBGSV,4,1,15,40,84,122,42,07,81,250,41,10,72,292,41,33,62,151,42,1*7B
$GBGSV,4,2,15,14,61,087,38,08,59,268,39,43,53,052,45,13,49,256,41,1*7C
$GBGSV,4,3,15,42,41,055,46,28,37,323,43,11,33,078,42,41,20,197,,1*7E
$GBGSV,4,4,15,23,20,222,,34,18,095,35,37,17,275,28,1*4F
$GBGSV,2,1,07,40,84,122,43,33,62,151,46,43,53,052,44,42,41,055,44,4*7F
$GBGSV,2,2,07,28,37,323,37,34,18,095,33,37,17,275,30,4*4F
$GNGGA,034212.000,2500.8090163,N,12132.4340379,E,4,64,0.46,17.663,M,15.25,M,2,3335*4C
$GNRMC,034212.000,A,2500.8090163,N,12132.4340379,E,0.00,238.77,270623,,,R,V*1B
$GPHDT,269.136,T*3C
$GNGGA,034212.200,2500.8090114,N,12132.4340363,E,4,64,0.46,17.642,M,15.25,M,2,3335*46
$GNRMC,034212.200,A,2500.8090114,N,12132.4340363,E,0.00,238.77,270623,,,R,V*12
$GPHDT,269.062,T*3C
$GNGGA,034212.400,2500.8090133,N,12132.4340360,E,4,64,0.46,17.639,M,15.25,M,2,3335*4A
$GNRMC,034212.400,A,2500.8090133,N,12132.4340360,E,0.00,238.77,270623,,,R,V*12
$GPHDT,268.871,T*37
$GNGGA,034212.600,2500.8090172,N,12132.4340344,E,4,66,0.43,17.675,M,15.25,M,2,3335*44
$GNRMC,034212.600,A,2500.8090172,N,12132.4340344,E,0.00,238.77,270623,,,R,V*13
$GPHDT,269.122,T*39
$GNGGA,034212.800,2500.8090117,N,12132.4340380,E,4,66,0.43,17.642,M,15.25,M,2,3335*45
$GNRMC,034212.800,A,2500.8090117,N,12132.4340380,E,0.00,238.77,270623,,,R,V*16
$GPHDT,269.255,T*3A
$GNGSA,A,3,195,19,17,196,199,06,194,09,14,11,20,04,0.82,0.43,0.69,1*0F
$GNGSA,A,3,12,03,,,,,,,,,,,0.82,0.43,0.69,1*03
$GNGSA,A,3,67,68,82,83,80,73,,,,,,,0.82,0.43,0.69,2*02
$GNGSA,A,3,24,10,12,11,19,04,25,33,,,,,0.82,0.43,0.69,3*0E
$GNGSA,A,3,40,07,10,33,14,08,43,13,42,28,11,34,0.82,0.43,0.69,4*07
$GNGSA,A,3,37,,,,,,,,,,,,0.82,0.43,0.69,4*02
$GPGSV,4,1,16,195,67,042,42,19,65,016,38,17,64,071,40,196,63,128,38,1*60
$GPGSV,4,2,16,199,60,167,34,50,60,167,37,06,50,337,38,194,42,171,43,1*67
$GPGSV,4,3,16,09,32,108,40,14,27,177,42,11,27,283,32,20,27,229,18,1*6C
$GPGSV,4,4,16,04,21,075,29,12,12,319,18,03,10,038,23,05,02,221,,1*61
$GPGSV,3,1,10,195,67,042,45,196,63,128,44,199,60,167,46,06,50,337,35,8*52
$GPGSV,3,2,10,194,42,171,45,09,32,108,41,14,27,177,47,11,27,283,37,8*5F
$GPGSV,3,3,10,04,21,075,33,03,10,038,31,8*62
$GLGSV,3,1,10,67,47,065,43,68,47,149,43,82,37,035,44,83,33,338,19,1*78
$GLGSV,3,2,10,80,26,232,20,73,23,292,35,69,08,185,,66,07,028,24,1*7F
$GLGSV,3,3,10,74,02,330,,79,02,187,,1*7A
$GAGSV,2,1,08,24,52,245,37,10,49,332,37,12,48,013,35,11,34,298,24,7*7D
$GAGSV,2,2,08,19,30,088,36,04,26,154,38,25,25,308,26,33,15,063,37,7*74
$GAGSV,2,1,08,24,52,245,39,10,49,332,40,12,48,013,37,11,34,298,24,1*77
$GAGSV,2,2,08,19,30,088,37,04,26,154,42,25,25,308,25,33,15,063,38,1*72
$GBGSV,4,1,16,40,84,122,42,07,81,250,41,10,72,292,41,33,62,151,43,1*79
$GBGSV,4,2,16,14,61,087,39,08,59,268,39,43,53,052,45,13,49,256,41,1*7E
$GBGSV,4,3,16,42,41,055,46,28,37,323,43,11,33,078,42,23,20,222,,1*74
$GBGSV,4,4,16,34,18,095,35,37,17,275,27,25,03,179,,39,02,179,,1*7E
$GBGSV,2,1,07,40,84,122,43,33,62,151,46,43,53,052,44,42,41,055,44,4*7F
$GBGSV,2,2,07,28,37,323,37,34,18,095,33,37,17,275,30,4*4F
$GNGGA,034213.000,2500.8090119,N,12132.4340344,E,4,66,0.43,17.651,M,15.25,M,3,3335*49
$GNRMC,034213.000,A,2500.8090119,N,12132.4340344,E,0.00,238.77,270623,,,R,V*19
$GPHDT,268.963,T*35
$GNGGA,034213.200,2500.8090132,N,12132.4340353,E,4,66,0.43,17.645,M,15.25,M,3,3335*41
$GNRMC,034213.200,A,2500.8090132,N,12132.4340353,E,0.00,238.77,270623,,,R,V*14
$GPHDT,269.072,T*3D
$GNGGA,034213.400,2500.8090114,N,12132.4340352,E,4,66,0.43,17.645,M,15.25,M,3,3335*42
$GNRMC,034213.400,A,2500.8090114,N,12132.4340352,E,0.00,238.77,270623,,,R,V*17
$GPHDT,269.155,T*39
$GNGGA,034213.600,2500.8090112,N,12132.4340374,E,4,66,0.43,17.631,M,15.25,M,3,3335*41
$GNRMC,034213.600,A,2500.8090112,N,12132.4340374,E,0.00,238.77,270623,,,R,V*17
$GPHDT,269.293,T*30
$GNGGA,034213.800,2500.8090071,N,12132.4340438,E,4,66,0.43,17.626,M,15.25,M,3,3335*42
$GNRMC,034213.800,A,2500.8090071,N,12132.4340438,E,0.00,238.77,270623,,,R,V*12
$GPHDT,269.198,T*38
$GNGSA,A,3,195,19,17,196,199,06,194,09,11,20,14,04,0.82,0.43,0.69,1*0F
$GNGSA,A,3,12,03,,,,,,,,,,,0.82,0.43,0.69,1*03
$GNGSA,A,3,67,68,82,83,80,73,,,,,,,0.82,0.43,0.69,2*02
$GNGSA,A,3,24,10,12,11,19,04,25,33,,,,,0.82,0.43,0.69,3*0E
$GNGSA,A,3,40,07,10,33,14,08,43,13,42,28,11,34,0.82,0.43,0.69,4*07
$GNGSA,A,3,37,,,,,,,,,,,,0.82,0.43,0.69,4*02
$GPGSV,4,1,15,195,67,042,42,19,65,016,38,17,64,071,40,196,63,128,38,1*63
$GPGSV,4,2,15,50,60,167,36,199,60,167,34,06,50,337,38,194,42,171,43,1*65
$GPGSV,4,3,15,09,32,108,40,11,27,283,32,20,27,229,16,14,27,177,42,1*61
$GPGSV,4,4,15,04,21,075,27,12,12,319,17,03,10,038,23,1*55
$GPGSV,3,1,10,195,67,042,45,196,63,128,44,199,60,167,46,06,50,337,35,8*52
$GPGSV,3,2,10,194,42,171,45,09,32,108,41,14,27,177,47,11,27,283,37,8*5F
$GPGSV,3,3,10,04,21,075,33,03,10,038,31,8*62
$GLGSV,2,1,08,67,47,064,43,68,47,149,43,82,37,035,43,83,33,338,21,1*7D
$GLGSV,2,2,08,80,26,232,18,73,23,292,35,66,07,028,25,79,02,187,,1*74
$GAGSV,2,1,08,24,52,245,37,10,49,332,37,12,48,013,35,11,34,298,24,7*7D
$GAGSV,2,2,08,19,30,088,36,04,26,154,38,25,25,308,27,33,15,063,37,7*75
$GAGSV,2,1,08,24,52,245,40,10,49,332,41,12,48,013,37,11,34,298,25,1*79
$GAGSV,2,2,08,19,30,088,37,04,26,154,42,25,25,308,24,33,15,063,38,1*73
$GBGSV,5,1,17,40,84,122,42,07,81,250,41,10,72,292,41,33,62,151,43,1*79
$GBGSV,5,2,17,14,61,087,39,08,59,268,39,43,53,052,45,13,49,256,41,1*7E
$GBGSV,5,3,17,42,41,055,46,28,37,323,43,11,33,078,42,23,20,222,,1*74
$GBGSV,5,4,17,41,20,197,,34,18,095,34,37,17,275,26,25,03,179,,1*71
$GBGSV,5,5,17,06,01,189,,1*47
$GBGSV,2,1,07,40,84,122,43,33,62,151,46,43,53,052,44,42,41,055,44,4*7F
$GBGSV,2,2,07,28,37,323,37,34,18,095,32,37,17,275,30,4*4E
$GNGGA,034214.000,2500.8090113,N,12132.4340355,E,4,66,0.43,17.655,M,15.25,M,4,3335*47
$GNRMC,034214.000,A,2500.8090113,N,12132.4340355,E,0.00,238.77,270623,,,R,V*14
$GPHDT,269.197,T*37
$GNGGA,034214.200,2500.8090134,N,12132.4340326,E,4,66,0.43,17.680,M,15.25,M,1,3335*49
$GNRMC,034214.200,A,2500.8090134,N,12132.4340326,E,0.00,238.77,270623,,,R,V*17
$GPHDT,268.992,T*3B
$GNGGA,034214.400,2500.8090101,N,12132.4340448,E,4,66,0.43,17.650,M,15.25,M,1,3335*4B
$GNRMC,034214.400,A,2500.8090101,N,12132.4340448,E,0.00,238.77,270623,,,R,V*18
$GPHDT,269.118,T*30
$GNGGA,034214.600,2500.8090108,N,12132.4340445,E,4,66,0.43,17.651,M,15.25,M,1,3335*4C
$GNRMC,034214.600,A,2500.8090108,N,12132.4340445,E,0.00,238.77,270623,,,R,V*1E
$GPHDT,269.079,T*36
$GNGGA,034214.800,2500.8090078,N,12132.4340414,E,4,66,0.43,17.654,M,15.25,M,1,3335*45
$GNRMC,034214.800,A,2500.8090078,N,12132.4340414,E,0.00,238.77,270623,,,R,V*12
$GPHDT,269.262,T*3E
$GNGSA,A,3,195,19,17,196,199,06,194,09,14,11,20,04,0.82,0.43,0.69,1*0F
$GNGSA,A,3,12,03,,,,,,,,,,,0.82,0.43,0.69,1*03
$GNGSA,A,3,67,68,82,83,80,73,,,,,,,0.82,0.43,0.69,2*02
$GNGSA,A,3,24,10,12,11,19,04,25,33,,,,,0.82,0.43,0.69,3*0E
$GNGSA,A,3,40,07,10,33,14,08,43,13,42,28,11,34,0.82,0.43,0.69,4*07
$GNGSA,A,3,37,,,,,,,,,,,,0.82,0.43,0.69,4*02
$GPGSV,4,1,16,195,67,042,42,19,65,016,38,17,64,071,41,196,63,128,41,1*6F
$GPGSV,4,2,16,199,60,167,34,50,60,167,36,06,50,337,38,194,42,171,43,1*66
$GPGSV,4,3,16,09,32,108,40,14,27,177,42,11,27,283,31,20,27,229,15,1*62
$GPGSV,4,4,16,04,21,075,30,12,12,319,17,03,10,038,23,05,02,221,,1*66
$GPGSV,3,1,10,195,67,042,45,196,63,128,44,199,60,167,46,06,50,337,36,8*51
$GPGSV,3,2,10,194,42,171,45,09,32,108,41,14,27,177,47,11,27,283,37,8*5F
$GPGSV,3,3,10,04,21,075,34,03,10,038,31,8*65
$GLGSV,3,1,09,67,47,064,43,68,47,149,42,82,37,035,43,83,33,338,21,1*7C
$GLGSV,3,2,09,80,26,232,19,73,23,292,35,69,08,185,,66,07,028,27,1*7E
$GLGSV,3,3,09,79,02,187,,1*43
$GAGSV,2,1,08,24,52,245,37,10,49,332,38,12,48,013,35,11,34,298,23,7*75
$GAGSV,2,2,08,19,30,088,36,04,26,154,38,25,25,308,28,33,15,063,37,7*7A
$GAGSV,2,1,08,24,52,245,40,10,49,332,41,12,48,013,37,11,34,298,25,1*79
$GAGSV,2,2,08,19,30,088,37,04,26,154,43,25,25,308,23,33,15,063,38,1*75
$GBGSV,5,1,17,40,84,122,43,07,81,250,41,10,72,292,41,33,62,151,44,1*7F
$GBGSV,5,2,17,14,61,087,40,08,59,268,39,43,53,052,45,13,49,256,41,1*70
$GBGSV,5,3,17,42,41,055,46,28,37,323,43,11,33,078,41,23,20,222,,1*77
$GBGSV,5,4,17,41,20,197,,34,18,095,35,37,17,275,26,25,03,179,,1*70
$GBGSV,5,5,17,06,01,189,,1*47
$GBGSV,2,1,07,40,84,122,42,33,62,151,46,43,53,052,44,42,41,055,44,4*7E
$GBGSV,2,2,07,28,37,323,37,34,18,095,31,37,17,275,31,4*4C
$GNGGA,034215.000,2500.8090098,N,12132.4340395,E,4,66,0.43,17.658,M,15.25,M,2,3335*43
$GNRMC,034215.000,A,2500.8090098,N,12132.4340395,E,0.00,238.77,270623,,,R,V*1B
$GPHDT,268.954,T*31
$GNGGA,034215.200,2500.8090122,N,12132.4340376,E,4,66,0.43,17.660,M,15.25,M,2,3335*47
$GNRMC,034215.200,A,2500.8090122,N,12132.4340376,E,0.00,238.77,270623,,,R,V*14
$GPHDT,269.076,T*39
$GNGGA,034215.400,2500.8090096,N,12132.4340423,E,4,66,0.43,17.650,M,15.25,M,2,3335*4B
$GNRMC,034215.400,A,2500.8090096,N,12132.4340423,E,0.00,238.77,270623,,,R,V*1B
$GPHDT,269.039,T*32
$GNGGA,034215.600,2500.8090127,N,12132.4340435,E,4,65,0.43,17.657,M,15.25,M,2,3335*41
$GNRMC,034215.600,A,2500.8090127,N,12132.4340435,E,0.00,238.77,270623,,,R,V*15
$GPHDT,269.092,T*33
$GNGGA,034215.800,2500.8090087,N,12132.4340368,E,4,65,0.43,17.660,M,15.25,M,2,3335*4F
$GNRMC,034215.800,A,2500.8090087,N,12132.4340368,E,0.00,238.77,270623,,,R,V*1F
$GPHDT,268.864,T*33
$GNGSA,A,3,195,19,17,196,199,06,194,09,14,11,20,04,0.82,0.43,0.69,1*0F
$GNGSA,A,3,12,03,,,,,,,,,,,0.82,0.43,0.69,1*03
$GNGSA,A,3,67,68,82,83,80,73,,,,,,,0.82,0.43,0.69,2*02
$GNGSA,A,3,24,10,12,11,19,04,25,33,,,,,0.82,0.43,0.69,3*0E
$GNGSA,A,3,40,07,10,33,14,08,43,13,42,28,11,34,0.82,0.43,0.69,4*07
$GNGSA,A,3,37,,,,,,,,,,,,0.82,0.43,0.69,4*02
$GPGSV,4,1,16,195,67,042,42,19,65,016,38,17,64,071,42,196,63,128,41,1*6C
$GPGSV,4,2,16,199,60,167,34,50,60,167,37,06,50,337,37,194,42,171,43,1*68
$GPGSV,4,3,16,09,32,108,41,14,27,177,40,11,27,283,32,20,27,229,18,1*6F
$GPGSV,4,4,16,04,21,075,31,12,12,319,17,03,10,038,21,05,02,221,,1*65
$GPGSV,3,1,10,195,67,042,45,196,63,128,44,199,60,167,46,06,50,337,34,8*53
$GPGSV,3,2,10,194,42,171,45,09,32,108,41,14,27,177,47,11,27,283,37,8*5F
$GPGSV,3,3,10,04,21,075,34,03,10,038,31,8*65
$GLGSV,3,1,09,67,47,064,43,68,47,149,41,82,37,035,44,83,33,338,21,1*78
$GLGSV,3,2,09,80,26,232,19,73,23,292,35,69,08,185,,66,07,028,26,1*7F
$GLGSV,3,3,09,79,02,187,,1*43
$GAGSV,2,1,08,24,52,245,36,10,49,332,38,12,48,013,36,11,34,298,21,7*75
$GAGSV,2,2,08,19,30,088,35,04,26,154,38,25,25,308,28,33,15,063,38,7*76
$GAGSV,2,1,08,24,52,245,40,10,49,332,41,12,48,013,37,11,34,298,25,1*79
$GAGSV,2,2,08,19,30,088,37,04,26,154,43,25,25,308,19,33,15,063,38,1*7C
$GBGSV,4,1,16,40,84,122,43,07,81,250,41,10,72,292,41,33,62,151,44,1*7F
$GBGSV,4,2,16,14,61,087,40,08,59,268,39,43,53,052,45,13,49,256,41,1*70
$GBGSV,4,3,16,42,41,055,46,28,37,323,43,11,33,078,41,41,20,197,,1*7E
$GBGSV,4,4,16,23,20,222,,34,18,095,35,37,17,275,27,06,01,189,,1*74
$GBGSV,2,1,07,40,84,122,42,33,62,151,46,43,53,052,44,42,41,055,44,4*7E
$GBGSV,2,2,07,28,37,323,37,34,18,095,31,37,17,275,31,4*4C
$GNGGA,034216.000,2500.8090131,N,12132.4340352,E,4,65,0.43,17.679,M,15.25,M,3,3335*48
$GNRMC,034216.000,A,2500.8090131,N,12132.4340352,E,0.00,238.77,270623,,,R,V*11
$GPHDT,269.313,T*39
$GNGGA,034216.200,2500.8090116,N,12132.4340440,E,4,65,0.43,17.665,M,15.25,M,3,3335*46
$GNRMC,034216.200,A,2500.8090116,N,12132.4340440,E,0.00,238.77,270623,,,R,V*12
$GPHDT,269.063,T*3D
$GNGGA,034216.400,2500.8090076,N,12132.4340433,E,4,65,0.43,17.663,M,15.25,M,3,3335*45
$GNRMC,034216.400,A,2500.8090076,N,12132.4340433,E,0.00,238.77,270623,,,R,V*17
$GPHDT,268.709,T*37
$GNGGA,034216.600,2500.8090112,N,12132.4340441,E,4,63,0.46,17.657,M,15.25,M,3,3335*45
$GNRMC,034216.600,A,2500.8090112,N,12132.4340441,E,0.00,238.77,270623,,,R,V*13
$GPHDT,269.193,T*33
$GNGGA,034216.800,2500.8090133,N,12132.4340398,E,4,63,0.46,17.682,M,15.25,M,3,3335*43
$GNRMC,034216.800,A,2500.8090133,N,12132.4340398,E,0.00,238.77,270623,,,R,V*1D
$GPHDT,268.962,T*34
$GNGSA,A,3,195,19,17,196,199,06,194,09,14,11,04,03,0.85,0.46,0.72,1*06
$GNGSA,A,3,67,68,82,83,80,73,,,,,,,0.85,0.46,0.72,2*0A
$GNGSA,A,3,24,10,12,11,19,04,25,33,,,,,0.85,0.46,0.72,3*06
$GNGSA,A,3,40,07,10,33,14,08,43,13,42,28,11,34,0.85,0.46,0.72,4*0F
$GNGSA,A,3,37,,,,,,,,,,,,0.85,0.46,0.72,4*0A
$GPGSV,4,1,16,195,67,042,42,19,65,016,38,17,64,071,42,196,63,128,41,1*6C
$GPGSV,4,2,16,199,60,167,35,50,60,167,38,06,50,337,35,194,42,171,43,1*64
$GPGSV,4,3,16,09,32,108,41,14,27,177,40,11,27,283,31,20,27,229,17,1*63
$GPGSV,4,4,16,04,21,075,31,12,12,319,17,03,10,038,21,05,02,221,,1*65
$GPGSV,3,1,10,195,67,042,45,196,63,128,44,199,60,167,47,06,50,337,33,8*55
$GPGSV,3,2,10,194,42,171,45,09,32,108,42,14,27,177,48,11,27,283,38,8*5C
$GPGSV,3,3,10,04,21,075,34,03,10,038,31,8*65
$GLGSV,3,1,09,67,47,064,43,68,47,149,41,82,37,035,44,83,33,339,22,1*7A
$GLGSV,3,2,09,80,26,232,18,73,23,292,35,69,08,185,,66,07,028,25,1*7D
$GLGSV,3,3,09,79,02,187,,1*43
$GAGSV,2,1,08,24,52,245,36,10,49,332,38,12,48,013,35,11,34,298,21,7*76
$GAGSV,2,2,08,19,30,088,34,04,26,154,38,25,25,308,26,33,15,063,38,7*79
$GAGSV,2,1,08,24,52,245,40,10,49,332,40,12,48,013,37,11,34,298,25,1*78
$GAGSV,2,2,08,19,30,088,37,04,26,154,43,25,25,308,21,33,15,063,39,1*76
$GBGSV,4,1,15,40,84,122,43,07,81,250,40,10,72,292,41,33,62,151,44,1*7D
$GBGSV,4,2,15,14,61,087,42,08,59,268,38,43,53,052,45,13,49,256,41,1*70
$GBGSV,4,3,15,42,41,055,46,28,37,323,43,11,33,078,41,41,20,197,,1*7D
$GBGSV,4,4,15,23,20,222,,34,18,095,33,37,17,275,28,1*49
$GBGSV,2,1,07,40,84,122,42,33,62,151,46,43,53,052,45,42,41,055,44,4*7F
$GBGSV,2,2,07,28,37,323,38,34,18,095,30,37,17,275,31,4*42
$GNGGA,034217.000,2500.8090092,N,12132.4340413,E,4,63,0.46,17.677,M,15.25,M,4,3335*49
$GNRMC,034217.000,A,2500.8090092,N,12132.4340413,E,0.00,238.77,270623,,,R,V*1A
$GPHDT,268.969,T*3F
$GNGGA,034217.200,2500.8090120,N,12132.4340477,E,4,63,0.46,17.658,M,15.25,M,2,3335*4A
$GNRMC,034217.200,A,2500.8090120,N,12132.4340477,E,0.00,238.77,270623,,,R,V*12
$GPHDT,268.520,T*3E
$GNGGA,034217.400,2500.8090091,N,12132.4340403,E,4,63,0.46,17.647,M,15.25,M,1,3335*49
$GNRMC,034217.400,A,2500.8090091,N,12132.4340403,E,0.00,238.77,270623,,,R,V*1C
$GPHDT,268.971,T*36
$GNGGA,034217.600,2500.8090102,N,12132.4340461,E,4,63,0.46,17.649,M,15.25,M,0,3335*4B
$GNRMC,034217.600,A,2500.8090102,N,12132.4340461,E,0.00,238.77,270623,,,R,V*11
$GPHDT,269.110,T*38
$GNGGA,034217.800,2500.8090115,N,12132.4340432,E,4,64,0.45,17.643,M,15.25,M,0,3335*4B
$GNRMC,034217.800,A,2500.8090115,N,12132.4340432,E,0.00,238.77,270623,,,R,V*1F
$GPHDT,269.011,T*38
$GNGSA,A,3,195,19,17,196,199,06,194,09,14,11,20,04,0.84,0.45,0.71,1*06
$GNGSA,A,3,03,,,,,,,,,,,,0.84,0.45,0.71,1*09
$GNGSA,A,3,67,68,82,83,80,73,,,,,,,0.84,0.45,0.71,2*0B
$GNGSA,A,3,24,10,12,11,19,04,25,33,,,,,0.84,0.45,0.71,3*07
$GNGSA,A,3,40,07,10,33,14,08,43,13,42,28,11,34,0.84,0.45,0.71,4*0E
$GNGSA,A,3,37,,,,,,,,,,,,0.84,0.45,0.71,4*0B
$GPGSV,4,1,16,195,67,042,42,19,65,016,37,17,64,071,41,196,63,128,42,1*63
$GPGSV,4,2,16,199,60,167,35,50,60,167,38,06,50,337,35,194,42,171,43,1*64
$GPGSV,4,3,16,09,32,108,41,14,27,177,40,11,27,283,31,20,27,229,17,1*63
$GPGSV,4,4,16,04,21,075,31,12,12,319,15,03,10,038,21,05,02,221,,1*67
$GPGSV,3,1,10,195,67,042,45,196,63,128,44,199,60,167,47,06,50,337,31,8*57
$GPGSV,3,2,10,194,42,171,45,09,32,108,42,14,27,177,47,11,27,283,37,8*5C
$GPGSV,3,3,10,04,21,075,36,03,10,038,30,8*66
$GLGSV,3,1,10,67,47,064,43,68,47,149,42,82,37,035,44,83,33,339,22,1*71
$GLGSV,3,2,10,80,26,232,18,73,23,292,34,69,08,185,,66,07,028,27,1*76
$GLGSV,3,3,10,74,02,329,,79,02,187,,1*72
$GAGSV,2,1,08,24,52,245,36,10,49,332,37,12,48,013,35,11,34,298,21,7*79
$GAGSV,2,2,08,19,30,088,33,04,26,154,39,25,25,308,26,33,15,063,38,7*7F
$GAGSV,2,1,08,24,52,245,40,10,49,332,39,12,48,013,37,11,34,298,26,1*75
$GAGSV,2,2,08,19,30,088,37,04,26,154,43,25,25,308,18,33,15,063,39,1*7C
$GBGSV,4,1,16,40,84,122,43,07,81,250,40,10,72,292,41,33,62,151,41,1*7B
$GBGSV,4,2,16,14,61,087,41,08,59,268,38,43,53,052,45,13,49,256,41,1*70
$GBGSV,4,3,16,42,41,055,46,28,37,323,44,11,33,078,41,41,20,197,,1*79
$GBGSV,4,4,16,23,20,222,,34,18,095,32,37,17,275,29,39,02,179,,1*7D
$GBGSV,2,1,07,40,84,122,42,33,62,151,46,43,53,052,45,42,41,055,44,4*7F
$GBGSV,2,2,07,28,37,323,38,34,18,095,33,37,17,275,31,4*41
$GNGGA,034218.000,2500.8090157,N,12132.4340452,E,4,65,0.45,17.659,M,15.25,M,1,3335*47
$GNRMC,034218.000,A,2500.8090157,N,12132.4340452,E,0.00,238.77,270623,,,R,V*18
$GPHDT,269.178,T*36
$GNGGA,034218.200,2500.8090157,N,12132.4340450,E,4,64,0.45,17.660,M,15.25,M,1,3335*4C
$GNRMC,034218.200,A,2500.8090157,N,12132.4340450,E,0.00,238.77,270623,,,R,V*18
$GPHDT,269.096,T*37
$GNGGA,034218.400,2500.8090151,N,12132.4340453,E,4,64,0.45,17.654,M,15.25,M,1,3335*48
$GNRMC,034218.400,A,2500.8090151,N,12132.4340453,E,0.00,238.77,270623,,,R,V*1B
$GPHDT,268.798,T*3F
$GNGGA,034218.600,2500.8090120,N,12132.4340521,E,4,64,0.45,17.622,M,15.25,M,0,3335*48
$GNRMC,034218.600,A,2500.8090120,N,12132.4340521,E,0.00,238.77,270623,,,R,V*1B
$GPHDT,268.969,T*3F
$GNGGA,034218.800,2500.8090089,N,12132.4340599,E,4,65,0.45,17.604,M,15.25,M,0,3335*42
$GNRMC,034218.800,A,2500.8090089,N,12132.4340599,E,0.00,238.77,270623,,,R,V*14
$GPHDT,268.936,T*35
$GNGSA,A,3,195,19,17,196,199,06,194,09,14,11,20,04,0.84,0.45,0.71,1*06
$GNGSA,A,3,03,,,,,,,,,,,,0.84,0.45,0.71,1*09
$GNGSA,A,3,67,68,82,83,80,73,,,,,,,0.84,0.45,0.71,2*0B
$GNGSA,A,3,24,10,12,11,19,04,25,33,,,,,0.84,0.45,0.71,3*07
$GNGSA,A,3,40,07,10,33,14,08,43,13,42,28,11,34,0.84,0.45,0.71,4*0E
$GNGSA,A,3,37,,,,,,,,,,,,0.84,0.45,0.71,4*0B
$GPGSV,4,1,16,195,67,042,42,19,65,016,37,17,64,071,41,196,63,128,42,1*63
$GPGSV,4,2,16,199,60,167,35,50,60,167,38,06,50,337,35,194,42,171,42,1*65
$GPGSV,4,3,16,09,32,108,41,14,27,177,40,11,27,283,31,20,27,229,17,1*63
$GPGSV,4,4,16,04,21,075,32,12,12,319,14,03,10,038,20,05,02,221,,1*64
$GPGSV,3,1,10,195,67,042,45,196,63,128,44,199,60,167,47,06,50,337,30,8*56
$GPGSV,3,2,10,194,42,171,45,09,32,108,42,14,27,177,47,11,27,283,37,8*5C
$GPGSV,3,3,10,04,21,075,35,03,10,038,29,8*6D
$GLGSV,3,1,09,67,47,064,43,68,47,149,42,82,37,035,44,83,33,339,21,1*7A
$GLGSV,3,2,09,80,26,232,18,73,23,292,34,69,08,185,,66,07,028,27,1*7E
$GLGSV,3,3,09,79,02,187,,1*43
$GAGSV,2,1,08,24,52,245,36,10,49,332,37,12,48,013,34,11,34,298,21,7*78
$GAGSV,2,2,08,19,30,088,33,04,26,154,39,25,25,308,28,33,15,063,38,7*71
$GAGSV,2,1,08,24,52,245,40,10,49,332,38,12,48,013,37,11,34,298,24,1*76
$GAGSV,2,2,08,19,30,088,37,04,26,154,43,25,25,308,17,33,15,063,39,1*73
$GBGSV,4,1,16,40,84,122,43,07,81,250,40,10,72,292,41,33,62,151,41,1*7B
$GBGSV,4,2,16,14,61,087,41,08,59,268,38,43,53,052,45,13,49,256,41,1*70
$GBGSV,4,3,16,42,41,055,46,28,37,323,44,11,33,078,41,41,20,197,,1*79
$GBGSV,4,4,16,23,20,222,,34,18,095,32,37,17,275,27,39,02,179,,1*73
$GBGSV,2,1,07,40,84,122,42,33,62,151,46,43,53,052,45,42,41,055,44,4*7F
$GBGSV,2,2,07,28,37,323,38,34,18,095,33,37,17,275,30,4*40
$GNGGA,034219.000,2500.8090103,N,12132.4340565,E,4,65,0.45,17.616,M,15.25,M,1,3335*49
$GNRMC,034219.000,A,2500.8090103,N,12132.4340565,E,0.00,238.77,270623,,,R,V*1D
$GPHDT,268.986,T*3E
$GNGGA,034219.200,2500.8090141,N,12132.4340462,E,4,66,0.43,17.647,M,15.25,M,1,3335*4A
$GNRMC,034219.200,A,2500.8090141,N,12132.4340462,E,0.00,238.77,270623,,,R,V*1F
$GPHDT,268.775,T*3C
$GNGGA,034219.400,2500.8090161,N,12132.4340434,E,4,66,0.43,17.663,M,15.25,M,1,3335*4B
$GNRMC,034219.400,A,2500.8090161,N,12132.4340434,E,0.00,238.77,270623,,,R,V*18
$GPHDT,268.848,T*3D
$GNGGA,034219.600,2500.8090085,N,12132.4340534,E,4,66,0.43,17.620,M,15.25,M,1,3335*44
$GNRMC,034219.600,A,2500.8090085,N,12132.4340534,E,0.00,238.77,270623,,,R,V*10
$GPHDT,268.980,T*38
$GNGGA,034219.800,2500.8090140,N,12132.4340472,E,4,66,0.43,17.646,M,15.25,M,0,3335*40
$GNRMC,034219.800,A,2500.8090140,N,12132.4340472,E,0.00,238.77,270623,,,R,V*15
$GPHDT,268.932,T*31
$GNGSA,A,3,195,19,17,196,199,06,194,09,11,20,14,04,0.82,0.43,0.69,1*0F
$GNGSA,A,3,12,03,,,,,,,,,,,0.82,0.43,0.69,1*03
$GNGSA,A,3,67,68,82,83,80,73,,,,,,,0.82,0.43,0.69,2*02
$GNGSA,A,3,24,10,12,11,19,04,25,33,,,,,0.82,0.43,0.69,3*0E
$GNGSA,A,3,40,07,10,33,14,08,43,13,42,28,11,34,0.82,0.43,0.69,4*07
$GNGSA,A,3,37,,,,,,,,,,,,0.82,0.43,0.69,4*02
$GPGSV,4,1,15,195,67,042,42,19,65,016,37,17,64,071,41,196,63,128,40,1*62
$GPGSV,4,2,15,50,60,167,37,199,60,167,34,06,50,337,37,194,42,171,42,1*6A
$GPGSV,4,3,15,09,32,108,41,11,27,283,30,20,27,229,17,14,27,177,41,1*60
$GPGSV,4,4,15,04,21,075,32,12,12,319,14,03,10,038,20,1*51
$GPGSV,3,1,10,195,67,042,45,196,63,128,44,199,60,167,47,06,50,337,31,8*57
$GPGSV,3,2,10,194,42,171,45,09,32,108,42,14,27,177,47,11,27,283,37,8*5C
$GPGSV,3,3,10,04,21,075,35,03,10,038,30,8*65
$GLGSV,3,1,09,67,47,064,43,68,47,149,42,82,37,035,43,83,33,339,19,1*76
$GLGSV,3,2,09,80,26,232,18,73,23,292,34,69,08,185,,66,07,028,27,1*7E
$GLGSV,3,3,09,79,02,187,,1*43
$GAGSV,2,1,08,24,52,245,35,10,49,332,37,12,48,013,34,11,34,298,21,7*7B
$GAGSV,2,2,08,19,30,088,33,04,26,154,39,25,25,308,28,33,15,063,37,7*7E
$GAGSV,2,1,08,24,52,245,40,10,49,332,39,12,48,013,37,11,34,298,24,1*77
$GAGSV,2,2,08,19,30,088,38,04,26,154,43,25,25,308,16,33,15,063,39,1*7D
$GBGSV,5,1,18,40,84,122,43,07,81,250,40,10,72,292,41,33,62,151,41,1*74
$GBGSV,5,2,18,14,61,087,41,08,59,268,38,43,53,052,45,13,49,256,41,1*7F
$GBGSV,5,3,18,42,41,055,46,28,37,323,44,11,33,078,41,23,20,222,,1*7F
$GBGSV,5,4,18,41,20,197,,34,18,095,31,37,17,275,27,25,03,179,,1*7A
$GBGSV,5,5,18,39,02,179,,06,01,189,,1*7F
$GBGSV,2,1,07,40,84,122,43,33,62,151,46,43,53,052,45,42,41,055,44,4*7E
$GBGSV,2,2,07,28,37,323,39,34,18,095,33,37,17,275,30,4*41
$GNGGA,034220.000,2500.8090142,N,12132.4340509,E,4,65,0.43,17.651,M,15.25,M,1,3335*49
$GNRMC,034220.000,A,2500.8090142,N,12132.4340509,E,0.00,238.77,270623,,,R,V*18
$GPHDT,268.963,T*35
$GNGGA,034220.200,2500.8090185,N,12132.4340431,E,4,65,0.43,17.690,M,15.25,M,1,3335*47
$GNRMC,034220.200,A,2500.8090185,N,12132.4340431,E,0.01,238.77,270623,,,R,V*1A
