$FW : RTK35X,V1.1X0314AS,Lib20210517,1*54
$Tool : LOCOSYS , GNSS Firebird , v1.0.0.19*39
$---------------------------------------------------*2D
$GPHDT,184.980,T*39
$GNGGA,034301.400,2500.8087152,N,12132.4340039,E,2,62,0.46,17.645,M,15.25,M,3,3335*4D
$GNRMC,034301.400,A,2500.8087152,N,12132.4340039,E,0.00,238.77,270623,,,D,V*09
$GPHDT,184.445,T*3D
$GNGGA,034301.600,2500.8087092,N,12132.4340039,E,2,62,0.46,17.640,M,15.25,M,3,3335*47
$GNRMC,034301.600,A,2500.8087092,N,12132.4340039,E,0.00,238.77,270623,,,D,V*06
$GPHDT,184.715,T*3B
$GNGGA,034301.800,2500.8087032,N,12132.4340099,E,2,63,0.46,17.638,M,15.25,M,3,3335*47
$GNRMC,034301.800,A,2500.8087032,N,12132.4340099,E,0.00,238.77,270623,,,D,V*08
$GPHDT,184.865,T*33
$GNGSA,A,3,195,19,17,196,199,06,194,09,14,11,04,12,0.83,0.46,0.69,1*0A
$GNGSA,A,3,03,,,,,,,,,,,,0.83,0.46,0.69,1*04
$GNGSA,A,3,68,67,82,83,80,73,,,,,,,0.83,0.46,0.69,2*06
$GNGSA,A,3,24,10,12,11,19,04,25,33,,,,,0.83,0.46,0.69,3*0A
$GNGSA,A,3,40,07,10,33,14,08,43,13,42,28,11,34,0.83,0.46,0.69,4*03
$GNGSA,A,3,37,,,,,,,,,,,,0.83,0.46,0.69,4*06
$GPGSV,4,1,16,195,67,042,38,19,65,016,41,17,64,072,41,196,63,128,40,1*6E
$GPGSV,4,2,16,199,60,167,34,50,60,167,37,06,50,337,44,194,42,171,45,1*6A
$GPGSV,4,3,16,09,32,107,34,14,27,177,43,11,27,284,28,20,27,229,,1*64
$GPGSV,4,4,16,04,21,074,24,12,12,319,17,03,10,038,24,05,02,221,,1*65
$GPGSV,3,1,10,195,67,042,45,196,63,128,44,199,60,167,46,06,50,337,46,8*56
$GPGSV,3,2,10,194,42,171,44,09,32,107,41,14,27,177,42,11,27,284,35,8*51
$GPGSV,3,3,10,04,21,074,38,03,10,038,23,8*6B
$GLGSV,2,1,08,68,48,149,43,67,47,064,44,82,37,035,43,83,33,339,33,1*77
$GLGSV,2,2,08,80,25,231,22,73,23,291,23,66,07,028,25,79,01,187,,1*7A
$GAGSV,2,1,08,24,52,245,31,10,49,332,42,12,48,013,39,11,34,298,18,7*7A
$GAGSV,2,2,08,19,31,087,34,04,27,154,40,25,25,308,31,33,15,063,34,7*73
$GAGSV,2,1,08,24,52,245,37,10,49,332,44,12,48,013,41,11,34,298,25,1*7D
$GAGSV,2,2,08,19,31,087,39,04,27,154,43,25,25,308,27,33,15,063,40,1*7F
$GBGSV,4,1,15,40,83,124,41,07,81,249,41,10,72,292,38,33,62,151,43,1*7E
$GBGSV,4,2,15,14,61,086,42,08,59,268,40,43,53,053,42,13,49,256,39,1*77
$GBGSV,4,3,15,42,41,055,45,28,37,323,46,11,33,079,41,41,21,197,,1*7B
$GBGSV,4,4,15,23,19,222,24,34,18,096,31,37,17,274,,1*4F
$GBGSV,2,1,07,40,83,124,44,33,62,151,46,43,53,053,44,42,41,055,46,4*7A
$GBGSV,2,2,07,28,37,323,42,34,18,096,37,37,17,274,29,4*43
$GNGGA,034302.000,2500.8087032,N,12132.4340099,E,2,63,0.46,17.637,M,15.25,M,4,3335*44
$GNRMC,034302.000,A,2500.8087032,N,12132.4340099,E,0.00,238.77,270623,,,D,V*03
$GPHDT,185.234,T*3C
$GNGGA,034302.200,2500.8086972,N,12132.4340159,E,2,63,0.46,17.637,M,15.25,M,4,3335*47
$GNRMC,034302.200,A,2500.8086972,N,12132.4340159,E,0.00,238.77,270623,,,D,V*00
$GPHDT,185.045,T*38
$GNGGA,034302.400,2500.8086972,N,12132.4340159,E,2,63,0.46,17.639,M,15.25,M,4,3335*4F
$GNRMC,034302.400,A,2500.8086972,N,12132.4340159,E,0.00,238.77,270623,,,D,V*06
$GPHDT,184.911,T*31
$GNGGA,034302.600,2500.8086912,N,12132.4340219,E,2,63,0.46,17.641,M,15.25,M,4,3335*43
$GNRMC,034302.600,A,2500.8086912,N,12132.4340219,E,0.00,238.77,270623,,,D,V*05
$GPHDT,185.018,T*30
$GNGGA,034302.800,2500.8086852,N,12132.4340219,E,2,63,0.46,17.643,M,15.25,M,4,3335*4A
$GNRMC,034302.800,A,2500.8086852,N,12132.4340219,E,0.00,238.77,270623,,,D,V*0E
$GPHDT,185.253,T*3D
$GNGSA,A,3,195,19,17,196,199,06,194,09,14,11,04,12,0.83,0.46,0.69,1*0A
$GNGSA,A,3,03,,,,,,,,,,,,0.83,0.46,0.69,1*04
$GNGSA,A,3,68,67,82,83,80,73,,,,,,,0.83,0.46,0.69,2*06
$GNGSA,A,3,24,10,12,11,19,04,25,33,,,,,0.83,0.46,0.69,3*0A
$GNGSA,A,3,40,07,10,33,14,08,43,13,42,28,11,34,0.83,0.46,0.69,4*03
$GNGSA,A,3,37,,,,,,,,,,,,0.83,0.46,0.69,4*06
$GPGSV,4,1,16,195,67,042,38,19,65,016,41,17,64,072,41,196,63,128,40,1*6E
$GPGSV,4,2,16,199,60,167,34,50,60,167,37,06,50,337,44,194,42,171,44,1*6B
$GPGSV,4,3,16,09,32,107,35,14,27,177,43,11,27,284,27,20,27,229,,1*6A
$GPGSV,4,4,16,04,21,074,24,12,12,319,23,03,10,038,24,05,02,221,,1*62
$GPGSV,3,1,10,195,67,042,45,196,63,128,44,199,60,167,46,06,50,337,46,8*56
$GPGSV,3,2,10,194,42,171,44,09,32,107,41,14,27,177,42,11,27,284,34,8*50
$GPGSV,3,3,10,04,21,074,38,03,10,038,20,8*68
$GLGSV,3,1,09,68,48,149,43,67,47,064,44,82,37,035,43,83,33,339,30,1*74
$GLGSV,3,2,09,80,25,231,23,73,23,291,23,66,07,028,25,74,02,329,,1*73
$GLGSV,3,3,09,79,01,187,,1*40
$GAGSV,2,1,08,24,52,245,31,10,49,332,42,12,48,013,38,11,34,298,19,7*7A
$GAGSV,2,2,08,19,31,087,34,04,27,154,40,25,25,308,30,33,15,063,34,7*72
$GAGSV,2,1,08,24,52,245,38,10,49,332,45,12,48,013,41,11,34,298,21,1*77
$GAGSV,2,2,08,19,31,087,39,04,27,154,43,25,25,308,25,33,15,063,40,1*7D
$GBGSV,4,1,16,40,83,124,40,07,81,249,41,10,72,292,38,33,62,151,43,1*7C
$GBGSV,4,2,16,14,61,086,42,08,59,268,40,43,53,053,42,13,49,256,40,1*7A
$GBGSV,4,3,16,42,41,055,45,28,37,323,47,11,33,079,41,41,21,197,,1*79
$GBGSV,4,4,16,23,19,222,25,34,18,096,31,37,17,274,,39,02,178,,1*7B
$GBGSV,2,1,07,40,83,124,44,33,62,151,46,43,53,053,44,42,41,055,46,4*7A
$GBGSV,2,2,07,28,37,323,44,34,18,096,37,37,17,274,29,4*45
$GNGGA,034303.000,2500.8086792,N,12132.4340279,E,2,63,0.46,17.645,M,15.25,M,5,3335*41
$GNRMC,034303.000,A,2500.8086792,N,12132.4340279,E,0.00,238.77,270623,,,D,V*02
$GPHDT,185.090,T*30
$GNGGA,034303.200,2500.8086732,N,12132.4340279,E,2,62,0.46,17.646,M,15.25,M,5,3335*4B
$GNRMC,034303.200,A,2500.8086732,N,12132.4340279,E,0.00,238.77,270623,,,D,V*0A
$GPHDT,185.210,T*3A
$GNGGA,034303.400,2500.8086732,N,12132.4340279,E,2,63,0.46,17.644,M,15.25,M,5,3335*4E
$GNRMC,034303.400,A,2500.8086732,N,12132.4340279,E,0.00,238.77,270623,,,D,V*0C
$GPHDT,185.444,T*3D
$GNGGA,034303.600,2500.8086672,N,12132.4340339,E,2,63,0.46,17.646,M,15.25,M,5,3335*4E
$GNRMC,034303.600,A,2500.8086672,N,12132.4340339,E,0.00,238.77,270623,,,D,V*0E
$GPHDT,185.564,T*3E
$GNGGA,034303.800,2500.8086672,N,12132.4340399,E,2,63,0.46,17.647,M,15.25,M,5,3335*4B
$GNRMC,034303.800,A,2500.8086672,N,12132.4340399,E,0.00,238.77,270623,,,D,V*0A
$GPHDT,185.339,T*30
$GNGSA,A,3,195,19,17,196,199,06,194,09,14,11,04,12,0.83,0.46,0.69,1*0A
$GNGSA,A,3,03,,,,,,,,,,,,0.83,0.46,0.69,1*04
$GNGSA,A,3,68,67,82,83,80,73,,,,,,,0.83,0.46,0.69,2*06
$GNGSA,A,3,24,10,12,11,19,04,25,33,,,,,0.83,0.46,0.69,3*0A
$GNGSA,A,3,40,07,10,33,14,08,43,13,42,28,11,34,0.83,0.46,0.69,4*03
$GNGSA,A,3,37,,,,,,,,,,,,0.83,0.46,0.69,4*06
$GPGSV,4,1,16,195,67,042,38,19,65,016,41,17,64,072,41,196,63,128,40,1*6E
$GPGSV,4,2,16,199,60,167,34,50,60,167,37,06,50,338,43,194,42,171,44,1*63
$GPGSV,4,3,16,09,32,107,35,14,27,177,43,11,27,284,27,20,27,229,,1*6A
$GPGSV,4,4,16,04,21,074,26,12,12,319,26,03,10,038,26,05,02,221,,1*67
$GPGSV,3,1,10,195,67,042,45,196,63,128,44,199,60,167,46,06,50,338,46,8*59
$GPGSV,3,2,10,194,42,171,44,09,32,107,41,14,27,177,42,11,27,284,34,8*50
$GPGSV,3,3,10,04,21,074,38,03,10,038,20,8*68
$GLGSV,2,1,08,68,48,149,43,67,47,064,44,82,37,035,43,83,33,339,30,1*74
$GLGSV,2,2,08,80,25,231,23,73,23,291,23,66,07,028,26,79,01,187,,1*78
$GAGSV,2,1,08,24,52,245,31,10,49,332,42,12,48,013,38,11,34,298,19,7*7A
$GAGSV,2,2,08,19,31,087,34,04,27,154,40,25,25,308,31,33,15,063,34,7*73
$GAGSV,2,1,08,24,52,245,38,10,49,332,45,12,48,013,41,11,34,298,18,1*7D
$GAGSV,2,2,08,19,31,087,39,04,27,154,42,25,25,308,25,33,15,063,40,1*7C
$GBGSV,4,1,16,40,83,124,39,07,81,249,40,10,72,292,38,33,62,151,43,1*73
$GBGSV,4,2,16,14,61,086,42,08,59,268,40,43,53,053,42,13,49,256,40,1*7A
$GBGSV,4,3,16,42,41,055,45,28,37,323,47,11,33,079,41,41,21,197,,1*79
$GBGSV,4,4,16,23,19,222,25,34,18,096,30,37,17,274,,06,01,189,,1*7B
$GBGSV,2,1,07,40,83,124,44,33,62,151,46,43,53,053,44,42,41,055,46,4*7A
$GBGSV,2,2,07,28,37,323,44,34,18,096,37,37,17,274,27,4*4B
$GNGGA,034304.000,2500.8086612,N,12132.4340459,E,2,63,0.46,17.647,M,15.25,M,6,3335*4A
$GNRMC,034304.000,A,2500.8086612,N,12132.4340459,E,0.00,238.77,270623,,,D,V*08
$GPHDT,185.154,T*39
$GNGGA,034304.200,2500.8086552,N,12132.4340459,E,2,63,0.46,17.649,M,15.25,M,6,3335*41
$GNRMC,034304.200,A,2500.8086552,N,12132.4340459,E,0.00,238.77,270623,,,D,V*0D
$GPHDT,184.932,T*30
$GNGGA,034304.400,2500.8086552,N,12132.4340519,E,2,63,0.46,17.649,M,15.25,M,6,3335*42
$GNRMC,034304.400,A,2500.8086552,N,12132.4340519,E,0.00,238.77,270623,,,D,V*0E
$GPHDT,185.022,T*39
$GNGGA,034304.600,2500.8086492,N,12132.4340519,E,2,63,0.46,17.649,M,15.25,M,6,3335*4D
$GNRMC,034304.600,A,2500.8086492,N,12132.4340519,E,0.00,238.77,270623,,,D,V*01
$GPHDT,185.249,T*36
$GNGGA,034304.800,2500.8086492,N,12132.4340519,E,2,63,0.46,17.646,M,15.25,M,6,3335*4C
$GNRMC,034304.800,A,2500.8086492,N,12132.4340519,E,0.00,238.77,270623,,,D,V*0F
$GPHDT,185.197,T*36
$GNGSA,A,3,195,19,17,196,199,06,194,09,14,11,04,12,0.83,0.46,0.69,1*0A
$GNGSA,A,3,03,,,,,,,,,,,,0.83,0.46,0.69,1*04
$GNGSA,A,3,68,67,82,83,80,73,,,,,,,0.83,0.46,0.69,2*06
$GNGSA,A,3,24,10,12,11,19,04,25,33,,,,,0.83,0.46,0.69,3*0A
$GNGSA,A,3,40,07,10,33,14,08,43,13,42,28,11,34,0.83,0.46,0.69,4*03
$GNGSA,A,3,37,,,,,,,,,,,,0.83,0.46,0.69,4*06
$GPGSV,4,1,16,195,67,042,39,19,65,016,41,17,64,072,41,196,63,128,40,1*6F
$GPGSV,4,2,16,199,60,167,35,50,60,167,38,06,50,338,43,194,42,171,44,1*6D
$GPGSV,4,3,16,09,32,107,35,14,27,177,42,11,27,284,28,20,27,229,,1*64
$GPGSV,4,4,16,04,21,074,25,12,12,318,27,03,10,038,25,05,02,221,,1*67
$GPGSV,3,1,10,195,67,042,45,196,63,128,44,199,60,167,46,06,50,338,46,8*59
$GPGSV,3,2,10,194,42,171,44,09,32,107,41,14,27,177,42,11,27,284,34,8*50
$GPGSV,3,3,10,04,21,074,37,03,10,038,20,8*67
$GLGSV,2,1,08,68,48,149,43,67,47,064,44,82,37,035,42,83,33,339,29,1*7D
$GLGSV,2,2,08,80,25,231,21,73,23,291,23,66,07,028,26,79,01,187,,1*7A
$GAGSV,2,1,08,24,52,245,32,10,49,332,42,12,48,013,38,11,34,298,19,7*79
$GAGSV,2,2,08,19,31,087,34,04,27,154,40,25,25,308,31,33,15,063,36,7*71
$GAGSV,2,1,08,24,52,245,38,10,49,332,45,12,48,013,41,11,34,298,17,1*72
$GAGSV,2,2,08,19,31,087,39,04,27,154,41,25,25,308,27,33,15,063,40,1*7D
$GBGSV,4,1,15,40,83,124,38,07,81,249,40,10,72,292,38,33,62,151,43,1*71
$GBGSV,4,2,15,14,61,086,42,08,59,268,40,43,53,053,43,13,49,256,40,1*78
$GBGSV,4,3,15,42,41,055,44,28,37,323,48,11,33,079,41,41,21,197,,1*74
$GBGSV,4,4,15,23,19,222,22,34,18,096,34,37,17,274,,1*4C
$GBGSV,2,1,07,40,83,124,44,33,62,151,46,43,53,053,43,42,41,055,46,4*7D
$GBGSV,2,2,07,28,37,323,44,34,18,096,38,37,17,274,27,4*44
$GNGGA,034305.000,2500.8086432,N,12132.4340519,E,2,63,0.46,17.642,M,15.25,M,7,3335*4A
$GNRMC,034305.000,A,2500.8086432,N,12132.4340519,E,0.00,238.77,270623,,,D,V*0C
$GPHDT,184.959,T*3D
$GNGGA,034305.200,2500.8086432,N,12132.4340579,E,2,64,0.46,17.641,M,15.25,M,7,3335*4A
$GNRMC,034305.200,A,2500.8086432,N,12132.4340579,E,0.00,238.77,270623,,,D,V*08
$GPHDT,185.357,T*38
$GNGGA,034305.400,2500.8086372,N,12132.4340579,E,2,64,0.46,17.645,M,15.25,M,7,3335*4B
$GNRMC,034305.400,A,2500.8086372,N,12132.4340579,E,0.00,238.77,270623,,,D,V*0D
$GPHDT,185.540,T*38
$GNGGA,034305.600,2500.8086372,N,12132.4340639,E,2,64,0.46,17.645,M,15.25,M,7,3335*4E
$GNRMC,034305.600,A,2500.8086372,N,12132.4340639,E,0.00,238.77,270623,,,D,V*08
$GPHDT,185.200,T*3B
$GNGGA,034305.800,2500.8086372,N,12132.4340639,E,2,64,0.46,17.645,M,15.25,M,7,3335*40
$GNRMC,034305.800,A,2500.8086372,N,12132.4340639,E,0.00,238.77,270623,,,D,V*06
$GPHDT,185.316,T*3D
$GNGSA,A,3,195,19,17,196,199,06,194,09,14,11,04,12,0.83,0.46,0.69,1*0A
$GNGSA,A,3,03,,,,,,,,,,,,0.83,0.46,0.69,1*04
$GNGSA,A,3,68,67,82,83,80,73,,,,,,,0.83,0.46,0.69,2*06
$GNGSA,A,3,24,10,12,11,19,04,25,33,,,,,0.83,0.46,0.69,3*0A
$GNGSA,A,3,40,07,10,33,14,08,43,13,42,28,11,34,0.83,0.46,0.69,4*03
$GNGSA,A,3,37,,,,,,,,,,,,0.83,0.46,0.69,4*06
$GPGSV,4,1,16,195,67,042,39,19,65,016,41,17,64,072,42,196,63,128,40,1*6C
$GPGSV,4,2,16,199,60,167,35,50,60,167,38,06,50,338,43,194,42,171,44,1*6D
$GPGSV,4,3,16,09,32,107,35,14,27,177,42,11,27,284,29,20,27,229,,1*65
$GPGSV,4,4,16,04,21,074,24,12,12,318,27,03,10,038,27,05,02,221,,1*64
$GPGSV,3,1,10,195,67,042,45,196,63,128,44,199,60,167,46,06,50,338,46,8*59
$GPGSV,3,2,10,194,42,171,44,09,32,107,41,14,27,177,42,11,27,284,34,8*50
$GPGSV,3,3,10,04,21,074,37,03,10,038,19,8*6D
$GLGSV,2,1,08,68,48,149,43,67,47,064,44,82,37,035,42,83,33,339,29,1*7D
$GLGSV,2,2,08,80,25,231,20,73,23,291,21,66,07,028,27,79,01,187,,1*78
$GAGSV,2,1,08,24,52,245,32,10,49,332,42,12,48,013,38,11,34,298,17,7*77
$GAGSV,2,2,08,19,31,087,34,04,27,154,40,25,25,308,31,33,15,063,37,7*70
$GAGSV,2,1,08,24,52,245,38,10,49,332,45,12,48,013,41,11,34,298,17,1*72
$GAGSV,2,2,08,19,31,087,39,04,27,154,41,25,25,308,26,33,15,063,40,1*7C
$GBGSV,4,1,15,40,83,124,38,07,81,249,39,10,72,292,37,33,62,151,43,1*70
$GBGSV,4,2,15,14,61,086,42,08,59,268,40,43,53,053,43,13,49,256,40,1*78
$GBGSV,4,3,15,42,41,055,44,28,37,323,48,11,33,079,41,41,21,197,,1*74
$GBGSV,4,4,15,23,19,222,22,34,18,096,34,37,17,274,,1*4C
$GBGSV,2,1,07,40,83,124,44,33,62,151,46,43,53,053,43,42,41,055,46,4*7D
$GBGSV,2,2,07,28,37,323,44,34,18,096,38,37,17,274,26,4*45
$GNGGA,034306.000,2500.8086372,N,12132.4340639,E,2,64,0.46,17.643,M,15.25,M,8,3335*42
$GNRMC,034306.000,A,2500.8086372,N,12132.4340639,E,0.00,238.77,270623,,,D,V*0D
$GPHDT,185.284,T*37
$GNGGA,034306.200,2500.8086372,N,12132.4340639,E,2,64,0.46,17.645,M,15.25,M,8,3335*46
$GNRMC,034306.200,A,2500.8086372,N,12132.4340639,E,0.00,238.77,270623,,,D,V*0F
$GPHDT,185.308,T*32
$GNGGA,034306.400,2500.8086372,N,12132.4340699,E,2,64,0.46,17.649,M,15.25,M,8,3335*46
$GNRMC,034306.400,A,2500.8086372,N,12132.4340699,E,0.00,238.77,270623,,,D,V*03
$GPHDT,185.302,T*38
$GNGGA,034306.600,2500.8086312,N,12132.4340639,E,2,63,0.46,17.653,M,15.25,M,8,3335*44
$GNRMC,034306.600,A,2500.8086312,N,12132.4340639,E,0.00,238.77,270623,,,D,V*0D
$GPHDT,185.207,T*3C
$GNGGA,034306.800,2500.8086312,N,12132.4340639,E,2,64,0.46,17.657,M,15.25,M,8,3335*49
$GNRMC,034306.800,A,2500.8086312,N,12132.4340639,E,0.00,238.77,270623,,,D,V*03
$GPHDT,184.994,T*3C
$GNGSA,A,3,195,19,17,196,199,06,194,09,14,11,04,12,0.83,0.46,0.69,1*0A
$GNGSA,A,3,03,,,,,,,,,,,,0.83,0.46,0.69,1*04
$GNGSA,A,3,68,67,82,83,80,73,,,,,,,0.83,0.46,0.69,2*06
$GNGSA,A,3,24,10,12,11,19,04,25,33,,,,,0.83,0.46,0.69,3*0A
$GNGSA,A,3,40,07,10,33,14,08,43,13,42,28,11,34,0.83,0.46,0.69,4*03
$GNGSA,A,3,37,,,,,,,,,,,,0.83,0.46,0.69,4*06
$GPGSV,4,1,16,195,67,042,39,19,65,017,41,17,64,072,42,196,63,128,40,1*6D
$GPGSV,4,2,16,50,60,167,38,199,60,167,35,06,50,338,43,194,42,171,44,1*6D
$GPGSV,4,3,16,09,32,107,35,20,28,230,,14,27,177,42,11,27,284,28,1*63
$GPGSV,4,4,16,04,21,074,23,12,12,318,26,03,10,038,26,05,02,221,,1*63
$GPGSV,3,1,10,195,67,042,45,196,63,128,44,199,60,167,46,06,50,338,46,8*59
$GPGSV,3,2,10,194,42,171,44,09,32,107,41,14,27,177,42,11,27,284,34,8*50
$GPGSV,3,3,10,04,21,074,37,03,10,038,19,8*6D
$GLGSV,2,1,08,68,48,149,43,67,47,064,44,82,37,035,42,83,33,339,27,1*73
$GLGSV,2,2,08,80,25,231,18,73,23,291,21,66,07,028,27,79,01,187,,1*73
$GAGSV,2,1,08,24,52,245,32,10,49,332,42,12,48,013,38,11,34,298,17,7*77
$GAGSV,2,2,08,19,31,087,34,04,27,154,39,25,25,308,30,33,15,063,37,7*7F
$GAGSV,2,1,08,24,52,245,38,10,49,332,45,12,48,013,41,11,34,298,17,1*72
$GAGSV,2,2,08,19,31,087,39,04,27,154,41,25,25,308,26,33,15,063,40,1*7C
$GBGSV,4,1,16,40,83,124,38,07,81,249,39,10,72,292,37,33,62,151,43,1*73
$GBGSV,4,2,16,14,61,086,42,08,59,268,40,43,53,053,43,13,49,256,40,1*7B
$GBGSV,4,3,16,42,41,055,44,28,37,323,48,11,33,079,41,41,21,197,,1*77
$GBGSV,4,4,16,23,19,222,22,34,18,096,34,37,17,274,,06,01,189,,1*78
$GBGSV,2,1,07,40,83,124,45,33,62,151,46,43,53,053,43,42,41,055,46,4*7C
$GBGSV,2,2,07,28,37,323,44,34,18,096,38,37,17,274,26,4*45
$GNGGA,034307.000,2500.8086312,N,12132.4340639,E,2,64,0.46,17.661,M,15.25,M,9,3335*44
$GNRMC,034307.000,A,2500.8086312,N,12132.4340639,E,0.00,238.77,270623,,,D,V*0A
$GPHDT,185.210,T*3A
$GNGGA,034307.200,2500.8086312,N,12132.4340699,E,2,64,0.46,17.661,M,15.25,M,9,3335*4C
$GNRMC,034307.200,A,2500.8086312,N,12132.4340699,E,0.00,238.77,270623,,,D,V*02
$GPHDT,185.064,T*3B
$GNGGA,034307.400,2500.8086312,N,12132.4340639,E,2,64,0.46,17.665,M,15.25,M,9,3335*44
$GNRMC,034307.400,A,2500.8086312,N,12132.4340639,E,0.00,238.77,270623,,,D,V*0E
$GPHDT,185.178,T*37
$GNGGA,034307.600,2500.8086312,N,12132.4340639,E,2,64,0.46,17.665,M,15.25,M,9,3335*46
$GNRMC,034307.600,A,2500.8086312,N,12132.4340639,E,0.00,238.77,270623,,,D,V*0C
$GPHDT,185.137,T*3C
$GNGGA,034307.800,2500.8086252,N,12132.4340639,E,2,64,0.46,17.666,M,15.25,M,9,3335*4E
$GNRMC,034307.800,A,2500.8086252,N,12132.4340639,E,0.00,238.77,270623,,,D,V*07
$GPHDT,185.251,T*3F
$GNGSA,A,3,195,19,17,196,199,06,194,09,14,11,04,12,0.83,0.46,0.69,1*0A
$GNGSA,A,3,03,,,,,,,,,,,,0.83,0.46,0.69,1*04
$GNGSA,A,3,68,67,82,83,80,73,,,,,,,0.83,0.46,0.69,2*06
$GNGSA,A,3,24,10,12,11,19,04,25,33,,,,,0.83,0.46,0.69,3*0A
$GNGSA,A,3,40,07,10,33,14,08,43,13,42,28,11,34,0.83,0.46,0.69,4*03
$GNGSA,A,3,37,,,,,,,,,,,,0.83,0.46,0.69,4*06
$GPGSV,4,1,16,195,67,042,39,19,65,017,41,17,64,072,42,196,63,128,40,1*6D
$GPGSV,4,2,16,50,60,167,38,199,60,167,35,06,50,338,43,194,42,171,44,1*6D
$GPGSV,4,3,16,09,32,107,36,20,28,230,,14,27,177,42,11,27,284,27,1*6F
$GPGSV,4,4,16,04,21,074,26,12,12,318,25,03,10,038,27,05,02,221,,1*64
$GPGSV,3,1,10,195,67,042,45,196,63,128,44,199,60,167,46,06,50,338,46,8*59
$GPGSV,3,2,10,194,42,171,44,09,32,107,41,14,27,177,42,11,27,284,34,8*50
$GPGSV,3,3,10,04,21,074,37,03,10,038,19,8*6D
$GLGSV,2,1,08,68,48,149,43,67,47,064,44,82,37,035,42,83,33,339,27,1*73
$GLGSV,2,2,08,80,25,231,18,73,23,291,23,66,07,028,28,79,01,187,,1*7E
$GAGSV,2,1,08,24,52,245,32,10,49,332,42,12,48,013,38,11,34,298,18,7*78
$GAGSV,2,2,08,19,31,087,34,04,27,154,39,25,25,308,30,33,15,063,37,7*7F
$GAGSV,2,1,08,24,52,245,39,10,49,332,45,12,48,013,41,11,34,298,16,1*72
$GAGSV,2,2,08,19,31,087,39,04,27,154,40,25,25,308,26,33,15,063,40,1*7D
$GBGSV,4,1,15,40,83,124,38,07,81,249,39,10,72,292,37,33,62,151,43,1*70
$GBGSV,4,2,15,14,61,086,42,08,59,268,40,43,53,053,42,13,49,256,40,1*79
$GBGSV,4,3,15,42,41,055,44,28,37,323,48,11,33,079,41,41,21,197,,1*74
$GBGSV,4,4,15,23,19,222,23,34,18,096,33,37,17,274,,1*4A
$GBGSV,2,1,07,40,83,124,45,33,62,151,46,43,53,053,43,42,41,055,46,4*7C
$GBGSV,2,2,07,28,37,323,44,34,18,096,38,37,17,274,26,4*45
$GNGGA,034308.000,2500.8086252,N,12132.4340639,E,2,64,0.46,17.666,M,15.25,M,10,3335*71
$GNRMC,034308.000,A,2500.8086252,N,12132.4340639,E,0.00,238.77,270623,,,D,V*00
$GPHDT,185.094,T*34
$GNGGA,034308.200,2500.8086192,N,12132.4340639,E,2,63,0.46,17.666,M,15.25,M,10,3335*7B
$GNRMC,034308.200,A,2500.8086192,N,12132.4340639,E,0.00,238.77,270623,,,D,V*0D
$GPHDT,184.593,T*37
$GNGGA,034308.400,2500.8086192,N,12132.4340639,E,2,63,0.46,17.667,M,15.25,M,10,3335*7C
$GNRMC,034308.400,A,2500.8086192,N,12132.4340639,E,0.00,238.77,270623,,,D,V*0B
$GPHDT,185.077,T*39
$GNGGA,034308.600,2500.8086192,N,12132.4340639,E,2,63,0.46,17.665,M,15.25,M,10,3335*7C
$GNRMC,034308.600,A,2500.8086192,N,12132.4340639,E,0.00,238.77,270623,,,D,V*09
$GPHDT,185.251,T*3F
$GNGGA,034308.800,2500.8086132,N,12132.4340639,E,2,63,0.46,17.665,M,15.25,M,10,3335*78
$GNRMC,034308.800,A,2500.8086132,N,12132.4340639,E,0.00,238.77,270623,,,D,V*0D
$GPHDT,185.191,T*30
$GNGSA,A,3,195,19,17,196,199,06,194,09,14,11,04,12,0.83,0.46,0.69,1*0A
$GNGSA,A,3,03,,,,,,,,,,,,0.83,0.46,0.69,1*04
$GNGSA,A,3,68,67,82,83,80,73,,,,,,,0.83,0.46,0.69,2*06
$GNGSA,A,3,24,10,12,11,19,04,25,33,,,,,0.83,0.46,0.69,3*0A
$GNGSA,A,3,40,07,10,33,14,08,43,13,42,28,11,34,0.83,0.46,0.69,4*03
$GNGSA,A,3,37,,,,,,,,,,,,0.83,0.46,0.69,4*06
$GPGSV,4,1,16,195,67,042,39,19,65,017,41,17,64,072,42,196,63,128,40,1*6D
$GPGSV,4,2,16,50,60,167,38,199,60,167,35,06,50,338,43,194,42,171,44,1*6D
$GPGSV,4,3,16,09,32,107,36,20,28,230,,14,27,177,42,11,27,284,27,1*6F
$GPGSV,4,4,16,04,21,074,25,12,12,318,24,03,10,038,27,05,02,221,,1*66
$GPGSV,3,1,10,195,67,042,45,196,63,128,44,199,60,167,46,06,50,338,45,8*5A
$GPGSV,3,2,10,194,42,171,44,09,32,107,41,14,27,177,42,11,27,284,35,8*51
$GPGSV,3,3,10,04,21,074,37,03,10,038,18,8*6C
$GLGSV,2,1,08,68,48,149,43,67,47,064,44,82,37,035,41,83,33,339,27,1*70
$GLGSV,2,2,08,80,25,231,17,73,23,291,26,66,07,028,28,79,01,187,,1*74
$GAGSV,2,1,08,24,52,245,33,10,49,332,42,12,48,013,38,11,34,298,14,7*75
$GAGSV,2,2,08,19,31,087,33,04,27,154,39,25,25,308,30,33,15,063,37,7*78
$GAGSV,2,1,08,24,52,245,39,10,49,332,45,12,48,013,41,11,34,298,14,1*70
$GAGSV,2,2,08,19,31,087,39,04,27,154,40,25,25,308,27,33,15,063,40,1*7C
$GBGSV,4,1,15,40,83,124,38,07,81,249,39,10,72,292,37,33,62,151,43,1*70
$GBGSV,4,2,15,14,61,086,42,08,59,268,40,43,53,053,42,13,49,256,40,1*79
$GBGSV,4,3,15,42,41,055,44,28,37,323,48,11,33,079,41,41,21,197,,1*74
$GBGSV,4,4,15,23,19,222,24,34,18,096,33,37,17,274,,1*4D
$GBGSV,2,1,07,40,83,124,45,33,62,151,46,43,53,053,43,42,41,055,46,4*7C
$GBGSV,2,2,07,28,37,323,44,34,18,096,38,37,17,274,26,4*45
$GNGGA,034309.000,2500.8086132,N,12132.4340639,E,2,63,0.46,17.663,M,15.25,M,11,3335*76
$GNRMC,034309.000,A,2500.8086132,N,12132.4340639,E,0.00,238.77,270623,,,D,V*04
$GPHDT,185.244,T*3B
$GNGGA,034309.200,2500.8086132,N,12132.4340639,E,2,63,0.46,17.661,M,15.25,M,11,3335*76
$GNRMC,034309.200,A,2500.8086132,N,12132.4340639,E,0.00,238.77,270623,,,D,V*06
$GPHDT,184.797,T*31
$GNGGA,034309.400,2500.8086072,N,12132.4340639,E,2,63,0.46,17.664,M,15.25,M,11,3335*70
$GNRMC,034309.400,A,2500.8086072,N,12132.4340639,E,0.00,238.77,270623,,,D,V*05
$GPHDT,184.763,T*3A
$GNGGA,034309.600,2500.8086072,N,12132.4340639,E,2,64,0.43,17.665,M,15.25,M,11,3335*71
$GNRMC,034309.600,A,2500.8086072,N,12132.4340639,E,0.00,238.77,270623,,,D,V*07
$GPHDT,185.015,T*3D
$GNGGA,034309.800,2500.8086072,N,12132.4340639,E,2,64,0.43,17.667,M,15.25,M,11,3335*7D
$GNRMC,034309.800,A,2500.8086072,N,12132.4340639,E,0.00,238.77,270623,,,D,V*09
$GPHDT,184.898,T*31
$GNGSA,A,3,195,19,17,196,199,06,194,09,14,11,04,12,0.80,0.43,0.67,1*02
$GNGSA,A,3,03,,,,,,,,,,,,0.80,0.43,0.67,1*0C
$GNGSA,A,3,68,67,82,83,80,73,,,,,,,0.80,0.43,0.67,2*0E
$GNGSA,A,3,24,10,12,11,19,04,25,33,,,,,0.80,0.43,0.67,3*02
$GNGSA,A,3,40,07,10,33,14,08,43,13,42,28,11,23,0.80,0.43,0.67,4*0D
$GNGSA,A,3,34,37,,,,,,,,,,,0.80,0.43,0.67,4*09
$GPGSV,4,1,16,195,67,042,39,19,65,017,41,17,64,072,42,196,63,128,40,1*6D
$GPGSV,4,2,16,50,60,167,38,199,60,167,35,06,50,338,44,194,41,171,44,1*69
$GPGSV,4,3,16,09,32,107,36,20,28,230,,14,27,177,42,11,27,284,27,1*6F
$GPGSV,4,4,16,04,21,074,25,12,12,318,24,03,10,038,27,05,02,221,,1*66
$GPGSV,3,1,10,195,67,042,45,196,63,128,44,199,60,167,46,06,50,338,45,8*5A
$GPGSV,3,2,10,194,41,171,44,09,32,107,41,14,27,177,42,11,27,284,35,8*52
$GPGSV,3,3,10,04,21,074,37,03,10,038,18,8*6C
$GLGSV,2,1,08,68,48,149,43,67,47,064,43,82,37,035,41,83,33,339,28,1*78
$GLGSV,2,2,08,80,25,231,13,73,23,291,26,66,07,028,29,79,01,187,,1*71
$GAGSV,2,1,08,24,52,245,33,10,49,332,43,12,48,013,38,11,34,298,13,7*73
$GAGSV,2,2,08,19,31,087,33,04,27,154,39,25,25,308,29,33,15,063,37,7*70
$GAGSV,2,1,08,24,52,245,39,10,49,332,45,12,48,013,41,11,34,298,14,1*70
$GAGSV,2,2,08,19,31,087,39,04,27,154,40,25,25,308,28,33,15,063,40,1*73
$GBGSV,4,1,15,40,83,124,38,07,81,249,39,10,72,292,37,33,62,151,43,1*70
$GBGSV,4,2,15,14,61,086,42,08,59,268,40,43,53,053,42,13,49,256,40,1*79
$GBGSV,4,3,15,42,41,055,44,28,37,323,48,11,33,079,41,41,21,197,,1*74
$GBGSV,4,4,15,23,19,222,22,34,18,096,33,37,17,274,,1*4B
$GBGSV,2,1,07,40,83,124,45,33,62,151,46,43,53,053,43,42,41,055,46,4*7C
$GBGSV,2,2,07,28,37,323,44,34,18,096,38,37,17,274,26,4*45
$GNGGA,034310.000,2500.8086012,N,12132.4340639,E,2,64,0.43,17.668,M,15.25,M,12,3335*77
$GNRMC,034310.000,A,2500.8086012,N,12132.4340639,E,0.00,238.77,270623,,,D,V*0F
$GPHDT,184.770,T*38
$GNGGA,034310.200,2500.8086012,N,12132.4340639,E,2,64,0.43,17.669,M,15.25,M,12,3335*74
$GNRMC,034310.200,A,2500.8086012,N,12132.4340639,E,0.00,238.77,270623,,,D,V*0D
$GPHDT,184.846,T*32
$GNGGA,034310.400,2500.8086012,N,12132.4340639,E,2,64,0.43,17.669,M,15.25,M,12,3335*72
$GNRMC,034310.400,A,2500.8086012,N,12132.4340639,E,0.00,238.77,270623,,,D,V*0B
$GPHDT,184.333,T*3B
$GNGGA,034310.600,2500.8086012,N,12132.4340639,E,2,64,0.43,17.668,M,15.25,M,12,3335*71
$GNRMC,034310.600,A,2500.8086012,N,12132.4340639,E,0.00,238.77,270623,,,D,V*09
$GPHDT,184.865,T*33
$GNGGA,034310.800,2500.8086012,N,12132.4340639,E,2,64,0.43,17.671,M,15.25,M,12,3335*77
$GNRMC,034310.800,A,2500.8086012,N,12132.4340639,E,0.00,238.77,270623,,,D,V*07
$GPHDT,184.666,T*3E
$GNGSA,A,3,195,19,17,196,199,06,194,09,14,11,04,12,0.80,0.43,0.67,1*02
$GNGSA,A,3,03,,,,,,,,,,,,0.80,0.43,0.67,1*0C
$GNGSA,A,3,68,67,82,83,80,73,,,,,,,0.80,0.43,0.67,2*0E
$GNGSA,A,3,24,10,12,11,19,04,25,33,,,,,0.80,0.43,0.67,3*02
$GNGSA,A,3,40,07,10,33,14,08,43,13,42,28,11,23,0.80,0.43,0.67,4*0D
$GNGSA,A,3,34,37,,,,,,,,,,,0.80,0.43,0.67,4*09
$GPGSV,4,1,16,195,67,042,39,19,65,017,41,17,64,072,42,196,63,128,40,1*6D
$GPGSV,4,2,16,50,60,167,38,199,60,167,35,06,50,338,44,194,41,171,44,1*69
$GPGSV,4,3,16,09,32,107,36,20,28,230,,14,27,177,42,11,27,284,28,1*60
$GPGSV,4,4,16,04,21,074,26,12,12,318,26,03,10,038,27,05,02,221,,1*67
$GPGSV,3,1,10,195,67,042,45,196,63,128,44,199,60,167,46,06,50,338,45,8*5A
$GPGSV,3,2,10,194,41,171,44,09,32,107,41,14,27,177,42,11,27,284,34,8*53
$GPGSV,3,3,10,04,21,074,37,03,10,038,19,8*6D
$GLGSV,3,1,09,68,48,149,43,67,47,064,43,82,37,035,41,83,33,339,29,1*79
$GLGSV,3,2,09,80,25,231,13,73,23,291,27,69,09,185,,66,07,028,29,1*7B
$GLGSV,3,3,09,79,01,187,,1*40
$GAGSV,2,1,08,24,52,245,33,10,49,332,43,12,48,013,38,11,34,298,15,7*75
$GAGSV,2,2,08,19,31,087,33,04,27,154,39,25,25,308,29,33,15,063,37,7*70
$GAGSV,2,1,08,24,52,245,39,10,49,332,45,12,48,013,41,11,34,298,13,1*77
$GAGSV,2,2,08,19,31,087,39,04,27,154,40,25,25,308,28,33,15,063,40,1*73
$GBGSV,4,1,16,40,83,124,38,07,81,249,39,10,72,292,37,33,62,151,43,1*73
$GBGSV,4,2,16,14,61,086,42,08,59,268,40,43,53,053,42,13,49,256,40,1*7A
$GBGSV,4,3,16,42,41,055,44,28,37,323,48,11,33,079,41,41,21,197,,1*77
$GBGSV,4,4,16,23,19,222,21,34,18,096,32,37,17,274,,39,02,178,,1*7C
$GBGSV,2,1,07,40,83,124,45,33,62,151,46,43,53,053,43,42,41,055,46,4*7C
$GBGSV,2,2,07,28,37,323,44,34,18,096,38,37,17,274,27,4*44
$GNGGA,034311.000,2500.8085952,N,12132.4340699,E,2,64,0.43,17.673,M,15.25,M,13,3335*79
$GNRMC,034311.000,A,2500.8085952,N,12132.4340699,E,0.00,238.77,270623,,,D,V*0A
$GPHDT,184.927,T*34
$GNGGA,034311.200,2500.8085952,N,12132.4340699,E,2,64,0.43,17.676,M,15.25,M,13,3335*7E
$GNRMC,034311.200,A,2500.8085952,N,12132.4340699,E,0.00,238.77,270623,,,D,V*08
$GPHDT,185.012,T*3A
$GNGGA,034311.400,2500.8085952,N,12132.4340699,E,2,62,0.47,17.682,M,15.25,M,13,3335*71
$GNRMC,034311.400,A,2500.8085952,N,12132.4340699,E,0.00,238.77,270623,,,D,V*0E
$GPHDT,184.980,T*39
$GNGGA,034311.600,2500.8085952,N,12132.4340699,E,2,62,0.47,17.689,M,15.25,M,13,3335*78
$GNRMC,034311.600,A,2500.8085952,N,12132.4340699,E,0.00,238.77,270623,,,D,V*0C
$GPHDT,185.027,T*3C
$GNGGA,034311.800,2500.8085952,N,12132.4340759,E,2,62,0.45,17.696,M,15.25,M,13,3335*77
$GNRMC,034311.800,A,2500.8085952,N,12132.4340759,E,0.00,238.77,270623,,,D,V*0F
$GPHDT,184.833,T*30
$GNGSA,A,3,195,19,17,196,199,06,194,09,14,11,04,12,0.81,0.45,0.68,1*0A
$GNGSA,A,3,03,,,,,,,,,,,,0.81,0.45,0.68,1*04
$GNGSA,A,3,68,67,82,83,73,,,,,,,,0.81,0.45,0.68,2*0E
$GNGSA,A,3,24,10,12,11,19,04,25,33,,,,,0.81,0.45,0.68,3*0A
$GNGSA,A,3,40,07,10,33,14,08,43,13,42,28,11,23,0.81,0.45,0.68,4*05
$GNGSA,A,3,34,37,,,,,,,,,,,0.81,0.45,0.68,4*01
$GPGSV,4,1,16,195,67,042,39,19,65,017,41,17,64,072,42,196,63,128,40,1*6D
$GPGSV,4,2,16,50,60,167,38,199,60,167,36,06,50,338,44,194,41,171,44,1*6A
$GPGSV,4,3,16,09,32,107,36,20,28,230,,14,27,177,42,11,27,284,29,1*61
$GPGSV,4,4,16,04,21,074,27,12,12,318,26,03,10,038,28,05,02,221,,1*69
$GPGSV,3,1,10,195,67,042,45,196,63,128,44,199,60,167,47,06,50,338,45,8*5B
$GPGSV,3,2,10,194,41,171,44,09,32,107,41,14,27,177,42,11,27,284,34,8*53
$GPGSV,3,3,10,04,21,074,37,03,10,038,17,8*63
$GLGSV,2,1,08,68,48,149,43,67,47,064,43,82,37,035,41,83,33,339,29,1*79
$GLGSV,2,2,08,80,25,231,15,73,23,291,30,66,07,028,29,79,01,187,,1*70
$GAGSV,2,1,08,24,52,245,34,10,49,332,43,12,48,013,38,11,34,298,17,7*70
$GAGSV,2,2,08,19,31,087,33,04,27,154,38,25,25,308,29,33,15,063,37,7*71
$GAGSV,2,1,07,24,52,245,39,10,49,332,45,12,48,013,41,19,31,087,39,1*71
$GAGSV,2,2,07,04,27,154,40,25,25,308,27,33,15,063,40,1*4C
$GBGSV,4,1,16,40,83,124,38,07,81,249,39,10,72,292,37,33,62,151,43,1*73
$GBGSV,4,2,16,14,61,086,42,08,59,268,40,43,53,053,42,13,49,256,40,1*7A
$GBGSV,4,3,16,42,41,055,44,28,37,323,48,11,33,079,41,41,21,197,,1*77
$GBGSV,4,4,16,23,19,222,21,34,18,096,32,37,17,274,,06,01,189,,1*7D
$GBGSV,2,1,07,40,83,124,45,33,62,151,46,43,53,053,43,42,41,055,46,4*7C
$GBGSV,2,2,07,28,37,323,44,34,18,096,37,37,17,274,26,4*4A
$GNGGA,034312.000,2500.8085892,N,12132.4340759,E,2,62,0.45,17.701,M,15.25,M,14,3335*79
$GNRMC,034312.000,A,2500.8085892,N,12132.4340759,E,0.00,238.77,270623,,,D,V*09
$GPHDT,184.891,T*38
$GNGGA,034312.200,2500.8085892,N,12132.4340699,E,2,62,0.45,17.709,M,15.25,M,14,3335*7E
$GNRMC,034312.200,A,2500.8085892,N,12132.4340699,E,0.00,238.77,270623,,,D,V*06
$GPHDT,184.810,T*31
$GNGGA,034312.400,2500.8085892,N,12132.4340699,E,2,62,0.45,17.720,M,15.25,M,14,3335*73
$GNRMC,034312.400,A,2500.8085892,N,12132.4340699,E,0.00,238.77,270623,,,D,V*00
$GPHDT,184.750,T*3A
$GNGGA,034312.600,2500.8085892,N,12132.4340699,E,2,62,0.45,17.730,M,15.25,M,14,3335*70
$GNRMC,034312.600,A,2500.8085892,N,12132.4340699,E,0.00,238.77,270623,,,D,V*02
$GPHDT,184.480,T*34
$GNGGA,034312.800,2500.8085952,N,12132.4340759,E,2,62,0.45,17.742,M,15.25,M,14,3335*7B
$GNRMC,034312.800,A,2500.8085952,N,12132.4340759,E,0.00,238.77,270623,,,D,V*0C
$GPHDT,184.278,T*35
$GNGSA,A,3,195,19,17,196,199,06,194,09,14,11,04,12,0.81,0.45,0.68,1*0A
$GNGSA,A,3,03,,,,,,,,,,,,0.81,0.45,0.68,1*04
$GNGSA,A,3,68,67,82,83,73,,,,,,,,0.81,0.45,0.68,2*0E
$GNGSA,A,3,24,10,12,11,19,04,25,33,,,,,0.81,0.45,0.68,3*0A
$GNGSA,A,3,40,07,10,33,14,08,43,13,42,28,11,23,0.81,0.45,0.68,4*05
$GNGSA,A,3,34,37,,,,,,,,,,,0.81,0.45,0.68,4*01
$GPGSV,4,1,16,195,67,042,38,19,65,017,41,17,64,072,42,196,63,128,40,1*6C
$GPGSV,4,2,16,50,60,167,37,199,60,167,35,06,50,338,45,194,41,171,44,1*67
$GPGSV,4,3,16,09,32,107,36,20,28,230,,14,27,177,42,11,27,284,29,1*61
$GPGSV,4,4,16,04,21,074,26,12,12,318,26,03,10,038,28,05,02,221,,1*68
$GPGSV,3,1,10,195,67,042,45,196,63,128,44,199,60,167,47,06,50,338,45,8*5B
$GPGSV,3,2,10,194,41,171,44,09,32,107,41,14,27,177,42,11,27,284,35,8*52
$GPGSV,3,3,10,04,21,074,36,03,10,038,17,8*62
$GLGSV,2,1,08,68,48,149,43,67,47,064,43,82,37,035,42,83,33,339,31,1*73
$GLGSV,2,2,08,80,25,231,14,73,23,291,28,66,07,028,29,79,01,187,,1*78
$GAGSV,2,1,08,24,52,245,33,10,49,333,43,12,48,013,38,11,34,299,15,7*75
$GAGSV,2,2,08,19,31,087,33,04,27,154,37,25,25,308,29,33,15,063,37,7*7E
$GAGSV,2,1,08,24,52,245,39,10,49,333,45,12,48,013,40,11,34,299,15,1*70
$GAGSV,2,2,08,19,31,087,39,04,27,154,41,25,25,308,28,33,15,063,39,1*7C
$GBGSV,4,1,15,40,83,124,38,07,81,249,40,10,72,292,37,33,62,151,43,1*7E
$GBGSV,4,2,15,14,61,086,42,08,59,268,40,43,53,053,42,13,49,256,40,1*79
$GBGSV,4,3,15,42,41,055,44,28,37,323,47,11,33,079,41,41,21,197,,1*7B
$GBGSV,4,4,15,23,19,222,22,34,18,096,30,37,17,274,,1*48
$GBGSV,2,1,07,40,83,124,44,33,62,151,46,43,53,053,43,42,41,055,46,4*7D
$GBGSV,2,2,07,28,37,323,43,34,18,096,36,37,17,274,26,4*4C
$GNGGA,034313.000,2500.8085952,N,12132.4340759,E,2,62,0.45,17.757,M,15.25,M,15,3335*77
$GNRMC,034313.000,A,2500.8085952,N,12132.4340759,E,0.00,238.77,270623,,,D,V*05
$GPHDT,184.502,T*3F
$GNGGA,034313.200,2500.8085952,N,12132.4340759,E,2,62,0.45,17.762,M,15.25,M,15,3335*73
$GNRMC,034313.200,A,2500.8085952,N,12132.4340759,E,0.00,238.77,270623,,,D,V*07
$GPHDT,184.931,T*33
$GNGGA,034313.400,2500.8086012,N,12132.4340819,E,2,62,0.45,17.769,M,15.25,M,15,3335*7B
$GNRMC,034313.400,A,2500.8086012,N,12132.4340819,E,0.00,238.77,270623,,,D,V*04
