$FW : RTK35X,V1.1X0314AS,Lib20210517,1*54
$Tool : LOCOSYS , GNSS Firebird , v1.0.0.19*39
$---------------------------------------------------*2D
$GNGGA,034359.800,2500.8089372,N,12132.4351919,E,2,63,0.46,18.964,M,15.25,M,4,3335*4C
$GNRMC,034359.800,A,2500.8089372,N,12132.4351919,E,0.00,238.77,270623,,,D,V*0D
$GPHDT,93.747,T*0B
$GNGSA,A,3,195,19,17,196,199,06,194,09,20,14,11,04,0.86,0.46,0.72,1*04
$GNGSA,A,3,12,03,,,,,,,,,,,0.86,0.46,0.72,1*08
$GNGSA,A,3,68,67,82,83,73,,,,,,,,0.86,0.46,0.72,2*01
$GNGSA,A,3,24,10,12,11,19,04,25,33,,,,,0.86,0.46,0.72,3*05
$GNGSA,A,3,40,07,10,33,14,08,43,13,42,28,11,34,0.86,0.46,0.72,4*0C
$GPGSV,4,1,16,195,67,043,39,19,65,017,42,17,64,073,41,196,63,128,42,1*6F
$GPGSV,4,2,16,50,60,167,38,199,60,167,36,06,50,338,42,194,41,171,37,1*68
$GPGSV,4,3,16,09,32,107,34,20,28,230,19,14,27,177,43,11,27,284,34,1*66
$GPGSV,4,4,16,04,21,074,26,12,12,318,31,03,10,038,27,05,02,221,,1*61
$GPGSV,3,1,10,195,67,043,46,196,63,128,47,199,60,167,44,06,50,338,45,8*59
$GPGSV,3,2,10,194,41,171,44,09,32,107,41,14,27,177,45,11,27,284,16,8*54
$GPGSV,3,3,10,04,21,074,38,03,10,038,20,8*68
$GLGSV,2,1,08,68,48,148,38,67,47,063,43,82,37,036,43,83,33,340,26,1*73
$GLGSV,2,2,08,80,25,231,17,73,23,291,26,66,07,028,21,79,01,187,,1*7D
$GAGSV,2,1,08,24,52,244,37,10,49,333,41,12,48,014,37,11,35,299,19,7*77
$GAGSV,2,2,08,19,31,087,38,04,27,154,38,25,25,308,27,33,15,063,36,7*75
$GAGSV,2,1,08,24,52,244,36,10,49,333,45,12,48,014,42,11,35,299,25,1*79
$GAGSV,2,2,08,19,31,087,38,04,27,154,33,25,25,308,32,33,15,063,37,1*7D
$GBGSV,4,1,15,40,83,125,40,07,81,248,39,10,72,291,39,33,62,150,44,1*74
$GBGSV,4,2,15,14,61,085,43,08,58,269,38,43,53,053,44,13,49,257,41,1*72
$GBGSV,4,3,15,42,41,054,44,28,37,323,47,11,33,079,40,41,21,197,,1*7B
$GBGSV,4,4,15,23,19,222,22,34,18,096,39,37,17,274,,1*41
$GBGSV,2,1,06,40,83,125,45,33,62,150,46,43,53,053,44,42,41,054,45,4*78
$GBGSV,2,2,06,28,37,323,43,34,18,096,31,4*7D
$GNGGA,034400.000,2500.8089312,N,12132.4351979,E,2,63,0.46,18.972,M,15.25,M,5,3335*49
$GNRMC,034400.000,A,2500.8089312,N,12132.4351979,E,0.00,238.77,270623,,,D,V*0E
$GPHDT,93.642,T*0F
$GNGGA,034400.200,2500.8089192,N,12132.4352039,E,2,63,0.46,18.982,M,15.25,M,5,3335*40
$GNRMC,034400.200,A,2500.8089192,N,12132.4352039,E,0.00,238.77,270623,,,D,V*08
$GPHDT,93.688,T*09
$GNGGA,034400.400,2500.8089192,N,12132.4352099,E,2,63,0.46,18.988,M,15.25,M,5,3335*46
$GNRMC,034400.400,A,2500.8089192,N,12132.4352099,E,0.00,238.77,270623,,,D,V*04
$GPHDT,93.677,T*09
$GNGGA,034400.600,2500.8089132,N,12132.4352159,E,2,63,0.46,18.989,M,15.25,M,5,3335*42
$GNRMC,034400.600,A,2500.8089132,N,12132.4352159,E,0.00,238.77,270623,,,D,V*01
$GPHDT,93.864,T*05
$GNGGA,034400.800,2500.8089072,N,12132.4352219,E,2,63,0.46,18.995,M,15.25,M,5,3335*43
$GNRMC,034400.800,A,2500.8089072,N,12132.4352219,E,0.00,238.77,270623,,,D,V*0D
$GPHDT,93.774,T*0B
$GNGSA,A,3,195,19,17,196,199,06,194,09,20,14,11,04,0.86,0.46,0.72,1*04
$GNGSA,A,3,12,03,,,,,,,,,,,0.86,0.46,0.72,1*08
$GNGSA,A,3,68,67,82,83,73,,,,,,,,0.86,0.46,0.72,2*01
$GNGSA,A,3,24,10,12,11,19,04,25,33,,,,,0.86,0.46,0.72,3*05
$GNGSA,A,3,40,07,10,33,14,08,43,13,42,28,11,34,0.86,0.46,0.72,4*0C
$GPGSV,4,1,16,195,67,043,39,19,65,017,42,17,64,073,41,196,63,128,41,1*6C
$GPGSV,4,2,16,50,60,167,38,199,60,167,36,06,50,338,42,194,41,171,38,1*67
$GPGSV,4,3,16,09,32,107,34,20,28,230,18,14,27,177,42,11,27,284,34,1*66
$GPGSV,4,4,16,04,21,074,29,12,12,318,31,03,10,038,27,05,02,221,,1*6E
$GPGSV,3,1,10,195,67,043,45,196,63,128,47,199,60,167,44,06,50,338,45,8*5A
$GPGSV,3,2,10,194,41,171,44,09,32,107,40,14,27,177,45,11,27,284,15,8*56
$GPGSV,3,3,10,04,21,074,36,03,10,038,20,8*66
$GLGSV,2,1,08,68,48,148,39,67,47,063,43,82,37,036,43,83,33,340,26,1*72
$GLGSV,2,2,08,80,25,231,17,73,23,291,27,66,07,028,20,79,01,187,,1*7D
$GAGSV,2,1,08,24,52,244,37,10,49,333,41,12,48,014,38,11,35,299,18,7*79
$GAGSV,2,2,08,19,31,087,38,04,27,154,37,25,25,308,28,33,15,063,36,7*75
$GAGSV,2,1,08,24,52,244,36,10,49,333,45,12,48,014,42,11,35,299,24,1*78
$GAGSV,2,2,08,19,31,087,37,04,27,154,33,25,25,308,31,33,15,063,37,1*71
$GBGSV,4,1,15,40,83,125,40,07,81,248,39,10,72,291,39,33,62,150,44,1*74
$GBGSV,4,2,15,14,61,085,43,08,58,269,38,43,53,053,44,13,49,257,41,1*72
$GBGSV,4,3,15,42,41,054,44,28,37,324,47,11,33,079,40,41,21,197,,1*7C
$GBGSV,4,4,15,23,19,222,22,34,18,096,39,37,17,274,,1*41
$GBGSV,2,1,06,40,83,125,45,33,62,150,46,43,53,053,44,42,41,054,44,4*79
$GBGSV,2,2,06,28,37,324,43,34,18,096,31,4*7A
$GNGGA,034401.000,2500.8089072,N,12132.4352279,E,2,63,0.46,18.997,M,15.25,M,6,3335*4D
$GNRMC,034401.000,A,2500.8089072,N,12132.4352279,E,0.00,238.77,270623,,,D,V*02
$GPHDT,93.891,T*0F
$GNGGA,034401.200,2500.8089012,N,12132.4352399,E,2,63,0.46,19.002,M,15.25,M,6,3335*42
$GNRMC,034401.200,A,2500.8089012,N,12132.4352399,E,0.00,238.77,270623,,,D,V*09
$GPHDT,93.781,T*01
$GNGGA,034401.400,2500.8088952,N,12132.4352459,E,2,63,0.46,19.012,M,15.25,M,6,3335*42
$GNRMC,034401.400,A,2500.8088952,N,12132.4352459,E,0.00,238.77,270623,,,D,V*08
$GPHDT,94.196,T*06
$GNGGA,034401.600,2500.8088952,N,12132.4352639,E,2,63,0.46,19.021,M,15.25,M,6,3335*44
$GNRMC,034401.600,A,2500.8088952,N,12132.4352639,E,0.00,238.77,270623,,,D,V*0E
$GPHDT,93.932,T*07
$GNGGA,034401.800,2500.8088892,N,12132.4352699,E,2,64,0.45,19.034,M,15.25,M,6,3335*4D
$GNRMC,034401.800,A,2500.8088892,N,12132.4352699,E,0.00,238.77,270623,,,D,V*07
$GPHDT,93.911,T*06
$GNGSA,A,3,195,19,17,196,199,06,194,09,20,14,11,04,0.84,0.45,0.71,1*06
$GNGSA,A,3,12,03,,,,,,,,,,,0.84,0.45,0.71,1*0A
$GNGSA,A,3,68,67,82,83,80,73,,,,,,,0.84,0.45,0.71,2*0B
$GNGSA,A,3,24,10,12,11,19,04,25,33,,,,,0.84,0.45,0.71,3*07
$GNGSA,A,3,40,07,10,33,14,08,43,13,42,28,11,34,0.84,0.45,0.71,4*0E
$GPGSV,4,1,16,195,67,043,39,19,65,017,42,17,64,073,41,196,63,128,41,1*6C
$GPGSV,4,2,16,50,60,167,38,199,60,167,36,06,50,338,42,194,41,171,38,1*67
$GPGSV,4,3,16,09,32,107,34,20,28,230,19,14,27,177,40,11,27,284,34,1*65
$GPGSV,4,4,16,04,21,074,30,12,12,318,32,03,10,038,28,05,02,221,,1*6A
$GPGSV,3,1,10,195,67,043,45,196,63,128,47,199,60,167,45,06,50,338,45,8*5B
$GPGSV,3,2,10,194,41,171,45,09,32,107,40,14,27,177,45,11,27,284,15,8*57
$GPGSV,3,3,10,04,21,074,36,03,10,038,20,8*66
$GLGSV,2,1,08,68,48,148,39,67,47,063,43,82,37,036,42,83,33,340,26,1*73
$GLGSV,2,2,08,80,25,231,19,73,23,291,26,66,07,028,19,79,01,187,,1*78
$GAGSV,2,1,08,24,52,244,37,10,49,333,40,12,48,014,38,11,35,299,18,7*78
$GAGSV,2,2,08,19,31,087,38,04,27,154,37,25,25,308,28,33,15,063,36,7*75
$GAGSV,2,1,08,24,52,244,36,10,49,333,45,12,48,014,42,11,35,299,24,1*78
$GAGSV,2,2,08,19,31,087,37,04,27,154,34,25,25,308,32,33,15,063,37,1*75
$GBGSV,4,1,15,40,83,125,40,07,81,248,39,10,72,291,38,33,63,150,44,1*74
$GBGSV,4,2,15,14,61,085,42,08,58,269,38,43,53,053,44,13,49,257,41,1*73
$GBGSV,4,3,15,42,41,054,44,28,37,324,47,11,33,079,41,41,21,197,,1*7D
$GBGSV,4,4,15,23,19,222,22,34,18,096,39,37,17,274,,1*41
$GBGSV,2,1,06,40,83,125,45,33,63,150,46,43,53,053,44,42,41,054,44,4*78
$GBGSV,2,2,06,28,37,324,43,34,18,096,33,4*78
$GNGGA,034402.000,2500.8088832,N,12132.4352819,E,2,64,0.45,19.046,M,15.25,M,3,3335*4A
$GNRMC,034402.000,A,2500.8088832,N,12132.4352819,E,0.00,238.77,270623,,,D,V*00
$GPHDT,94.019,T*00
$GNGGA,034402.200,2500.8088832,N,12132.4352879,E,2,64,0.45,19.060,M,15.25,M,1,3335*48
$GNRMC,034402.200,A,2500.8088832,N,12132.4352879,E,0.00,238.77,270623,,,D,V*04
$GPHDT,93.901,T*07
$GNGGA,034402.400,2500.8088772,N,12132.4352999,E,2,64,0.45,19.071,M,15.25,M,1,3335*4A
$GNRMC,034402.400,A,2500.8088772,N,12132.4352999,E,0.00,238.77,270623,,,D,V*06
$GPHDT,94.086,T*06
$GNGGA,034402.600,2500.8088772,N,12132.4353059,E,2,64,0.45,19.084,M,15.25,M,0,3335*47
$GNRMC,034402.600,A,2500.8088772,N,12132.4353059,E,0.00,238.77,270623,,,D,V*00
$GPHDT,93.863,T*02
$GNGGA,034402.800,2500.8088712,N,12132.4353119,E,2,64,0.45,19.095,M,15.25,M,0,3335*4A
$GNRMC,034402.800,A,2500.8088712,N,12132.4353119,E,0.00,238.77,270623,,,D,V*0D
$GPHDT,93.733,T*08
$GNGSA,A,3,195,19,17,196,199,06,194,09,20,11,14,04,0.84,0.45,0.71,1*06
$GNGSA,A,3,12,03,,,,,,,,,,,0.84,0.45,0.71,1*0A
$GNGSA,A,3,68,67,82,83,80,73,,,,,,,0.84,0.45,0.71,2*0B
$GNGSA,A,3,24,10,12,11,19,04,25,33,,,,,0.84,0.45,0.71,3*07
$GNGSA,A,3,40,07,10,33,14,08,43,13,42,28,11,34,0.84,0.45,0.71,4*0E
$GPGSV,4,1,15,195,67,043,39,19,65,017,42,17,64,073,41,196,63,128,41,1*6F
$GPGSV,4,2,15,50,60,167,38,199,60,167,36,06,50,338,42,194,41,171,39,1*65
$GPGSV,4,3,15,09,32,107,34,20,28,230,19,11,27,284,34,14,27,177,40,1*66
$GPGSV,4,4,15,04,21,074,30,12,12,318,32,03,10,038,28,1*5F
$GPGSV,3,1,10,195,67,043,45,196,63,128,47,199,60,167,45,06,50,338,46,8*58
$GPGSV,3,2,10,194,41,171,45,09,32,107,41,14,27,177,45,11,27,284,16,8*55
$GPGSV,3,3,10,04,21,074,37,03,10,038,21,8*66
$GLGSV,3,1,09,68,48,148,39,67,47,063,43,82,37,036,41,83,33,340,26,1*70
$GLGSV,3,2,09,80,25,231,19,73,23,291,22,66,07,028,19,74,02,329,,1*74
$GLGSV,3,3,09,79,01,187,,1*40
$GAGSV,2,1,08,24,52,244,37,10,49,333,40,12,48,014,38,11,35,299,18,7*78
$GAGSV,2,2,08,19,31,087,38,04,27,154,37,25,25,308,28,33,15,063,36,7*75
$GAGSV,2,1,08,24,52,244,37,10,49,333,45,12,48,014,42,11,35,299,22,1*7F
$GAGSV,2,2,08,19,31,087,38,04,27,154,35,25,25,308,33,33,15,063,37,1*7A
$GBGSV,5,1,18,40,83,127,40,07,81,248,39,10,72,291,38,33,63,150,44,1*7A
$GBGSV,5,2,18,14,61,085,42,08,58,269,38,43,53,053,44,13,49,257,41,1*7F
$GBGSV,5,3,18,42,40,054,44,28,37,324,47,11,33,079,41,41,21,197,,1*70
$GBGSV,5,4,18,23,19,222,,34,18,096,39,37,17,274,,39,02,178,,1*7B
$GBGSV,5,5,18,25,02,178,,06,01,189,,1*73
$GBGSV,2,1,06,40,83,127,45,33,63,150,46,43,53,053,44,42,40,054,44,4*7B
$GBGSV,2,2,06,28,37,324,43,34,18,096,32,4*79
$GNGGA,034403.000,2500.8088712,N,12132.4353239,E,2,64,0.45,19.108,M,15.25,M,1,3335*46
$GNRMC,034403.000,A,2500.8088712,N,12132.4353239,E,0.00,238.77,270623,,,D,V*05
$GPHDT,94.278,T*05
$GNGGA,034403.200,2500.8088652,N,12132.4353359,E,2,64,0.45,19.123,M,15.25,M,1,3335*4F
$GNRMC,034403.200,A,2500.8088652,N,12132.4353359,E,0.00,238.77,270623,,,D,V*05
$GPHDT,93.806,T*01
$GNGGA,034403.400,2500.8088652,N,12132.4353419,E,2,64,0.45,19.135,M,15.25,M,1,3335*4D
$GNRMC,034403.400,A,2500.8088652,N,12132.4353419,E,0.00,238.77,270623,,,D,V*00
$GPHDT,93.862,T*03
$GNGGA,034403.600,2500.8088652,N,12132.4353539,E,2,64,0.45,19.145,M,15.25,M,1,3335*4B
$GNRMC,034403.600,A,2500.8088652,N,12132.4353539,E,0.00,238.77,270623,,,D,V*01
$GPHDT,93.785,T*05
$GNGGA,034403.800,2500.8088712,N,12132.4353659,E,2,64,0.45,19.157,M,15.25,M,1,3335*46
$GNRMC,034403.800,A,2500.8088712,N,12132.4353659,E,0.00,238.77,270623,,,D,V*0F
$GPHDT,93.970,T*01
$GNGSA,A,3,195,19,17,196,199,06,194,09,20,11,14,04,0.84,0.45,0.71,1*06
$GNGSA,A,3,12,03,,,,,,,,,,,0.84,0.45,0.71,1*0A
$GNGSA,A,3,68,67,82,83,80,73,,,,,,,0.84,0.45,0.71,2*0B
$GNGSA,A,3,24,10,12,11,19,04,25,33,,,,,0.84,0.45,0.71,3*07
$GNGSA,A,3,40,07,10,33,14,08,43,13,42,28,11,34,0.84,0.45,0.71,4*0E
$GPGSV,4,1,15,195,67,043,39,19,65,017,42,17,64,073,41,196,63,128,41,1*6F
$GPGSV,4,2,15,50,60,167,39,199,60,167,36,06,50,338,41,194,41,171,40,1*69
$GPGSV,4,3,15,09,32,107,33,20,28,230,21,11,27,284,33,14,27,177,41,1*6C
$GPGSV,4,4,15,04,21,074,31,12,12,318,31,03,10,038,28,1*5D
$GPGSV,3,1,10,195,67,043,45,196,63,128,47,199,60,167,45,06,50,338,46,8*58
$GPGSV,3,2,10,194,41,171,45,09,32,107,41,14,27,177,45,11,27,284,16,8*55
$GPGSV,3,3,10,04,21,074,37,03,10,038,19,8*6D
$GLGSV,2,1,08,68,48,148,39,67,47,063,43,82,37,036,41,83,33,340,26,1*70
$GLGSV,2,2,08,80,25,231,19,73,23,291,22,66,07,028,22,79,01,187,,1*74
$GAGSV,2,1,08,24,52,244,37,10,49,333,40,12,48,014,38,11,35,299,19,7*79
$GAGSV,2,2,08,19,31,087,38,04,27,154,37,25,25,308,28,33,15,063,36,7*75
$GAGSV,2,1,08,24,52,244,37,10,49,333,45,12,48,014,42,11,35,299,20,1*7D
$GAGSV,2,2,08,19,31,087,38,04,27,154,36,25,25,308,33,33,15,063,37,1*79
$GBGSV,4,1,16,40,83,127,40,07,81,248,39,10,72,291,38,33,63,150,44,1*75
$GBGSV,4,2,16,14,61,085,42,08,58,269,38,43,53,054,44,13,49,257,41,1*77
$GBGSV,4,3,16,42,40,054,44,28,37,324,47,11,33,079,40,41,21,197,,1*7E
$GBGSV,4,4,16,23,19,222,,34,18,096,39,37,17,274,,06,01,189,,1*75
$GBGSV,2,1,06,40,83,127,45,33,63,150,46,43,53,054,44,42,40,054,44,4*7C
$GBGSV,2,2,06,28,37,324,43,34,18,096,30,4*7B
$GNGGA,034404.000,2500.8088712,N,12132.4353719,E,2,64,0.45,19.167,M,15.25,M,2,3335*4C
$GNRMC,034404.000,A,2500.8088712,N,12132.4353719,E,0.00,238.77,270623,,,D,V*05
$GPHDT,93.874,T*04
$GNGGA,034404.200,2500.8088712,N,12132.4353779,E,2,64,0.45,19.171,M,15.25,M,2,3335*4F
$GNRMC,034404.200,A,2500.8088712,N,12132.4353779,E,0.00,238.77,270623,,,D,V*01
$GPHDT,94.203,T*09
$GNGGA,034404.400,2500.8088772,N,12132.4353899,E,2,64,0.45,19.172,M,15.25,M,2,3335*4D
$GNRMC,034404.400,A,2500.8088772,N,12132.4353899,E,0.00,238.77,270623,,,D,V*00
$GPHDT,94.274,T*09
$GNGGA,034404.600,2500.8088772,N,12132.4353959,E,2,64,0.45,19.177,M,15.25,M,2,3335*47
$GNRMC,034404.600,A,2500.8088772,N,12132.4353959,E,0.00,238.77,270623,,,D,V*0F
$GPHDT,94.380,T*03
$GNGGA,034404.800,2500.8088832,N,12132.4354019,E,2,64,0.45,19.177,M,15.25,M,2,3335*48
$GNRMC,034404.800,A,2500.8088832,N,12132.4354019,E,0.00,238.77,270623,,,D,V*00
$GPHDT,94.120,T*0B
$GNGSA,A,3,195,19,17,196,199,06,194,09,20,14,11,04,0.82,0.44,0.69,1*08
$GNGSA,A,3,12,03,,,,,,,,,,,0.82,0.44,0.69,1*04
$GNGSA,A,3,68,67,82,83,80,73,,,,,,,0.82,0.44,0.69,2*05
$GNGSA,A,3,24,10,12,11,19,04,25,33,,,,,0.82,0.44,0.69,3*09
$GNGSA,A,3,40,07,10,33,14,08,43,13,42,28,11,34,0.82,0.44,0.69,4*00
$GNGSA,A,3,37,,,,,,,,,,,,0.82,0.44,0.69,4*05
$GPGSV,4,1,16,195,67,043,39,19,65,017,42,17,64,073,41,196,63,128,41,1*6C
$GPGSV,4,2,16,50,60,167,39,199,60,167,36,06,50,338,41,194,41,171,38,1*65
$GPGSV,4,3,16,09,32,107,33,20,28,230,22,14,27,177,43,11,27,284,32,1*6F
$GPGSV,4,4,16,04,21,074,30,12,12,318,30,03,10,038,28,05,02,221,,1*68
$GPGSV,3,1,10,195,67,043,45,196,63,128,47,199,60,167,45,06,50,338,46,8*58
$GPGSV,3,2,10,194,41,171,44,09,32,107,41,14,27,177,46,11,27,284,20,8*52
$GPGSV,3,3,10,04,21,074,37,03,10,038,19,8*6D
$GLGSV,2,1,08,68,48,148,39,67,47,063,43,82,37,036,42,83,33,340,27,1*72
$GLGSV,2,2,08,80,25,231,19,73,23,291,23,66,07,028,23,79,01,187,,1*74
$GAGSV,2,1,08,24,52,244,37,10,49,333,40,12,48,014,38,11,35,299,19,7*79
$GAGSV,2,2,08,19,31,087,38,04,27,154,38,25,25,308,28,33,15,063,37,7*7B
$GAGSV,2,1,08,24,52,244,37,10,49,333,45,12,48,014,42,11,35,299,23,1*7E
$GAGSV,2,2,08,19,31,087,38,04,27,154,38,25,25,308,32,33,15,063,37,1*76
$GBGSV,4,1,16,40,83,127,40,07,81,248,39,10,72,291,40,33,63,150,44,1*7A
$GBGSV,4,2,16,14,61,085,42,08,58,269,38,43,53,054,44,13,49,257,41,1*77
$GBGSV,4,3,16,42,40,054,43,28,37,324,47,11,33,079,39,41,21,197,,1*77
$GBGSV,4,4,16,23,19,222,,34,18,096,40,37,17,274,30,25,02,178,,1*74
$GBGSV,2,1,06,40,83,127,45,33,63,150,46,43,53,054,44,42,40,054,44,4*7C
$GBGSV,2,2,06,28,37,324,43,34,18,096,30,4*7B
$GNGGA,034405.000,2500.8088832,N,12132.4354019,E,2,65,0.44,19.172,M,15.25,M,3,3335*45
$GNRMC,034405.000,A,2500.8088832,N,12132.4354019,E,0.00,238.77,270623,,,D,V*09
$GPHDT,94.205,T*0F
$GNGGA,034405.200,2500.8088892,N,12132.4354019,E,2,65,0.44,19.169,M,15.25,M,3,3335*47
$GNRMC,034405.200,A,2500.8088892,N,12132.4354019,E,0.00,238.77,270623,,,D,V*01
$GPHDT,93.871,T*01
$GNGGA,034405.400,2500.8088952,N,12132.4354079,E,2,65,0.44,19.168,M,15.25,M,3,3335*4B
$GNRMC,034405.400,A,2500.8088952,N,12132.4354079,E,0.00,238.77,270623,,,D,V*0C
$GPHDT,94.002,T*0A
$GNGGA,034405.600,2500.8088952,N,12132.4354139,E,2,65,0.44,19.171,M,15.25,M,3,3335*44
$GNRMC,034405.600,A,2500.8088952,N,12132.4354139,E,0.00,238.77,270623,,,D,V*0B
$GPHDT,93.879,T*09
$GNGGA,034405.800,2500.8089012,N,12132.4354139,E,2,65,0.44,19.175,M,15.25,M,3,3335*42
$GNRMC,034405.800,A,2500.8089012,N,12132.4354139,E,0.00,238.77,270623,,,D,V*09
$GPHDT,93.741,T*0D
$GNGSA,A,3,195,19,17,196,199,06,194,09,20,14,11,04,0.84,0.45,0.71,1*06
$GNGSA,A,3,12,03,,,,,,,,,,,0.84,0.45,0.71,1*0A
$GNGSA,A,3,68,67,82,83,80,73,,,,,,,0.84,0.45,0.71,2*0B
$GNGSA,A,3,24,10,12,11,19,04,25,33,,,,,0.84,0.45,0.71,3*07
$GNGSA,A,3,40,07,10,33,14,08,43,13,42,28,11,34,0.84,0.45,0.71,4*0E
$GPGSV,4,1,16,195,67,043,39,19,65,017,42,17,64,073,41,196,63,128,41,1*6C
$GPGSV,4,2,16,50,60,167,39,199,60,167,36,06,50,338,41,194,41,171,38,1*65
$GPGSV,4,3,16,09,32,107,34,20,28,230,22,14,27,177,43,11,27,284,31,1*6B
$GPGSV,4,4,16,04,21,074,29,12,12,318,29,03,10,038,29,05,02,221,,1*69
$GPGSV,3,1,10,195,67,043,45,196,63,128,47,199,60,167,45,06,50,338,46,8*58
$GPGSV,3,2,10,194,41,171,44,09,32,107,41,14,27,177,46,11,27,284,24,8*56
$GPGSV,3,3,10,04,21,074,37,03,10,038,19,8*6D
$GLGSV,3,1,09,68,48,148,39,67,47,063,43,82,37,036,41,83,33,340,27,1*71
$GLGSV,3,2,09,80,25,231,19,73,23,291,24,66,07,028,23,74,02,329,,1*7B
$GLGSV,3,3,09,79,01,187,,1*40
$GAGSV,2,1,08,24,52,244,37,10,49,333,40,12,48,014,38,11,35,299,19,7*79
$GAGSV,2,2,08,19,31,087,38,04,27,154,38,25,25,308,29,33,15,063,37,7*7A
$GAGSV,2,1,08,24,52,244,37,10,49,333,45,12,48,014,42,11,35,299,25,1*78
$GAGSV,2,2,08,19,31,087,37,04,27,154,38,25,25,308,31,33,15,063,37,1*7A
$GBGSV,4,1,15,40,83,127,40,07,81,248,39,10,72,291,40,33,63,150,44,1*79
$GBGSV,4,2,15,14,61,085,42,08,58,269,38,43,53,054,44,13,49,257,41,1*74
$GBGSV,4,3,15,42,40,054,43,28,37,324,47,11,33,079,40,41,21,197,,1*7A
$GBGSV,4,4,15,23,19,222,,34,18,096,40,37,17,274,20,1*4D
$GBGSV,2,1,06,40,83,127,45,33,63,150,46,43,53,054,44,42,40,054,44,4*7C
$GBGSV,2,2,06,28,37,324,43,34,18,096,30,4*7B
$GNGGA,034406.000,2500.8088952,N,12132.4354199,E,2,64,0.45,19.178,M,15.25,M,3,3335*42
$GNRMC,034406.000,A,2500.8088952,N,12132.4354199,E,0.00,238.77,270623,,,D,V*04
$GPHDT,94.016,T*0F
$GNGGA,034406.200,2500.8089012,N,12132.4354199,E,2,64,0.45,19.185,M,15.25,M,1,3335*4C
$GNRMC,034406.200,A,2500.8089012,N,12132.4354199,E,0.00,238.77,270623,,,D,V*0A
$GPHDT,94.018,T*01
$GNGGA,034406.400,2500.8089012,N,12132.4354199,E,2,65,0.44,19.190,M,15.25,M,1,3335*4E
$GNRMC,034406.400,A,2500.8089012,N,12132.4354199,E,0.00,238.77,270623,,,D,V*0C
$GPHDT,94.093,T*02
$GNGGA,034406.600,2500.8089012,N,12132.4354259,E,2,65,0.44,19.201,M,15.25,M,1,3335*48
$GNRMC,034406.600,A,2500.8089012,N,12132.4354259,E,0.00,238.77,270623,,,D,V*01
$GPHDT,94.171,T*0F
$GNGGA,034406.800,2500.8089072,N,12132.4354379,E,2,65,0.44,19.226,M,15.25,M,1,3335*46
$GNRMC,034406.800,A,2500.8089072,N,12132.4354379,E,0.00,238.77,270623,,,D,V*0A
$GPHDT,93.942,T*00
$GNGSA,A,3,195,19,17,196,199,06,194,09,20,14,11,04,0.82,0.44,0.69,1*08
$GNGSA,A,3,12,03,,,,,,,,,,,0.82,0.44,0.69,1*04
$GNGSA,A,3,68,67,82,83,80,73,,,,,,,0.82,0.44,0.69,2*05
$GNGSA,A,3,24,10,12,11,19,04,25,33,,,,,0.82,0.44,0.69,3*09
$GNGSA,A,3,40,07,10,33,14,08,43,13,42,28,11,34,0.82,0.44,0.69,4*00
$GNGSA,A,3,37,,,,,,,,,,,,0.82,0.44,0.69,4*05
$GPGSV,4,1,16,195,67,043,39,19,65,017,42,17,64,073,41,196,63,128,41,1*6C
$GPGSV,4,2,16,50,60,167,39,199,60,167,36,06,50,338,41,194,41,171,38,1*65
$GPGSV,4,3,16,09,32,107,32,20,28,230,21,14,27,177,43,11,27,284,30,1*6F
$GPGSV,4,4,16,04,21,074,30,12,12,318,29,03,10,038,29,05,02,221,,1*61
$GPGSV,3,1,10,195,67,043,45,196,63,128,47,199,60,167,45,06,50,338,46,8*58
$GPGSV,3,2,10,194,41,171,44,09,32,107,41,14,27,177,47,11,27,284,23,8*50
$GPGSV,3,3,10,04,21,074,37,03,10,038,19,8*6D
$GLGSV,2,1,08,68,48,148,39,67,47,063,43,82,37,036,41,83,33,340,27,1*71
$GLGSV,2,2,08,80,25,231,18,73,23,291,25,66,07,028,23,79,01,187,,1*73
$GAGSV,2,1,08,24,52,244,37,10,49,333,40,12,48,014,38,11,35,299,18,7*78
$GAGSV,2,2,08,19,31,087,38,04,27,154,38,25,25,308,29,33,15,063,37,7*7A
$GAGSV,2,1,08,24,52,244,37,10,49,333,45,12,48,014,42,11,35,299,25,1*78
$GAGSV,2,2,08,19,31,087,37,04,27,154,39,25,25,308,31,33,15,063,37,1*7B
$GBGSV,4,1,15,40,83,127,40,07,81,248,39,10,72,291,40,33,63,150,44,1*79
$GBGSV,4,2,15,14,61,085,42,08,58,269,38,43,53,054,44,13,49,257,41,1*74
$GBGSV,4,3,15,42,40,054,43,28,37,324,47,11,33,079,40,41,21,197,,1*7A
$GBGSV,4,4,15,34,18,096,40,37,17,274,31,39,02,178,,1*40
$GBGSV,2,1,06,40,83,127,45,33,63,150,46,43,53,054,44,42,40,054,43,4*7B
$GBGSV,2,2,06,28,37,324,42,34,18,096,30,4*7A
$GNGGA,034407.000,2500.8089072,N,12132.4354499,E,2,65,0.44,19.251,M,15.25,M,1,3335*46
$GNRMC,034407.000,A,2500.8089072,N,12132.4354499,E,0.00,238.77,270623,,,D,V*0A
$GPHDT,93.846,T*05
$GNGGA,034407.200,2500.8089132,N,12132.4354679,E,2,65,0.44,19.282,M,15.25,M,1,3335*43
$GNRMC,034407.200,A,2500.8089132,N,12132.4354679,E,0.00,238.77,270623,,,D,V*01
$GPHDT,94.077,T*08
$GNGGA,034407.400,2500.8089192,N,12132.4354919,E,2,65,0.44,19.317,M,15.25,M,1,3335*4B
$GNRMC,034407.400,A,2500.8089192,N,12132.4354919,E,0.00,238.77,270623,,,D,V*04
$GPHDT,94.251,T*0E
$GNGGA,034407.600,2500.8089192,N,12132.4355039,E,2,65,0.44,19.355,M,15.25,M,1,3335*45
$GNRMC,034407.600,A,2500.8089192,N,12132.4355039,E,0.00,238.77,270623,,,D,V*0C
$GPHDT,93.899,T*07
$GNGGA,034407.800,2500.8089312,N,12132.4355099,E,2,65,0.44,19.361,M,15.25,M,1,3335*4C
$GNRMC,034407.800,A,2500.8089312,N,12132.4355099,E,0.00,238.77,270623,,,D,V*02
$GPHDT,94.168,T*07
$GNGSA,A,3,195,19,17,196,199,06,194,09,20,14,11,04,0.82,0.44,0.69,1*08
$GNGSA,A,3,12,03,,,,,,,,,,,0.82,0.44,0.69,1*04
$GNGSA,A,3,68,67,82,83,80,73,,,,,,,0.82,0.44,0.69,2*05
$GNGSA,A,3,24,10,12,11,19,04,25,33,,,,,0.82,0.44,0.69,3*09
$GNGSA,A,3,40,07,10,33,14,08,43,13,42,28,11,34,0.82,0.44,0.69,4*00
$GNGSA,A,3,37,,,,,,,,,,,,0.82,0.44,0.69,4*05
$GPGSV,4,1,16,195,67,043,39,19,65,017,42,17,64,073,41,196,63,128,41,1*6C
$GPGSV,4,2,16,50,60,167,39,199,60,167,36,06,50,338,41,194,41,171,39,1*64
$GPGSV,4,3,16,09,32,107,32,20,28,230,21,14,27,177,43,11,27,284,31,1*6E
$GPGSV,4,4,16,04,21,073,30,12,12,318,29,03,10,038,29,05,02,221,,1*66
$GPGSV,3,1,10,195,67,043,45,196,63,128,47,199,60,167,45,06,50,338,46,8*58
$GPGSV,3,2,10,194,41,171,44,09,32,107,41,14,27,177,47,11,27,284,22,8*51
$GPGSV,3,3,10,04,21,073,37,03,10,038,21,8*61
$GLGSV,2,1,08,68,48,148,39,67,47,063,43,82,37,036,41,83,33,340,27,1*71
$GLGSV,2,2,08,80,25,231,17,73,23,291,27,66,07,028,21,79,01,187,,1*7C
$GAGSV,2,1,08,24,52,244,37,10,49,333,40,12,48,014,38,11,35,299,18,7*78
$GAGSV,2,2,08,19,31,087,38,04,27,154,38,25,25,308,29,33,15,063,37,7*7A
$GAGSV,2,1,08,24,52,244,37,10,49,333,45,12,48,014,42,11,35,299,25,1*78
$GAGSV,2,2,08,19,31,087,37,04,27,154,38,25,25,308,32,33,15,063,37,1*79
$GBGSV,4,1,15,40,83,127,40,07,81,248,39,10,72,291,40,33,63,150,44,1*79
$GBGSV,4,2,15,14,61,085,42,08,58,269,38,43,53,054,44,13,49,257,41,1*74
$GBGSV,4,3,15,42,40,054,43,28,37,324,47,11,33,079,40,41,21,197,,1*7A
$GBGSV,4,4,15,23,19,222,,34,18,096,40,37,17,274,30,1*4C
$GBGSV,2,1,06,40,83,127,45,33,63,150,46,43,53,054,44,42,40,054,43,4*7B
$GBGSV,2,2,06,28,37,324,42,34,18,096,29,4*72
$GNGGA,034408.000,2500.8089312,N,12132.4355099,E,2,65,0.44,19.370,M,15.25,M,2,3335*48
$GNRMC,034408.000,A,2500.8089312,N,12132.4355099,E,0.00,238.77,270623,,,D,V*05
$GPHDT,94.254,T*0B
$GNGGA,034408.200,2500.8089372,N,12132.4355279,E,2,65,0.44,19.405,M,15.25,M,2,3335*45
$GNRMC,034408.200,A,2500.8089372,N,12132.4355279,E,0.00,238.77,270623,,,D,V*0D
$GPHDT,93.758,T*05
$GNGGA,034408.400,2500.8089432,N,12132.4355399,E,2,65,0.44,19.435,M,15.25,M,2,3335*4C
$GNRMC,034408.400,A,2500.8089432,N,12132.4355399,E,0.00,238.77,270623,,,D,V*07
$GPHDT,93.948,T*0A
$GNGGA,034408.600,2500.8089492,N,12132.4355399,E,2,65,0.44,19.439,M,15.25,M,2,3335*48
$GNRMC,034408.600,A,2500.8089492,N,12132.4355399,E,0.00,238.77,270623,,,D,V*0F
$GPHDT,94.248,T*06
$GNGGA,034408.800,2500.8089492,N,12132.4355399,E,2,65,0.44,19.451,M,15.25,M,2,3335*48
$GNRMC,034408.800,A,2500.8089492,N,12132.4355399,E,0.00,238.77,270623,,,D,V*01
$GPHDT,94.187,T*06
$GNGSA,A,3,195,19,17,196,199,06,194,09,20,14,11,04,0.82,0.44,0.69,1*08
$GNGSA,A,3,12,03,,,,,,,,,,,0.82,0.44,0.69,1*04
$GNGSA,A,3,68,67,82,83,80,73,,,,,,,0.82,0.44,0.69,2*05
$GNGSA,A,3,24,10,12,11,19,04,25,33,,,,,0.82,0.44,0.69,3*09
$GNGSA,A,3,40,07,10,33,14,08,43,13,42,28,11,34,0.82,0.44,0.69,4*00
$GNGSA,A,3,37,,,,,,,,,,,,0.82,0.44,0.69,4*05
$GPGSV,4,1,16,195,67,043,39,19,65,017,42,17,64,073,41,196,63,128,41,1*6C
$GPGSV,4,2,16,50,60,167,39,199,60,167,36,06,50,338,41,194,41,171,39,1*64
$GPGSV,4,3,16,09,33,107,32,20,28,230,21,14,27,177,42,11,27,284,31,1*6E
$GPGSV,4,4,16,04,21,073,31,12,12,318,29,03,10,038,30,05,02,221,,1*6F
$GPGSV,3,1,10,195,67,043,46,196,63,128,46,199,60,167,45,06,50,338,46,8*5A
$GPGSV,3,2,10,194,41,171,44,09,33,107,41,14,27,177,47,11,27,284,23,8*51
$GPGSV,3,3,10,04,21,073,37,03,10,038,21,8*61
$GLGSV,3,1,10,68,48,148,39,67,47,063,43,82,37,036,41,83,33,340,27,1*79
$GLGSV,3,2,10,80,25,231,17,73,23,291,28,69,09,185,,66,07,028,21,1*70
$GLGSV,3,3,10,74,02,329,,79,01,187,,1*71
$GAGSV,2,1,08,24,52,244,37,10,49,333,40,12,48,014,38,11,35,299,18,7*78
$GAGSV,2,2,08,19,31,087,38,04,27,154,37,25,25,308,28,33,15,063,37,7*74
$GAGSV,2,1,08,24,52,244,37,10,49,333,45,12,48,014,42,11,35,299,25,1*78
$GAGSV,2,2,08,19,31,087,37,04,27,154,38,25,25,308,33,33,15,063,37,1*78
$GBGSV,5,1,18,40,83,127,40,07,81,248,40,10,72,291,40,33,63,150,44,1*7B
$GBGSV,5,2,18,14,61,085,42,08,58,269,37,43,53,054,44,13,49,257,41,1*77
$GBGSV,5,3,18,42,40,054,43,28,37,324,47,11,33,079,40,41,21,197,,1*76
$GBGSV,5,4,18,23,19,222,,34,18,096,40,37,17,274,30,39,02,178,,1*76
$GBGSV,5,5,18,25,02,178,,06,01,189,,1*73
$GBGSV,2,1,06,40,83,127,45,33,63,150,46,43,53,054,44,42,40,054,43,4*7B
$GBGSV,2,2,06,28,37,324,42,34,18,096,29,4*72
$GNGGA,034409.000,2500.8089552,N,12132.4355399,E,2,65,0.44,19.461,M,15.25,M,3,3335*4E
$GNRMC,034409.000,A,2500.8089552,N,12132.4355399,E,0.00,238.77,270623,,,D,V*05
$GPHDT,93.855,T*07
$GNGGA,034409.200,2500.8089552,N,12132.4355459,E,2,65,0.44,19.492,M,15.25,M,3,3335*4B
$GNRMC,034409.200,A,2500.8089552,N,12132.4355459,E,0.00,238.77,270623,,,D,V*0C
$GPHDT,93.936,T*03
$GNGGA,034409.400,2500.8089672,N,12132.4355579,E,2,65,0.44,19.520,M,15.25,M,3,3335*47
$GNRMC,034409.400,A,2500.8089672,N,12132.4355579,E,0.00,238.77,270623,,,D,V*08
$GPHDT,93.966,T*06
$GNGGA,034409.600,2500.8089672,N,12132.4355699,E,2,65,0.44,19.555,M,15.25,M,3,3335*4A
$GNRMC,034409.600,A,2500.8089672,N,12132.4355699,E,0.00,238.77,270623,,,D,V*07
$GPHDT,93.828,T*0D
$GNGGA,034409.800,2500.8089672,N,12132.4355639,E,2,65,0.44,19.567,M,15.25,M,3,3335*4F
$GNRMC,034409.800,A,2500.8089672,N,12132.4355639,E,0.00,238.77,270623,,,D,V*03
$GPHDT,93.209,T*04
$GNGSA,A,3,195,19,17,196,199,06,194,09,20,11,14,04,0.82,0.44,0.69,1*08
$GNGSA,A,3,12,03,,,,,,,,,,,0.82,0.44,0.69,1*04
$GNGSA,A,3,68,67,82,83,80,73,,,,,,,0.82,0.44,0.69,2*05
$GNGSA,A,3,24,10,12,11,19,04,25,33,,,,,0.82,0.44,0.69,3*09
$GNGSA,A,3,40,07,10,33,14,08,43,13,42,28,11,34,0.82,0.44,0.69,4*00
$GNGSA,A,3,37,,,,,,,,,,,,0.82,0.44,0.69,4*05
$GPGSV,4,1,16,195,67,043,39,19,65,017,42,17,64,073,42,196,63,128,41,1*6F
$GPGSV,4,2,16,199,60,167,36,50,60,167,38,06,50,338,42,194,41,171,31,1*6E
$GPGSV,4,3,16,09,33,107,31,20,28,230,19,11,27,284,33,14,26,177,40,1*67
$GPGSV,4,4,16,04,21,073,32,12,12,318,29,03,10,038,30,05,02,221,,1*6C
$GPGSV,3,1,10,195,67,043,46,196,63,128,46,199,60,167,46,06,50,338,46,8*59
$GPGSV,3,2,10,194,41,171,42,09,33,107,41,11,27,284,22,14,26,177,44,8*54
$GPGSV,3,3,10,04,21,073,37,03,10,038,21,8*61
$GLGSV,3,1,09,68,48,148,38,67,47,063,44,82,37,036,40,83,33,340,26,1*77
$GLGSV,3,2,09,80,25,231,15,73,23,291,27,66,07,028,21,74,02,329,,1*76
$GLGSV,3,3,09,79,01,187,,1*40
$GAGSV,2,1,08,24,52,244,32,10,49,333,40,12,48,014,38,11,35,299,19,7*7C
$GAGSV,2,2,08,19,31,087,37,04,27,154,34,25,25,308,26,33,15,063,38,7*79
$GAGSV,2,1,08,24,52,244,33,10,49,333,45,12,48,014,42,11,35,299,20,1*79
$GAGSV,2,2,08,19,31,087,37,04,27,154,39,25,25,308,32,33,15,063,38,1*77
$GBGSV,4,1,14,40,83,127,41,07,81,248,39,10,72,291,38,33,63,150,44,1*76
$GBGSV,4,2,14,14,61,085,42,08,58,269,37,43,53,054,44,13,49,257,39,1*75
$GBGSV,4,3,14,42,40,054,44,28,37,324,47,11,33,079,40,23,19,222,,1*7E
$GBGSV,4,4,14,34,18,096,40,37,17,274,30,1*76
$GBGSV,2,1,06,40,83,127,45,33,63,150,44,43,53,054,44,42,40,054,43,4*79
$GBGSV,2,2,06,28,37,324,43,34,18,096,30,4*7B
$GNGGA,034410.000,2500.8089732,N,12132.4355639,E,2,65,0.44,19.577,M,15.25,M,4,3335*4C
$GNRMC,034410.000,A,2500.8089732,N,12132.4355639,E,0.00,238.77,270623,,,D,V*06
$GPHDT,93.553,T*0C
$GNGGA,034410.200,2500.8089792,N,12132.4355639,E,2,65,0.44,19.586,M,15.25,M,4,3335*4A
$GNRMC,034410.200,A,2500.8089792,N,12132.4355639,E,0.00,238.77,270623,,,D,V*0E
$GPHDT,94.152,T*0E
$GNGGA,034410.400,2500.8089912,N,12132.4355639,E,2,65,0.44,19.585,M,15.25,M,4,3335*49
$GNRMC,034410.400,A,2500.8089912,N,12132.4355639,E,0.00,238.77,270623,,,D,V*0E
$GPHDT,93.494,T*06
$GNGGA,034410.600,2500.8090032,N,12132.4355699,E,2,65,0.44,19.581,M,15.25,M,4,3335*46
$GNRMC,034410.600,A,2500.8090032,N,12132.4355699,E,0.00,238.77,270623,,,D,V*05
