$FW : RTK35X,V1.1X0314AS,Lib20210517,1*54
$Tool : LOCOSYS , GNSS Firebird , v1.0.0.19*39
$---------------------------------------------------*2D
$GPHDT,89.127,T*00
$GNGSA,A,3,195,19,17,196,199,06,194,09,11,14,04,12,0.89,0.48,0.75,1*03
$GNGSA,A,3,68,67,82,83,80,73,,,,,,,0.89,0.48,0.75,2*0F
$GNGSA,A,3,24,10,12,11,19,04,25,33,,,,,0.89,0.48,0.75,3*03
$GNGSA,A,3,40,07,10,33,14,08,43,42,28,11,34,,0.89,0.48,0.75,4*08
$GPGSV,4,1,16,195,67,043,41,19,66,022,42,17,64,078,43,196,64,127,39,1*68
$GPGSV,4,2,16,199,60,167,35,50,60,167,38,06,50,341,43,194,41,171,25,1*67
$GPGSV,4,3,16,09,33,105,42,20,29,231,,11,28,286,22,14,25,176,20,1*60
$GPGSV,4,4,16,04,21,072,33,12,14,317,28,03,08,038,20,05,04,222,,1*69
$GPGSV,3,1,09,195,67,043,45,196,64,127,46,199,60,167,43,06,50,341,46,8*51
$GPGSV,3,2,09,194,41,171,27,09,33,105,44,11,28,286,30,04,21,072,38,8*5F
$GPGSV,3,3,09,03,08,038,24,8*52
$GLGSV,2,1,07,68,50,147,39,67,46,060,43,82,37,039,43,83,34,342,22,1*77
$GLGSV,2,2,07,80,24,229,18,73,23,289,24,66,05,027,17,1*47
$GAGSV,2,1,08,24,51,242,20,10,49,335,39,12,48,016,39,11,35,301,30,7*7A
$GAGSV,2,2,08,19,31,085,34,04,28,153,23,25,25,307,28,33,14,065,29,7*70
$GAGSV,2,1,07,10,49,335,44,12,48,016,42,11,35,301,34,19,31,085,36,1*77
$GAGSV,2,2,07,04,28,153,28,25,25,307,32,33,14,065,34,1*45
$GBGSV,4,1,14,40,83,134,41,07,81,244,39,10,72,289,40,33,64,148,44,1*70
$GBGSV,4,2,14,14,61,081,40,08,58,271,34,43,53,056,42,42,39,053,43,1*75
$GBGSV,4,3,14,28,38,325,33,11,32,081,43,41,23,197,,23,18,220,22,1*7D
$GBGSV,4,4,14,34,17,098,35,37,16,272,,1*71
$GBGSV,2,1,06,40,83,134,46,33,64,148,46,43,53,056,45,42,39,053,43,4*7E
$GBGSV,2,2,06,28,38,325,28,34,17,098,28,4*70
$GNGGA,034805.000,2500.8071400,N,12132.4306800,E,2,58,0.48,18.51,M,15.25,M,1,3335*74
$GNRMC,034805.000,A,2500.8071400,N,12132.4306800,E,0.00,85.16,270623,,,D,V*3A
$GPHDT,88.825,T*0A
$GNGGA,034805.200,2500.8071400,N,12132.4306800,E,2,58,0.48,18.51,M,15.25,M,1,3335*76
$GNRMC,034805.200,A,2500.8071400,N,12132.4306800,E,0.00,85.16,270623,,,D,V*38
$GPHDT,88.645,T*02
$GNGGA,034805.400,2500.8071400,N,12132.4306800,E,2,58,0.48,18.51,M,15.25,M,1,3335*70
$GNRMC,034805.400,A,2500.8071400,N,12132.4306800,E,0.00,85.16,270623,,,D,V*3E
$GPHDT,88.933,T*0C
$GNGGA,034805.600,2500.8071500,N,12132.4306800,E,2,58,0.48,18.51,M,15.25,M,1,3335*73
$GNRMC,034805.600,A,2500.8071500,N,12132.4306800,E,0.00,85.16,270623,,,D,V*3D
$GPHDT,89.107,T*02
$GNGGA,034805.800,2500.8071600,N,12132.4306800,E,2,58,0.48,18.51,M,15.25,M,1,3335*7E
$GNRMC,034805.800,A,2500.8071600,N,12132.4306800,E,0.00,85.16,270623,,,D,V*30
$GPHDT,89.349,T*0A
$GNGSA,A,3,195,19,17,196,199,06,194,09,11,14,04,12,0.89,0.48,0.75,1*03
$GNGSA,A,3,68,67,82,83,80,73,,,,,,,0.89,0.48,0.75,2*0F
$GNGSA,A,3,24,10,12,11,19,04,25,33,,,,,0.89,0.48,0.75,3*03
$GNGSA,A,3,40,07,10,33,14,08,43,42,28,11,34,,0.89,0.48,0.75,4*08
$GPGSV,4,1,16,195,67,043,41,19,66,022,42,17,64,078,43,196,64,127,39,1*68
$GPGSV,4,2,16,199,60,167,35,50,60,167,39,06,50,341,42,194,41,171,24,1*66
$GPGSV,4,3,16,09,33,105,42,20,29,231,,11,28,286,24,14,25,176,18,1*6D
$GPGSV,4,4,16,04,21,072,33,12,14,317,28,03,08,038,20,05,04,222,,1*69
$GPGSV,3,1,09,195,67,043,45,196,64,127,46,199,60,167,43,06,50,341,46,8*51
$GPGSV,3,2,09,194,41,171,28,09,33,105,44,11,28,286,31,04,21,072,38,8*51
$GPGSV,3,3,09,03,08,038,23,8*55
$GLGSV,2,1,07,68,50,147,38,67,46,060,43,82,37,039,43,83,34,342,22,1*76
$GLGSV,2,2,07,80,24,229,17,73,23,289,23,66,05,027,20,1*4B
$GAGSV,2,1,08,24,51,242,20,10,49,335,39,12,48,016,39,11,35,301,30,7*7A
$GAGSV,2,2,08,19,31,085,34,04,28,153,22,25,25,307,29,33,14,065,29,7*70
$GAGSV,2,1,07,10,49,335,44,12,48,016,41,11,35,301,34,19,31,085,36,1*74
$GAGSV,2,2,07,04,28,153,28,25,25,307,32,33,14,065,34,1*45
$GBGSV,4,1,14,40,83,134,41,07,81,244,40,10,72,289,40,33,64,148,44,1*7E
$GBGSV,4,2,14,14,61,081,40,08,58,271,34,43,53,056,42,13,49,258,,1*78
$GBGSV,4,3,14,42,39,053,43,28,38,325,33,11,32,081,43,23,18,220,23,1*7A
$GBGSV,4,4,14,34,17,098,35,37,16,272,,1*71
$GBGSV,2,1,06,40,83,134,46,33,64,148,46,43,53,056,45,42,39,053,43,4*7E
$GBGSV,2,2,06,28,38,325,29,34,17,098,23,4*7A
$GNGGA,034806.000,2500.8071600,N,12132.4306800,E,2,58,0.48,18.51,M,15.25,M,2,3335*76
$GNRMC,034806.000,A,2500.8071600,N,12132.4306800,E,0.00,85.16,270623,,,D,V*3B
$GPHDT,89.137,T*01
$GNGGA,034806.200,2500.8071600,N,12132.4306800,E,2,58,0.48,18.51,M,15.25,M,2,3335*74
$GNRMC,034806.200,A,2500.8071600,N,12132.4306800,E,0.00,85.16,270623,,,D,V*39
$GPHDT,88.651,T*07
$GNGGA,034806.400,2500.8071700,N,12132.4306800,E,2,58,0.48,18.51,M,15.25,M,2,3335*73
$GNRMC,034806.400,A,2500.8071700,N,12132.4306800,E,0.00,85.16,270623,,,D,V*3E
$GPHDT,89.288,T*06
$GNGGA,034806.600,2500.8071700,N,12132.4306800,E,2,58,0.48,18.51,M,15.25,M,2,3335*71
$GNRMC,034806.600,A,2500.8071700,N,12132.4306800,E,0.00,85.16,270623,,,D,V*3C
$GPHDT,89.154,T*04
$GNGGA,034806.800,2500.8071800,N,12132.4306800,E,2,60,0.45,18.51,M,15.25,M,2,3335*76
$GNRMC,034806.800,A,2500.8071800,N,12132.4306800,E,0.00,85.16,270623,,,D,V*3D
$GPHDT,89.460,T*06
$GNGSA,A,3,195,19,17,196,199,06,194,09,11,14,04,12,0.85,0.45,0.72,1*05
$GNGSA,A,3,68,67,82,83,80,73,,,,,,,0.85,0.45,0.72,2*09
$GNGSA,A,3,24,10,12,11,19,04,25,33,,,,,0.85,0.45,0.72,3*05
$GNGSA,A,3,40,07,10,33,14,08,43,13,42,28,11,23,0.85,0.45,0.72,4*0A
$GNGSA,A,3,34,,,,,,,,,,,,0.85,0.45,0.72,4*0A
$GPGSV,4,1,16,195,67,043,41,19,66,022,42,17,64,078,43,196,64,127,39,1*68
$GPGSV,4,2,16,199,60,167,36,50,60,167,39,06,50,341,42,194,41,171,25,1*64
$GPGSV,4,3,16,09,33,105,42,20,29,231,,11,28,286,24,14,25,176,18,1*6D
$GPGSV,4,4,16,04,21,072,33,12,14,317,28,03,08,038,22,05,04,222,,1*6B
$GPGSV,3,1,09,195,67,043,45,196,64,127,46,199,60,167,43,06,50,341,46,8*51
$GPGSV,3,2,09,194,41,171,27,09,33,105,44,11,28,286,30,04,21,072,38,8*5F
$GPGSV,3,3,09,03,08,038,21,8*57
$GLGSV,3,1,09,68,50,147,38,67,46,060,43,82,37,039,43,83,34,342,22,1*79
$GLGSV,3,2,09,80,24,229,15,73,23,289,23,69,11,185,,66,05,027,19,1*7F
$GLGSV,3,3,09,74,03,327,,1*47
$GAGSV,2,1,08,24,51,242,20,10,49,335,39,12,48,016,39,11,35,301,30,7*7A
$GAGSV,2,2,08,19,31,085,34,04,28,153,20,25,26,306,29,33,14,065,29,7*70
$GAGSV,2,1,07,10,49,335,44,12,48,016,41,11,35,301,34,19,31,085,36,1*74
$GAGSV,2,2,07,04,28,153,28,25,26,306,32,33,14,065,34,1*47
$GBGSV,4,1,15,40,83,134,41,07,81,244,40,10,72,289,39,33,64,148,44,1*71
$GBGSV,4,2,15,14,61,081,40,08,58,271,33,43,53,056,42,13,49,258,27,1*7B
$GBGSV,4,3,15,42,39,053,43,28,38,325,33,11,32,081,43,41,23,197,,1*79
$GBGSV,4,4,15,23,18,220,23,34,17,098,35,37,16,272,,1*49
$GBGSV,2,1,06,40,83,134,46,33,64,148,46,43,53,056,45,42,39,053,43,4*7E
$GBGSV,2,2,06,28,38,325,29,34,17,098,25,4*7C
$GNGGA,034807.000,2500.8071900,N,12132.4306800,E,2,60,0.45,18.51,M,15.25,M,3,3335*7F
$GNRMC,034807.000,A,2500.8071900,N,12132.4306800,E,0.00,85.16,270623,,,D,V*35
$GPHDT,89.426,T*04
$GNGGA,034807.200,2500.8071900,N,12132.4306700,E,2,60,0.45,18.51,M,15.25,M,3,3335*72
$GNRMC,034807.200,A,2500.8071900,N,12132.4306700,E,0.00,85.16,270623,,,D,V*38
$GPHDT,89.192,T*0E
$GNGGA,034807.400,2500.8071900,N,12132.4306700,E,2,60,0.45,18.51,M,15.25,M,3,3335*74
$GNRMC,034807.400,A,2500.8071900,N,12132.4306700,E,0.00,85.16,270623,,,D,V*3E
$GPHDT,89.468,T*0E
$GNGGA,034807.600,2500.8072000,N,12132.4306700,E,2,60,0.45,18.52,M,15.25,M,3,3335*7F
$GNRMC,034807.600,A,2500.8072000,N,12132.4306700,E,0.00,85.16,270623,,,D,V*36
$GPHDT,89.225,T*01
$GNGGA,034807.800,2500.8072000,N,12132.4306700,E,2,60,0.45,18.52,M,15.25,M,3,3335*71
$GNRMC,034807.800,A,2500.8072000,N,12132.4306700,E,0.00,85.16,270623,,,D,V*38
$GPHDT,88.869,T*02
$GNGSA,A,3,195,19,17,196,199,06,194,09,11,14,04,12,0.85,0.45,0.72,1*05
$GNGSA,A,3,68,67,82,83,80,73,,,,,,,0.85,0.45,0.72,2*09
$GNGSA,A,3,24,10,12,11,19,04,25,33,,,,,0.85,0.45,0.72,3*05
$GNGSA,A,3,40,07,10,33,14,08,43,13,42,28,11,23,0.85,0.45,0.72,4*0A
$GNGSA,A,3,34,,,,,,,,,,,,0.85,0.45,0.72,4*0A
$GPGSV,4,1,16,195,67,043,41,19,66,022,42,17,64,078,43,196,64,127,39,1*68
$GPGSV,4,2,16,199,60,167,36,50,60,167,38,06,50,341,42,194,41,171,27,1*67
$GPGSV,4,3,16,09,33,105,42,20,29,231,,11,28,286,24,14,25,176,18,1*6D
$GPGSV,4,4,16,04,21,072,33,12,14,317,28,03,08,038,22,05,04,222,,1*6B
$GPGSV,3,1,09,195,67,043,45,196,64,127,46,199,60,167,44,06,50,341,46,8*56
$GPGSV,3,2,09,194,41,171,26,09,33,105,44,11,28,286,30,04,21,072,38,8*5E
$GPGSV,3,3,09,03,08,038,21,8*57
$GLGSV,2,1,08,68,50,147,37,67,46,060,43,82,37,039,43,83,34,342,22,1*76
$GLGSV,2,2,08,80,24,229,13,73,23,289,23,69,11,185,,66,05,027,20,1*73
$GAGSV,2,1,08,24,51,242,21,10,49,335,39,12,48,016,39,11,35,301,30,7*7B
$GAGSV,2,2,08,19,31,085,35,04,28,153,22,25,26,306,29,33,14,065,28,7*72
$GAGSV,2,1,07,10,49,335,44,12,48,016,41,11,35,301,34,19,31,085,36,1*74
$GAGSV,2,2,07,04,28,153,28,25,26,306,32,33,14,065,34,1*47
$GBGSV,5,1,17,40,83,134,41,07,81,244,40,10,72,289,39,38,67,294,40,1*7C
$GBGSV,5,2,17,33,64,148,44,14,61,081,40,08,58,271,33,43,53,056,42,1*72
$GBGSV,5,3,17,13,49,258,28,42,39,053,43,28,38,325,33,11,32,081,42,1*7A
$GBGSV,5,4,17,41,23,197,,23,18,220,23,34,17,098,34,37,16,272,,1*70
$GBGSV,5,5,17,06,01,188,,1*46
$GBGSV,2,1,06,40,83,134,46,33,64,148,46,43,53,056,45,42,39,053,43,4*7E
$GBGSV,2,2,06,28,38,325,29,34,17,098,27,4*7E
$GNGGA,034808.000,2500.8072100,N,12132.4306700,E,2,60,0.45,18.52,M,15.25,M,4,3335*70
$GNRMC,034808.000,A,2500.8072100,N,12132.4306700,E,0.00,85.16,270623,,,D,V*3E
$GPHDT,89.716,T*04
$GNGGA,034808.200,2500.8072200,N,12132.4306700,E,2,58,0.48,18.52,M,15.25,M,4,3335*77
$GNRMC,034808.200,A,2500.8072200,N,12132.4306700,E,0.00,85.16,270623,,,D,V*3F
$GPHDT,89.584,T*0D
$GNGGA,034808.400,2500.8072200,N,12132.4306700,E,2,58,0.48,18.52,M,15.25,M,4,3335*71
$GNRMC,034808.400,A,2500.8072200,N,12132.4306700,E,0.00,85.16,270623,,,D,V*39
$GPHDT,89.055,T*04
$GNGGA,034808.600,2500.8072300,N,12132.4306700,E,2,58,0.48,18.52,M,15.25,M,4,3335*72
$GNRMC,034808.600,A,2500.8072300,N,12132.4306700,E,0.00,85.16,270623,,,D,V*3A
$GPHDT,88.674,T*00
$GNGGA,034808.800,2500.8072400,N,12132.4306700,E,2,57,0.50,18.53,M,15.25,M,4,3335*7C
$GNRMC,034808.800,A,2500.8072400,N,12132.4306700,E,0.00,85.16,270623,,,D,V*33
$GPHDT,89.324,T*01
$GNGSA,A,3,195,19,17,196,199,06,194,09,11,14,04,12,0.88,0.47,0.74,1*0C
$GNGSA,A,3,68,67,82,83,73,,,,,,,,0.88,0.47,0.74,2*08
$GNGSA,A,3,24,10,12,11,19,04,25,33,,,,,0.88,0.47,0.74,3*0C
$GNGSA,A,3,40,07,10,33,14,08,43,13,42,28,11,23,0.88,0.47,0.74,4*03
$GNGSA,A,3,34,,,,,,,,,,,,0.88,0.47,0.74,4*03
$GPGSV,4,1,16,195,67,043,41,19,66,022,42,17,64,078,43,196,64,127,39,1*68
$GPGSV,4,2,16,199,60,167,36,50,60,167,39,06,50,341,42,194,41,171,27,1*66
$GPGSV,4,3,16,09,33,105,42,20,29,231,,11,28,286,27,14,25,176,18,1*6E
$GPGSV,4,4,16,04,21,072,33,12,14,317,28,03,08,038,22,05,04,222,,1*6B
$GPGSV,3,1,09,195,67,043,45,196,64,127,46,199,60,167,44,06,50,341,46,8*56
$GPGSV,3,2,09,194,41,171,25,09,33,105,44,11,28,286,30,04,21,072,37,8*52
$GPGSV,3,3,09,03,08,038,21,8*57
$GLGSV,3,1,09,68,50,147,37,67,46,060,43,82,37,039,43,83,34,342,22,1*76
$GLGSV,3,2,09,80,24,229,10,73,23,289,22,69,11,185,,66,05,027,18,1*7A
$GLGSV,3,3,09,74,03,327,,1*47
$GAGSV,2,1,08,24,51,242,21,10,49,335,39,12,48,016,39,11,35,301,29,7*73
$GAGSV,2,2,08,19,31,085,35,04,28,153,23,25,26,306,30,33,14,065,29,7*7A
$GAGSV,2,1,07,10,49,335,44,12,48,016,41,11,35,301,34,19,31,085,36,1*74
$GAGSV,2,2,07,04,28,153,28,25,26,306,32,33,14,065,34,1*47
$GBGSV,5,1,18,40,83,134,41,07,81,244,40,10,72,289,38,38,67,294,,1*76
$GBGSV,5,2,18,33,64,148,44,14,61,081,40,08,58,271,33,43,53,056,42,1*7D
$GBGSV,5,3,18,13,49,258,28,42,39,053,43,28,38,325,33,11,32,081,42,1*75
$GBGSV,5,4,18,41,23,197,,23,18,220,22,34,17,098,34,37,16,272,,1*7E
$GBGSV,5,5,18,25,02,177,,06,01,188,,1*7D
$GBGSV,2,1,06,40,83,134,46,33,64,148,46,43,53,056,45,42,39,053,44,4*79
$GBGSV,2,2,06,28,38,325,29,34,17,098,26,4*7F
$GNGGA,034809.000,2500.8072500,N,12132.4306600,E,2,59,0.47,18.53,M,15.25,M,5,3335*7C
$GNRMC,034809.000,A,2500.8072500,N,12132.4306600,E,0.00,85.16,270623,,,D,V*3A
$GPHDT,88.796,T*0D
$GNGGA,034809.200,2500.8072500,N,12132.4306600,E,2,60,0.47,18.53,M,15.25,M,5,3335*74
$GNRMC,034809.200,A,2500.8072500,N,12132.4306600,E,0.00,85.16,270623,,,D,V*38
$GPHDT,88.923,T*0D
$GNGGA,034809.400,2500.8072700,N,12132.4306500,E,2,60,0.47,18.54,M,15.25,M,3,3335*72
$GNRMC,034809.400,A,2500.8072700,N,12132.4306500,E,0.00,85.16,270623,,,D,V*3F
$GPHDT,89.052,T*03
$GNGGA,034809.600,2500.8072800,N,12132.4306500,E,2,61,0.47,18.54,M,15.25,M,1,3335*7C
$GNRMC,034809.600,A,2500.8072800,N,12132.4306500,E,0.01,85.16,270623,,,D,V*33
$GPHDT,89.215,T*02
$GNGGA,034809.800,2500.8072900,N,12132.4306500,E,2,61,0.47,18.54,M,15.25,M,1,3335*73
$GNRMC,034809.800,A,2500.8072900,N,12132.4306500,E,0.00,85.16,270623,,,D,V*3D
$GPHDT,88.669,T*0C
$GNGSA,A,3,195,19,17,196,199,06,194,09,11,14,04,12,0.88,0.47,0.74,1*0C
$GNGSA,A,3,68,67,82,83,73,,,,,,,,0.88,0.47,0.74,2*08
$GNGSA,A,3,24,10,12,11,19,04,25,33,,,,,0.88,0.47,0.74,3*0C
$GNGSA,A,3,40,07,10,33,14,08,43,13,42,28,11,23,0.88,0.47,0.74,4*03
$GNGSA,A,3,34,,,,,,,,,,,,0.88,0.47,0.74,4*03
$GPGSV,4,1,16,195,67,043,41,19,66,022,41,17,64,078,43,196,64,127,39,1*6B
$GPGSV,4,2,16,199,60,167,36,50,60,167,40,06,50,341,42,194,41,171,25,1*6A
$GPGSV,4,3,16,09,33,105,42,20,29,231,,11,28,286,27,14,25,176,17,1*61
$GPGSV,4,4,16,04,21,072,33,12,14,317,28,03,08,038,21,05,04,222,,1*68
$GPGSV,3,1,10,195,67,043,45,196,64,127,46,199,60,167,44,06,50,341,46,8*5E
$GPGSV,3,2,10,194,41,171,23,09,33,105,44,11,28,286,30,14,25,176,18,8*51
$GPGSV,3,3,10,04,21,072,36,03,08,038,21,8*68
$GLGSV,3,1,09,68,51,147,38,67,46,060,43,82,37,039,43,83,34,342,22,1*78
$GLGSV,3,2,09,80,24,229,17,73,23,289,22,69,11,185,,66,05,027,18,1*7D
$GLGSV,3,3,09,74,03,327,,1*47
$GAGSV,2,1,08,24,51,242,20,10,49,335,39,12,48,016,39,11,35,301,29,7*72
$GAGSV,2,2,08,19,31,085,35,04,28,153,24,25,26,306,29,33,14,065,29,7*75
$GAGSV,2,1,08,24,51,242,20,10,49,335,44,12,48,016,41,11,35,301,34,1*7D
$GAGSV,2,2,08,19,31,085,37,04,28,153,29,25,26,306,33,33,14,065,34,1*7B
$GBGSV,5,1,17,40,83,134,40,07,81,244,41,10,72,289,38,38,67,294,,1*79
$GBGSV,5,2,17,33,64,148,44,14,61,081,38,08,58,271,33,43,53,056,42,1*7D
$GBGSV,5,3,17,13,49,258,28,42,39,053,43,28,38,325,33,11,32,081,42,1*7A
$GBGSV,5,4,17,41,23,197,,23,18,220,22,34,17,098,34,37,16,272,,1*71
$GBGSV,5,5,17,06,01,188,,1*46
$GBGSV,2,1,07,40,83,134,46,38,67,294,31,33,64,148,46,43,53,056,45,4*75
$GBGSV,2,2,07,42,39,053,44,28,38,325,29,34,17,098,27,4*45
$GNGGA,034810.000,2500.8073100,N,12132.4306500,E,2,61,0.47,18.54,M,15.25,M,2,3335*79
$GNRMC,034810.000,A,2500.8073100,N,12132.4306500,E,0.00,85.16,270623,,,D,V*34
$GPHDT,88.915,T*08
$GNGGA,034810.200,2500.8073100,N,12132.4306400,E,2,61,0.47,18.55,M,15.25,M,2,3335*7B
$GNRMC,034810.200,A,2500.8073100,N,12132.4306400,E,0.00,85.16,270623,,,D,V*37
$GPHDT,89.523,T*00
$GNGGA,034810.400,2500.8073200,N,12132.4306400,E,2,61,0.47,18.55,M,15.25,M,2,3335*7E
$GNRMC,034810.400,A,2500.8073200,N,12132.4306400,E,0.00,85.16,270623,,,D,V*32
$GPHDT,89.455,T*00
$GNGGA,034810.600,2500.8073300,N,12132.4306300,E,2,61,0.47,18.55,M,15.25,M,0,3335*78
$GNRMC,034810.600,A,2500.8073300,N,12132.4306300,E,0.00,85.16,270623,,,D,V*36
$GPHDT,89.212,T*05
$GNGGA,034810.800,2500.8073400,N,12132.4306300,E,2,61,0.47,18.55,M,15.25,M,0,3335*71
$GNRMC,034810.800,A,2500.8073400,N,12132.4306300,E,0.00,85.16,270623,,,D,V*3F
$GPHDT,89.743,T*04
$GNGSA,A,3,195,19,17,196,199,06,194,09,11,14,04,12,0.88,0.47,0.74,1*0C
$GNGSA,A,3,68,67,82,83,73,,,,,,,,0.88,0.47,0.74,2*08
$GNGSA,A,3,24,10,12,11,19,04,25,33,,,,,0.88,0.47,0.74,3*0C
$GNGSA,A,3,40,07,10,33,14,08,43,13,42,28,11,23,0.88,0.47,0.74,4*03
$GNGSA,A,3,34,,,,,,,,,,,,0.88,0.47,0.74,4*03
$GPGSV,4,1,16,195,67,043,41,19,66,022,42,17,64,078,43,196,64,127,39,1*68
$GPGSV,4,2,16,199,60,167,36,50,60,167,40,06,50,341,42,194,41,171,26,1*69
$GPGSV,4,3,16,09,33,105,42,20,29,231,,11,28,286,24,14,25,176,17,1*62
$GPGSV,4,4,16,04,21,072,33,12,14,317,28,03,08,038,20,05,04,222,,1*69
$GPGSV,3,1,10,195,67,043,45,196,64,127,46,199,60,167,44,06,50,341,46,8*5E
$GPGSV,3,2,10,194,41,171,26,09,33,105,44,11,28,286,30,14,25,176,18,8*54
$GPGSV,3,3,10,04,21,072,36,03,08,038,21,8*68
$GLGSV,2,1,07,68,51,147,38,67,46,060,43,82,37,039,43,83,34,342,23,1*76
$GLGSV,2,2,07,80,24,229,16,73,23,288,21,66,05,027,13,1*49
$GAGSV,2,1,08,24,51,242,20,10,49,335,39,12,48,016,39,11,35,301,29,7*72
$GAGSV,2,2,08,19,31,085,35,04,28,153,26,25,26,306,29,33,14,065,26,7*78
$GAGSV,2,1,08,24,51,242,22,10,49,335,44,12,48,016,41,11,35,301,34,1*7F
$GAGSV,2,2,08,19,31,085,37,04,28,153,29,25,26,306,33,33,14,065,34,1*7B
$GBGSV,4,1,16,40,83,134,40,07,81,244,41,10,72,289,38,38,67,294,42,1*7F
$GBGSV,4,2,16,33,64,148,44,14,61,081,38,08,58,271,33,43,53,056,42,1*7D
$GBGSV,4,3,16,13,49,258,29,42,39,053,43,28,38,325,33,11,32,081,42,1*7B
$GBGSV,4,4,16,41,23,197,,23,18,220,21,34,17,098,33,37,16,272,,1*75
$GBGSV,2,1,07,40,83,134,46,38,67,294,43,33,64,148,46,43,53,056,45,4*70
$GBGSV,2,2,07,42,39,053,44,28,38,325,29,34,17,098,27,4*45
$GNGGA,034811.000,2500.8073500,N,12132.4306200,E,2,61,0.47,18.55,M,15.25,M,1,3335*79
$GNRMC,034811.000,A,2500.8073500,N,12132.4306200,E,0.00,85.16,270623,,,D,V*36
$GPHDT,89.042,T*02
$GNGGA,034811.200,2500.8073500,N,12132.4306200,E,2,61,0.47,18.55,M,15.25,M,1,3335*7B
$GNRMC,034811.200,A,2500.8073500,N,12132.4306200,E,0.00,85.16,270623,,,D,V*34
$GPHDT,89.376,T*06
$GNGGA,034811.400,2500.8073600,N,12132.4306200,E,2,62,0.45,18.55,M,15.25,M,1,3335*7F
$GNRMC,034811.400,A,2500.8073600,N,12132.4306200,E,0.00,85.16,270623,,,D,V*31
$GPHDT,89.258,T*0B
$GNGGA,034811.600,2500.8073700,N,12132.4306200,E,2,62,0.45,18.56,M,15.25,M,1,3335*7F
$GNRMC,034811.600,A,2500.8073700,N,12132.4306200,E,0.00,85.16,270623,,,D,V*32
$GPHDT,88.741,T*07
$GNGGA,034811.800,2500.8073800,N,12132.4306100,E,2,62,0.45,18.56,M,15.25,M,0,3335*7C
$GNRMC,034811.800,A,2500.8073800,N,12132.4306100,E,0.00,85.16,270623,,,D,V*30
$GPHDT,89.277,T*06
$GNGSA,A,3,195,19,17,196,199,06,194,09,11,14,04,12,0.85,0.45,0.72,1*05
$GNGSA,A,3,68,67,82,83,80,73,,,,,,,0.85,0.45,0.72,2*09
$GNGSA,A,3,24,10,12,11,19,04,25,33,,,,,0.85,0.45,0.72,3*05
$GNGSA,A,3,40,07,10,33,14,08,43,13,42,28,11,23,0.85,0.45,0.72,4*0A
$GNGSA,A,3,34,,,,,,,,,,,,0.85,0.45,0.72,4*0A
$GPGSV,4,1,16,195,67,043,41,19,66,022,42,17,64,078,43,196,64,127,39,1*68
$GPGSV,4,2,16,199,60,167,37,50,60,167,39,06,50,341,42,194,41,171,27,1*67
$GPGSV,4,3,16,09,33,105,42,20,29,231,,11,28,286,22,14,25,176,17,1*64
$GPGSV,4,4,16,04,21,072,33,12,14,317,28,03,08,038,20,05,04,222,,1*69
$GPGSV,3,1,10,195,67,043,45,196,64,127,46,199,60,167,45,06,50,341,46,8*5F
$GPGSV,3,2,10,194,41,171,27,09,33,105,44,11,28,286,30,14,25,176,17,8*5A
$GPGSV,3,3,10,04,21,072,36,03,08,038,22,8*6B
$GLGSV,2,1,07,68,51,147,38,67,46,060,43,82,37,039,44,83,34,342,23,1*71
$GLGSV,2,2,07,80,24,229,15,73,23,288,21,66,05,027,14,1*4D
$GAGSV,2,1,08,24,51,242,20,10,49,335,39,12,48,016,39,11,35,301,29,7*72
$GAGSV,2,2,08,19,31,085,34,04,28,153,25,25,26,306,28,33,14,065,25,7*78
$GAGSV,2,1,08,24,51,242,21,10,49,335,44,12,48,016,41,11,35,301,35,1*7D
$GAGSV,2,2,08,19,31,085,37,04,28,153,29,25,26,306,34,33,14,065,35,1*7D
$GBGSV,4,1,16,40,83,134,41,07,81,244,41,10,72,289,40,38,67,294,43,1*70
$GBGSV,4,2,16,33,64,148,44,14,61,081,38,08,58,271,33,43,53,056,42,1*7D
$GBGSV,4,3,16,13,49,258,29,42,39,053,43,28,38,325,31,11,32,081,42,1*79
$GBGSV,4,4,16,41,23,197,,23,18,220,23,34,17,098,34,37,16,272,,1*70
$GBGSV,2,1,07,40,83,134,46,38,67,294,43,33,64,148,46,43,53,056,45,4*70
$GBGSV,2,2,07,42,39,053,44,28,38,325,29,34,17,098,26,4*44
$GNGGA,034812.000,2500.8073900,N,12132.4306100,E,2,62,0.45,18.56,M,15.25,M,1,3335*77
$GNRMC,034812.000,A,2500.8073900,N,12132.4306100,E,0.00,85.16,270623,,,D,V*3A
$GPHDT,89.591,T*09
$GNGGA,034812.200,2500.8074000,N,12132.4306100,E,2,62,0.45,18.56,M,15.25,M,1,3335*7B
$GNRMC,034812.200,A,2500.8074000,N,12132.4306100,E,0.00,85.16,270623,,,D,V*36
$GPHDT,89.534,T*06
$GNGGA,034812.400,2500.8074100,N,12132.4306100,E,2,62,0.45,18.57,M,15.25,M,1,3335*7D
$GNRMC,034812.400,A,2500.8074100,N,12132.4306100,E,0.00,85.16,270623,,,D,V*31
$GPHDT,89.663,T*07
$GNGGA,034812.600,2500.8074200,N,12132.4306100,E,2,62,0.45,18.57,M,15.25,M,1,3335*7C
$GNRMC,034812.600,A,2500.8074200,N,12132.4306100,E,0.00,85.16,270623,,,D,V*30
$GPHDT,89.425,T*07
$GNGGA,034812.800,2500.8074300,N,12132.4306000,E,2,62,0.45,18.57,M,15.25,M,1,3335*72
$GNRMC,034812.800,A,2500.8074300,N,12132.4306000,E,0.00,85.16,270623,,,D,V*3E
$GPHDT,89.585,T*0C
$GNGSA,A,3,195,19,17,196,199,06,194,09,11,14,04,12,0.85,0.45,0.72,1*05
$GNGSA,A,3,68,67,82,83,73,80,,,,,,,0.85,0.45,0.72,2*09
$GNGSA,A,3,24,10,12,11,19,04,25,33,,,,,0.85,0.45,0.72,3*05
$GNGSA,A,3,40,07,10,33,14,08,43,13,42,28,11,23,0.85,0.45,0.72,4*0A
$GNGSA,A,3,34,,,,,,,,,,,,0.85,0.45,0.72,4*0A
$GPGSV,4,1,16,195,67,043,41,19,66,022,42,17,64,078,43,196,64,127,39,1*68
$GPGSV,4,2,16,199,60,167,37,50,60,167,39,06,50,341,42,194,41,171,27,1*67
$GPGSV,4,3,16,09,33,105,42,20,29,231,,11,28,286,23,14,25,176,17,1*65
$GPGSV,4,4,16,04,21,072,34,12,14,317,27,03,08,038,20,05,04,222,,1*61
$GPGSV,3,1,10,195,67,043,45,196,64,127,46,199,60,167,45,06,50,341,46,8*5F
$GPGSV,3,2,10,194,41,171,25,09,33,105,44,11,28,286,30,14,25,176,17,8*58
$GPGSV,3,3,10,04,21,072,36,03,08,038,24,8*6D
$GLGSV,2,1,07,68,51,147,38,67,46,060,43,82,37,039,44,83,34,342,23,1*71
$GLGSV,2,2,07,73,23,288,23,80,23,229,13,66,05,027,15,1*4F
$GAGSV,2,1,08,24,51,242,20,10,49,335,39,12,48,016,39,11,35,301,29,7*72
$GAGSV,2,2,08,19,31,085,34,04,28,153,25,25,26,306,28,33,14,065,26,7*7B
$GAGSV,2,1,08,24,51,242,22,10,49,335,44,12,48,016,41,11,35,301,35,1*7E
$GAGSV,2,2,08,19,31,085,37,04,28,153,29,25,26,306,34,33,14,065,35,1*7D
$GBGSV,5,1,17,40,83,134,41,07,81,244,41,10,72,289,40,38,67,294,42,1*71
$GBGSV,5,2,17,33,64,148,44,14,61,081,38,08,58,271,33,43,53,056,42,1*7D
$GBGSV,5,3,17,13,49,258,30,42,39,053,43,28,38,325,32,11,32,081,42,1*72
$GBGSV,5,4,17,41,23,197,,23,18,220,23,34,17,098,33,37,16,272,,1*77
$GBGSV,5,5,17,06,01,188,,1*46
$GBGSV,2,1,07,40,83,134,46,38,67,294,43,33,64,148,46,43,53,056,45,4*70
$GBGSV,2,2,07,42,39,053,44,28,38,325,28,34,17,098,26,4*45
$GNGGA,034813.000,2500.8074400,N,12132.4306000,E,2,62,0.45,18.57,M,15.25,M,2,3335*7F
$GNRMC,034813.000,A,2500.8074400,N,12132.4306000,E,0.00,85.16,270623,,,D,V*30
$GPHDT,89.164,T*07
$GNGGA,034813.200,2500.8074400,N,12132.4306000,E,2,62,0.45,18.57,M,15.25,M,2,3335*7D
$GNRMC,034813.200,A,2500.8074400,N,12132.4306000,E,0.00,85.16,270623,,,D,V*32
$GPHDT,89.515,T*05
$GNGGA,034813.400,2500.8074600,N,12132.4306000,E,2,62,0.45,18.57,M,15.25,M,1,3335*7A
$GNRMC,034813.400,A,2500.8074600,N,12132.4306000,E,0.00,85.16,270623,,,D,V*36
$GPHDT,89.777,T*03
$GNGGA,034813.600,2500.8074600,N,12132.4305900,E,2,62,0.45,18.57,M,15.25,M,0,3335*73
$GNRMC,034813.600,A,2500.8074600,N,12132.4305900,E,0.00,85.16,270623,,,D,V*3E
$GPHDT,89.270,T*01
$GNGGA,034813.800,2500.8074700,N,12132.4305900,E,2,61,0.47,18.58,M,15.25,M,0,3335*72
$GNRMC,034813.800,A,2500.8074700,N,12132.4305900,E,0.00,85.16,270623,,,D,V*31
$GPHDT,89.654,T*03
$GNGSA,A,3,195,19,17,196,199,06,194,09,11,14,04,12,0.88,0.47,0.74,1*0C
$GNGSA,A,3,68,67,82,83,73,,,,,,,,0.88,0.47,0.74,2*08
$GNGSA,A,3,24,10,12,11,19,04,25,33,,,,,0.88,0.47,0.74,3*0C
$GNGSA,A,3,40,07,10,33,14,08,43,13,42,28,11,23,0.88,0.47,0.74,4*03
$GNGSA,A,3,34,,,,,,,,,,,,0.88,0.47,0.74,4*03
$GPGSV,4,1,16,195,67,043,41,19,66,022,42,17,64,078,43,196,64,127,39,1*68
$GPGSV,4,2,16,199,60,167,37,50,60,167,39,06,50,341,42,194,41,171,28,1*68
$GPGSV,4,3,16,09,33,105,42,20,29,231,,11,28,286,23,14,25,176,16,1*64
$GPGSV,4,4,16,04,21,072,35,12,14,317,27,03,08,038,20,05,04,222,,1*60
$GPGSV,3,1,10,195,67,043,45,196,64,127,46,199,60,167,45,06,50,341,46,8*5F
$GPGSV,3,2,10,194,41,171,23,09,33,105,44,11,28,286,29,14,25,176,13,8*52
$GPGSV,3,3,10,04,21,072,36,03,08,038,24,8*6D
$GLGSV,2,1,07,68,51,147,38,67,46,060,43,82,37,039,44,83,34,342,21,1*73
$GLGSV,2,2,07,73,23,288,23,80,23,229,16,66,05,027,15,1*4A
$GAGSV,2,1,08,24,51,242,20,10,49,335,39,12,48,016,39,11,35,301,29,7*72
$GAGSV,2,2,08,19,31,085,34,04,28,153,25,25,26,306,30,33,14,065,26,7*72
$GAGSV,2,1,08,24,51,242,20,10,49,335,44,12,48,016,41,11,35,301,35,1*7C
$GAGSV,2,2,08,19,31,085,37,04,28,153,29,25,26,306,34,33,14,065,35,1*7D
$GBGSV,4,1,16,40,83,134,41,07,81,244,41,10,72,289,39,38,67,294,39,1*73
$GBGSV,4,2,16,33,64,148,44,14,61,081,39,08,58,271,35,43,53,056,42,1*7A
$GBGSV,4,3,16,13,49,258,29,42,39,053,43,28,38,325,33,11,32,081,42,1*7B
$GBGSV,4,4,16,41,23,197,,23,18,220,24,34,17,098,33,37,16,272,,1*70
$GBGSV,2,1,07,40,83,134,45,38,67,294,43,33,64,148,46,43,53,056,44,4*72
$GBGSV,2,2,07,42,39,053,44,28,38,325,27,34,17,098,27,4*4B
$GNGGA,034814.000,2500.8074700,N,12132.4305800,E,2,61,0.47,18.58,M,15.25,M,1,3335*7D
$GNRMC,034814.000,A,2500.8074700,N,12132.4305800,E,0.00,85.16,270623,,,D,V*3F
$GPHDT,89.338,T*0C
$GNGGA,034814.200,2500.8074900,N,12132.4305800,E,2,61,0.47,18.58,M,15.25,M,1,3335*71
$GNRMC,034814.200,A,2500.8074900,N,12132.4305800,E,0.00,85.16,270623,,,D,V*33
$GPHDT,89.247,T*05
$GNGGA,034814.400,2500.8075000,N,12132.4305800,E,2,61,0.47,18.58,M,15.25,M,1,3335*7F
$GNRMC,034814.400,A,2500.8075000,N,12132.4305800,E,0.00,85.16,270623,,,D,V*3D
$GPHDT,89.109,T*0C
$GNGGA,034814.600,2500.8075100,N,12132.4305700,E,2,61,0.47,18.58,M,15.25,M,1,3335*73
$GNRMC,034814.600,A,2500.8075100,N,12132.4305700,E,0.00,85.16,270623,,,D,V*31
$GPHDT,89.269,T*09
$GNGGA,034814.800,2500.8075200,N,12132.4305700,E,2,61,0.47,18.59,M,15.25,M,1,3335*7F
$GNRMC,034814.800,A,2500.8075200,N,12132.4305700,E,0.00,85.16,270623,,,D,V*3C
$GPHDT,89.168,T*0B
$GNGSA,A,3,195,19,17,196,199,06,194,09,11,14,04,12,0.88,0.47,0.74,1*0C
$GNGSA,A,3,68,67,82,83,73,,,,,,,,0.88,0.47,0.74,2*08
$GNGSA,A,3,24,10,12,11,19,04,25,33,,,,,0.88,0.47,0.74,3*0C
$GNGSA,A,3,40,07,10,33,14,08,43,13,42,28,11,23,0.88,0.47,0.74,4*03
$GNGSA,A,3,34,,,,,,,,,,,,0.88,0.47,0.74,4*03
$GPGSV,4,1,16,195,67,043,41,19,66,022,42,17,64,078,42,196,64,127,39,1*69
$GPGSV,4,2,16,199,60,167,37,50,60,167,39,06,50,341,42,194,41,171,28,1*68
$GPGSV,4,3,16,09,33,105,43,20,29,231,,11,28,286,26,14,25,176,16,1*60
$GPGSV,4,4,16,04,21,072,36,12,14,317,28,03,08,038,21,05,04,222,,1*6D
$GPGSV,3,1,10,195,67,043,45,196,64,127,46,199,60,167,45,06,50,341,46,8*5F
$GPGSV,3,2,10,194,41,171,23,09,33,105,44,11,28,286,28,14,25,176,13,8*53
$GPGSV,3,3,10,04,21,072,36,03,08,038,23,8*6A
$GLGSV,2,1,07,68,51,147,38,67,46,060,43,82,37,039,44,83,34,342,22,1*70
$GLGSV,2,2,07,73,23,288,23,80,23,229,14,66,05,027,14,1*49
$GAGSV,2,1,08,24,51,242,19,10,49,335,39,12,48,016,39,11,35,301,30,7*70
$GAGSV,2,2,08,19,31,085,34,04,28,153,23,25,26,306,30,33,14,065,26,7*74
$GAGSV,2,1,08,24,51,242,20,10,49,335,44,12,48,016,41,11,35,301,35,1*7C
$GAGSV,2,2,08,19,31,085,37,04,28,153,25,25,26,306,34,33,14,065,35,1*71
$GBGSV,4,1,16,40,83,134,40,07,81,244,40,10,72,289,39,38,67,294,39,1*73
$GBGSV,4,2,16,33,64,148,44,14,61,081,37,08,58,271,37,43,53,056,42,1*76
$GBGSV,4,3,16,13,49,258,28,42,39,053,43,28,38,325,34,11,32,081,42,1*7D
$GBGSV,4,4,16,41,23,197,,23,18,220,24,34,17,098,34,37,16,272,,1*77
$GBGSV,2,1,07,40,83,134,45,38,67,294,44,33,64,148,45,43,53,056,44,4*76
$GBGSV,2,2,07,42,39,053,43,28,38,325,27,34,17,098,28,4*43
$GNGGA,034815.000,2500.8075300,N,12132.4305700,E,2,61,0.47,18.59,M,15.25,M,2,3335*74
$GNRMC,034815.000,A,2500.8075300,N,12132.4305700,E,0.00,85.16,270623,,,D,V*34
$GPHDT,88.852,T*0A
$GNGGA,034815.200,2500.8075300,N,12132.4305700,E,2,61,0.47,18.59,M,15.25,M,2,3335*76
$GNRMC,034815.200,A,2500.8075300,N,12132.4305700,E,0.00,85.16,270623,,,D,V*36
$GPHDT,89.349,T*0A
$GNGGA,034815.400,2500.8075400,N,12132.4305600,E,2,61,0.47,18.59,M,15.25,M,2,3335*76
$GNRMC,034815.400,A,2500.8075400,N,12132.4305600,E,0.00,85.16,270623,,,D,V*36
$GPHDT,88.874,T*0E
