$FW : RTK35X,V1.1X0314AS,Lib20210517,1*54
$Tool : LOCOSYS , GNSS Firebird , v1.0.0.19*39
$---------------------------------------------------*2D
40.200,A,2500.8066100,N,12132.4313100,E,0.00,85.16,270623,,,D,V*38
$GPHDT,,T*1B
$GNGGA,034740.400,2500.8066000,N,12132.4313200,E,2,58,0.47,18.94,M,15.25,M,1,3335*74
$GNRMC,034740.400,A,2500.8066000,N,12132.4313200,E,0.00,85.16,270623,,,D,V*3C
$GPHDT,,T*1B
$GNGGA,034740.600,2500.8065900,N,12132.4313300,E,2,56,0.49,18.95,M,15.25,M,0,3335*7D
$GNRMC,034740.600,A,2500.8065900,N,12132.4313300,E,0.00,85.16,270623,,,D,V*35
$GPHDT,,T*1B
$GNGGA,034740.800,2500.8065900,N,12132.4313300,E,2,56,0.49,18.94,M,15.25,M,0,3335*72
$GNRMC,034740.800,A,2500.8065900,N,12132.4313300,E,0.00,85.16,270623,,,D,V*3B
$GPHDT,,T*1B
$GNGSA,A,3,195,19,17,196,199,06,194,09,11,14,04,12,0.90,0.49,0.76,1*09
$GNGSA,A,3,68,67,82,80,73,,,,,,,,0.90,0.49,0.76,2*0E
$GNGSA,A,3,10,12,11,19,04,25,33,,,,,,0.90,0.49,0.76,3*0F
$GNGSA,A,3,40,07,10,33,14,43,13,42,28,11,34,,0.90,0.49,0.76,4*08
$GPGSV,4,1,15,195,67,043,40,19,66,021,40,17,64,077,45,196,64,127,39,1*62
$GPGSV,4,2,15,50,60,167,40,199,60,167,37,06,50,341,43,194,41,171,31,1*6C
$GPGSV,4,3,15,09,33,105,44,20,29,231,,11,28,286,26,14,25,176,16,1*64
$GPGSV,4,4,15,04,21,072,36,12,13,317,27,03,08,038,19,1*5E
$GPGSV,3,1,09,195,67,043,46,196,64,127,45,199,60,167,46,06,50,341,46,8*54
$GPGSV,3,2,09,194,41,171,32,09,33,105,45,11,28,286,26,04,21,072,41,8*53
$GPGSV,3,3,09,03,08,038,24,8*52
$GLGSV,3,1,09,68,50,147,44,67,46,060,43,82,37,039,44,83,34,342,17,1*73
$GLGSV,3,2,09,80,24,229,17,73,23,289,26,69,11,185,,66,05,027,18,1*79
$GLGSV,3,3,09,74,03,327,,1*47
$GAGSV,2,1,08,24,51,242,,10,49,335,39,12,48,016,37,11,35,300,30,7*77
$GAGSV,2,2,08,19,31,085,35,04,28,153,29,25,25,307,31,33,14,065,32,7*79
$GAGSV,2,1,07,10,49,335,43,12,48,016,41,11,35,300,13,19,31,085,36,1*77
$GAGSV,2,2,07,04,28,153,28,25,25,307,32,33,14,065,34,1*45
$GBGSV,4,1,14,40,83,133,39,07,81,245,40,10,72,289,39,33,64,148,44,1*79
$GBGSV,4,2,14,14,61,082,43,43,53,056,44,13,49,258,27,42,40,053,44,1*79
$GBGSV,4,3,14,28,38,325,32,11,32,081,42,41,22,197,,23,18,220,,1*7C
$GBGSV,4,4,14,34,17,097,34,37,16,272,,1*7F
$GBGSV,2,1,06,40,83,133,45,33,64,148,46,43,53,056,45,42,40,053,46,4*71
$GBGSV,2,2,06,28,38,325,28,34,17,097,25,4*72
$GNGGA,034741.000,2500.8065900,N,12132.4313300,E,2,56,0.49,18.94,M,15.25,M,1,3335*7A
$GNRMC,034741.000,A,2500.8065900,N,12132.4313300,E,0.00,85.16,270623,,,D,V*32
$GPHDT,,T*1B
$GNGGA,034741.200,2500.8065900,N,12132.4313300,E,2,55,0.49,18.93,M,15.25,M,1,3335*7C
$GNRMC,034741.200,A,2500.8065900,N,12132.4313300,E,0.00,85.16,270623,,,D,V*30
$GPHDT,,T*1B
$GNGGA,034741.400,2500.8065900,N,12132.4313200,E,2,55,0.49,18.93,M,15.25,M,1,3335*7B
$GNRMC,034741.400,A,2500.8065900,N,12132.4313200,E,0.00,85.16,270623,,,D,V*37
$GPHDT,,T*1B
$GNGGA,034741.600,2500.8066000,N,12132.4313100,E,2,55,0.49,18.92,M,15.25,M,0,3335*70
$GNRMC,034741.600,A,2500.8066000,N,12132.4313100,E,0.00,85.16,270623,,,D,V*3C
$GPHDT,,T*1B
$GNGGA,034741.800,2500.8065900,N,12132.4313000,E,2,56,0.48,18.91,M,15.25,M,0,3335*74
$GNRMC,034741.800,A,2500.8065900,N,12132.4313000,E,0.00,85.16,270623,,,D,V*39
$GPHDT,,T*1B
$GNGSA,A,3,195,19,17,196,199,06,194,09,11,14,04,12,0.89,0.48,0.75,1*03
$GNGSA,A,3,68,67,82,80,73,,,,,,,,0.89,0.48,0.75,2*04
$GNGSA,A,3,24,10,12,11,19,04,25,33,,,,,0.89,0.48,0.75,3*03
$GNGSA,A,3,40,07,10,33,14,08,43,13,42,28,11,34,0.89,0.48,0.75,4*0A
$GPGSV,4,1,16,195,67,043,40,19,66,021,40,17,64,077,45,196,64,127,39,1*61
$GPGSV,4,2,16,199,60,167,37,50,60,167,39,06,50,341,42,194,41,171,31,1*60
$GPGSV,4,3,16,09,33,105,44,20,29,231,,11,28,286,26,14,25,176,16,1*67
$GPGSV,4,4,16,04,21,072,36,12,13,317,28,03,08,038,20,05,03,222,,1*6C
$GPGSV,3,1,09,195,67,043,46,196,64,127,45,199,60,167,46,06,50,341,47,8*55
$GPGSV,3,2,09,194,41,171,31,09,33,105,45,11,28,286,24,04,21,072,42,8*51
$GPGSV,3,3,09,03,08,038,26,8*50
$GLGSV,2,1,08,68,50,147,43,67,46,060,43,82,37,039,44,83,34,342,16,1*75
$GLGSV,2,2,08,80,24,229,16,73,23,289,26,66,05,027,16,74,03,327,,1*73
$GAGSV,2,1,08,24,51,242,17,10,49,335,39,12,48,016,38,11,35,300,31,7*7F
$GAGSV,2,2,08,19,31,085,35,04,28,153,29,25,25,307,32,33,14,065,32,7*7A
$GAGSV,2,1,07,10,49,335,43,12,48,016,42,11,35,300,33,19,31,085,37,1*77
$GAGSV,2,2,07,04,28,153,29,25,25,307,32,33,14,065,34,1*44
$GBGSV,4,1,15,40,83,133,40,07,81,245,40,10,72,289,40,33,64,148,44,1*78
$GBGSV,4,2,15,14,61,082,43,08,58,270,39,43,53,056,44,13,49,258,27,1*76
$GBGSV,4,3,15,42,40,053,44,28,38,325,32,11,32,081,42,41,22,197,,1*71
$GBGSV,4,4,15,23,18,220,,34,17,097,34,37,16,272,,1*46
$GBGSV,2,1,05,40,83,133,46,33,64,148,46,43,53,056,45,42,40,053,47,4*70
$GBGSV,2,2,05,28,38,325,27,4*46
$GNGGA,034742.000,2500.8066000,N,12132.4312900,E,2,57,0.48,18.91,M,15.25,M,1,3335*7D
$GNRMC,034742.000,A,2500.8066000,N,12132.4312900,E,0.00,85.16,270623,,,D,V*30
$GPHDT,,T*1B
$GNGGA,034742.200,2500.8065900,N,12132.4312800,E,2,57,0.48,18.90,M,15.25,M,1,3335*75
$GNRMC,034742.200,A,2500.8065900,N,12132.4312800,E,0.00,85.16,270623,,,D,V*39
$GPHDT,,T*1B
$GNGGA,034742.400,2500.8066000,N,12132.4312700,E,2,58,0.46,18.89,M,15.25,M,1,3335*7F
$GNRMC,034742.400,A,2500.8066000,N,12132.4312700,E,0.00,85.16,270623,,,D,V*3A
$GPHDT,,T*1B
$GNGGA,034742.600,2500.8066000,N,12132.4312500,E,2,58,0.46,18.88,M,15.25,M,1,3335*7E
$GNRMC,034742.600,A,2500.8066000,N,12132.4312500,E,0.00,85.16,270623,,,D,V*3A
$GPHDT,,T*1B
$GNGGA,034742.800,2500.8066000,N,12132.4312400,E,2,58,0.46,18.86,M,15.25,M,0,3335*7E
$GNRMC,034742.800,A,2500.8066000,N,12132.4312400,E,0.00,85.16,270623,,,D,V*35
$GPHDT,,T*1B
$GNGSA,A,3,195,19,17,196,199,06,194,09,11,14,04,12,0.85,0.45,0.72,1*05
$GNGSA,A,3,68,67,82,83,80,73,,,,,,,0.85,0.45,0.72,2*09
$GNGSA,A,3,24,10,12,11,19,04,25,33,,,,,0.85,0.45,0.72,3*05
$GNGSA,A,3,40,07,10,33,14,08,43,13,42,28,11,23,0.85,0.45,0.72,4*0A
$GNGSA,A,3,34,,,,,,,,,,,,0.85,0.45,0.72,4*0A
$GPGSV,4,1,16,195,67,043,40,19,66,021,40,17,64,077,45,196,64,127,39,1*61
$GPGSV,4,2,16,199,60,167,37,50,60,167,39,06,50,341,42,194,41,171,31,1*60
$GPGSV,4,3,16,09,33,105,44,20,29,231,,11,28,286,26,14,25,176,17,1*66
$GPGSV,4,4,16,04,21,072,36,12,13,317,28,03,08,038,21,05,03,222,,1*6D
$GPGSV,3,1,09,195,67,043,46,196,64,127,45,199,60,167,46,06,50,341,47,8*55
$GPGSV,3,2,09,194,41,171,32,09,33,105,44,11,28,286,26,04,21,072,42,8*51
$GPGSV,3,3,09,03,08,038,26,8*50
$GLGSV,2,1,07,68,50,147,43,67,46,060,43,82,37,039,44,83,34,342,15,1*79
$GLGSV,2,2,07,80,24,229,16,73,23,289,23,66,05,027,13,1*4A
$GAGSV,2,1,08,24,51,242,18,10,49,335,39,12,48,016,38,11,35,300,31,7*70
$GAGSV,2,2,08,19,31,085,35,04,28,153,29,25,25,307,32,33,14,065,32,7*7A
$GAGSV,2,1,07,10,49,335,43,12,48,016,42,11,35,300,35,19,31,085,37,1*71
$GAGSV,2,2,07,04,28,153,29,25,25,307,31,33,14,065,34,1*47
$GBGSV,4,1,15,40,83,133,40,07,81,244,40,10,72,289,40,33,64,148,44,1*79
$GBGSV,4,2,15,14,61,082,43,08,58,271,37,43,53,056,44,13,49,258,28,1*76
$GBGSV,4,3,15,42,40,053,44,28,38,325,33,11,32,081,42,41,22,197,,1*70
$GBGSV,4,4,15,23,18,220,18,34,17,097,34,37,16,272,,1*4F
$GBGSV,2,1,05,40,83,133,46,33,64,148,46,43,53,056,45,42,40,053,47,4*70
$GBGSV,2,2,05,28,38,325,29,4*48
$GNGGA,034743.000,2500.8066000,N,12132.4312200,E,2,59,0.45,18.86,M,15.25,M,1,3335*72
$GNRMC,034743.000,A,2500.8066000,N,12132.4312200,E,0.00,85.16,270623,,,D,V*3A
$GPHDT,,T*1B
$GNGGA,034743.200,2500.8066000,N,12132.4312100,E,2,59,0.45,18.85,M,15.25,M,1,3335*70
$GNRMC,034743.200,A,2500.8066000,N,12132.4312100,E,0.00,85.16,270623,,,D,V*3B
$GPHDT,,T*1B
$GNGGA,034743.400,2500.8066000,N,12132.4311900,E,2,59,0.45,18.85,M,15.25,M,1,3335*7D
$GNRMC,034743.400,A,2500.8066000,N,12132.4311900,E,0.00,85.16,270623,,,D,V*36
$GPHDT,,T*1B
$GNGGA,034743.600,2500.8066000,N,12132.4311800,E,2,59,0.45,18.85,M,15.25,M,0,3335*7F
$GNRMC,034743.600,A,2500.8066000,N,12132.4311800,E,0.00,85.16,270623,,,D,V*35
$GPHDT,,T*1B
$GNGGA,034743.800,2500.8066100,N,12132.4311600,E,2,59,0.45,18.84,M,15.25,M,0,3335*7F
$GNRMC,034743.800,A,2500.8066100,N,12132.4311600,E,0.00,85.16,270623,,,D,V*34
$GPHDT,,T*1B
$GNGSA,A,3,195,19,17,196,199,06,194,09,11,14,04,12,0.85,0.45,0.72,1*05
$GNGSA,A,3,68,67,82,83,80,73,,,,,,,0.85,0.45,0.72,2*09
$GNGSA,A,3,24,10,12,11,19,04,25,33,,,,,0.85,0.45,0.72,3*05
$GNGSA,A,3,40,07,10,33,14,08,43,13,42,28,11,23,0.85,0.45,0.72,4*0A
$GNGSA,A,3,34,,,,,,,,,,,,0.85,0.45,0.72,4*0A
$GPGSV,4,1,16,195,67,043,40,19,66,021,40,17,64,077,45,196,64,127,39,1*61
$GPGSV,4,2,16,199,60,167,37,50,60,167,39,06,50,341,42,194,41,171,32,1*63
$GPGSV,4,3,16,09,33,105,44,20,29,231,,11,28,286,26,14,25,176,18,1*69
$GPGSV,4,4,16,04,21,072,37,12,13,317,28,03,08,038,21,05,03,222,,1*6C
$GPGSV,3,1,10,195,67,043,46,196,64,127,45,199,60,167,46,06,50,341,47,8*5D
$GPGSV,3,2,10,194,41,171,32,09,33,105,44,11,28,286,25,14,25,176,19,8*54
$GPGSV,3,3,10,04,21,072,42,03,08,038,27,8*6D
$GLGSV,2,1,07,68,50,147,43,67,46,060,43,82,37,039,44,83,34,342,13,1*7F
$GLGSV,2,2,07,80,24,229,14,73,23,289,23,66,05,027,14,1*4F
$GAGSV,2,1,08,24,51,242,19,10,49,335,39,12,48,016,38,11,35,300,32,7*72
$GAGSV,2,2,08,19,31,085,35,04,28,153,30,25,25,307,32,33,14,065,32,7*72
$GAGSV,2,1,07,10,49,335,43,12,48,016,42,11,35,300,35,19,31,085,37,1*71
$GAGSV,2,2,07,04,28,153,28,25,25,307,33,33,14,065,34,1*44
$GBGSV,4,1,15,40,83,133,40,07,81,244,40,10,72,289,40,33,64,148,44,1*79
$GBGSV,4,2,15,14,61,082,43,08,58,271,37,43,53,056,43,13,49,258,29,1*70
$GBGSV,4,3,15,42,40,053,44,28,38,325,33,11,32,081,42,41,22,197,,1*70
$GBGSV,4,4,15,23,18,220,18,34,17,097,35,37,16,272,,1*4E
$GBGSV,2,1,06,40,83,133,46,33,64,148,46,43,53,056,45,42,40,053,47,4*73
$GBGSV,2,2,06,28,38,325,28,34,17,097,23,4*74
$GNGGA,034744.000,2500.8066100,N,12132.4311400,E,2,61,0.45,18.84,M,15.25,M,1,3335*78
$GNRMC,034744.000,A,2500.8066100,N,12132.4311400,E,0.00,85.16,270623,,,D,V*39
$GPHDT,,T*1B
$GNGGA,034744.200,2500.8066100,N,12132.4311200,E,2,61,0.45,18.84,M,15.25,M,1,3335*7C
$GNRMC,034744.200,A,2500.8066100,N,12132.4311200,E,0.00,85.16,270623,,,D,V*3D
$GPHDT,,T*1B
$GNGGA,034744.400,2500.8066100,N,12132.4311100,E,2,60,0.47,18.81,M,15.25,M,1,3335*7F
$GNRMC,034744.400,A,2500.8066100,N,12132.4311100,E,0.00,85.16,270623,,,D,V*38
$GPHDT,,T*1B
$GNGGA,034744.600,2500.8066000,N,12132.4310900,E,2,60,0.47,18.79,M,15.25,M,0,3335*73
$GNRMC,034744.600,A,2500.8066000,N,12132.4310900,E,0.00,85.16,270623,,,D,V*32
$GPHDT,,T*1B
$GNGGA,034744.800,2500.8066000,N,12132.4310700,E,2,60,0.47,18.77,M,15.25,M,0,3335*7D
$GNRMC,034744.800,A,2500.8066000,N,12132.4310700,E,0.00,85.16,270623,,,D,V*32
$GPHDT,,T*1B
$GNGSA,A,3,195,19,17,196,199,06,194,09,11,14,04,12,0.88,0.47,0.74,1*0C
$GNGSA,A,3,68,67,82,83,73,,,,,,,,0.88,0.47,0.74,2*08
$GNGSA,A,3,24,10,12,11,19,04,25,33,,,,,0.88,0.47,0.74,3*0C
$GNGSA,A,3,40,07,10,33,14,08,43,13,42,28,11,23,0.88,0.47,0.74,4*03
$GNGSA,A,3,34,,,,,,,,,,,,0.88,0.47,0.74,4*03
$GPGSV,4,1,16,195,67,043,40,19,66,021,40,17,64,077,45,196,64,127,39,1*61
$GPGSV,4,2,16,199,60,167,37,50,60,167,39,06,50,341,42,194,41,171,32,1*63
$GPGSV,4,3,16,09,33,105,44,20,29,231,,11,28,286,26,14,25,176,19,1*68
$GPGSV,4,4,16,04,21,072,37,12,13,317,28,03,08,038,21,05,03,222,,1*6C
$GPGSV,3,1,10,195,67,043,46,196,64,127,45,199,60,167,46,06,50,341,47,8*5D
$GPGSV,3,2,10,194,41,171,32,09,33,105,44,11,28,286,24,14,25,176,18,8*54
$GPGSV,3,3,10,04,21,072,42,03,08,038,25,8*6F
$GLGSV,3,1,09,68,50,147,43,67,46,060,43,82,37,039,44,83,34,342,12,1*71
$GLGSV,3,2,09,80,24,229,15,73,23,289,23,69,11,185,,66,05,027,17,1*71
$GLGSV,3,3,09,74,03,327,,1*47
$GAGSV,2,1,08,24,51,242,18,10,49,335,39,12,48,016,38,11,35,300,32,7*73
$GAGSV,2,2,08,19,31,085,35,04,28,153,30,25,25,307,32,33,14,065,32,7*72
$GAGSV,2,1,07,10,49,335,43,12,48,016,42,11,35,300,33,19,31,085,37,1*77
$GAGSV,2,2,07,04,28,153,28,25,25,307,31,33,14,065,34,1*46
$GBGSV,5,1,17,40,83,133,40,07,81,244,40,10,72,289,40,33,64,148,44,1*7A
$GBGSV,5,2,17,14,61,081,43,08,58,271,37,43,53,056,43,13,49,258,29,1*70
$GBGSV,5,3,17,42,40,053,44,28,38,325,33,11,32,081,42,41,22,197,,1*73
$GBGSV,5,4,17,23,18,220,20,34,17,097,35,37,16,272,,39,03,178,,1*71
$GBGSV,5,5,17,06,01,188,,1*46
$GBGSV,2,1,06,40,83,133,46,33,64,148,46,43,53,056,45,42,40,053,47,4*73
$GBGSV,2,2,06,28,38,325,26,34,17,097,24,4*7D
$GNGGA,034745.000,2500.8066000,N,12132.4310600,E,2,60,0.47,18.74,M,15.25,M,1,3335*77
$GNRMC,034745.000,A,2500.8066000,N,12132.4310600,E,0.00,85.16,270623,,,D,V*3A
$GPHDT,,T*1B
$GNGGA,034745.200,2500.8065900,N,12132.4310500,E,2,60,0.47,18.71,M,15.25,M,1,3335*79
$GNRMC,034745.200,A,2500.8065900,N,12132.4310500,E,0.00,85.16,270623,,,D,V*31
$GPHDT,,T*1B
$GNGGA,034745.400,2500.8065900,N,12132.4310300,E,2,59,0.48,18.69,M,15.25,M,1,3335*75
$GNRMC,034745.400,A,2500.8065900,N,12132.4310300,E,0.00,85.16,270623,,,D,V*31
$GPHDT,,T*1B
$GNGGA,034745.600,2500.8065900,N,12132.4310100,E,2,59,0.51,18.67,M,15.25,M,1,3335*73
$GNRMC,034745.600,A,2500.8065900,N,12132.4310100,E,0.00,85.16,270623,,,D,V*31
$GPHDT,,T*1B
$GNGGA,034745.800,2500.8065900,N,12132.4310000,E,2,59,0.51,18.65,M,15.25,M,1,3335*7E
$GNRMC,034745.800,A,2500.8065900,N,12132.4310000,E,0.00,85.16,270623,,,D,V*3E
$GPHDT,,T*1B
$GNGSA,A,3,195,19,17,196,199,06,194,09,11,14,04,12,0.92,0.51,0.77,1*03
$GNGSA,A,3,68,67,82,73,,,,,,,,,0.92,0.51,0.77,2*0C
$GNGSA,A,3,24,10,12,11,19,04,25,33,,,,,0.92,0.51,0.77,3*03
$GNGSA,A,3,40,07,10,33,14,08,43,13,42,28,11,34,0.92,0.51,0.77,4*0A
$GPGSV,4,1,14,195,67,043,41,19,66,021,40,17,64,077,45,196,64,127,39,1*62
$GPGSV,4,2,14,50,60,167,40,199,60,167,37,06,50,341,42,194,41,171,31,1*6C
$GPGSV,4,3,14,09,33,105,42,11,28,286,26,14,25,176,20,04,21,072,37,1*69
$GPGSV,4,4,14,12,13,317,28,03,08,038,20,1*6D
$GPGSV,3,1,10,195,67,043,46,196,64,127,45,199,60,167,46,06,50,341,47,8*5D
$GPGSV,3,2,10,194,41,171,32,09,33,105,44,11,28,286,24,14,25,176,17,8*5B
$GPGSV,3,3,10,04,21,072,42,03,08,038,25,8*6F
$GLGSV,3,1,09,68,50,147,43,67,46,060,43,82,37,039,44,83,34,342,12,1*71
$GLGSV,3,2,09,80,24,229,17,73,23,289,23,69,11,185,,66,05,027,17,1*73
$GLGSV,3,3,09,74,03,327,,1*47
$GAGSV,2,1,08,24,51,242,19,10,49,335,39,12,48,016,38,11,35,300,31,7*71
$GAGSV,2,2,08,19,31,085,35,04,28,153,30,25,25,307,32,33,14,065,32,7*72
$GAGSV,2,1,08,24,51,242,18,10,49,335,43,12,48,016,42,11,35,300,33,1*74
$GAGSV,2,2,08,19,31,085,37,04,28,153,28,25,25,307,31,33,14,065,34,1*7A
$GBGSV,4,1,16,40,83,133,40,07,81,244,40,10,72,289,40,33,64,148,44,1*7A
$GBGSV,4,2,16,14,61,081,43,08,58,271,37,43,53,056,42,13,49,258,29,1*71
$GBGSV,4,3,16,42,40,053,44,28,38,325,33,11,32,081,42,23,18,220,,1*71
$GBGSV,4,4,16,34,17,097,35,37,16,272,,39,03,178,,06,01,188,,1*7D
$GBGSV,2,1,06,40,83,133,46,33,64,148,46,43,53,056,45,42,40,053,46,4*72
$GBGSV,2,2,06,28,38,325,27,34,17,097,22,4*7A
$GNGGA,034746.000,2500.8065900,N,12132.4309700,E,2,59,0.51,18.64,M,15.25,M,2,3335*78
$GNRMC,034746.000,A,2500.8065900,N,12132.4309700,E,0.00,85.16,270623,,,D,V*3A
$GPHDT,,T*1B
$GNGGA,034746.200,2500.8065900,N,12132.4309500,E,2,59,0.51,18.63,M,15.25,M,2,3335*7F
$GNRMC,034746.200,A,2500.8065900,N,12132.4309500,E,0.00,85.16,270623,,,D,V*3A
$GPHDT,,T*1B
$GNGGA,034746.400,2500.8066000,N,12132.4309400,E,2,59,0.51,18.63,M,15.25,M,2,3335*72
$GNRMC,034746.400,A,2500.8066000,N,12132.4309400,E,0.00,85.16,270623,,,D,V*37
$GPHDT,,T*1B
$GNGGA,034746.600,2500.8066000,N,12132.4309100,E,2,59,0.51,18.62,M,15.25,M,2,3335*74
$GNRMC,034746.600,A,2500.8066000,N,12132.4309100,E,0.00,85.16,270623,,,D,V*30
$GPHDT,,T*1B
$GNGGA,034746.800,2500.8066000,N,12132.4308900,E,2,61,0.46,18.60,M,15.25,M,2,3335*7C
$GNRMC,034746.800,A,2500.8066000,N,12132.4308900,E,0.00,85.16,270623,,,D,V*37
$GPHDT,,T*1B
$GNGSA,A,3,195,19,17,196,199,06,194,09,11,14,04,12,0.86,0.46,0.72,1*05
$GNGSA,A,3,68,67,82,80,73,,,,,,,,0.86,0.46,0.72,2*02
$GNGSA,A,3,24,10,12,11,19,04,25,33,,,,,0.86,0.46,0.72,3*05
$GNGSA,A,3,40,07,10,33,14,08,43,13,42,28,11,23,0.86,0.46,0.72,4*0A
$GNGSA,A,3,34,,,,,,,,,,,,0.86,0.46,0.72,4*0A
$GPGSV,4,1,16,195,67,043,41,19,66,021,40,17,64,077,45,196,64,127,39,1*60
$GPGSV,4,2,16,199,60,167,37,50,60,167,40,06,50,341,42,194,41,171,32,1*6D
$GPGSV,4,3,16,09,33,105,42,20,29,231,,11,28,286,26,14,25,176,19,1*6E
$GPGSV,4,4,16,04,21,072,37,12,13,317,28,03,08,038,20,05,03,222,,1*6D
$GPGSV,3,1,10,195,67,043,46,196,64,127,45,199,60,167,46,06,50,341,47,8*5D
$GPGSV,3,2,10,194,41,171,31,09,33,105,44,11,28,286,25,14,25,176,18,8*56
$GPGSV,3,3,10,04,21,072,42,03,08,038,26,8*6C
$GLGSV,3,1,09,68,50,147,43,67,46,060,43,82,37,039,44,83,34,342,14,1*77
$GLGSV,3,2,09,80,24,229,14,73,23,289,22,69,11,185,,66,05,027,16,1*70
$GLGSV,3,3,09,74,03,327,,1*47
$GAGSV,2,1,08,24,51,242,19,10,49,335,39,12,48,016,38,11,35,300,30,7*70
$GAGSV,2,2,08,19,31,085,36,04,28,153,30,25,25,307,32,33,14,065,32,7*71
$GAGSV,2,1,08,24,51,242,19,10,49,335,43,12,48,016,42,11,35,300,32,1*74
$GAGSV,2,2,08,19,31,085,37,04,28,153,29,25,25,307,31,33,14,065,35,1*7A
$GBGSV,4,1,15,40,83,133,40,07,81,244,40,10,72,289,40,33,64,148,44,1*79
$GBGSV,4,2,15,14,61,081,43,08,58,271,37,43,53,056,42,13,49,258,28,1*73
$GBGSV,4,3,15,42,40,053,44,28,38,325,33,11,32,081,42,41,22,197,,1*70
$GBGSV,4,4,15,23,18,220,23,34,17,097,34,37,16,272,,1*47
$GBGSV,2,1,06,40,83,133,46,33,64,148,46,43,53,056,45,42,40,053,46,4*72
$GBGSV,2,2,06,28,38,325,28,34,17,097,21,4*76
$GNGGA,034747.000,2500.8066000,N,12132.4308800,E,2,61,0.46,18.60,M,15.25,M,3,3335*75
$GNRMC,034747.000,A,2500.8066000,N,12132.4308800,E,0.00,85.16,270623,,,D,V*3F
$GPHDT,,T*1B
$GNGGA,034747.200,2500.8066100,N,12132.4308600,E,2,61,0.46,18.58,M,15.25,M,3,3335*73
$GNRMC,034747.200,A,2500.8066100,N,12132.4308600,E,0.00,85.16,270623,,,D,V*32
$GPHDT,,T*1B
$GNGGA,034747.400,2500.8066100,N,12132.4308400,E,2,61,0.46,18.58,M,15.25,M,3,3335*77
$GNRMC,034747.400,A,2500.8066100,N,12132.4308400,E,0.00,85.16,270623,,,D,V*36
$GPHDT,,T*1B
$GNGGA,034747.600,2500.8066100,N,12132.4308300,E,2,61,0.46,18.57,M,15.25,M,3,3335*7D
$GNRMC,034747.600,A,2500.8066100,N,12132.4308300,E,0.00,85.16,270623,,,D,V*33
$GPHDT,,T*1B
$GNGGA,034747.800,2500.8066200,N,12132.4308000,E,2,61,0.46,18.56,M,15.25,M,3,3335*72
$GNRMC,034747.800,A,2500.8066200,N,12132.4308000,E,0.00,85.16,270623,,,D,V*3D
$GPHDT,,T*1B
$GNGSA,A,3,195,19,17,196,199,06,194,09,11,14,04,12,0.86,0.46,0.72,1*05
$GNGSA,A,3,68,67,82,80,73,,,,,,,,0.86,0.46,0.72,2*02
$GNGSA,A,3,24,10,12,11,19,04,25,33,,,,,0.86,0.46,0.72,3*05
$GNGSA,A,3,40,07,10,33,14,08,43,13,42,28,11,23,0.86,0.46,0.72,4*0A
$GNGSA,A,3,34,,,,,,,,,,,,0.86,0.46,0.72,4*0A
$GPGSV,4,1,16,195,67,043,41,19,66,021,40,17,64,077,45,196,64,127,39,1*60
$GPGSV,4,2,16,199,60,167,37,50,60,167,39,06,50,341,40,194,41,171,32,1*61
$GPGSV,4,3,16,09,33,105,42,20,29,231,,11,28,286,26,14,25,176,18,1*6F
$GPGSV,4,4,16,04,21,072,36,12,13,317,29,03,08,038,20,05,03,222,,1*6D
$GPGSV,3,1,10,195,67,043,46,196,64,127,45,199,60,167,46,06,50,341,47,8*5D
$GPGSV,3,2,10,194,41,171,31,09,33,105,44,11,28,286,25,14,25,176,19,8*57
$GPGSV,3,3,10,04,21,072,42,03,08,038,26,8*6C
$GLGSV,2,1,08,68,50,147,43,67,46,060,43,82,37,039,44,83,34,342,16,1*75
$GLGSV,2,2,08,80,24,229,14,73,23,289,20,69,11,185,,66,05,027,17,1*73
$GAGSV,2,1,08,24,51,242,17,10,49,335,39,12,48,016,38,11,35,300,31,7*7F
$GAGSV,2,2,08,19,31,085,36,04,28,153,30,25,25,307,32,33,14,065,31,7*72
$GAGSV,2,1,08,24,51,242,20,10,49,335,43,12,48,016,42,11,35,300,33,1*7F
$GAGSV,2,2,08,19,31,085,37,04,28,153,29,25,25,307,31,33,14,065,35,1*7A
$GBGSV,4,1,15,40,83,133,40,07,81,244,40,10,72,289,40,33,64,148,44,1*79
$GBGSV,4,2,15,14,61,081,43,08,58,271,37,43,53,056,42,13,49,258,28,1*73
$GBGSV,4,3,15,42,40,053,44,28,38,325,33,11,32,081,42,41,22,197,,1*70
$GBGSV,4,4,15,23,18,220,19,34,17,097,34,37,16,272,,1*4E
$GBGSV,2,1,06,40,83,133,46,33,64,148,46,43,53,056,45,42,40,053,46,4*72
$GBGSV,2,2,06,28,38,325,28,34,17,097,22,4*75
$GNGGA,034748.000,2500.8066200,N,12132.4307900,E,2,61,0.46,18.56,M,15.25,M,2,3335*72
$GNRMC,034748.000,A,2500.8066200,N,12132.4307900,E,0.00,85.16,270623,,,D,V*3C
$GPHDT,,T*1B
$GNGGA,034748.200,2500.8066100,N,12132.4307700,E,2,61,0.46,18.55,M,15.25,M,1,3335*7D
$GNRMC,034748.200,A,2500.8066100,N,12132.4307700,E,0.00,85.16,270623,,,D,V*33
$GPHDT,,T*1B
$GNGGA,034748.400,2500.8066200,N,12132.4307700,E,2,61,0.46,18.54,M,15.25,M,1,3335*79
$GNRMC,034748.400,A,2500.8066200,N,12132.4307700,E,0.00,85.16,270623,,,D,V*36
$GPHDT,,T*1B
$GNGGA,034748.600,2500.8066200,N,12132.4307500,E,2,62,0.45,18.52,M,15.25,M,0,3335*7E
$GNRMC,034748.600,A,2500.8066200,N,12132.4307500,E,0.00,85.16,270623,,,D,V*36
$GPHDT,,T*1B
$GNGGA,034748.800,2500.8066100,N,12132.4307400,E,2,62,0.45,18.52,M,15.25,M,0,3335*72
$GNRMC,034748.800,A,2500.8066100,N,12132.4307400,E,0.00,85.16,270623,,,D,V*3A
$GPHDT,,T*1B
$GNGSA,A,3,195,19,17,196,199,06,194,09,11,14,04,12,0.85,0.45,0.72,1*05
$GNGSA,A,3,68,67,82,83,80,73,,,,,,,0.85,0.45,0.72,2*09
$GNGSA,A,3,24,10,12,11,19,04,25,33,,,,,0.85,0.45,0.72,3*05
$GNGSA,A,3,40,07,10,33,14,08,43,13,42,28,11,23,0.85,0.45,0.72,4*0A
$GNGSA,A,3,34,,,,,,,,,,,,0.85,0.45,0.72,4*0A
$GPGSV,4,1,16,195,67,043,41,19,66,021,40,17,64,077,45,196,64,127,39,1*60
$GPGSV,4,2,16,50,60,167,39,199,60,167,37,06,50,341,40,194,41,171,31,1*62
$GPGSV,4,3,16,09,33,105,42,20,29,231,,11,28,286,26,14,25,176,18,1*6F
$GPGSV,4,4,16,04,21,072,37,12,13,317,30,03,08,038,18,05,03,222,,1*6F
$GPGSV,3,1,10,195,67,043,46,196,64,127,45,199,60,167,46,06,50,341,47,8*5D
$GPGSV,3,2,10,194,41,171,32,09,33,105,44,11,28,286,25,14,25,176,17,8*5A
$GPGSV,3,3,10,04,21,072,42,03,08,038,25,8*6F
$GLGSV,3,1,09,68,50,147,42,67,46,060,43,82,37,039,44,83,34,342,18,1*7A
$GLGSV,3,2,09,80,24,229,15,73,23,289,21,69,11,185,,66,05,027,17,1*73
$GLGSV,3,3,09,74,03,327,,1*47
$GAGSV,2,1,08,24,51,242,17,10,49,335,40,12,48,016,38,11,35,300,31,7*71
$GAGSV,2,2,08,19,31,085,36,04,28,153,30,25,25,307,32,33,14,065,30,7*73
$GAGSV,2,1,08,24,51,242,19,10,49,335,43,12,48,016,42,11,35,300,34,1*72
$GAGSV,2,2,08,19,31,085,37,04,28,153,29,25,25,307,32,33,14,065,35,1*79
$GBGSV,5,1,18,40,83,133,39,07,81,244,40,10,72,289,40,33,64,148,44,1*7B
$GBGSV,5,2,18,14,61,081,44,08,58,271,36,43,53,056,42,13,49,258,28,1*79
$GBGSV,5,3,18,42,40,053,44,28,38,325,33,11,32,081,42,41,22,197,,1*7C
$GBGSV,5,4,18,23,18,220,21,34,17,098,34,37,16,272,,39,03,178,,1*71
$GBGSV,5,5,18,25,02,177,,06,01,188,,1*7D
$GBGSV,2,1,06,40,83,133,46,33,64,148,46,43,53,056,45,42,40,053,46,4*72
$GBGSV,2,2,06,28,38,325,29,34,17,098,23,4*7A
$GNGGA,034749.000,2500.8066100,N,12132.4307300,E,2,62,0.45,18.50,M,15.25,M,1,3335*7F
$GNRMC,034749.000,A,2500.8066100,N,12132.4307300,E,0.00,85.16,270623,,,D,V*34
$GPHDT,,T*1B
$GNGGA,034749.200,2500.8066100,N,12132.4307100,E,2,62,0.45,18.48,M,15.25,M,1,3335*76
$GNRMC,034749.200,A,2500.8066100,N,12132.4307100,E,0.00,85.16,270623,,,D,V*34
$GPHDT,,T*1B
$GNGGA,034749.400,2500.8066000,N,12132.4307000,E,2,61,0.47,18.48,M,15.25,M,1,3335*71
$GNRMC,034749.400,A,2500.8066000,N,12132.4307000,E,0.00,85.16,270623,,,D,V*32
$GPHDT,,T*1B
$GNGGA,034749.600,2500.8066000,N,12132.4306900,E,2,61,0.47,18.46,M,15.25,M,1,3335*75
$GNRMC,034749.600,A,2500.8066000,N,12132.4306900,E,0.00,85.16,270623,,,D,V*38
$GPHDT,,T*1B
$GNGGA,034749.800,2500.8066000,N,12132.4306700,E,2,61,0.47,18.45,M,15.25,M,1,3335*76
$GNRMC,034749.800,A,2500.8066000,N,12132.4306700,E,0.00,85.16,270623,,,D,V*38
$GPHDT,,T*1B
$GNGSA,A,3,195,19,17,196,199,06,194,09,11,14,04,12,0.88,0.47,0.74,1*0C
$GNGSA,A,3,68,67,82,83,73,,,,,,,,0.88,0.47,0.74,2*08
$GNGSA,A,3,24,10,12,11,19,04,25,33,,,,,0.88,0.47,0.74,3*0C
$GNGSA,A,3,40,07,10,33,14,08,43,13,42,28,11,23,0.88,0.47,0.74,4*03
$GNGSA,A,3,34,,,,,,,,,,,,0.88,0.47,0.74,4*03
$GPGSV,4,1,16,195,67,043,41,19,66,021,40,17,64,077,45,196,64,127,39,1*60
$GPGSV,4,2,16,199,60,167,37,50,60,167,39,06,50,341,40,194,41,171,30,1*63
$GPGSV,4,3,16,09,33,105,42,20,29,231,,11,28,286,26,14,25,176,17,1*60
$GPGSV,4,4,16,04,21,072,37,12,13,317,31,03,08,038,18,05,03,222,,1*6E
$GPGSV,3,1,10,195,67,043,46,196,64,127,45,199,60,167,46,06,50,341,47,8*5D
$GPGSV,3,2,10,194,41,171,32,09,33,105,44,11,28,286,25,14,25,176,18,8*55
$GPGSV,3,3,10,04,21,072,42,03,08,038,25,8*6F
$GLGSV,3,1,09,68,50,147,42,67,46,060,43,82,37,039,43,83,34,342,17,1*72
$GLGSV,3,2,09,80,24,229,14,73,23,289,22,69,11,185,,66,05,027,17,1*71
$GLGSV,3,3,09,74,03,327,,1*47
$GAGSV,2,1,08,24,51,242,18,10,49,335,40,12,48,016,38,11,35,300,31,7*7E
$GAGSV,2,2,08,19,31,085,36,04,28,153,30,25,25,307,32,33,14,065,30,7*73
$GAGSV,2,1,08,24,51,242,19,10,49,335,43,12,48,016,42,11,35,300,34,1*72
$GAGSV,2,2,08,19,31,085,37,04,28,153,28,25,25,307,32,33,14,065,35,1*78
$GBGSV,4,1,16,40,83,134,39,07,81,244,40,10,72,289,40,33,64,148,44,1*73
$GBGSV,4,2,16,14,61,081,45,08,58,271,36,43,53,056,42,13,49,258,29,1*76
$GBGSV,4,3,16,42,39,053,44,28,38,325,34,11,32,081,42,41,23,197,,1*7B
$GBGSV,4,4,16,23,18,220,21,34,17,098,34,37,16,272,,25,02,177,,1*7D
$GBGSV,2,1,06,40,83,134,46,33,64,148,46,43,53,056,45,42,39,053,46,4*7B
$GBGSV,2,2,06,28,38,325,29,34,17,098,26,4*7F
$GNGGA,034750.000,2500.8066000,N,12132.4306600,E,2,61,0.47,18.44,M,15.25,M,1,3335*76
$GNRMC,034750.000,A,2500.8066000,N,12132.4306600,E,0.00,85.16,270623,,,D,V*39
$GPHDT,,T*1B
$GNGGA,034750.200,2500.8066000,N,12132.4306500,E,2,61,0.47,18.43,M,15.25,M,1,3335*70
$GNRMC,034750.200,A,2500.8066000,N,12132.4306500,E,0.00,85.16,270623,,,D,V*38
$GPHDT,,T*1B
$GNGGA,034750.400,2500.8066000,N,12132.4306300,E,2,61,0.47,18.41,M,15.25,M,1,3335*72
$GNRMC,034750.400,A,2500.8066000,N,12132.4306300,E,0.00,85.16,270623,,,D,V*38
$GPHDT,,T*1B
$GNGGA,034750.600,2500.8066000,N,12132.4306100,E,2,61,0.47,18.41,M,15.25,M,1,3335*72
$GNRMC,034750.600,A,2500.8066000,N,12132.4306100,E,0.00,85.16,270623,,,D,V*38
$GPHDT,,T*1B
$GNGGA,034750.800,2500.8066000,N,12132.4306000,E,2,61,0.47,18.40,M,15.25,M,1,3335*7C
$GNRMC,034750.800,A,2500.8066000,N,12132.4306000,E,0.00,85.16,270623,,,D,V*37
$GPHDT,,T*1B
$GNGSA,A,3,195,19,17,196,199,06,194,09,11,14,04,12,0.88,0.47,0.74,1*0C
$GNGSA,A,3,68,67,82,83,73,,,,,,,,0.88,0.47,0.74,2*08
$GNGSA,A,3,24,10,12,11,19,04,25,33,,,,,0.88,0.47,0.74,3*0C
$GNGSA,A,3,40,07,10,33,14,08,43,13,42,28,11,23,0.88,0.47,0.74,4*03
$GNGSA,A,3,34,,,,,,,,,,,,0.88,0.47,0.74,4*03
$GPGSV,4,1,16,195,67,043,41,19,66,021,40,17,64,077,45,196,64,127,39,1*60
$GPGSV,4,2,16,199,60,167,37,50,60,167,39,06,50,341,40,194,41,171,31,1*62
$GPGSV,4,3,16,09,33,105,42,20,29,231,,11,28,286,25,14,25,176,17,1*63
$GPGSV,4,4,16,04,21,072,36,12,13,317,31,03,08,038,19,05,03,222,,1*6E
$GPGSV,3,1,10,195,67,043,46,196,64,127,45,199,60,167,46,06,50,341,47,8*5D
$GPGSV,3,2,10,194,41,171,31,09,33,105,44,11,28,286,26,14,25,176,18,8*55
$GPGSV,3,3,10,04,21,072,42,03,08,038,24,8*6E
$GLGSV,2,1,08,68,50,147,42,67,46,060,43,82,37,039,43,83,34,342,18,1*7D
$GLGSV,2,2,08,80,24,229,13,73,23,289,24,66,05,027,17,74,03,327,,1*75
$GAGSV,2,1,08,24,51,242,17,10,49,335,39,12,48,016,38,11,35,300,31,7*7F
$GAGSV,2,2,08,19,31,085,36,04,28,153,31,25,25,307,31,33,14,065,31,7*70
$GAGSV,2,