$FW : RTK35X,V1.1X0314AS,Lib20210517,1*54
$Tool : LOCOSYS , GNSS Firebird , v1.0.0.19*39
$---------------------------------------------------*2D
$GPHDT,2.090,T*3E
$GNGGA,034543.600,2500.8064700,N,12132.4312500,E,2,60,0.46,17.83,M,15.25,M,11,3335*46
$GNRMC,034543.600,A,2500.8064700,N,12132.4312500,E,0.00,85.16,270623,,,D,V*3C
$GPHDT,1.959,T*31
$GNGGA,034543.800,2500.8064900,N,12132.4312500,E,2,60,0.46,17.83,M,15.25,M,11,3335*46
$GNRMC,034543.800,A,2500.8064900,N,12132.4312500,E,0.00,85.16,270623,,,D,V*3C
$GPHDT,2.266,T*35
$GNGSA,A,3,195,19,17,196,199,06,194,09,11,14,04,12,0.86,0.45,0.73,1*07
$GNGSA,A,3,68,67,82,83,80,73,,,,,,,0.86,0.45,0.73,2*0B
$GNGSA,A,3,24,10,12,11,19,04,25,33,,,,,0.86,0.45,0.73,3*07
$GNGSA,A,3,40,07,10,33,14,08,43,13,42,28,11,34,0.86,0.45,0.73,4*0E
$GNGSA,A,3,23,,,,,,,,,,,,0.86,0.45,0.73,4*0E
$GPGSV,4,1,16,195,67,043,41,19,66,019,43,17,64,075,39,196,64,127,42,1*6D
$GPGSV,4,2,16,199,60,167,36,50,60,167,38,06,50,339,44,194,41,171,34,1*6C
$GPGSV,4,3,16,09,33,106,40,20,28,230,16,11,27,285,25,14,26,177,22,1*6D
$GPGSV,4,4,16,04,21,073,38,12,13,318,25,03,09,038,13,05,03,221,,1*63
$GPGSV,3,1,10,195,67,043,48,196,64,127,47,199,60,167,47,06,50,339,46,8*5E
$GPGSV,3,2,10,194,41,171,31,09,33,106,42,11,27,285,27,14,26,177,17,8*50
$GPGSV,3,3,10,04,21,073,37,03,09,038,24,8*6C
$GLGSV,2,1,07,68,49,148,42,67,47,062,36,82,37,037,43,83,33,341,18,1*7E
$GLGSV,2,2,07,80,24,230,17,73,23,290,24,66,06,027,15,1*49
$GAGSV,2,1,08,24,52,243,20,10,49,334,40,12,48,015,38,11,35,300,32,7*76
$GAGSV,2,2,08,19,31,086,28,04,27,154,34,25,25,307,29,33,15,064,29,7*71
$GAGSV,2,1,08,24,52,243,20,10,49,334,44,12,48,015,42,11,35,300,34,1*7F
$GAGSV,2,2,08,19,31,086,25,04,27,154,34,25,25,307,29,33,15,064,34,1*76
$GBGSV,4,1,15,40,83,130,42,07,81,246,43,10,72,290,37,33,63,149,42,1*71
$GBGSV,4,2,15,14,61,083,42,08,58,269,40,43,53,055,39,13,49,258,29,1*77
$GBGSV,4,3,15,42,40,054,38,28,37,324,33,11,33,080,30,41,22,197,,1*77
$GBGSV,4,4,15,23,19,221,12,34,17,097,32,37,16,273,21,1*41
$GBGSV,2,1,06,40,83,130,45,33,63,149,45,43,53,055,38,42,40,054,36,4*7E
$GBGSV,2,2,06,23,19,221,16,34,17,097,32,4*74
$GNGGA,034544.000,2500.8065100,N,12132.4312500,E,2,61,0.45,17.83,M,15.25,M,12,3335*41
$GNRMC,034544.000,A,2500.8065100,N,12132.4312500,E,0.00,85.16,270623,,,D,V*3A
$GPHDT,1.827,T*39
$GNGGA,034544.200,2500.8065400,N,12132.4312500,E,2,61,0.45,17.83,M,15.25,M,12,3335*46
$GNRMC,034544.200,A,2500.8065400,N,12132.4312500,E,0.00,85.16,270623,,,D,V*3D
$GPHDT,1.826,T*38
$GNGGA,034544.400,2500.8065500,N,12132.4312600,E,2,61,0.45,17.83,M,15.25,M,12,3335*42
$GNRMC,034544.400,A,2500.8065500,N,12132.4312600,E,0.00,85.16,270623,,,D,V*39
$GPHDT,1.894,T*31
$GNGGA,034544.600,2500.8065700,N,12132.4312500,E,2,61,0.45,17.83,M,15.25,M,12,3335*41
$GNRMC,034544.600,A,2500.8065700,N,12132.4312500,E,0.00,85.16,270623,,,D,V*3A
$GPHDT,2.086,T*39
$GNGGA,034544.800,2500.8065800,N,12132.4312500,E,2,61,0.45,17.83,M,15.25,M,12,3335*40
$GNRMC,034544.800,A,2500.8065800,N,12132.4312500,E,0.00,85.16,270623,,,D,V*3B
$GPHDT,1.822,T*3C
$GNGSA,A,3,195,19,17,196,199,06,194,09,11,14,04,12,0.86,0.45,0.73,1*07
$GNGSA,A,3,68,67,82,83,80,73,,,,,,,0.86,0.45,0.73,2*0B
$GNGSA,A,3,24,10,12,11,19,04,25,33,,,,,0.86,0.45,0.73,3*07
$GNGSA,A,3,40,07,10,33,14,08,43,13,42,28,11,34,0.86,0.45,0.73,4*0E
$GNGSA,A,3,23,,,,,,,,,,,,0.86,0.45,0.73,4*0E
$GPGSV,4,1,16,195,67,043,41,19,66,019,43,17,64,075,39,196,64,127,42,1*6D
$GPGSV,4,2,16,199,60,167,36,50,60,167,38,06,50,339,44,194,41,171,34,1*6C
$GPGSV,4,3,16,09,33,106,40,20,28,230,13,11,27,285,24,14,26,177,22,1*69
$GPGSV,4,4,16,04,21,073,38,12,13,318,25,03,09,038,15,05,03,221,,1*65
$GPGSV,3,1,10,195,67,043,48,196,64,127,48,199,60,167,47,06,50,339,47,8*50
$GPGSV,3,2,10,194,41,171,31,09,33,106,42,11,27,285,28,14,26,177,17,8*5F
$GPGSV,3,3,10,04,21,073,37,03,09,038,26,8*6E
$GLGSV,3,1,09,68,49,148,42,67,47,062,36,82,37,037,43,83,33,341,19,1*70
$GLGSV,3,2,09,80,24,230,18,73,23,290,25,69,10,185,,66,06,027,13,1*7C
$GLGSV,3,3,09,74,03,328,,1*48
$GAGSV,2,1,08,24,52,243,20,10,49,334,39,12,48,015,38,11,35,300,32,7*78
$GAGSV,2,2,08,19,31,086,28,04,27,154,34,25,25,307,29,33,15,064,29,7*71
$GAGSV,2,1,08,24,52,243,23,10,49,334,44,12,48,015,43,11,35,300,34,1*7D
$GAGSV,2,2,08,19,31,086,24,04,27,154,34,25,25,307,29,33,15,064,34,1*77
$GBGSV,4,1,15,40,83,130,42,07,81,246,43,10,72,290,37,33,63,149,42,1*71
$GBGSV,4,2,15,14,61,083,42,08,58,269,40,43,53,055,39,13,49,258,30,1*7F
$GBGSV,4,3,15,42,40,054,38,28,37,324,33,11,33,080,30,41,22,197,,1*77
$GBGSV,4,4,15,23,19,221,11,34,17,097,32,37,16,273,21,1*42
$GBGSV,2,1,06,40,83,130,46,33,63,149,45,43,53,055,39,42,40,054,36,4*7C
$GBGSV,2,2,06,23,19,221,15,34,17,097,32,4*77
$GNGGA,034545.000,2500.8066000,N,12132.4312500,E,2,61,0.45,17.84,M,15.25,M,13,3335*44
$GNRMC,034545.000,A,2500.8066000,N,12132.4312500,E,0.00,85.16,270623,,,D,V*39
$GPHDT,2.103,T*35
$GNGGA,034545.200,2500.8066100,N,12132.4312500,E,2,61,0.45,17.85,M,15.25,M,13,3335*46
$GNRMC,034545.200,A,2500.8066100,N,12132.4312500,E,0.00,85.16,270623,,,D,V*3A
$GPHDT,2.108,T*3E
$GNGGA,034545.400,2500.8066300,N,12132.4312500,E,2,61,0.45,17.86,M,15.25,M,13,3335*41
$GNRMC,034545.400,A,2500.8066300,N,12132.4312500,E,0.00,85.16,270623,,,D,V*3E
$GPHDT,2.075,T*35
$GNGGA,034545.600,2500.8066400,N,12132.4312500,E,2,61,0.45,17.87,M,15.25,M,13,3335*45
$GNRMC,034545.600,A,2500.8066400,N,12132.4312500,E,0.00,85.16,270623,,,D,V*3B
$GPHDT,1.841,T*39
$GNGGA,034545.800,2500.8066500,N,12132.4312500,E,2,61,0.45,17.87,M,15.25,M,13,3335*4A
$GNRMC,034545.800,A,2500.8066500,N,12132.4312500,E,0.00,85.16,270623,,,D,V*34
$GPHDT,1.860,T*3A
$GNGSA,A,3,195,19,17,196,199,06,194,09,11,14,04,12,0.86,0.45,0.73,1*07
$GNGSA,A,3,68,67,82,83,80,73,,,,,,,0.86,0.45,0.73,2*0B
$GNGSA,A,3,24,10,12,11,19,04,25,33,,,,,0.86,0.45,0.73,3*07
$GNGSA,A,3,40,07,10,33,14,08,43,13,42,28,11,34,0.86,0.45,0.73,4*0E
$GNGSA,A,3,23,,,,,,,,,,,,0.86,0.45,0.73,4*0E
$GPGSV,4,1,16,195,67,043,41,19,66,019,43,17,64,075,39,196,64,127,42,1*6D
$GPGSV,4,2,16,199,60,167,36,50,60,167,38,06,50,339,44,194,41,171,34,1*6C
$GPGSV,4,3,16,09,33,106,40,20,28,230,11,11,27,285,24,14,26,177,22,1*6B
$GPGSV,4,4,16,04,21,073,38,12,13,318,25,03,09,038,15,05,03,221,,1*65
$GPGSV,3,1,10,195,67,043,48,196,64,127,48,199,60,167,47,06,50,339,47,8*50
$GPGSV,3,2,10,194,41,171,30,09,33,106,41,11,27,285,28,14,26,177,17,8*5D
$GPGSV,3,3,10,04,21,073,37,03,09,038,26,8*6E
$GLGSV,3,1,09,68,49,148,42,67,47,062,36,82,37,037,43,83,33,341,18,1*71
$GLGSV,3,2,09,80,24,230,18,73,23,290,25,69,10,185,,66,06,027,13,1*7C
$GLGSV,3,3,09,74,03,328,,1*48
$GAGSV,2,1,08,24,52,243,21,10,49,334,39,12,48,015,38,11,35,300,32,7*79
$GAGSV,2,2,08,19,31,086,28,04,27,154,34,25,25,307,29,33,15,064,29,7*71
$GAGSV,2,1,08,24,52,243,23,10,49,334,44,12,48,015,44,11,35,300,34,1*7A
$GAGSV,2,2,08,19,31,086,23,04,27,154,34,25,25,307,30,33,15,064,34,1*78
$GBGSV,4,1,16,40,83,130,42,07,81,246,43,10,72,290,37,33,63,149,42,1*72
$GBGSV,4,2,16,14,61,083,42,08,58,269,40,43,53,055,39,13,49,258,31,1*7D
$GBGSV,4,3,16,42,40,054,38,28,37,324,33,11,33,080,31,41,22,197,,1*75
$GBGSV,4,4,16,23,19,221,12,34,17,097,33,37,16,273,20,39,02,178,,1*74
$GBGSV,2,1,06,40,83,130,46,33,63,149,45,43,53,055,39,42,40,054,35,4*7F
$GBGSV,2,2,06,23,19,221,13,34,17,097,32,4*71
$GNGGA,034546.000,2500.8066600,N,12132.4312500,E,2,61,0.45,17.88,M,15.25,M,14,3335*4A
$GNRMC,034546.000,A,2500.8066600,N,12132.4312500,E,0.00,85.16,270623,,,D,V*3C
$GPHDT,1.651,T*36
$GNGGA,034546.200,2500.8066800,N,12132.4312400,E,2,60,0.45,17.88,M,15.25,M,14,3335*46
$GNRMC,034546.200,A,2500.8066800,N,12132.4312400,E,0.00,85.16,270623,,,D,V*31
$GPHDT,1.554,T*30
$GNGGA,034546.400,2500.8066900,N,12132.4312400,E,2,60,0.45,17.89,M,15.25,M,14,3335*40
$GNRMC,034546.400,A,2500.8066900,N,12132.4312400,E,0.00,85.16,270623,,,D,V*36
$GPHDT,1.970,T*3A
$GNGGA,034546.600,2500.8067100,N,12132.4312400,E,2,60,0.45,17.90,M,15.25,M,14,3335*43
$GNRMC,034546.600,A,2500.8067100,N,12132.4312400,E,0.00,85.16,270623,,,D,V*3D
$GPHDT,2.166,T*36
$GNGGA,034546.800,2500.8067200,N,12132.4312400,E,2,60,0.45,17.90,M,15.25,M,14,3335*4E
$GNRMC,034546.800,A,2500.8067200,N,12132.4312400,E,0.00,85.16,270623,,,D,V*30
$GPHDT,1.604,T*36
$GNGSA,A,3,195,19,17,196,199,06,194,09,11,14,04,12,0.86,0.45,0.73,1*07
$GNGSA,A,3,68,67,82,83,80,73,,,,,,,0.86,0.45,0.73,2*0B
$GNGSA,A,3,24,10,12,11,19,04,25,33,,,,,0.86,0.45,0.73,3*07
$GNGSA,A,3,40,07,10,33,14,08,43,13,42,28,11,34,0.86,0.45,0.73,4*0E
$GNGSA,A,3,23,,,,,,,,,,,,0.86,0.45,0.73,4*0E
$GPGSV,4,1,16,195,67,043,41,19,66,019,43,17,64,075,39,196,64,127,42,1*6D
$GPGSV,4,2,16,199,60,167,36,50,60,167,38,06,50,339,44,194,41,171,34,1*6C
$GPGSV,4,3,16,09,33,106,39,20,28,230,11,11,27,285,24,14,26,177,21,1*66
$GPGSV,4,4,16,04,21,073,39,12,13,318,25,03,09,038,14,05,03,221,,1*65
$GPGSV,3,1,09,195,67,043,48,196,64,127,48,199,60,167,47,06,50,339,47,8*58
$GPGSV,3,2,09,194,41,171,29,09,33,106,41,11,27,285,27,04,21,073,37,8*53
$GPGSV,3,3,09,03,09,038,25,8*52
$GLGSV,2,1,08,68,49,148,42,67,47,062,36,82,37,037,43,83,33,341,18,1*71
$GLGSV,2,2,08,80,24,230,18,73,23,290,25,66,06,027,14,74,03,328,,1*70
$GAGSV,2,1,08,24,52,243,21,10,49,334,37,12,48,015,38,11,35,300,32,7*77
$GAGSV,2,2,08,19,31,086,26,04,27,154,34,25,25,307,29,33,15,064,30,7*77
$GAGSV,2,1,08,24,52,243,23,10,49,334,44,12,48,015,44,11,35,300,34,1*7A
$GAGSV,2,2,08,19,31,086,21,04,27,154,34,25,25,307,30,33,15,064,34,1*7A
$GBGSV,5,1,17,40,83,130,42,07,81,246,43,10,72,290,37,33,63,149,42,1*72
$GBGSV,5,2,17,14,61,083,42,08,58,269,40,43,53,055,37,13,49,258,30,1*72
$GBGSV,5,3,17,42,40,054,38,28,37,324,33,11,33,080,29,41,22,197,,1*7C
$GBGSV,5,4,17,23,19,221,12,34,17,097,33,37,16,273,19,25,02,178,,1*73
$GBGSV,5,5,17,06,01,188,,1*46
$GBGSV,2,1,06,40,83,130,46,33,63,149,44,43,53,055,39,42,40,054,33,4*78
$GBGSV,2,2,06,23,19,221,12,34,17,097,32,4*70
$GNGGA,034547.000,2500.8067300,N,12132.4312400,E,2,60,0.45,17.91,M,15.25,M,15,3335*46
$GNRMC,034547.000,A,2500.8067300,N,12132.4312400,E,0.00,85.16,270623,,,D,V*38
$GPHDT,2.033,T*37
$GNGGA,034547.200,2500.8067500,N,12132.4312400,E,2,59,0.48,17.91,M,15.25,M,15,3335*45
$GNRMC,034547.200,A,2500.8067500,N,12132.4312400,E,0.00,85.16,270623,,,D,V*3C
$GPHDT,2.015,T*33
$GNGGA,034547.400,2500.8067500,N,12132.4312200,E,2,59,0.48,17.91,M,15.25,M,15,3335*45
$GNRMC,034547.400,A,2500.8067500,N,12132.4312200,E,0.00,85.16,270623,,,D,V*3C
$GPHDT,1.756,T*30
$GNGGA,034547.600,2500.8067600,N,12132.4312100,E,2,59,0.48,17.91,M,15.25,M,15,3335*47
$GNRMC,034547.600,A,2500.8067600,N,12132.4312100,E,0.00,85.16,270623,,,D,V*3E
$GPHDT,1.869,T*33
$GNGGA,034547.800,2500.8067700,N,12132.4311900,E,2,59,0.48,17.91,M,15.25,M,15,3335*43
$GNRMC,034547.800,A,2500.8067700,N,12132.4311900,E,0.00,85.16,270623,,,D,V*3A
$GPHDT,2.021,T*34
$GNGSA,A,3,195,19,17,196,199,06,194,09,11,14,04,12,0.89,0.48,0.75,1*03
$GNGSA,A,3,68,67,82,83,80,73,,,,,,,0.89,0.48,0.75,2*0F
$GNGSA,A,3,24,10,12,11,19,04,25,33,,,,,0.89,0.48,0.75,3*03
$GNGSA,A,3,40,07,10,33,14,08,43,13,42,28,11,34,0.89,0.48,0.75,4*0A
$GPGSV,4,1,16,195,67,043,41,19,66,019,43,17,64,075,39,196,64,127,42,1*6D
$GPGSV,4,2,16,199,60,167,36,50,60,167,39,06,50,339,44,194,41,171,34,1*6D
$GPGSV,4,3,16,09,33,106,39,20,28,230,12,11,27,285,25,14,26,176,21,1*65
$GPGSV,4,4,16,04,21,073,39,12,13,318,23,03,09,038,15,05,03,221,,1*62
$GPGSV,3,1,10,195,67,043,48,196,64,127,48,199,60,167,47,06,50,339,47,8*50
$GPGSV,3,2,10,194,41,171,30,09,33,106,41,11,27,285,27,14,26,176,18,8*5C
$GPGSV,3,3,10,04,21,073,37,03,09,038,23,8*6B
$GLGSV,2,1,07,68,49,148,42,67,47,062,35,82,37,037,43,83,33,341,18,1*7D
$GLGSV,2,2,07,80,24,230,18,73,23,290,25,66,06,027,12,1*40
$GAGSV,2,1,08,24,52,243,21,10,49,334,37,12,48,015,38,11,35,300,31,7*74
$GAGSV,2,2,08,19,31,086,27,04,27,154,34,25,25,307,28,33,15,064,30,7*77
$GAGSV,2,1,08,24,52,243,23,10,49,334,44,12,48,015,44,11,35,300,34,1*7A
$GAGSV,2,2,08,19,31,086,21,04,27,154,34,25,25,307,29,33,15,064,34,1*72
$GBGSV,4,1,16,40,83,130,41,07,81,246,43,10,72,290,37,33,63,149,42,1*71
$GBGSV,4,2,16,14,61,083,43,08,58,269,40,43,53,055,37,13,49,258,30,1*73
$GBGSV,4,3,16,42,40,054,39,28,37,324,33,11,33,080,30,41,22,197,,1*75
$GBGSV,4,4,16,23,19,221,14,34,17,097,33,37,16,273,19,25,02,178,,1*75
$GBGSV,1,1,04,40,83,130,46,33,63,149,44,43,53,055,38,34,17,097,32,4*75
$GNGGA,034548.000,2500.8067800,N,12132.4311900,E,2,59,0.48,17.91,M,15.25,M,16,3335*48
$GNRMC,034548.000,A,2500.8067800,N,12132.4311900,E,0.00,85.16,270623,,,D,V*32
$GPHDT,1.789,T*32
$GNGGA,034548.200,2500.8067800,N,12132.4311800,E,2,58,0.48,17.91,M,15.25,M,16,3335*4A
$GNRMC,034548.200,A,2500.8067800,N,12132.4311800,E,0.00,85.16,270623,,,D,V*31
$GPHDT,1.820,T*3E
$GNGGA,034548.400,2500.8067800,N,12132.4311600,E,2,58,0.48,17.91,M,15.25,M,16,3335*42
$GNRMC,034548.400,A,2500.8067800,N,12132.4311600,E,0.00,85.16,270623,,,D,V*39
$GPHDT,2.046,T*35
$GNGGA,034548.600,2500.8067900,N,12132.4311500,E,2,59,0.48,17.90,M,15.25,M,16,3335*42
$GNRMC,034548.600,A,2500.8067900,N,12132.4311500,E,0.00,85.16,270623,,,D,V*39
$GPHDT,1.749,T*3E
$GNGGA,034548.800,2500.8068000,N,12132.4311300,E,2,59,0.48,17.90,M,15.25,M,16,3335*4C
$GNRMC,034548.800,A,2500.8068000,N,12132.4311300,E,0.00,85.16,270623,,,D,V*37
$GPHDT,1.623,T*33
$GNGSA,A,3,195,19,17,196,199,06,194,09,11,14,04,12,0.89,0.48,0.75,1*03
$GNGSA,A,3,68,67,82,83,80,73,,,,,,,0.89,0.48,0.75,2*0F
$GNGSA,A,3,24,10,12,11,19,04,25,33,,,,,0.89,0.48,0.75,3*03
$GNGSA,A,3,40,07,10,33,14,08,43,13,42,28,11,34,0.89,0.48,0.75,4*0A
$GPGSV,4,1,16,195,67,043,41,19,66,020,43,17,64,075,40,196,64,127,42,1*69
$GPGSV,4,2,16,199,60,167,36,50,60,167,39,06,50,339,44,194,41,171,34,1*6D
$GPGSV,4,3,16,09,33,106,39,20,29,230,13,11,27,285,25,14,26,176,21,1*65
$GPGSV,4,4,16,04,21,073,39,12,13,318,22,03,09,038,15,05,03,221,,1*63
$GPGSV,3,1,09,195,67,043,48,196,64,127,48,199,60,167,47,06,50,339,47,8*58
$GPGSV,3,2,09,194,41,171,30,09,33,106,41,11,27,285,26,04,21,073,37,8*5A
$GPGSV,3,3,09,03,09,038,22,8*55
$GLGSV,2,1,07,68,49,148,42,67,47,062,33,82,37,037,43,83,33,341,18,1*7B
$GLGSV,2,2,07,80,24,230,18,73,23,290,25,66,06,027,15,1*47
$GAGSV,2,1,08,24,52,243,21,10,49,334,37,12,48,015,38,11,35,300,31,7*74
$GAGSV,2,2,08,19,31,086,28,04,27,154,34,25,25,307,27,33,15,064,29,7*7F
$GAGSV,2,1,08,24,52,243,22,10,49,334,44,12,48,015,44,11,35,300,34,1*7B
$GAGSV,2,2,08,19,31,086,20,04,27,154,34,25,25,307,30,33,15,064,34,1*7B
$GBGSV,4,1,15,40,83,130,41,07,81,246,43,10,72,290,37,33,63,149,42,1*72
$GBGSV,4,2,15,14,61,083,43,08,58,269,40,43,53,055,37,13,49,258,30,1*70
$GBGSV,4,3,15,42,40,054,39,28,37,324,35,11,33,080,31,41,22,197,,1*71
$GBGSV,4,4,15,23,19,221,14,34,17,097,33,37,16,273,19,1*4D
$GBGSV,2,1,05,40,83,130,46,33,63,149,44,43,53,055,39,42,40,054,39,4*71
$GBGSV,2,2,05,34,17,097,32,4*48
$GNGGA,034549.000,2500.8068100,N,12132.4311200,E,2,59,0.48,17.89,M,15.25,M,17,3335*4C
$GNRMC,034549.000,A,2500.8068100,N,12132.4311200,E,0.00,85.16,270623,,,D,V*3E
$GPHDT,2.062,T*33
$GNGGA,034549.200,2500.8068100,N,12132.4311200,E,2,59,0.48,17.89,M,15.25,M,17,3335*4E
$GNRMC,034549.200,A,2500.8068100,N,12132.4311200,E,0.00,85.16,270623,,,D,V*3C
$GPHDT,2.128,T*3C
$GNGGA,034549.400,2500.8068300,N,12132.4311000,E,2,59,0.48,17.89,M,15.25,M,17,3335*48
$GNRMC,034549.400,A,2500.8068300,N,12132.4311000,E,0.00,85.16,270623,,,D,V*3A
$GPHDT,2.134,T*31
$GNGGA,034549.600,2500.8068300,N,12132.4310900,E,2,59,0.48,17.89,M,15.25,M,17,3335*42
$GNRMC,034549.600,A,2500.8068300,N,12132.4310900,E,0.00,85.16,270623,,,D,V*30
$GPHDT,2.384,T*38
$GNGGA,034549.800,2500.8068300,N,12132.4310800,E,2,59,0.48,17.89,M,15.25,M,17,3335*4D
$GNRMC,034549.800,A,2500.8068300,N,12132.4310800,E,0.00,85.16,270623,,,D,V*3F
$GPHDT,1.683,T*39
$GNGSA,A,3,195,19,17,196,199,06,194,09,11,14,04,12,0.89,0.48,0.75,1*03
$GNGSA,A,3,68,67,82,83,80,73,,,,,,,0.89,0.48,0.75,2*0F
$GNGSA,A,3,24,10,12,11,19,04,25,33,,,,,0.89,0.48,0.75,3*03
$GNGSA,A,3,40,07,10,33,14,08,43,13,42,28,11,34,0.89,0.48,0.75,4*0A
$GPGSV,4,1,16,195,67,043,41,19,66,020,43,17,64,075,41,196,64,127,42,1*68
$GPGSV,4,2,16,199,60,167,36,50,60,167,38,06,50,339,44,194,41,171,34,1*6C
$GPGSV,4,3,16,09,33,106,38,20,29,230,12,11,27,285,25,14,26,176,20,1*64
$GPGSV,4,4,16,04,21,073,34,12,13,318,22,03,09,038,17,05,03,221,,1*6C
$GPGSV,3,1,09,195,67,043,47,196,64,127,48,199,60,167,47,06,50,339,47,8*57
$GPGSV,3,2,09,194,41,171,29,09,33,106,41,11,27,285,26,04,21,073,35,8*50
$GPGSV,3,3,09,03,09,038,23,8*54
$GLGSV,3,1,09,68,49,148,42,67,47,062,33,82,37,037,44,83,33,341,18,1*73
$GLGSV,3,2,09,80,24,230,18,73,23,290,24,69,10,185,,66,06,027,15,1*7B
$GLGSV,3,3,09,74,03,328,,1*48
$GAGSV,2,1,08,24,52,243,20,10,49,334,37,12,48,015,37,11,35,300,32,7*79
$GAGSV,2,2,08,19,31,086,29,04,27,154,32,25,25,307,27,33,15,064,30,7*70
$GAGSV,2,1,08,24,52,243,22,10,49,334,43,12,48,015,43,11,35,300,33,1*7C
$GAGSV,2,2,08,19,31,086,29,04,27,154,33,25,25,307,28,33,15,064,32,1*7A
$GBGSV,5,1,17,40,83,130,41,07,81,246,43,10,72,290,37,33,63,149,42,1*71
$GBGSV,5,2,17,14,61,083,43,08,58,269,40,43,53,055,39,13,49,258,30,1*7D
$GBGSV,5,3,17,42,40,054,40,28,37,324,35,11,33,080,33,41,22,197,,1*7E
$GBGSV,5,4,17,23,19,221,12,34,17,097,33,37,16,273,18,39,02,178,,1*7F
$GBGSV,5,5,17,06,01,188,,1*46
$GBGSV,2,1,05,40,83,130,46,33,63,149,43,43,53,055,38,42,40,054,38,4*76
$GBGSV,2,2,05,34,17,097,30,4*4A
$GNGGA,034550.000,2500.8068400,N,12132.4310700,E,2,59,0.48,17.90,M,15.25,M,18,3335*42
$GNRMC,034550.000,A,2500.8068400,N,12132.4310700,E,0.00,85.16,270623,,,D,V*37
$GPHDT,1.996,T*32
$GNGGA,034550.200,2500.8068400,N,12132.4310600,E,2,59,0.48,17.90,M,15.25,M,18,3335*41
$GNRMC,034550.200,A,2500.8068400,N,12132.4310600,E,0.00,85.16,270623,,,D,V*34
$GPHDT,2.270,T*32
$GNGGA,034550.400,2500.8068500,N,12132.4310400,E,2,59,0.48,17.91,M,15.25,M,18,3335*45
$GNRMC,034550.400,A,2500.8068500,N,12132.4310400,E,0.00,85.16,270623,,,D,V*31
$GPHDT,1.747,T*30
$GNGGA,034550.600,2500.8068600,N,12132.4310300,E,2,59,0.48,17.92,M,15.25,M,18,3335*40
$GNRMC,034550.600,A,2500.8068600,N,12132.4310300,E,0.00,85.16,270623,,,D,V*37
$GPHDT,1.936,T*38
$GNGGA,034550.800,2500.8068600,N,12132.4310100,E,2,60,0.48,17.92,M,15.25,M,18,3335*46
$GNRMC,034550.800,A,2500.8068600,N,12132.4310100,E,0.00,85.16,270623,,,D,V*3B
$GPHDT,2.218,T*3C
$GNGSA,A,3,195,19,17,196,199,06,194,09,11,14,04,12,0.86,0.45,0.73,1*07
$GNGSA,A,3,68,67,82,83,80,73,,,,,,,0.86,0.45,0.73,2*0B
$GNGSA,A,3,24,10,12,11,19,04,25,33,,,,,0.86,0.45,0.73,3*07
$GNGSA,A,3,40,07,10,33,14,08,43,13,42,28,11,34,0.86,0.45,0.73,4*0E
$GNGSA,A,3,23,,,,,,,,,,,,0.86,0.45,0.73,4*0E
$GPGSV,4,1,16,195,67,043,41,19,66,020,43,17,64,075,41,196,64,127,42,1*68
$GPGSV,4,2,16,199,60,167,35,50,60,167,38,06,50,339,44,194,41,171,33,1*68
$GPGSV,4,3,16,09,33,106,35,20,29,230,12,11,27,285,24,14,26,176,19,1*62
$GPGSV,4,4,16,04,21,073,27,12,13,318,23,03,09,038,14,05,03,221,,1*6C
$GPGSV,3,1,10,195,67,043,48,196,64,127,48,199,60,167,46,06,50,339,47,8*51
$GPGSV,3,2,10,194,41,171,27,09,33,106,40,11,27,285,28,14,26,176,19,8*55
$GPGSV,3,3,10,04,21,073,30,03,09,038,24,8*6B
$GLGSV,3,1,09,68,49,148,43,67,47,062,38,82,37,037,43,83,33,341,18,1*7E
$GLGSV,3,2,09,80,24,230,18,73,23,290,24,69,10,185,,66,06,027,14,1*7A
$GLGSV,3,3,09,74,03,328,,1*48
$GAGSV,2,1,08,24,52,243,20,10,49,334,37,12,48,015,38,11,35,300,32,7*76
$GAGSV,2,2,08,19,31,086,33,04,27,154,33,25,25,307,27,33,15,064,33,7*79
$GAGSV,2,1,08,24,52,243,23,10,49,334,44,12,48,015,43,11,35,300,33,1*7A
$GAGSV,2,2,08,19,31,086,32,04,27,154,34,25,25,307,27,33,15,064,30,1*7A
$GBGSV,4,1,16,40,83,130,41,07,81,246,43,10,72,290,37,33,63,149,44,1*77
$GBGSV,4,2,16,14,61,083,43,08,58,269,39,43,53,055,39,13,49,258,27,1*75
$GBGSV,4,3,16,42,40,054,36,28,37,324,35,11,33,080,37,41,22,197,,1*7B
$GBGSV,4,4,16,23,19,221,12,34,17,097,36,37,16,273,17,39,02,178,,1*75
$GBGSV,2,1,06,40,83,130,46,33,63,149,44,43,53,055,40,42,40,054,39,4*7C
$GBGSV,2,2,06,23,19,221,16,34,17,097,32,4*74
$GNGGA,034551.000,2500.8068700,N,12132.4310000,E,2,61,0.45,17.94,M,15.25,M,19,3335*44
$GNRMC,034551.000,A,2500.8068700,N,12132.4310000,E,0.00,85.16,270623,,,D,V*32
$GPHDT,2.064,T*35
$GNGGA,034551.200,2500.8068700,N,12132.4309800,E,2,61,0.45,17.95,M,15.25,M,19,3335*47
$GNRMC,034551.200,A,2500.8068700,N,12132.4309800,E,0.00,85.16,270623,,,D,V*30
$GPHDT,2.336,T*31
$GNGGA,034551.400,2500.8068800,N,12132.4309700,E,2,61,0.45,17.97,M,15.25,M,19,3335*43
$GNRMC,034551.400,A,2500.8068800,N,12132.4309700,E,0.00,85.16,270623,,,D,V*36
$GPHDT,2.071,T*31
$GNGGA,034551.600,2500.8068900,N,12132.4309500,E,2,61,0.45,17.99,M,15.25,M,19,3335*4C
$GNRMC,034551.600,A,2500.8068900,N,12132.4309500,E,0.00,85.16,270623,,,D,V*37
$GPHDT,2.133,T*36
$GNGGA,034551.800,2500.8068900,N,12132.4309400,E,2,61,0.45,18.00,M,15.25,M,19,3335*4C
$GNRMC,034551.800,A,2500.8068900,N,12132.4309400,E,0.00,85.16,270623,,,D,V*38
$GPHDT,1.753,T*35
$GNGSA,A,3,195,19,17,196,199,06,194,09,11,14,04,12,0.86,0.45,0.73,1*07
$GNGSA,A,3,68,67,82,83,80,73,,,,,,,0.86,0.45,0.73,2*0B
$GNGSA,A,3,24,10,12,11,19,04,25,33,,,,,0.86,0.45,0.73,3*07
$GNGSA,A,3,40,07,10,33,14,08,43,13,42,28,11,34,0.86,0.45,0.73,4*0E
$GNGSA,A,3,23,,,,,,,,,,,,0.86,0.45,0.73,4*0E
$GPGSV,4,1,16,195,67,043,41,19,66,020,43,17,64,075,41,196,64,127,41,1*6B
$GPGSV,4,2,16,199,60,167,35,50,60,167,38,06,50,339,44,194,41,171,33,1*68
$GPGSV,4,3,16,09,33,106,36,20,29,230,15,11,27,285,25,14,26,176,18,1*66
$GPGSV,4,4,16,04,21,073,28,12,13,318,23,03,09,038,14,05,03,221,,1*63
$GPGSV,3,1,10,195,67,043,48,196,64,127,48,199,60,167,46,06,50,339,47,8*51
$GPGSV,3,2,10,194,41,171,28,09,33,106,39,11,27,285,28,14,26,176,18,8*55
$GPGSV,3,3,10,04,21,073,29,03,09,038,24,8*63
$GLGSV,2,1,08,68,49,148,43,67,47,062,39,82,37,037,43,83,33,341,18,1*7F
$GLGSV,2,2,08,80,24,230,18,73,23,290,23,66,06,027,13,74,03,328,,1*71
$GAGSV,2,1,08,24,52,243,20,10,49,334,37,12,48,015,38,11,35,300,32,7*76
$GAGSV,2,2,08,19,31,086,34,04,27,154,33,25,25,307,29,33,15,064,34,7*77
$GAGSV,2,1,08,24,52,243,23,10,49,334,44,12,48,015,43,11,35,300,33,1*7A
$GAGSV,2,2,08,19,31,086,34,04,27,154,33,25,25,307,28,33,15,064,28,1*7D
$GBGSV,5,1,17,40,83,130,41,07,81,246,43,10,72,290,37,33,63,149,44,1*77
$GBGSV,5,2,17,14,61,083,43,08,58,269,39,43,53,055,39,13,49,258,27,1*75
$GBGSV,5,3,17,42,40,054,31,28,37,324,35,11,33,080,38,41,22,197,,1*73
$GBGSV,5,4,17,23,19,221,12,34,17,097,36,37,16,273,19,25,02,178,,1*76
$GBGSV,5,5,17,39,02,178,,1*46
$GBGSV,2,1,06,40,83,130,45,33,63,149,44,43,53,055,40,42,40,054,38,4*7E
$GBGSV,2,2,06,23,19,221,13,34,17,097,32,4*71
$GNGGA,034552.000,2500.8068900,N,12132.4309300,E,2,61,0.45,18.01,M,15.25,M,20,3335*4B
$GNRMC,034552.000,A,2500.8068900,N,12132.4309300,E,0.00,85.16,270623,,,D,V*34
$GPHDT,1.873,T*38
$GNGGA,034552.200,2500.8069000,N,12132.4309200,E,2,61,0.45,18.01,M,15.25,M,20,3335*40
$GNRMC,034552.200,A,2500.8069000,N,12132.4309200,E,0.00,85.16,270623,,,D,V*3F
$GPHDT,1.539,T*3B
$GNGGA,034552.400,2500.8069100,N,12132.4309100,E,2,61,0.45,18.01,M,15.25,M,20,3335*44
$GNRMC,034552.400,A,2500.8069100,N,12132.4309100,E,0.00,85.16,270623,,,D,V*3B
$GPHDT,1.639,T*38
$GNGGA,034552.600,2500.8069200,N,12132.4308900,E,2,61,0.45,18.00,M,15.25,M,20,3335*4D
$GNRMC,034552.600,A,2500.8069200,N,12132.4308900,E,0.00,85.16,270623,,,D,V*33
$GPHDT,1.436,T*35
$GNGGA,034552.800,2500.8069200,N,12132.4308800,E,2,61,0.45,18.00,M,15.25,M,20,3335*42
$GNRMC,034552.800,A,2500.8069200,N,12132.4308800,E,0.00,85.16,270623,,,D,V*3C
$GPHDT,1.700,T*33
$GNGSA,A,3,195,19,17,196,199,06,194,09,11,14,04,12,0.86,0.45,0.73,1*07
$GNGSA,A,3,68,67,82,83,80,73,,,,,,,0.86,0.45,0.73,2*0B
$GNGSA,A,3,24,10,12,11,19,04,25,33,,,,,0.86,0.45,0.73,3*07
$GNGSA,A,3,40,07,10,33,14,08,43,13,42,28,11,34,0.86,0.45,0.73,4*0E
$GNGSA,A,3,23,,,,,,,,,,,,0.86,0.45,0.73,4*0E
$GPGSV,4,1,16,195,67,043,41,19,66,020,43,17,64,075,40,196,64,127,41,1*6A
$GPGSV,4,2,16,199,60,167,35,50,60,167,38,06,50,339,44,194,41,171,32,1*69
$GPGSV,4,3,16,09,33,106,38,20,29,230,17,11,27,285,26,14,26,176,18,1*69
$GPGSV,4,4,16,04,21,073,31,12,13,318,22,03,09,038,14,05,03,221,,1*6A
$GPGSV,3,1,10,195,67,043,48,196,64,127,48,199,60,167,46,06,50,339,47,8*51
$GPGSV,3,2,10,194,41,171,29,09,33,106,39,11,27,285,28,14,26,176,20,8*5F
$GPGSV,3,3,10,04,21,073,32,03,09,038,23,8*6E
$GLGSV,2,1,07,68,49,148,43,67,47,062,39,82,37,037,43,83,33,341,18,1*70
$GLGSV,2,2,07,80,24,230,19,73,23,290,23,66,06,027,14,1*41
$GAGSV,2,1,08,24,52,243,19,10,49,334,37,12,48,015,39,11,35,300,31,7*7E
$GAGSV,2,2,08,19,31,086,35,04,28,154,33,25,25,307,30,33,15,064,34,7*71
$GAGSV,2,1,08,24,52,243,23,10,49,334,44,12,48,015,43,11,35,300,34,1*7D
$GAGSV,2,2,08,19,31,086,35,04,28,154,34,25,25,307,31,33,15,064,32,1*77
$GBGSV,4,1,15,40,83,130,42,07,81,246,43,10,72,290,37,33,63,149,44,1*77
$GBGSV,4,2,15,14,61,083,43,08,58,269,39,43,53,055,38,13,49,258,28,1*78
$GBGSV,4,3,15,42,40,054,28,28,37,324,35,11,33,080,38,41,22,197,,1*78
$GBGSV,4,4,15,23,19,221,13,34,17,097,36,37,16,273,19,1*4F
$GBGSV,2,1,06,40,83,130,45,33,63,149,44,43,53,055,39,42,40,054,36,4*7E
$GBGSV,2,2,06,23,19,221,13,34,17,097,33,4*70
$GNGGA,034553.000,2500.8069300,N,12132.4308700,E,2,61,0.45,17.99,M,15.25,M,21,3335*4B
$GNRMC,034553.000,A,2500.8069300,N,12132.4308700,E,0.00,85.16,270623,,,D,V*3B
$GPHDT,1.700,T*33
$GNGGA,034553.200,2500.8069400,N,12132.4308600,E,2,62,0.44,17.99,M,15.25,M,21,3335*4D
$GNRMC,034553.200,A,2500.8069400,N,12132.4308600,E,0.00,85.16,270623,,,D,V*3F
$GPHDT,1.380,T*3F
$GNGGA,034553.400,2500.8069500,N,12132.4308500,E,2,62,0.44,17.99,M,15.25,M,21,3335*49
$GNRMC,034553.400,A,2500.8069500,N,12132.4308500,E,0.00,85.16,270623,,,D,V*3B
$GPHDT,1.744,T*33
$GNGGA,034553.600,2500.8069500,N,12132.4308400,E,2,61,0.45,17.98,M,15.25,M,21,3335*49
$GNRMC,034553.600,A,2500.8069500,N,12132.4308400,E,0.00,85.16,270623,,,D,V*38
$GPHDT,1.473,T*34
$GNGGA,034553.800,2500.8069600,N,12132.4308300,E,2,61,0.45,17.97,M,15.25,M,21,3335*4C
$GNRMC,034553.800,A,2500.8069600,N,12132.4308300,E,0.00,85.16,270623,,,D,V*32
$GPHDT,1.779,T*3D
$GNGSA,A,3,195,19,17,196,199,06,194,09,20,11,14,04,0.87,0.45,0.74,1*00
$GNGSA,A,3,12,,,,,,,,,,,,0.87,0.45,0.74,1*0F
$GNGSA,A,3,68,67,82,83,80,73,,,,,,,0.87,0.45,0.74,2*0D
$GNGSA,A,3,24,10,12,11,19,04,25,33,,,,,0.87,0.45,0.74,3*01
$GNGSA,A,3,40,07,10,33,14,08,43,13,42,28,11,34,0.87,0.45,0.74,4*08
$GPGSV,4,1,16,195,67,043,41,19,66,020,43,17,64,075,39,196,64,127,41,1*64
$GPGSV,4,2,16,199,60,167,35,50,60,167,38,06,50,339,44,194,41,171,32,1*69
$GPGSV,4,3,16,09,33,106,38,20,29,230,17,11,27,285,26,14,26,176,15,1*64
$GPGSV,4,4,16,04,21,073,32,12,13,318,22,03,09,038,15,05,03,221,,1*68
$GPGSV,3,1,10,195,67,043,48,196,64,127,48,199,60,167,46,06,50,339,46,8*50
$GPGSV,3,2,10,194,41,171,29,09,33,106,38,11,27,285,26,14,26,176,19,8*5A
$GPGSV,3,3,10,04,21,073,34,03,09,038,21,8*6A
$GLGSV,2,1,07,68,49,148,43,67,47,062,39,82,37,037,43,83,33,341,18,1*70
$GLGSV,2,2,07,80,24,230,19,73,23,290,23,66,06,027,14,1*41
$GAGSV,2,1,08,24,52,243,19,10,49,334,37,12,48,015,39,11,35,300,31,7*7E
$GAGSV,2,2,08,19,31,086,35,04,28,154,34,25,25,307,31,33,15,064,34,7*77
$GAGSV,2,1,08,24,52,243,22,10,49,334,44,12,48,015,43,11,35,300,34,1*7C
$GAGSV,2,2,08,19,31,086,35,04,28,154,34,25,25,307,31,33,15,064,32,1*77
$GBGSV,4,1,15,40,83,130,42,07,81,246,43,10,72,290,37,33,63,149,44,1*77
$GBGSV,4,2,15,14,61,083,43,08,58,269,40,43,53,055,38,13,49,258,28,1*76
$GBGSV,4,3,15,42,40,054,30,28,37,324,34,11,33,080,38,41,22,197,,1*70
$GBGSV,4,4,15,23,19,221,11,34,17,097,36,37,16,273,18,1*4C
$GBGSV,2,1,05,40,83,130,45,33,63,149,44,43,53,055,38,42,40,054,36,4*7C
$GBGSV,2,2,05,34,17,097,33,4*49
$GNGGA,034554.000,2500.8069600,N,12132.4308200,E,2,61,0.45,17.96,M,15.25,M,22,3335*40
$GNRMC,034554.000,A,2500.8069600,N,12132.4308200,E,0.00,85.16,270623,,,D,V*3C
$GPHDT,1.144,T*35
$GNGGA,034554.200,2500.8069700,N,12132.4308000,E,2,61,0.45,17.96,M,15.25,M,22,3335*41
$GNRMC,034554.200,A,2500.8069700,N,12132.4308000,E,0.00,85.16,270623,,,D,V*3D
$GPHDT,0.906,T*3A
$GNGGA,034554.400,2500.8069700,N,12132.4307900,E,2,61,0.45,17.95,M,15.25,M,22,3335*42
$GNRMC,034554.400,A,2500.8069700,N,12132.4307900,E,0.00,85.16,270623,,,D,V*3D
$GPHDT,1.241,T*33
$GNGGA,034554.600,2500.8069800,N,12132.4307800,E,2,61,0.45,17.93,M,15.25,M,22,3335*48
$GNRMC,034554.600,A,2500.8069800,N,12132.4307800,E,0.00,85.16,270623,,,D,V*31
$GPHDT,1.879,T*32
$GNGGA,034554.800,2500.8069800,N,12132.4307600,E,2,61,0.45,17.92,M,15.25,M,22,3335*49
$GNRMC,034554.800,A,2500.8069800,N,12132.4307600,E,0.00,85.16,270623,,,D,V*31
$GPHDT,1.714,T*36
$GNGSA,A,3,195,19,17,196,199,06,194,09,20,11,14,04,0.87,0.45,0.74,1*00
$GNGSA,A,3,12,,,,,,,,,,,,0.87,0.45,0.74,1*0F
$GNGSA,A,3,68,67,82,83,80,73,,,,,,,0.87,0.45,0.74,2*0D
$GNGSA,A,3,24,10,12,11,19,04,25,33,,,,,0.87,0.45,0.74,3*01
$GNGSA,A,3,40,07,10,33,14,08,43,13,42,28,11,34,0.87,0.45,0.74,4*08
$GPGSV,4,1,16,195,67,043,41,19,66,020,43,17,64,075,39,196,64,127,41,1*64
$GPGSV,4,2,16,199,60,167,35,50,60,167,37,06,50,339,44,194,41,171,32,1*66
$GPGSV,4,3,16,09,33,106,38,20,29,230,17,11,27,285,25,14,26,176,15,1*67
$GPGSV,4,4,16,04,21,073,32,12,13,318,21,03,09,038,14,05,03,221,,1*6A
$GPGSV,3,1,10,195,67,043,48,196,64,127,48,199,60,167,46,06,50,339,46,8*50
$GPGSV,3,2,10,194,41,171,29,09,33,106,38,11,27,285,26,14,26,176,18,8*5B
$GPGSV,3,3,10,04,21,073,32,03,09,038,21,8*6C
$GLGSV,2,1,08,68,49,148,43,67,47,062,39,82,37,037,43,83,33,341,18,1*7F
$GLGSV,2,2,08,80,24,230,19,73,23,290,23,66,06,027,14,74,03,328,,1*77
$GAGSV,2,1,08,24,52,243,19,10,49,334,37,12,48,015,39,11,35,300,31,7*7E
$GAGSV,2,2,08,19,31,086,35,04,28,154,34,25,25,307,31,33,15,064,34,7*77
$GAGSV,2,1,08,24,52,243,21,10,49,334,44,12,48,015,43,11,35,300,34,1*7F
$GAGSV,2,2,08,19,31,086,35,04,28,154,33,25,25,307,31,33,15,064,31,1*73
$GBGSV,4,1,15,40,83,130,42,07,81,246,43,10,72,290,37,33,63,149,44,1*77
$GBGSV,4,2,15,14,61,083,43,08,58,269,40,43,53,055,38,13,49,258,28,1*76
$GBGSV,4,3,15,42,40,054,30,28,37,324,35,11,33,080,38,41,22,197,,1*71
$GBGSV,4,4,15,23,19,221,11,34,17,097,36,37,16,273,19,1*4D
$GBGSV,2,1,06,40,83,130,45,33,63,149,44,43,53,055,37,42,40,054,37,4*71
$GBGSV,2,2,06,23,19,221,14,34,17,097,33,4*77
$GNGGA,034555.000,2500.8069900,N,12132.4307500,E,2,61,0.45,17.92,M,15.25,M,23,3335*43
$GNRMC,034555.000,A,2500.8069900,N,12132.4307500,E,0.00,85.16,270623,,,D,V*3A
$GPHDT,1.481,T*39
$GNGGA,034555.200,2500.8069900,N,12132.4307400,E,2,61,0.45,17.91,M,15.25,M,23,3335*43
$GNRMC,034555.200,A,2500.8069900,N,12132.4307400,E,0.00,85.16,270623,,,D,V*39
