$FW : RTK35X,V1.1X0314AS,Lib20210517,1*54
$Tool : LOCOSYS , GNSS Firebird , v1.0.0.19*39
$---------------------------------------------------*2D
$GNGGA,034610.400,2500.8075300,N,12132.4309100,E,2,63,0.45,16.93,M,15.25,M,1,3335*7A
$GNRMC,034610.400,A,2500.8075300,N,12132.4309100,E,0.00,85.16,270623,,,D,V*31
$GPHDT,,T*1B
$GNGGA,034610.600,2500.8075500,N,12132.4309100,E,2,63,0.45,16.92,M,15.25,M,1,3335*7F
$GNRMC,034610.600,A,2500.8075500,N,12132.4309100,E,0.00,85.16,270623,,,D,V*35
$GPHDT,,T*1B
$GNGGA,034610.800,2500.8075700,N,12132.4309200,E,2,63,0.45,16.92,M,15.25,M,1,3335*70
$GNRMC,034610.800,A,2500.8075700,N,12132.4309200,E,0.00,85.16,270623,,,D,V*3A
$GPHDT,,T*1B
$GNGSA,A,3,195,19,17,196,199,06,194,09,20,11,14,04,0.83,0.45,0.70,1*00
$GNGSA,A,3,12,,,,,,,,,,,,0.83,0.45,0.70,1*0F
$GNGSA,A,3,68,67,82,80,73,,,,,,,,0.83,0.45,0.70,2*06
$GNGSA,A,3,24,10,12,11,19,04,25,33,,,,,0.83,0.45,0.70,3*01
$GNGSA,A,3,40,07,10,33,14,08,43,13,42,28,11,34,0.83,0.45,0.70,4*08
$GNGSA,A,3,37,23,,,,,,,,,,,0.83,0.45,0.70,4*0C
$GPGSV,4,1,16,195,67,043,42,19,66,020,44,17,64,075,37,196,64,127,39,1*61
$GPGSV,4,2,16,199,60,167,35,50,60,167,37,06,50,339,42,194,41,171,31,1*63
$GPGSV,4,3,16,09,33,106,45,20,29,230,15,11,27,285,24,14,26,176,25,1*6D
$GPGSV,4,4,16,04,21,073,42,12,13,318,24,03,09,038,19,05,03,221,,1*65
$GPGSV,3,1,09,195,67,043,46,196,64,127,44,199,60,167,46,06,50,339,44,8*58
$GPGSV,3,2,09,194,41,171,31,09,33,106,44,11,27,285,24,04,21,073,33,8*58
$GPGSV,3,3,09,03,09,038,23,8*54
$GLGSV,2,1,07,68,49,148,40,67,47,061,38,82,37,038,37,83,33,341,14,1*71
$GLGSV,2,2,07,80,24,230,20,73,23,289,26,66,06,027,13,1*41
$GAGSV,2,1,08,24,51,243,18,10,49,334,35,12,48,015,32,11,35,300,34,7*70
$GAGSV,2,2,08,19,31,086,38,04,28,154,32,25,25,307,32,33,15,064,34,7*7F
$GAGSV,2,1,08,24,51,243,19,10,49,334,40,12,48,015,38,11,35,300,32,1*79
$GAGSV,2,2,08,19,31,086,38,04,28,154,34,25,25,307,26,33,15,064,33,1*7D
$GBGSV,4,1,15,40,83,130,40,07,81,246,41,10,72,290,38,33,64,149,44,1*7F
$GBGSV,4,2,15,14,61,083,39,08,58,270,40,43,53,055,39,13,49,258,30,1*7B
$GBGSV,4,3,15,42,40,054,38,28,38,324,35,11,33,080,44,41,22,197,,1*7D
$GBGSV,4,4,15,23,18,221,,34,17,097,34,37,16,273,17,1*40
$GBGSV,2,1,08,40,83,130,45,33,64,149,45,43,53,055,39,42,40,054,37,4*77
$GBGSV,2,2,08,28,38,324,22,23,18,221,20,34,17,097,34,37,16,273,20,4*7B
$GNGGA,034611.000,2500.8075900,N,12132.4309200,E,2,63,0.45,16.91,M,15.25,M,2,3335*77
$GNRMC,034611.000,A,2500.8075900,N,12132.4309200,E,0.00,85.16,270623,,,D,V*3D
$GPHDT,,T*1B
$GNGGA,034611.200,2500.8076100,N,12132.4309300,E,2,63,0.45,16.91,M,15.25,M,2,3335*7F
$GNRMC,034611.200,A,2500.8076100,N,12132.4309300,E,0.00,85.16,270623,,,D,V*35
$GPHDT,,T*1B
$GNGGA,034611.400,2500.8076200,N,12132.4309300,E,2,63,0.45,16.89,M,15.25,M,2,3335*73
$GNRMC,034611.400,A,2500.8076200,N,12132.4309300,E,0.00,85.16,270623,,,D,V*30
$GPHDT,,T*1B
$GNGGA,034611.600,2500.8076500,N,12132.4309300,E,2,63,0.45,16.88,M,15.25,M,2,3335*77
$GNRMC,034611.600,A,2500.8076500,N,12132.4309300,E,0.00,85.16,270623,,,D,V*35
$GPHDT,,T*1B
$GNGGA,034611.800,2500.8076700,N,12132.4309300,E,2,63,0.45,16.88,M,15.25,M,2,3335*7B
$GNRMC,034611.800,A,2500.8076700,N,12132.4309300,E,0.00,85.16,270623,,,D,V*39
$GPHDT,,T*1B
$GNGSA,A,3,195,19,17,196,199,06,194,09,20,11,14,04,0.83,0.45,0.70,1*00
$GNGSA,A,3,12,,,,,,,,,,,,0.83,0.45,0.70,1*0F
$GNGSA,A,3,68,67,82,80,73,,,,,,,,0.83,0.45,0.70,2*06
$GNGSA,A,3,24,10,12,11,19,04,25,33,,,,,0.83,0.45,0.70,3*01
$GNGSA,A,3,40,07,10,33,14,08,43,13,42,28,11,34,0.83,0.45,0.70,4*08
$GNGSA,A,3,37,23,,,,,,,,,,,0.83,0.45,0.70,4*0C
$GPGSV,4,1,16,195,67,043,42,19,66,020,44,17,64,075,38,196,64,127,40,1*60
$GPGSV,4,2,16,199,60,167,35,50,60,167,38,06,50,339,42,194,41,171,31,1*6C
$GPGSV,4,3,16,09,33,106,45,20,29,230,14,11,27,285,23,14,26,176,26,1*68
$GPGSV,4,4,16,04,21,073,42,12,13,318,24,03,09,038,17,05,03,221,,1*6B
$GPGSV,3,1,09,195,67,043,46,196,64,127,44,199,60,167,46,06,50,339,44,8*58
$GPGSV,3,2,09,194,41,171,32,09,33,106,44,11,27,285,25,04,21,073,34,8*5D
$GPGSV,3,3,09,03,09,038,23,8*54
$GLGSV,3,1,09,68,49,148,40,67,47,061,38,82,37,038,37,83,33,341,11,1*7B
$GLGSV,3,2,09,80,24,230,21,73,23,289,24,69,10,185,,66,06,027,14,1*78
$GLGSV,3,3,09,74,03,328,,1*48
$GAGSV,2,1,08,24,51,243,17,10,49,334,36,12,48,015,33,11,35,300,33,7*7A
$GAGSV,2,2,08,19,31,086,38,04,28,154,31,25,25,307,33,33,15,064,34,7*7D
$GAGSV,2,1,08,24,51,243,18,10,49,334,40,12,48,015,38,11,35,300,31,1*7B
$GAGSV,2,2,08,19,31,086,38,04,28,154,34,25,25,307,26,33,15,064,33,1*7D
$GBGSV,4,1,15,40,83,130,40,07,81,246,41,10,72,290,38,33,64,149,44,1*7F
$GBGSV,4,2,15,14,61,083,41,08,58,270,40,43,53,055,39,13,49,258,30,1*74
$GBGSV,4,3,15,42,40,054,38,28,38,324,36,11,33,080,45,41,22,197,,1*7F
$GBGSV,4,4,15,23,18,221,,34,17,097,34,37,16,273,16,1*41
$GBGSV,2,1,08,40,83,130,45,33,64,149,45,43,53,055,39,42,40,054,37,4*77
$GBGSV,2,2,08,28,38,324,22,23,18,221,20,34,17,097,32,37,16,273,19,4*77
$GNGGA,034612.000,2500.8076800,N,12132.4309400,E,2,63,0.45,16.88,M,15.25,M,3,3335*79
$GNRMC,034612.000,A,2500.8076800,N,12132.4309400,E,0.00,85.16,270623,,,D,V*3A
$GPHDT,,T*1B
$GNGGA,034612.200,2500.8077000,N,12132.4309400,E,2,63,0.45,16.87,M,15.25,M,3,3335*7D
$GNRMC,034612.200,A,2500.8077000,N,12132.4309400,E,0.00,85.16,270623,,,D,V*31
$GPHDT,,T*1B
$GNGGA,034612.400,2500.8077100,N,12132.4309400,E,2,63,0.45,16.87,M,15.25,M,3,3335*7A
$GNRMC,034612.400,A,2500.8077100,N,12132.4309400,E,0.00,85.16,270623,,,D,V*36
$GPHDT,,T*1B
$GNGGA,034612.600,2500.8077300,N,12132.4309400,E,2,63,0.45,16.88,M,15.25,M,3,3335*75
$GNRMC,034612.600,A,2500.8077300,N,12132.4309400,E,0.00,85.16,270623,,,D,V*36
$GPHDT,,T*1B
$GNGGA,034612.800,2500.8077400,N,12132.4309400,E,2,63,0.45,16.88,M,15.25,M,3,3335*7C
$GNRMC,034612.800,A,2500.8077400,N,12132.4309400,E,0.00,85.16,270623,,,D,V*3F
$GPHDT,,T*1B
$GNGSA,A,3,195,19,17,196,199,06,194,09,20,11,14,04,0.83,0.45,0.70,1*00
$GNGSA,A,3,12,,,,,,,,,,,,0.83,0.45,0.70,1*0F
$GNGSA,A,3,68,67,82,80,73,,,,,,,,0.83,0.45,0.70,2*06
$GNGSA,A,3,24,10,12,11,19,04,25,33,,,,,0.83,0.45,0.70,3*01
$GNGSA,A,3,40,07,10,33,14,08,43,13,42,28,11,34,0.83,0.45,0.70,4*08
$GNGSA,A,3,37,23,,,,,,,,,,,0.83,0.45,0.70,4*0C
$GPGSV,4,1,16,195,67,043,42,19,66,020,44,17,64,075,39,196,64,127,40,1*61
$GPGSV,4,2,16,199,60,167,35,50,60,167,38,06,50,339,42,194,41,171,32,1*6F
$GPGSV,4,3,16,09,33,106,45,20,29,230,16,11,27,285,23,14,26,176,25,1*69
$GPGSV,4,4,16,04,21,073,42,12,13,318,24,03,09,038,17,05,03,221,,1*6B
$GPGSV,3,1,09,195,67,043,46,196,64,127,44,199,60,167,46,06,50,339,44,8*58
$GPGSV,3,2,09,194,41,171,32,09,33,106,44,11,27,285,25,04,21,073,35,8*5C
$GPGSV,3,3,09,03,09,038,25,8*52
$GLGSV,3,1,09,68,49,148,41,67,47,061,37,82,37,038,38,83,33,341,13,1*78
$GLGSV,3,2,09,80,24,230,18,73,23,289,24,69,10,185,,66,06,027,16,1*70
$GLGSV,3,3,09,74,03,328,,1*48
$GAGSV,2,1,08,24,51,243,17,10,49,334,37,12,48,015,33,11,35,300,33,7*7B
$GAGSV,2,2,08,19,31,086,38,04,28,154,31,25,25,307,33,33,15,064,34,7*7D
$GAGSV,2,1,08,24,51,243,18,10,49,334,40,12,48,015,38,11,35,300,31,1*7B
$GAGSV,2,2,08,19,31,086,39,04,28,154,34,25,25,307,26,33,15,064,33,1*7C
$GBGSV,4,1,16,40,83,131,40,07,81,246,41,10,72,290,37,33,64,149,44,1*72
$GBGSV,4,2,16,14,61,083,42,08,58,270,40,43,53,055,41,13,49,258,28,1*72
$GBGSV,4,3,16,42,40,053,38,28,38,324,36,11,33,080,45,41,22,197,,1*7B
$GBGSV,4,4,16,23,18,221,,34,17,097,34,37,16,273,15,06,01,188,,1*77
$GBGSV,2,1,08,40,83,131,45,33,64,149,46,43,53,055,40,42,40,053,38,4*73
$GBGSV,2,2,08,28,38,324,22,23,18,221,20,34,17,097,34,37,16,273,19,4*71
$GNGGA,034613.000,2500.8077600,N,12132.4309300,E,2,63,0.45,16.88,M,15.25,M,4,3335*77
$GNRMC,034613.000,A,2500.8077600,N,12132.4309300,E,0.00,85.16,270623,,,D,V*33
$GPHDT,,T*1B
$GNGGA,034613.200,2500.8077700,N,12132.4309400,E,2,63,0.45,16.88,M,15.25,M,4,3335*73
$GNRMC,034613.200,A,2500.8077700,N,12132.4309400,E,0.00,85.16,270623,,,D,V*37
$GPHDT,,T*1B
$GNGGA,034613.400,2500.8077900,N,12132.4309400,E,2,63,0.45,16.89,M,15.25,M,4,3335*7A
$GNRMC,034613.400,A,2500.8077900,N,12132.4309400,E,0.00,85.16,270623,,,D,V*3F
$GPHDT,,T*1B
$GNGGA,034613.600,2500.8078000,N,12132.4309400,E,2,63,0.45,16.89,M,15.25,M,1,3335*7B
$GNRMC,034613.600,A,2500.8078000,N,12132.4309400,E,0.00,85.16,270623,,,D,V*3B
$GPHDT,,T*1B
$GNGGA,034613.800,2500.8078200,N,12132.4309400,E,2,63,0.45,16.89,M,15.25,M,0,3335*76
$GNRMC,034613.800,A,2500.8078200,N,12132.4309400,E,0.00,85.16,270623,,,D,V*37
$GPHDT,,T*1B
$GNGSA,A,3,195,19,17,196,199,06,194,09,20,11,14,04,0.83,0.45,0.70,1*00
$GNGSA,A,3,12,,,,,,,,,,,,0.83,0.45,0.70,1*0F
$GNGSA,A,3,68,67,82,80,73,,,,,,,,0.83,0.45,0.70,2*06
$GNGSA,A,3,24,10,12,11,19,04,25,33,,,,,0.83,0.45,0.70,3*01
$GNGSA,A,3,40,07,10,33,14,08,43,13,42,28,11,34,0.83,0.45,0.70,4*08
$GNGSA,A,3,37,23,,,,,,,,,,,0.83,0.45,0.70,4*0C
$GPGSV,4,1,16,195,67,043,42,19,66,020,44,17,64,075,39,196,64,127,39,1*6F
$GPGSV,4,2,16,50,60,167,38,199,60,167,35,06,50,339,42,194,41,171,33,1*6E
$GPGSV,4,3,16,09,33,106,45,20,29,230,14,11,27,285,23,14,26,176,26,1*68
$GPGSV,4,4,16,04,21,073,42,12,13,318,24,03,09,038,18,05,03,221,,1*64
$GPGSV,3,1,09,195,67,043,46,196,64,127,44,199,60,167,46,06,50,339,45,8*59
$GPGSV,3,2,09,194,41,171,31,09,33,106,44,11,27,285,24,04,21,073,35,8*5E
$GPGSV,3,3,09,03,09,038,25,8*52
$GLGSV,3,1,09,68,49,148,41,67,47,061,35,82,37,038,39,83,33,341,13,1*7B
$GLGSV,3,2,09,80,24,230,15,73,23,289,22,69,10,185,,66,06,027,16,1*7B
$GLGSV,3,3,09,74,03,328,,1*48
$GAGSV,2,1,08,24,51,243,17,10,49,334,37,12,48,015,34,11,35,300,33,7*7C
$GAGSV,2,2,08,19,31,086,39,04,28,154,29,25,25,307,32,33,15,064,34,7*74
$GAGSV,2,1,08,24,51,243,19,10,49,334,40,12,48,015,38,11,35,300,31,1*7A
$GAGSV,2,2,08,19,31,086,39,04,28,154,34,25,25,307,25,33,15,064,34,1*78
$GBGSV,5,1,18,40,83,131,40,07,81,246,41,10,72,290,37,33,64,149,44,1*7D
$GBGSV,5,2,18,14,61,083,42,08,58,270,40,43,53,055,41,13,49,258,26,1*73
$GBGSV,5,3,18,42,40,053,37,28,38,324,34,11,33,080,45,41,22,197,,1*79
$GBGSV,5,4,18,23,18,221,,34,17,097,35,37,16,273,13,39,02,178,,1*7F
$GBGSV,5,5,18,25,02,178,,06,01,188,,1*72
$GBGSV,2,1,08,40,83,131,45,33,64,149,46,43,53,055,40,42,40,053,38,4*73
$GBGSV,2,2,08,28,38,324,24,23,18,221,20,34,17,097,34,37,16,273,19,4*77
$GNGGA,034614.000,2500.8078200,N,12132.4309300,E,2,63,0.45,16.89,M,15.25,M,1,3335*7F
$GNRMC,034614.000,A,2500.8078200,N,12132.4309300,E,0.00,85.16,270623,,,D,V*3F
$GPHDT,,T*1B
$GNGGA,034614.200,2500.8078400,N,12132.4309300,E,2,63,0.45,16.89,M,15.25,M,1,3335*7B
$GNRMC,034614.200,A,2500.8078400,N,12132.4309300,E,0.00,85.16,270623,,,D,V*3B
$GPHDT,,T*1B
$GNGGA,034614.400,2500.8078500,N,12132.4309200,E,2,63,0.45,16.89,M,15.25,M,1,3335*7D
$GNRMC,034614.400,A,2500.8078500,N,12132.4309200,E,0.00,85.16,270623,,,D,V*3D
$GPHDT,,T*1B
$GNGGA,034614.600,2500.8078600,N,12132.4309200,E,2,63,0.45,16.90,M,15.25,M,1,3335*74
$GNRMC,034614.600,A,2500.8078600,N,12132.4309200,E,0.00,85.16,270623,,,D,V*3C
$GPHDT,,T*1B
$GNGGA,034614.800,2500.8078700,N,12132.4309200,E,2,63,0.45,16.90,M,15.25,M,1,3335*7B
$GNRMC,034614.800,A,2500.8078700,N,12132.4309200,E,0.00,85.16,270623,,,D,V*33
$GPHDT,,T*1B
$GNGSA,A,3,195,19,17,196,199,06,194,09,20,11,14,04,0.83,0.45,0.70,1*00
$GNGSA,A,3,12,,,,,,,,,,,,0.83,0.45,0.70,1*0F
$GNGSA,A,3,68,67,82,80,73,,,,,,,,0.83,0.45,0.70,2*06
$GNGSA,A,3,24,10,12,11,19,04,25,33,,,,,0.83,0.45,0.70,3*01
$GNGSA,A,3,40,07,10,33,14,08,43,13,42,28,11,34,0.83,0.45,0.70,4*08
$GNGSA,A,3,37,23,,,,,,,,,,,0.83,0.45,0.70,4*0C
$GPGSV,4,1,16,195,67,043,42,19,66,020,44,17,64,075,40,196,64,127,39,1*61
$GPGSV,4,2,16,199,60,167,35,50,60,167,38,06,50,339,42,194,41,171,33,1*6E
$GPGSV,4,3,16,09,33,106,45,20,29,230,13,11,27,285,23,14,26,176,25,1*6C
$GPGSV,4,4,16,04,21,073,42,12,13,318,24,03,09,038,18,05,03,221,,1*64
$GPGSV,3,1,09,195,67,043,46,196,64,127,45,199,60,167,46,06,50,339,45,8*58
$GPGSV,3,2,09,194,41,171,32,09,33,106,44,11,27,285,23,04,21,073,34,8*5B
$GPGSV,3,3,09,03,09,038,25,8*52
$GLGSV,2,1,07,68,49,148,41,67,47,061,36,82,37,038,39,83,33,341,13,1*77
$GLGSV,2,2,07,80,24,230,15,73,23,289,17,66,06,027,15,1*43
$GAGSV,2,1,08,24,51,243,16,10,49,334,36,12,48,015,34,11,35,300,33,7*7C
$GAGSV,2,2,08,19,31,086,39,04,28,154,29,25,25,307,32,33,15,064,34,7*74
$GAGSV,2,1,08,24,51,243,20,10,49,334,41,12,48,015,38,11,35,300,31,1*71
$GAGSV,2,2,08,19,31,086,39,04,28,154,34,25,25,307,27,33,15,064,34,1*7A
$GBGSV,4,1,16,40,83,131,40,07,81,246,41,10,72,290,37,33,64,149,44,1*72
$GBGSV,4,2,16,14,61,083,41,08,58,270,39,43,53,055,41,13,49,258,27,1*70
$GBGSV,4,3,16,42,40,053,37,28,38,324,33,11,33,080,45,41,22,197,,1*71
$GBGSV,4,4,16,23,18,221,,34,17,097,35,37,16,273,13,06,01,188,,1*70
$GBGSV,2,1,08,40,83,131,45,33,64,149,46,43,53,055,40,42,40,053,38,4*73
$GBGSV,2,2,08,28,38,324,24,23,18,221,20,34,17,097,34,37,16,273,19,4*77
$GNGGA,034615.000,2500.8078800,N,12132.4309100,E,2,63,0.45,16.90,M,15.25,M,2,3335*7D
$GNRMC,034615.000,A,2500.8078800,N,12132.4309100,E,0.00,85.16,270623,,,D,V*36
$GPHDT,,T*1B
$GNGGA,034615.200,2500.8078900,N,12132.4309000,E,2,61,0.46,16.90,M,15.25,M,2,3335*7E
$GNRMC,034615.200,A,2500.8078900,N,12132.4309000,E,0.00,85.16,270623,,,D,V*34
$GPHDT,,T*1B
$GNGGA,034615.400,2500.8079000,N,12132.4308900,E,2,61,0.46,16.91,M,15.25,M,2,3335*79
$GNRMC,034615.400,A,2500.8079000,N,12132.4308900,E,0.00,85.16,270623,,,D,V*32
$GPHDT,,T*1B
$GNGGA,034615.600,2500.8079100,N,12132.4308800,E,2,61,0.46,16.91,M,15.25,M,2,3335*7B
$GNRMC,034615.600,A,2500.8079100,N,12132.4308800,E,0.00,85.16,270623,,,D,V*30
$GPHDT,,T*1B
$GNGGA,034615.800,2500.8079200,N,12132.4308700,E,2,61,0.46,16.92,M,15.25,M,2,3335*7A
$GNRMC,034615.800,A,2500.8079200,N,12132.4308700,E,0.00,85.16,270623,,,D,V*32
$GPHDT,,T*1B
$GNGSA,A,3,195,19,17,196,199,06,194,09,20,11,14,04,0.84,0.46,0.71,1*05
$GNGSA,A,3,12,,,,,,,,,,,,0.84,0.46,0.71,1*0A
$GNGSA,A,3,68,67,82,73,,,,,,,,,0.84,0.46,0.71,2*0B
$GNGSA,A,3,24,10,12,11,19,04,25,33,,,,,0.84,0.46,0.71,3*04
$GNGSA,A,3,40,07,10,33,14,08,43,13,42,28,11,34,0.84,0.46,0.71,4*0D
$GNGSA,A,3,23,37,,,,,,,,,,,0.84,0.46,0.71,4*09
$GPGSV,4,1,16,195,67,043,42,19,66,020,44,17,64,075,41,196,64,127,39,1*60
$GPGSV,4,2,16,199,60,167,34,50,60,167,36,06,50,339,42,194,41,171,33,1*61
$GPGSV,4,3,16,09,33,106,45,20,29,230,12,11,27,285,23,14,26,176,23,1*6B
$GPGSV,4,4,16,04,21,073,42,12,13,318,23,03,09,038,17,05,03,221,,1*6C
$GPGSV,3,1,09,195,67,043,46,196,64,127,45,199,60,167,46,06,50,339,44,8*59
$GPGSV,3,2,09,194,41,171,31,09,33,106,44,11,27,285,22,04,21,073,37,8*5A
$GPGSV,3,3,09,03,09,038,25,8*52
$GLGSV,2,1,07,68,49,148,41,67,47,061,37,82,37,038,40,83,33,341,16,1*7D
$GLGSV,2,2,07,80,24,230,18,73,23,289,16,66,06,027,16,1*4C
$GAGSV,2,1,08,24,51,243,14,10,49,334,37,12,48,015,32,11,35,300,34,7*7E
$GAGSV,2,2,08,19,31,086,39,04,28,154,29,25,25,307,30,33,15,064,34,7*76
$GAGSV,2,1,08,24,51,243,19,10,49,334,40,12,48,015,38,11,35,300,31,1*7A
$GAGSV,2,2,08,19,31,086,39,04,28,154,34,25,25,307,29,33,15,064,34,1*74
$GBGSV,4,1,16,40,83,131,40,07,81,246,41,10,72,290,35,33,64,149,44,1*70
$GBGSV,4,2,16,14,61,083,42,08,58,270,39,43,53,055,41,13,49,258,26,1*72
$GBGSV,4,3,16,42,40,053,36,28,38,324,34,11,33,080,45,41,22,197,,1*77
$GBGSV,4,4,16,23,18,221,,34,17,097,35,37,16,273,16,06,01,188,,1*75
$GBGSV,2,1,08,40,83,131,46,33,64,149,46,43,53,055,42,42,40,053,39,4*73
$GBGSV,2,2,08,28,38,324,26,23,18,221,20,34,17,097,34,37,16,273,19,4*75
$GNGGA,034616.000,2500.8079300,N,12132.4308600,E,2,61,0.46,16.93,M,15.25,M,3,3335*71
$GNRMC,034616.000,A,2500.8079300,N,12132.4308600,E,0.00,85.16,270623,,,D,V*39
$GPHDT,,T*1B
$GNGGA,034616.200,2500.8079400,N,12132.4308500,E,2,60,0.47,16.93,M,15.25,M,3,3335*77
$GNRMC,034616.200,A,2500.8079400,N,12132.4308500,E,0.00,85.16,270623,,,D,V*3F
$GPHDT,,T*1B
$GNGGA,034616.400,2500.8079400,N,12132.4308500,E,2,61,0.46,16.93,M,15.25,M,3,3335*71
$GNRMC,034616.400,A,2500.8079400,N,12132.4308500,E,0.00,85.16,270623,,,D,V*39
$GPHDT,,T*1B
$GNGGA,034616.600,2500.8079500,N,12132.4308300,E,2,61,0.46,16.94,M,15.25,M,3,3335*73
$GNRMC,034616.600,A,2500.8079500,N,12132.4308300,E,0.00,85.16,270623,,,D,V*3C
$GPHDT,,T*1B
$GNGGA,034616.800,2500.8079500,N,12132.4308300,E,2,61,0.46,16.94,M,15.25,M,3,3335*7D
$GNRMC,034616.800,A,2500.8079500,N,12132.4308300,E,0.00,85.16,270623,,,D,V*32
$GPHDT,,T*1B
$GNGSA,A,3,195,19,17,196,199,06,194,09,11,14,04,12,0.84,0.46,0.71,1*04
$GNGSA,A,3,68,67,82,80,73,,,,,,,,0.84,0.46,0.71,2*03
$GNGSA,A,3,24,10,12,11,19,04,25,33,,,,,0.84,0.46,0.71,3*04
$GNGSA,A,3,40,07,10,33,14,08,43,13,42,28,11,34,0.84,0.46,0.71,4*0D
$GNGSA,A,3,23,37,,,,,,,,,,,0.84,0.46,0.71,4*09
$GPGSV,4,1,16,195,67,043,42,19,66,020,44,17,64,075,41,196,64,127,39,1*60
$GPGSV,4,2,16,199,60,167,34,50,60,167,36,06,50,339,42,194,41,171,32,1*60
$GPGSV,4,3,16,09,33,106,45,20,29,230,15,11,27,285,23,14,26,176,23,1*6C
$GPGSV,4,4,16,04,21,073,42,12,13,318,25,03,09,038,17,05,03,221,,1*6A
$GPGSV,3,1,09,195,67,043,46,196,64,127,45,199,60,167,46,06,50,339,44,8*59
$GPGSV,3,2,09,194,41,171,31,09,33,106,44,11,27,285,21,04,21,073,36,8*58
$GPGSV,3,3,09,03,09,038,25,8*52
$GLGSV,2,1,08,68,49,148,41,67,47,061,37,82,37,038,39,83,33,341,15,1*7F
$GLGSV,2,2,08,80,24,230,18,73,23,289,15,69,10,185,,66,06,027,15,1*71
$GAGSV,2,1,08,24,51,243,15,10,49,334,37,12,48,015,33,11,35,300,34,7*7E
$GAGSV,2,2,08,19,31,086,39,04,28,154,29,25,25,307,29,33,15,064,32,7*78
$GAGSV,2,1,08,24,51,243,19,10,49,334,40,12,48,015,39,11,35,300,32,1*78
$GAGSV,2,2,08,19,31,086,39,04,28,154,33,25,25,307,27,33,15,064,34,1*7D
$GBGSV,4,1,15,40,83,131,40,07,81,246,41,10,72,290,36,33,64,149,44,1*70
$GBGSV,4,2,15,14,61,083,42,08,58,270,39,43,53,055,41,13,49,258,26,1*71
$GBGSV,4,3,15,42,40,053,37,28,38,324,34,11,33,080,45,41,22,197,,1*75
$GBGSV,4,4,15,23,18,221,,34,17,097,35,37,16,273,17,1*41
$GBGSV,2,1,08,40,83,131,46,33,64,149,46,43,53,055,42,42,40,053,38,4*72
$GBGSV,2,2,08,28,38,324,26,23,18,221,20,34,17,097,34,37,16,273,19,4*75
$GNGGA,034617.000,2500.8079500,N,12132.4308200,E,2,61,0.46,16.95,M,15.25,M,4,3335*73
$GNRMC,034617.000,A,2500.8079500,N,12132.4308200,E,0.00,85.16,270623,,,D,V*3A
$GPHDT,,T*1B
$GNGGA,034617.200,2500.8079600,N,12132.4308000,E,2,61,0.46,16.96,M,15.25,M,3,3335*74
$GNRMC,034617.200,A,2500.8079600,N,12132.4308000,E,0.00,85.16,270623,,,D,V*39
$GPHDT,,T*1B
$GNGGA,034617.400,2500.8079600,N,12132.4308000,E,2,62,0.45,16.96,M,15.25,M,1,3335*70
$GNRMC,034617.400,A,2500.8079600,N,12132.4308000,E,0.00,85.16,270623,,,D,V*3F
$GPHDT,,T*1B
$GNGGA,034617.600,2500.8079600,N,12132.4307900,E,2,62,0.45,16.95,M,15.25,M,0,3335*76
$GNRMC,034617.600,A,2500.8079600,N,12132.4307900,E,0.00,85.16,270623,,,D,V*3B
$GPHDT,,T*1B
$GNGGA,034617.800,2500.8079700,N,12132.4307800,E,2,63,0.45,16.96,M,15.25,M,0,3335*7A
$GNRMC,034617.800,A,2500.8079700,N,12132.4307800,E,0.00,85.16,270623,,,D,V*35
$GPHDT,,T*1B
$GNGSA,A,3,195,19,17,196,199,06,194,09,11,14,04,12,0.83,0.45,0.70,1*01
$GNGSA,A,3,68,67,82,83,80,73,,,,,,,0.83,0.45,0.70,2*0D
$GNGSA,A,3,24,10,12,11,19,04,25,33,,,,,0.83,0.45,0.70,3*01
$GNGSA,A,3,40,07,10,33,14,08,43,13,42,28,11,34,0.83,0.45,0.70,4*08
$GNGSA,A,3,37,23,,,,,,,,,,,0.83,0.45,0.70,4*0C
$GPGSV,4,1,16,195,67,043,40,19,66,020,44,17,64,075,43,196,64,127,39,1*60
$GPGSV,4,2,16,199,60,167,34,50,60,167,37,06,50,340,39,194,41,171,33,1*62
$GPGSV,4,3,16,09,33,106,45,20,29,230,14,11,27,285,22,14,26,176,24,1*6B
$GPGSV,4,4,16,04,21,072,42,12,13,318,25,03,09,038,18,05,03,221,,1*64
$GPGSV,3,1,09,195,67,043,46,196,64,127,45,199,60,167,46,06,50,340,45,8*56
$GPGSV,3,2,09,194,41,171,30,09,33,106,45,11,27,285,23,04,21,072,39,8*54
$GPGSV,3,3,09,03,09,038,25,8*52
$GLGSV,3,1,09,68,49,148,41,67,47,061,41,82,37,038,36,83,33,341,17,1*73
$GLGSV,3,2,09,80,24,230,19,73,23,289,15,69,10,185,,66,06,027,15,1*70
$GLGSV,3,3,09,74,03,328,,1*48
$GAGSV,2,1,08,24,51,243,14,10,49,334,38,12,48,015,22,11,35,300,33,7*77
$GAGSV,2,2,08,19,31,086,38,04,28,154,28,25,25,307,31,33,15,064,35,7*76
$GAGSV,2,1,08,24,51,243,19,10,49,334,41,12,48,015,27,11,35,300,31,1*75
$GAGSV,2,2,08,19,31,086,39,04,28,154,32,25,25,307,26,33,15,064,36,1*7F
$GBGSV,4,1,16,40,83,131,41,07,81,246,41,10,72,290,38,33,64,149,44,1*7C
$GBGSV,4,2,16,14,61,083,44,08,58,270,39,43,53,055,38,13,49,258,29,1*75
$GBGSV,4,3,16,42,40,053,37,28,38,324,33,11,33,080,44,41,22,197,,1*70
$GBGSV,4,4,16,23,18,221,,34,17,097,35,37,16,273,16,25,02,178,,1*78
$GBGSV,2,1,08,40,83,131,45,33,64,149,46,43,53,055,40,42,40,053,37,4*7C
$GBGSV,2,2,08,28,38,324,24,23,18,221,20,34,17,097,31,37,16,273,20,4*78
$GNGGA,034618.000,2500.8079700,N,12132.4307700,E,2,63,0.45,16.95,M,15.25,M,1,3335*70
$GNRMC,034618.000,A,2500.8079700,N,12132.4307700,E,0.00,85.16,270623,,,D,V*3D
$GPHDT,,T*1B
$GNGGA,034618.200,2500.8079700,N,12132.4307600,E,2,63,0.45,16.95,M,15.25,M,1,3335*73
$GNRMC,034618.200,A,2500.8079700,N,12132.4307600,E,0.00,85.16,270623,,,D,V*3E
$GPHDT,,T*1B
$GNGGA,034618.400,2500.8079800,N,12132.4307500,E,2,62,0.46,16.94,M,15.25,M,1,3335*7A
$GNRMC,034618.400,A,2500.8079800,N,12132.4307500,E,0.00,85.16,270623,,,D,V*34
$GPHDT,,T*1B
$GNGGA,034618.600,2500.8079800,N,12132.4307400,E,2,62,0.46,16.94,M,15.25,M,1,3335*79
$GNRMC,034618.600,A,2500.8079800,N,12132.4307400,E,0.00,85.16,270623,,,D,V*37
$GPHDT,,T*1B
$GNGGA,034618.800,2500.8079900,N,12132.4307300,E,2,63,0.45,16.94,M,15.25,M,1,3335*73
$GNRMC,034618.800,A,2500.8079900,N,12132.4307300,E,0.00,85.16,270623,,,D,V*3F
$GPHDT,,T*1B
$GNGSA,A,3,195,19,17,196,199,06,194,09,20,11,14,04,0.84,0.44,0.71,1*07
$GNGSA,A,3,12,,,,,,,,,,,,0.84,0.44,0.71,1*08
$GNGSA,A,3,68,67,82,83,80,,,,,,,,0.84,0.44,0.71,2*0E
$GNGSA,A,3,24,10,12,11,19,04,25,33,,,,,0.84,0.44,0.71,3*06
$GNGSA,A,3,40,07,10,33,14,08,43,13,42,28,11,34,0.84,0.44,0.71,4*0F
$GNGSA,A,3,37,23,,,,,,,,,,,0.84,0.44,0.71,4*0B
$GPGSV,4,1,16,195,67,043,41,19,66,020,43,17,64,075,43,196,64,127,39,1*66
$GPGSV,4,2,16,50,60,167,37,199,60,167,35,06,50,340,39,194,41,171,32,1*62
$GPGSV,4,3,16,09,33,105,45,20,29,230,17,11,27,285,24,14,26,176,25,1*6C
$GPGSV,4,4,16,04,21,072,42,12,13,318,22,03,09,038,20,05,03,221,,1*68
$GPGSV,3,1,09,195,67,043,46,196,64,127,45,199,60,167,46,06,50,340,45,8*56
$GPGSV,3,2,09,194,41,171,30,09,33,105,46,11,27,285,21,04,21,072,39,8*56
$GPGSV,3,3,09,03,09,038,26,8*51
$GLGSV,3,1,09,68,49,148,41,67,47,061,43,82,37,038,36,83,33,341,15,1*73
$GLGSV,3,2,09,80,24,230,18,73,23,289,15,69,10,185,,66,06,027,14,1*70
$GLGSV,3,3,09,74,03,328,,1*48
$GAGSV,2,1,08,24,51,243,14,10,49,334,40,12,48,015,21,11,35,300,33,7*7B
$GAGSV,2,2,08,19,31,086,36,04,28,154,28,25,25,307,32,33,15,064,36,7*78
$GAGSV,2,1,08,24,51,243,17,10,49,334,41,12,48,015,29,11,35,300,31,1*75
$GAGSV,2,2,08,19,31,086,38,04,28,154,32,25,25,307,25,33,15,064,36,1*7D
$GBGSV,5,1,18,40,83,131,41,07,81,246,41,10,72,290,38,33,64,149,44,1*73
$GBGSV,5,2,18,14,61,083,44,08,58,270,39,43,53,055,37,13,49,258,26,1*7A
$GBGSV,5,3,18,42,40,053,40,28,38,324,30,11,33,080,44,41,22,197,,1*7C
$GBGSV,5,4,18,23,18,221,,34,17,097,36,37,16,273,17,39,02,178,,1*78
$GBGSV,5,5,18,25,02,178,,06,01,188,,1*72
$GBGSV,2,1,08,40,83,131,44,33,64,149,46,43,53,055,41,42,40,053,37,4*7C
$GBGSV,2,2,08,28,38,324,26,23,18,221,20,34,17,097,28,37,16,273,20,4*72
$GNGGA,034619.000,2500.8080000,N,12132.4307200,E,2,63,0.44,16.94,M,15.25,M,2,3335*76
$GNRMC,034619.000,A,2500.8080000,N,12132.4307200,E,0.00,85.16,270623,,,D,V*38
$GPHDT,,T*1B
$GNGGA,034619.200,2500.8080000,N,12132.4307100,E,2,63,0.44,16.93,M,15.25,M,2,3335*70
$GNRMC,034619.200,A,2500.8080000,N,12132.4307100,E,0.00,85.16,270623,,,D,V*39
$GPHDT,,T*1B
$GNGGA,034619.400,2500.8080100,N,12132.4307100,E,2,63,0.44,16.93,M,15.25,M,2,3335*77
$GNRMC,034619.400,A,2500.8080100,N,12132.4307100,E,0.00,85.16,270623,,,D,V*3E
$GPHDT,,T*1B
$GNGGA,034619.600,2500.8080100,N,12132.4306900,E,2,63,0.44,16.93,M,15.25,M,2,3335*7C
$GNRMC,034619.600,A,2500.8080100,N,12132.4306900,E,0.00,85.16,270623,,,D,V*35
$GPHDT,,T*1B
$GNGGA,034619.800,2500.8080200,N,12132.4306800,E,2,62,0.46,16.93,M,15.25,M,2,3335*73
$GNRMC,034619.800,A,2500.8080200,N,12132.4306800,E,0.00,85.16,270623,,,D,V*39
$GPHDT,,T*1B
$GNGSA,A,3,195,19,17,196,199,06,194,09,20,11,04,12,0.85,0.46,0.72,1*01
$GNGSA,A,3,68,67,82,83,80,,,,,,,,0.85,0.46,0.72,2*0E
$GNGSA,A,3,24,10,12,11,19,04,25,33,,,,,0.85,0.46,0.72,3*06
$GNGSA,A,3,40,07,10,33,14,08,43,13,42,28,11,34,0.85,0.46,0.72,4*0F
$GNGSA,A,3,37,23,,,,,,,,,,,0.85,0.46,0.72,4*0B
$GPGSV,4,1,16,195,67,043,43,19,66,020,43,17,64,075,43,196,64,127,39,1*64
$GPGSV,4,2,16,199,60,167,35,50,60,167,37,06,50,340,41,194,41,171,31,1*6E
$GPGSV,4,3,16,09,33,105,45,20,29,230,17,11,27,285,22,14,25,176,24,1*68
$GPGSV,4,4,16,04,21,072,42,12,13,318,23,03,09,038,21,05,03,221,,1*68
$GPGSV,3,1,09,195,67,043,46,196,64,127,45,199,60,167,46,06,50,340,45,8*56
$GPGSV,3,2,09,194,41,171,30,09,33,105,46,11,27,285,20,04,21,072,40,8*59
$GPGSV,3,3,09,03,09,038,24,8*53
$GLGSV,2,1,07,68,49,148,41,67,47,061,41,82,37,038,35,83,33,341,13,1*7B
$GLGSV,2,2,07,80,24,230,18,73,23,289,15,66,06,027,17,1*4E
$GAGSV,2,1,08,24,51,243,15,10,49,334,40,12,48,015,32,11,35,300,33,7*78
$GAGSV,2,2,08,19,31,086,36,04,28,154,27,25,25,307,33,33,15,064,36,7*76
$GAGSV,2,1,08,24,51,243,17,10,49,334,42,12,48,015,33,11,35,300,32,1*7E
$GAGSV,2,2,08,19,31,086,38,04,28,154,32,25,25,307,26,33,15,064,36,1*7E
$GBGSV,4,1,16,40,83,131,41,07,81,246,41,10,72,290,38,33,64,149,44,1*7C
$GBGSV,4,2,16,14,61,083,44,08,58,270,39,43,53,055,37,13,49,258,28,1*7B
$GBGSV,4,3,16,42,40,053,37,28,38,324,29,11,33,080,44,41,22,197,,1*7B
$GBGSV,4,4,16,23,18,221,,34,17,097,35,37,16,273,15,25,02,178,,1*7B
$GBGSV,2,1,08,40,83,131,44,33,64,149,46,43,53,055,41,42,40,053,39,4*72
$GBGSV,2,2,08,28,38,324,26,23,18,221,20,34,17,097,26,37,16,273,20,4*7C
$GNGGA,034620.000,2500.8080300,N,12132.4306700,E,2,62,0.46,16.93,M,15.25,M,3,3335*7E
$GNRMC,034620.000,A,2500.8080300,N,12132.4306700,E,0.00,85.16,270623,,,D,V*35
$GPHDT,,T*1B
$GNGGA,034620.200,2500.8080300,N,12132.4306600,E,2,63,0.44,16.93,M,15.25,M,3,3335*7E
$GNRMC,034620.200,A,2500.8080300,N,12132.4306600,E,0.00,85.16,270623,,,D,V*36
$GPHDT,,T*1B
$GNGGA,034620.400,2500.8080400,N,12132.4306500,E,2,63,0.44,16.92,M,15.25,M,3,3335*7D
$GNRMC,034620.400,A,2500.8080400,N,12132.4306500,E,0.00,85.16,270623,,,D,V*34
$GPHDT,,T*1B
$GNGGA,034620.600,2500.8080400,N,12132.4306400,E,2,63,0.44,16.92,M,15.25,M,3,3335*7E
$GNRMC,034620.600,A,2500.8080400,N,12132.4306400,E,0.00,85.16,270623,,,D,V*37
$GPHDT,,T*1B
$GNGGA,034620.800,2500.8080400,N,12132.4306400,E,2,63,0.44,16.91,M,15.25,M,3,3335*73
$GNRMC,034620.800,A,2500.8080400,N,12132.4306400,E,0.00,85.16,270623,,,D,V*39
$GPHDT,,T*1B
$GNGSA,A,3,195,19,17,196,199,06,194,09,20,11,14,04,0.84,0.44,0.71,1*07
$GNGSA,A,3,12,,,,,,,,,,,,0.84,0.44,0.71,1*08
$GNGSA,A,3,68,67,82,83,80,,,,,,,,0.84,0.44,0.71,2*0E
$GNGSA,A,3,24,10,12,11,19,04,25,33,,,,,0.84,0.44,0.71,3*06
$GNGSA,A,3,40,07,10,33,14,08,43,13,42,28,11,34,0.84,0.44,0.71,4*0F
$GNGSA,A,3,37,23,,,,,,,,,,,0.84,0.44,0.71,4*0B
$GPGSV,4,1,16,195,67,043,42,19,66,020,43,17,64,076,43,196,64,127,39,1*66
$GPGSV,4,2,16,199,60,167,35,50,60,167,37,06,50,340,40,194,41,171,32,1*6C
$GPGSV,4,3,16,09,33,105,45,20,29,231,17,11,27,285,22,14,25,176,26,1*6B
$GPGSV,4,4,16,04,21,072,43,12,13,318,24,03,09,038,21,05,03,221,,1*6E
$GPGSV,3,1,09,195,67,043,47,196,64,127,45,199,60,167,46,06,50,340,46,8*54
$GPGSV,3,2,09,194,41,171,30,09,33,105,46,11,27,285,21,04,21,072,39,8*56
$GPGSV,3,3,09,03,09,038,24,8*53
$GLGSV,2,1,07,68,49,148,43,67,47,061,39,82,37,038,36,83,33,341,16,1*70
$GLGSV,2,2,07,80,24,230,19,73,23,289,13,66,06,027,18,1*46
$GAGSV,2,1,08,24,51,243,14,10,49,334,41,12,48,015,33,11,35,300,33,7*79
$GAGSV,2,2,08,19,31,086,37,04,28,154,27,25,25,307,33,33,15,064,36,7*77
$GAGSV,2,1,08,24,51,243,18,10,49,334,43,12,48,015,39,11,35,300,32,1*7A
$GAGSV,2,2,08,19,31,086,38,04,28,154,30,25,25,307,24,33,15,064,34,1*7C
$GBGSV,4,1,15,40,83,131,41,07,81,246,41,10,72,290,38,33,64,149,44,1*7F
$GBGSV,4,2,15,14,61,083,45,08,58,270,39,43,53,055,39,13,49,258,28,1*77
$GBGSV,4,3,15,42,40,053,37,28,38,324,29,11,33,080,44,41,22,197,,1*78
$GBGSV,4,4,15,23,18,221,,34,17,097,38,37,16,273,16,1*4D
$GBGSV,2,1,08,40,83,131,44,33,64,149,46,43,53,055,42,42,40,053,41,4*7E
$GBGSV,2,2,08,28,38,324,26,23,18,221,21,34,17,097,27,37,16,273,20,4*7C
$GNGGA,034621.000,2500.8080500,N,12132.4306200,E,2,63,0.44,16.91,M,15.25,M,4,3335*7A
$GNRMC,034621.000,A,2500.8080500,N,12132.4306200,E,0.00,85.16,270623,,,D,V*37
$GPHDT,,T*1B
$GNGGA,034621.200,2500.8080600,N,12132.4306200,E,2,63,0.44,16.91,M,15.25,M,4,3335*7B
$GNRMC,034621.200,A,2500.8080600,N,12132.4306200,E,0.00,85.16,270623,,,D,V*36
$GPHDT,,T*1B
