$FW : RTK35X,V1.1X0314AS,Lib20210517,1*54
$Tool : LOCOSYS , GNSS Firebird , v1.0.0.19*39
$---------------------------------------------------*2D
$GPHDT,45.895,T*00
$GNGGA,034521.800,2500.8062200,N,12132.4310700,E,2,59,0.46,18.50,M,15.25,M,0,3335*74
$GNRMC,034521.800,A,2500.8062200,N,12132.4310700,E,0.00,85.16,270623,,,D,V*35
$GPHDT,45.522,T*01
$GNGSA,A,3,195,19,17,196,199,06,194,09,20,11,14,04,0.89,0.47,0.76,1*0E
$GNGSA,A,3,12,,,,,,,,,,,,0.89,0.47,0.76,1*01
$GNGSA,A,3,68,67,82,73,,,,,,,,,0.89,0.47,0.76,2*00
$GNGSA,A,3,24,10,12,11,19,04,25,33,,,,,0.89,0.47,0.76,3*0F
$GNGSA,A,3,40,07,10,33,14,08,43,13,42,28,11,23,0.89,0.47,0.76,4*00
$GPGSV,4,1,16,195,67,043,41,19,66,019,42,17,64,075,43,196,64,127,41,1*62
$GPGSV,4,2,16,199,60,167,36,50,60,167,39,06,50,339,44,194,41,171,33,1*6A
$GPGSV,4,3,16,09,33,106,41,20,28,230,16,11,27,285,25,14,26,177,19,1*64
$GPGSV,4,4,16,04,21,073,38,12,13,318,26,03,09,038,18,05,03,221,,1*6B
$GPGSV,3,1,09,195,67,043,45,196,64,127,46,199,60,167,46,06,50,339,46,8*5B
$GPGSV,3,2,09,194,41,171,22,09,33,106,40,11,27,285,23,04,21,073,39,8*53
$GPGSV,3,3,09,03,09,038,31,8*57
$GLGSV,3,1,09,68,49,148,40,67,47,062,41,82,37,037,42,83,33,340,13,1*78
$GLGSV,3,2,09,80,25,231,13,73,23,290,26,66,06,027,13,74,03,328,,1*7F
$GLGSV,3,3,09,79,01,186,,1*41
$GAGSV,2,1,08,24,52,243,15,10,49,334,39,12,48,014,39,11,35,300,27,7*7A
$GAGSV,2,2,08,19,31,086,28,04,27,154,25,25,25,307,28,33,15,064,37,7*7F
$GAGSV,2,1,08,24,52,243,18,10,49,334,42,12,48,014,39,11,35,300,31,1*7A
$GAGSV,2,2,08,19,31,086,24,04,27,154,31,25,25,307,31,33,15,064,34,1*7B
$GBGSV,4,1,16,40,83,129,41,07,81,247,40,10,72,290,38,33,63,150,44,1*7A
$GBGSV,4,2,16,14,61,084,44,08,58,269,39,43,53,054,44,13,49,257,28,1*7E
$GBGSV,4,3,16,42,40,054,45,28,37,324,36,11,33,080,41,41,22,197,,1*7D
$GBGSV,4,4,16,23,19,221,24,34,17,097,24,37,16,273,19,06,01,189,,1*7C
$GBGSV,2,1,06,40,83,129,46,33,63,150,46,43,53,054,43,42,40,054,43,4*71
$GBGSV,2,2,06,23,19,221,21,34,17,097,31,4*73
$GNGGA,034522.000,2500.8062100,N,12132.4310700,E,2,58,0.47,18.49,M,15.25,M,1,3335*75
$GNRMC,034522.000,A,2500.8062100,N,12132.4310700,E,0.00,85.16,270623,,,D,V*3D
$GPHDT,45.691,T*0A
$GNGGA,034522.200,2500.8062000,N,12132.4310700,E,2,58,0.47,18.48,M,15.25,M,1,3335*77
$GNRMC,034522.200,A,2500.8062000,N,12132.4310700,E,0.00,85.16,270623,,,D,V*3E
$GPHDT,45.580,T*09
$GNGGA,034522.400,2500.8061900,N,12132.4310700,E,2,58,0.47,18.47,M,15.25,M,1,3335*74
$GNRMC,034522.400,A,2500.8061900,N,12132.4310700,E,0.00,85.16,270623,,,D,V*32
$GPHDT,45.728,T*09
$GNGGA,034522.600,2500.8061800,N,12132.4310800,E,2,58,0.47,18.46,M,15.25,M,0,3335*78
$GNRMC,034522.600,A,2500.8061800,N,12132.4310800,E,0.00,85.16,270623,,,D,V*3E
$GPHDT,45.497,T*0E
$GNGGA,034522.800,2500.8061800,N,12132.4310900,E,2,58,0.47,18.44,M,15.25,M,0,3335*75
$GNRMC,034522.800,A,2500.8061800,N,12132.4310900,E,0.00,85.16,270623,,,D,V*31
$GPHDT,45.599,T*01
$GNGSA,A,3,195,19,17,196,199,06,194,09,20,11,14,04,0.89,0.47,0.76,1*0E
$GNGSA,A,3,12,,,,,,,,,,,,0.89,0.47,0.76,1*01
$GNGSA,A,3,68,67,82,73,,,,,,,,,0.89,0.47,0.76,2*00
$GNGSA,A,3,24,10,12,11,19,04,25,33,,,,,0.89,0.47,0.76,3*0F
$GNGSA,A,3,40,07,10,33,14,08,43,13,42,28,11,23,0.89,0.47,0.76,4*00
$GPGSV,4,1,16,195,67,043,41,19,66,019,42,17,64,075,43,196,64,127,41,1*62
$GPGSV,4,2,16,50,60,167,39,199,60,167,36,06,50,339,44,194,41,171,34,1*6D
$GPGSV,4,3,16,09,33,106,41,20,28,230,16,11,27,285,25,14,26,177,19,1*64
$GPGSV,4,4,16,04,21,073,38,12,13,318,27,03,09,038,17,05,03,221,,1*65
$GPGSV,3,1,09,195,67,043,45,196,64,127,46,199,60,167,46,06,50,339,46,8*5B
$GPGSV,3,2,09,194,41,171,24,09,33,106,40,11,27,285,22,04,21,073,39,8*54
$GPGSV,3,3,09,03,09,038,31,8*57
$GLGSV,3,1,10,68,49,148,40,67,47,062,41,82,37,037,42,83,33,340,13,1*70
$GLGSV,3,2,10,80,25,231,16,73,23,290,26,69,10,185,,66,06,027,13,1*79
$GLGSV,3,3,10,74,03,328,,79,01,186,,1*70
$GAGSV,2,1,08,24,52,243,15,10,49,334,39,12,48,015,39,11,35,300,27,7*7B
$GAGSV,2,2,08,19,31,086,29,04,27,154,25,25,25,307,28,33,15,064,37,7*7E
$GAGSV,2,1,08,24,52,243,18,10,49,334,42,12,48,015,39,11,35,300,31,1*7B
$GAGSV,2,2,08,19,31,086,25,04,27,154,30,25,25,307,31,33,15,064,34,1*7B
$GBGSV,5,1,17,40,83,129,41,07,81,247,40,10,72,290,38,33,63,150,44,1*7A
$GBGSV,5,2,17,14,61,084,44,08,58,269,39,43,53,054,44,13,49,257,29,1*7F
$GBGSV,5,3,17,42,40,054,45,28,37,324,36,11,33,080,41,41,22,197,,1*7D
$GBGSV,5,4,17,23,19,221,24,34,17,097,19,37,16,273,19,39,02,178,,1*73
$GBGSV,5,5,17,06,01,189,,1*47
$GBGSV,2,1,06,40,83,129,46,33,63,150,46,43,53,054,43,42,40,054,43,4*71
$GBGSV,2,2,06,23,19,221,22,34,17,097,32,4*73
$GNGGA,034523.000,2500.8061700,N,12132.4310900,E,2,58,0.47,18.42,M,15.25,M,1,3335*74
$GNRMC,034523.000,A,2500.8061700,N,12132.4310900,E,0.00,85.16,270623,,,D,V*37
$PAIR010,0,1,2268,186341*3D
$GPHDT,45.781,T*0A
$GNGGA,034523.200,2500.8061600,N,12132.4310900,E,2,58,0.47,18.41,M,15.25,M,1,3335*74
$GNRMC,034523.200,A,2500.8061600,N,12132.4310900,E,0.00,85.16,270623,,,D,V*34
$GPHDT,46.110,T*07
$GNGGA,034523.400,2500.8061500,N,12132.4311000,E,2,58,0.47,18.39,M,15.25,M,1,3335*76
$GNRMC,034523.400,A,2500.8061500,N,12132.4311000,E,0.00,85.16,270623,,,D,V*39
$GPHDT,45.717,T*05
$GNGGA,034523.600,2500.8061500,N,12132.4311000,E,2,58,0.47,18.38,M,15.25,M,1,3335*75
$GNRMC,034523.600,A,2500.8061500,N,12132.4311000,E,0.00,85.16,270623,,,D,V*3B
$GPHDT,45.710,T*02
$GNGGA,034523.800,2500.8061400,N,12132.4311100,E,2,58,0.47,18.37,M,15.25,M,1,3335*74
$GNRMC,034523.800,A,2500.8061400,N,12132.4311100,E,0.00,85.16,270623,,,D,V*35
$GPHDT,45.827,T*09
$GNGSA,A,3,195,19,17,196,199,06,194,09,20,11,14,04,0.89,0.47,0.76,1*0E
$GNGSA,A,3,12,,,,,,,,,,,,0.89,0.47,0.76,1*01
$GNGSA,A,3,68,67,82,73,,,,,,,,,0.89,0.47,0.76,2*00
$GNGSA,A,3,24,10,12,11,19,04,25,33,,,,,0.89,0.47,0.76,3*0F
$GNGSA,A,3,40,07,10,33,14,08,43,13,42,28,11,23,0.89,0.47,0.76,4*00
$GPGSV,4,1,16,195,67,043,41,19,66,019,42,17,64,075,42,196,64,127,41,1*63
$GPGSV,4,2,16,50,60,167,39,199,60,167,36,06,50,339,44,194,41,171,34,1*6D
$GPGSV,4,3,16,09,33,106,41,20,28,230,16,11,27,285,23,14,26,177,18,1*63
$GPGSV,4,4,16,04,21,073,38,12,13,318,27,03,09,038,17,05,03,221,,1*65
$GPGSV,3,1,09,195,67,043,45,196,64,127,46,199,60,167,46,06,50,339,46,8*5B
$GPGSV,3,2,09,194,41,171,23,09,33,106,40,11,27,285,23,04,21,073,39,8*52
$GPGSV,3,3,09,03,09,038,31,8*57
$GLGSV,3,1,09,68,49,148,39,67,47,062,41,82,37,037,42,83,33,340,15,1*70
$GLGSV,3,2,09,80,25,231,15,73,23,290,26,66,06,027,15,74,03,328,,1*7F
$GLGSV,3,3,09,79,01,186,,1*41
$GAGSV,2,1,08,24,52,243,15,10,49,334,39,12,48,015,39,11,35,300,27,7*7B
$GAGSV,2,2,08,19,31,086,29,04,27,154,25,25,25,307,28,33,15,064,37,7*7E
$GAGSV,2,1,08,24,52,243,18,10,49,334,42,12,48,015,39,11,35,300,32,1*78
$GAGSV,2,2,08,19,31,086,28,04,27,154,30,25,25,307,31,33,15,064,34,1*76
$GBGSV,5,1,17,40,83,129,42,07,81,247,40,10,72,290,38,33,63,150,44,1*79
$GBGSV,5,2,17,14,61,084,43,08,58,269,39,43,53,054,44,13,49,257,29,1*78
$GBGSV,5,3,17,42,40,054,45,28,37,324,36,11,33,080,41,41,22,197,,1*7D
$GBGSV,5,4,17,23,19,221,24,34,17,097,19,37,16,273,19,25,02,178,,1*7E
$GBGSV,5,5,17,06,01,189,,1*47
$GBGSV,2,1,06,40,83,129,46,33,63,150,46,43,53,054,43,42,40,054,43,4*71
$GBGSV,2,2,06,23,19,221,22,34,17,097,31,4*70
$GNGGA,034524.000,2500.8061400,N,12132.4311200,E,2,58,0.47,18.36,M,15.25,M,2,3335*7A
$GNRMC,034524.000,A,2500.8061400,N,12132.4311200,E,0.00,85.16,270623,,,D,V*39
$GPHDT,45.650,T*07
$GNGGA,034524.200,2500.8061300,N,12132.4311300,E,2,58,0.47,18.35,M,15.25,M,2,3335*7D
$GNRMC,034524.200,A,2500.8061300,N,12132.4311300,E,0.00,85.16,270623,,,D,V*3D
$GPHDT,45.320,T*05
$GNGGA,034524.400,2500.8061200,N,12132.4311300,E,2,58,0.47,18.34,M,15.25,M,2,3335*7B
$GNRMC,034524.400,A,2500.8061200,N,12132.4311300,E,0.00,85.16,270623,,,D,V*3A
$GPHDT,45.587,T*0E
$GNGGA,034524.600,2500.8061100,N,12132.4311300,E,2,58,0.47,18.33,M,15.25,M,2,3335*7D
$GNRMC,034524.600,A,2500.8061100,N,12132.4311300,E,0.00,85.16,270623,,,D,V*3B
$GPHDT,45.385,T*0A
$GNGGA,034524.800,2500.8061000,N,12132.4311300,E,2,59,0.46,18.32,M,15.25,M,2,3335*73
$GNRMC,034524.800,A,2500.8061000,N,12132.4311300,E,0.00,85.16,270623,,,D,V*34
$GPHDT,45.533,T*01
$GNGSA,A,3,195,19,17,196,199,06,194,09,20,11,14,04,0.85,0.45,0.72,1*04
$GNGSA,A,3,12,,,,,,,,,,,,0.85,0.45,0.72,1*0B
$GNGSA,A,3,68,67,82,80,73,,,,,,,,0.85,0.45,0.72,2*02
$GNGSA,A,3,24,10,12,11,19,04,25,33,,,,,0.85,0.45,0.72,3*05
$GNGSA,A,3,40,07,10,33,14,08,43,13,42,28,11,23,0.85,0.45,0.72,4*0A
$GNGSA,A,3,34,,,,,,,,,,,,0.85,0.45,0.72,4*0A
$GPGSV,4,1,16,195,67,043,41,19,66,019,42,17,64,075,42,196,64,127,41,1*63
$GPGSV,4,2,16,199,60,167,36,50,60,167,38,06,50,339,44,194,41,171,32,1*6A
$GPGSV,4,3,16,09,33,106,41,20,28,230,16,11,27,285,23,14,26,177,19,1*62
$GPGSV,4,4,16,04,21,073,39,12,13,318,27,03,09,038,18,05,03,221,,1*6B
$GPGSV,3,1,09,195,67,043,45,196,64,127,46,199,60,167,46,06,50,339,46,8*5B
$GPGSV,3,2,09,194,41,171,23,09,33,106,42,11,27,285,24,04,21,073,38,8*56
$GPGSV,3,3,09,03,09,038,29,8*5E
$GLGSV,2,1,08,68,49,148,39,67,47,062,42,82,37,037,42,83,33,340,13,1*75
$GLGSV,2,2,08,80,25,231,15,73,23,290,26,66,06,027,16,79,01,186,,1*75
$GAGSV,2,1,08,24,52,243,17,10,49,334,39,12,48,015,39,11,35,300,26,7*78
$GAGSV,2,2,08,19,31,086,31,04,27,154,25,25,25,307,29,33,15,064,37,7*76
$GAGSV,2,1,08,24,52,243,18,10,49,334,42,12,48,015,39,11,35,300,32,1*78
$GAGSV,2,2,08,19,31,086,28,04,27,154,30,25,25,307,31,33,15,064,34,1*76
$GBGSV,4,1,16,40,83,129,42,07,81,247,41,10,72,290,38,33,63,150,44,1*78
$GBGSV,4,2,16,14,61,084,43,08,58,269,39,43,53,054,44,13,49,257,29,1*78
$GBGSV,4,3,16,42,40,054,45,28,37,324,36,11,33,080,42,41,22,197,,1*7E
$GBGSV,4,4,16,23,19,221,23,34,17,097,20,37,16,273,18,06,01,189,,1*7E
$GBGSV,2,1,06,40,83,129,46,33,63,150,46,43,53,054,43,42,40,054,43,4*71
$GBGSV,2,2,06,23,19,221,21,34,17,097,29,4*7A
$GNGGA,034525.000,2500.8060900,N,12132.4311400,E,2,60,0.45,18.32,M,15.25,M,3,3335*7D
$GNRMC,034525.000,A,2500.8060900,N,12132.4311400,E,0.00,85.16,270623,,,D,V*32
$GPHDT,45.807,T*0B
$GNGGA,034525.200,2500.8060900,N,12132.4311500,E,2,60,0.45,18.31,M,15.25,M,3,3335*7D
$GNRMC,034525.200,A,2500.8060900,N,12132.4311500,E,0.00,85.16,270623,,,D,V*31
$GPHDT,46.178,T*09
$GNGGA,034525.400,2500.8060900,N,12132.4311600,E,2,60,0.45,18.30,M,15.25,M,3,3335*79
$GNRMC,034525.400,A,2500.8060900,N,12132.4311600,E,0.00,85.16,270623,,,D,V*34
$GPHDT,45.993,T*07
$GNGGA,034525.600,2500.8060900,N,12132.4311600,E,2,60,0.45,18.30,M,15.25,M,3,3335*7B
$GNRMC,034525.600,A,2500.8060900,N,12132.4311600,E,0.00,85.16,270623,,,D,V*36
$GPHDT,46.119,T*0E
$GNGGA,034525.800,2500.8060800,N,12132.4311600,E,2,60,0.45,18.29,M,15.25,M,3,3335*7C
$GNRMC,034525.800,A,2500.8060800,N,12132.4311600,E,0.00,85.16,270623,,,D,V*39
$GPHDT,45.813,T*0E
$GNGSA,A,3,195,19,17,196,199,06,194,09,20,11,14,04,0.85,0.45,0.72,1*04
$GNGSA,A,3,12,,,,,,,,,,,,0.85,0.45,0.72,1*0B
$GNGSA,A,3,68,67,82,80,73,,,,,,,,0.85,0.45,0.72,2*02
$GNGSA,A,3,24,10,12,11,19,04,25,33,,,,,0.85,0.45,0.72,3*05
$GNGSA,A,3,40,07,10,33,14,08,43,13,42,28,11,23,0.85,0.45,0.72,4*0A
$GNGSA,A,3,34,,,,,,,,,,,,0.85,0.45,0.72,4*0A
$GPGSV,4,1,16,195,67,043,41,19,66,019,42,17,64,075,42,196,64,127,41,1*63
$GPGSV,4,2,16,199,60,167,36,50,60,167,38,06,50,339,44,194,41,171,31,1*69
$GPGSV,4,3,16,09,33,106,40,20,28,230,16,11,27,285,22,14,26,177,17,1*6C
$GPGSV,4,4,16,04,21,073,39,12,13,318,25,03,09,038,18,05,03,221,,1*69
$GPGSV,3,1,09,195,67,043,45,196,64,127,46,199,60,167,46,06,50,339,46,8*5B
$GPGSV,3,2,09,194,41,171,23,09,33,106,43,11,27,285,25,04,21,073,38,8*56
$GPGSV,3,3,09,03,09,038,29,8*5E
$GLGSV,2,1,08,68,49,148,39,67,47,062,42,82,37,037,42,83,33,340,15,1*73
$GLGSV,2,2,08,80,25,231,15,73,23,290,26,66,06,027,15,79,01,186,,1*76
$GAGSV,2,1,08,24,52,243,16,10,49,334,39,12,48,015,39,11,35,300,26,7*79
$GAGSV,2,2,08,19,31,086,29,04,27,154,25,25,25,307,30,33,15,064,37,7*77
$GAGSV,2,1,08,24,52,243,19,10,49,334,42,12,48,015,39,11,35,300,32,1*79
$GAGSV,2,2,08,19,31,086,29,04,27,154,30,25,25,307,31,33,15,064,34,1*77
$GBGSV,4,1,15,40,83,129,42,07,81,247,41,10,72,290,38,33,63,150,44,1*7B
$GBGSV,4,2,15,14,61,084,43,08,58,269,39,43,53,054,44,13,49,257,28,1*7A
$GBGSV,4,3,15,42,40,054,45,28,37,324,36,11,33,080,42,41,22,197,,1*7D
$GBGSV,4,4,15,23,19,221,23,34,17,097,25,37,16,273,18,1*4F
$GBGSV,2,1,06,40,83,129,46,33,63,150,46,43,53,054,43,42,40,054,43,4*71
$GBGSV,2,2,06,23,19,221,20,34,17,097,29,4*7B
$GNGGA,034526.000,2500.8060800,N,12132.4311700,E,2,60,0.45,18.27,M,15.25,M,4,3335*7F
$GNRMC,034526.000,A,2500.8060800,N,12132.4311700,E,0.00,85.16,270623,,,D,V*33
$GPHDT,45.799,T*03
$GNGGA,034526.200,2500.8060700,N,12132.4311700,E,2,60,0.45,18.26,M,15.25,M,4,3335*73
$GNRMC,034526.200,A,2500.8060700,N,12132.4311700,E,0.00,85.16,270623,,,D,V*3E
$GPHDT,45.880,T*04
$GNGGA,034526.400,2500.8060700,N,12132.4311800,E,2,60,0.45,18.25,M,15.25,M,4,3335*79
$GNRMC,034526.400,A,2500.8060700,N,12132.4311800,E,0.00,85.16,270623,,,D,V*37
$GPHDT,46.037,T*03
$GNGGA,034526.600,2500.8060600,N,12132.4311800,E,2,60,0.45,18.24,M,15.25,M,4,3335*7B
$GNRMC,034526.600,A,2500.8060600,N,12132.4311800,E,0.00,85.16,270623,,,D,V*34
$GPHDT,45.817,T*0A
$GNGGA,034526.800,2500.8060600,N,12132.4311800,E,2,59,0.46,18.22,M,15.25,M,4,3335*7A
$GNRMC,034526.800,A,2500.8060600,N,12132.4311800,E,0.00,85.16,270623,,,D,V*3A
$GPHDT,45.668,T*0C
$GNGSA,A,3,195,19,17,196,199,06,194,09,20,11,14,04,0.88,0.46,0.75,1*0D
$GNGSA,A,3,12,,,,,,,,,,,,0.88,0.46,0.75,1*02
$GNGSA,A,3,68,67,82,80,73,,,,,,,,0.88,0.46,0.75,2*0B
$GNGSA,A,3,24,10,12,11,19,04,25,33,,,,,0.88,0.46,0.75,3*0C
$GNGSA,A,3,40,07,10,33,14,08,43,13,42,28,11,23,0.88,0.46,0.75,4*03
$GPGSV,4,1,16,195,67,043,41,19,66,019,42,17,64,075,42,196,64,127,41,1*63
$GPGSV,4,2,16,199,60,167,36,50,60,167,38,06,50,339,44,194,41,171,33,1*6B
$GPGSV,4,3,16,09,33,106,41,20,28,230,16,11,27,285,21,14,26,177,17,1*6E
$GPGSV,4,4,16,04,21,073,40,12,13,318,25,03,09,038,17,05,03,221,,1*68
$GPGSV,3,1,09,195,67,043,45,196,64,127,46,199,60,167,46,06,50,339,46,8*5B
$GPGSV,3,2,09,194,41,171,23,09,33,106,39,11,27,285,25,04,21,073,39,8*5A
$GPGSV,3,3,09,03,09,038,29,8*5E
$GLGSV,3,1,10,68,49,148,39,67,47,062,41,82,37,037,42,83,33,340,15,1*78
$GLGSV,3,2,10,80,25,231,17,73,23,290,26,69,10,185,,66,06,027,15,1*7E
$GLGSV,3,3,10,74,03,328,,79,01,186,,1*70
$GAGSV,2,1,08,24,52,243,18,10,49,334,39,12,48,015,39,11,35,300,28,7*79
$GAGSV,2,2,08,19,31,086,29,04,27,154,28,25,25,307,28,33,15,064,37,7*73
$GAGSV,2,1,08,24,52,243,19,10,49,334,42,12,48,015,39,11,35,300,32,1*79
$GAGSV,2,2,08,19,31,086,27,04,27,154,30,25,25,307,31,33,15,064,34,1*79
$GBGSV,5,1,18,40,83,129,42,07,81,247,41,10,72,290,38,33,63,150,44,1*77
$GBGSV,5,2,18,14,61,084,43,08,58,269,39,43,53,054,44,13,49,257,27,1*79
$GBGSV,5,3,18,42,40,054,45,28,37,324,36,11,33,080,42,41,22,197,,1*71
$GBGSV,5,4,18,23,19,221,24,34,17,097,22,37,16,273,17,25,02,178,,1*77
$GBGSV,5,5,18,39,02,178,,06,01,189,,1*7E
$GBGSV,2,1,06,40,83,129,46,33,63,150,46,43,53,054,43,42,40,054,43,4*71
$GBGSV,2,2,06,23,19,221,20,34,17,097,31,4*72
$GNGGA,034527.000,2500.8060600,N,12132.4311800,E,2,59,0.46,18.21,M,15.25,M,5,3335*71
$GNRMC,034527.000,A,2500.8060600,N,12132.4311800,E,0.00,85.16,270623,,,D,V*33
$GPHDT,45.810,T*0D
$GNGGA,034527.200,2500.8060500,N,12132.4311900,E,2,59,0.46,18.19,M,15.25,M,5,3335*7A
$GNRMC,034527.200,A,2500.8060500,N,12132.4311900,E,0.00,85.16,270623,,,D,V*33
$GPHDT,45.861,T*0B
$GNGGA,034527.400,2500.8060500,N,12132.4311900,E,2,59,0.46,18.18,M,15.25,M,5,3335*7D
$GNRMC,034527.400,A,2500.8060500,N,12132.4311900,E,0.00,85.16,270623,,,D,V*35
$GPHDT,45.841,T*09
$GNGGA,034527.600,2500.8060500,N,12132.4311900,E,2,59,0.46,18.16,M,15.25,M,5,3335*71
$GNRMC,034527.600,A,2500.8060500,N,12132.4311900,E,0.00,85.16,270623,,,D,V*37
$GPHDT,45.997,T*03
$GNGGA,034527.800,2500.8060500,N,12132.4311900,E,2,59,0.46,18.16,M,15.25,M,5,3335*7F
$GNRMC,034527.800,A,2500.8060500,N,12132.4311900,E,0.00,85.16,270623,,,D,V*39
$GPHDT,45.663,T*07
$GNGSA,A,3,195,19,17,196,199,06,194,09,20,11,14,04,0.85,0.45,0.72,1*04
$GNGSA,A,3,12,,,,,,,,,,,,0.85,0.45,0.72,1*0B
$GNGSA,A,3,68,67,82,80,73,,,,,,,,0.85,0.45,0.72,2*02
$GNGSA,A,3,24,10,12,11,19,04,25,33,,,,,0.85,0.45,0.72,3*05
$GNGSA,A,3,40,07,10,33,14,08,43,13,42,28,11,23,0.85,0.45,0.72,4*0A
$GNGSA,A,3,34,,,,,,,,,,,,0.85,0.45,0.72,4*0A
$GPGSV,4,1,16,195,67,043,41,19,66,019,42,17,64,075,42,196,64,127,41,1*63
$GPGSV,4,2,16,199,60,167,37,50,60,167,39,06,50,339,44,194,41,171,34,1*6C
$GPGSV,4,3,16,09,33,106,41,20,28,230,16,11,27,285,20,14,26,177,17,1*6F
$GPGSV,4,4,16,04,21,073,40,12,13,318,25,03,09,038,16,05,03,221,,1*69
$GPGSV,3,1,09,195,67,043,45,196,64,127,46,199,60,167,46,06,50,339,46,8*5B
$GPGSV,3,2,09,194,41,171,24,09,33,106,38,11,27,285,26,04,21,073,39,8*5F
$GPGSV,3,3,09,03,09,038,29,8*5E
$GLGSV,3,1,09,68,49,148,39,67,47,062,40,82,37,037,42,83,33,340,15,1*71
$GLGSV,3,2,09,80,25,231,16,73,23,290,27,69,10,185,,66,06,027,11,1*72
$GLGSV,3,3,09,79,01,186,,1*41
$GAGSV,2,1,08,24,52,243,18,10,49,334,39,12,48,015,39,11,35,300,28,7*79
$GAGSV,2,2,08,19,31,086,29,04,27,154,28,25,25,307,28,33,15,064,37,7*73
$GAGSV,2,1,08,24,52,243,20,10,49,334,43,12,48,015,40,11,35,300,31,1*7F
$GAGSV,2,2,08,19,31,086,25,04,27,154,30,25,25,307,31,33,15,064,35,1*7A
$GBGSV,4,1,15,40,83,129,42,07,81,247,41,10,72,290,38,33,63,150,44,1*7B
$GBGSV,4,2,15,14,61,084,43,08,58,269,39,43,53,054,44,13,49,257,28,1*7A
$GBGSV,4,3,15,42,40,054,45,28,37,324,36,11,33,080,42,41,22,197,,1*7D
$GBGSV,4,4,15,23,19,221,22,34,17,097,22,37,16,273,17,1*46
$GBGSV,2,1,06,40,83,129,46,33,63,150,46,43,53,054,43,42,40,054,43,4*71
$GBGSV,2,2,06,23,19,221,20,34,17,097,30,4*73
$GNGGA,034528.000,2500.8060400,N,12132.4311900,E,2,60,0.45,18.14,M,15.25,M,6,3335*71
$GNRMC,034528.000,A,2500.8060400,N,12132.4311900,E,0.00,85.16,270623,,,D,V*3F
$GPHDT,45.686,T*0C
$GNGGA,034528.200,2500.8060300,N,12132.4311900,E,2,60,0.45,18.13,M,15.25,M,5,3335*70
$GNRMC,034528.200,A,2500.8060300,N,12132.4311900,E,0.00,85.16,270623,,,D,V*3A
$GPHDT,45.875,T*0E
$GNGGA,034528.400,2500.8060200,N,12132.4311900,E,2,60,0.45,18.12,M,15.25,M,3,3335*70
$GNRMC,034528.400,A,2500.8060200,N,12132.4311900,E,0.00,85.16,270623,,,D,V*3D
$GPHDT,45.869,T*03
$GNGGA,034528.600,2500.8060200,N,12132.4311900,E,2,60,0.45,18.11,M,15.25,M,3,3335*71
$GNRMC,034528.600,A,2500.8060200,N,12132.4311900,E,0.00,85.16,270623,,,D,V*3F
$GPHDT,45.592,T*0A
$GNGGA,034528.800,2500.8060200,N,12132.4311900,E,2,59,0.46,18.10,M,15.25,M,3,3335*77
$GNRMC,034528.800,A,2500.8060200,N,12132.4311900,E,0.00,85.16,270623,,,D,V*31
$GPHDT,45.625,T*05
$GNGSA,A,3,195,19,17,196,199,06,194,09,11,14,04,12,0.86,0.46,0.73,1*04
$GNGSA,A,3,68,67,82,80,73,,,,,,,,0.86,0.46,0.73,2*03
$GNGSA,A,3,24,10,12,11,19,04,25,33,,,,,0.86,0.46,0.73,3*04
$GNGSA,A,3,40,07,10,33,14,08,43,13,42,28,11,23,0.86,0.46,0.73,4*0B
$GNGSA,A,3,34,,,,,,,,,,,,0.86,0.46,0.73,4*0B
$GPGSV,4,1,16,195,67,043,41,19,66,019,42,17,64,075,42,196,64,127,41,1*63
$GPGSV,4,2,16,50,60,167,39,199,60,167,37,06,50,339,44,194,41,171,34,1*6C
$GPGSV,4,3,16,09,33,106,41,20,28,230,17,11,27,285,18,14,26,177,18,1*6A
$GPGSV,4,4,16,04,21,073,40,12,13,318,26,03,09,038,17,05,03,221,,1*6B
$GPGSV,3,1,09,195,67,043,45,196,64,127,46,199,60,167,46,06,50,339,46,8*5B
$GPGSV,3,2,09,194,41,171,24,09,33,106,37,11,27,285,26,04,21,073,39,8*50
$GPGSV,3,3,09,03,09,038,29,8*5E
$GLGSV,3,1,09,68,49,148,38,67,47,062,40,82,37,037,42,83,33,340,13,1*76
$GLGSV,3,2,09,80,25,231,14,73,23,290,27,69,10,185,,66,06,027,12,1*73
$GLGSV,3,3,09,79,01,186,,1*41
$GAGSV,2,1,08,24,52,243,18,10,49,334,39,12,48,015,39,11,35,300,28,7*79
$GAGSV,2,2,08,19,31,086,29,04,27,154,28,25,25,307,29,33,15,064,37,7*72
$GAGSV,2,1,08,24,52,243,20,10,49,334,43,12,48,015,40,11,35,300,31,1*7F
$GAGSV,2,2,08,19,31,086,25,04,27,154,29,25,25,307,31,33,15,064,35,1*72
$GBGSV,5,1,18,40,83,129,42,07,81,247,41,10,72,290,38,33,63,150,44,1*77
$GBGSV,5,2,18,14,61,084,43,08,58,269,39,43,53,054,44,13,49,257,28,1*76
$GBGSV,5,3,18,42,40,054,45,28,37,324,36,11,33,080,42,41,22,197,,1*71
$GBGSV,5,4,18,23,19,221,22,34,17,097,24,37,16,273,15,39,02,178,,1*78
$GBGSV,5,5,18,25,02,178,,06,01,189,,1*73
$GBGSV,2,1,06,40,83,129,46,33,63,150,46,43,53,054,43,42,40,054,43,4*71
$GBGSV,2,2,06,23,19,221,20,34,17,097,30,4*73
$GNGGA,034529.000,2500.8060200,N,12132.4311900,E,2,59,0.46,18.07,M,15.25,M,4,3335*7F
$GNRMC,034529.000,A,2500.8060200,N,12132.4311900,E,0.00,85.16,270623,,,D,V*38
$GPHDT,45.763,T*06
$GNGGA,034529.200,2500.8060200,N,12132.4311900,E,2,60,0.46,18.06,M,15.25,M,4,3335*76
$GNRMC,034529.200,A,2500.8060200,N,12132.4311900,E,0.00,85.16,270623,,,D,V*3A
$GPHDT,45.259,T*0A
$GNGGA,034529.400,2500.8060200,N,12132.4311900,E,2,59,0.46,18.05,M,15.25,M,4,3335*79
$GNRMC,034529.400,A,2500.8060200,N,12132.4311900,E,0.00,85.16,270623,,,D,V*3C
$GPHDT,45.695,T*0E
$GNGGA,034529.600,2500.8060200,N,12132.4311900,E,2,59,0.46,18.04,M,15.25,M,4,3335*7A
$GNRMC,034529.600,A,2500.8060200,N,12132.4311900,E,0.00,85.16,270623,,,D,V*3E
$GPHDT,45.917,T*0B
$GNGGA,034529.800,2500.8060200,N,12132.4311800,E,2,59,0.46,18.03,M,15.25,M,4,3335*72
$GNRMC,034529.800,A,2500.8060200,N,12132.4311800,E,0.00,85.16,270623,,,D,V*31
$GPHDT,46.085,T*0A
$GNGSA,A,3,195,19,17,196,199,06,194,09,11,14,04,12,0.88,0.48,0.74,1*03
$GNGSA,A,3,68,67,82,73,,,,,,,,,0.88,0.48,0.74,2*0C
$GNGSA,A,3,24,10,12,11,19,04,25,33,,,,,0.88,0.48,0.74,3*03
$GNGSA,A,3,40,07,10,33,14,08,43,13,42,28,11,23,0.88,0.48,0.74,4*0C
$GNGSA,A,3,34,,,,,,,,,,,,0.88,0.48,0.74,4*0C
$GPGSV,4,1,16,195,67,043,41,19,66,019,42,17,64,075,42,196,64,127,41,1*63
$GPGSV,4,2,16,199,60,167,37,50,60,167,39,06,50,339,44,194,41,171,34,1*6C
$GPGSV,4,3,16,09,33,106,41,20,28,230,17,11,27,285,18,14,26,177,18,1*6A
$GPGSV,4,4,16,04,21,073,40,12,13,318,26,03,09,038,17,05,03,221,,1*6B
$GPGSV,3,1,09,195,67,043,45,196,64,127,46,199,60,167,46,06,50,339,46,8*5B
$GPGSV,3,2,09,194,41,171,25,09,33,106,37,11,27,285,26,04,21,073,39,8*51
$GPGSV,3,3,09,03,09,038,31,8*57
$GLGSV,2,1,07,68,49,148,38,67,47,062,40,82,37,037,42,83,33,340,16,1*7C
$GLGSV,2,2,07,80,25,231,13,73,23,290,25,66,06,027,14,1*4D
$GAGSV,2,1,08,24,52,243,17,10,49,334,39,12,48,015,39,11,35,300,28,7*76
$GAGSV,2,2,08,19,31,086,29,04,27,154,28,25,25,307,29,33,15,064,37,7*72
$GAGSV,2,1,08,24,52,243,20,10,49,334,43,12,48,015,40,11,35,300,31,1*7F
$GAGSV,2,2,08,19,31,086,27,04,27,154,29,25,25,307,31,33,15,064,35,1*70
$GBGSV,4,1,16,40,83,129,42,07,81,247,41,10,72,290,38,33,63,150,44,1*78
$GBGSV,4,2,16,14,61,084,43,08,58,269,39,43,53,054,44,13,49,257,28,1*79
$GBGSV,4,3,16,42,40,054,45,28,37,324,36,11,33,080,42,41,22,197,,1*7E
$GBGSV,4,4,16,23,19,221,22,34,17,097,21,37,16,273,15,06,01,189,,1*73
$GBGSV,2,1,06,40,83,129,45,33,63,150,45,43,53,054,43,42,40,054,43,4*71
$GBGSV,2,2,06,23,19,221,20,34,17,097,30,4*73
$GNGGA,034530.000,2500.8060200,N,12132.4311800,E,2,58,0.48,18.01,M,15.25,M,5,3335*7E
$GNRMC,034530.000,A,2500.8060200,N,12132.4311800,E,0.00,85.16,270623,,,D,V*31
$GPHDT,45.710,T*02
$GNGGA,034530.200,2500.8060100,N,12132.4311800,E,2,58,0.48,17.98,M,15.25,M,5,3335*70
$GNRMC,034530.200,A,2500.8060100,N,12132.4311800,E,0.00,85.16,270623,,,D,V*30
$GPHDT,45.828,T*06
$GNGGA,034530.400,2500.8060100,N,12132.4311800,E,2,58,0.48,17.97,M,15.25,M,5,3335*79
$GNRMC,034530.400,A,2500.8060100,N,12132.4311800,E,0.00,85.16,270623,,,D,V*36
$GPHDT,45.420,T*02
$GNGGA,034530.600,2500.8060100,N,12132.4311800,E,2,58,0.48,17.94,M,15.25,M,5,3335*78
$GNRMC,034530.600,A,2500.8060100,N,12132.4311800,E,0.00,85.16,270623,,,D,V*34
$GPHDT,45.791,T*0B
$GNGGA,034530.800,2500.8060100,N,12132.4311700,E,2,58,0.48,17.93,M,15.25,M,4,3335*7F
$GNRMC,034530.800,A,2500.8060100,N,12132.4311700,E,0.00,85.16,270623,,,D,V*35
$GPHDT,45.686,T*0C
$GNGSA,A,3,195,19,17,196,199,06,194,09,11,14,04,12,0.88,0.48,0.74,1*03
$GNGSA,A,3,68,67,82,73,,,,,,,,,0.88,0.48,0.74,2*0C
$GNGSA,A,3,24,10,12,11,19,04,25,33,,,,,0.88,0.48,0.74,3*03
$GNGSA,A,3,40,07,10,33,14,08,43,13,42,28,11,23,0.88,0.48,0.74,4*0C
$GNGSA,A,3,34,,,,,,,,,,,,0.88,0.48,0.74,4*0C
$GPGSV,4,1,16,195,67,043,41,19,66,019,42,17,64,075,42,196,64,127,41,1*63
$GPGSV,4,2,16,199,60,167,37,50,60,167,39,06,50,339,44,194,41,171,34,1*6C
$GPGSV,4,3,16,09,33,106,41,20,28,230,15,11,27,285,18,14,26,177,19,1*69
$GPGSV,4,4,16,04,21,073,40,12,13,318,26,03,09,038,16,05,03,221,,1*6A
$GPGSV,3,1,09,195,67,043,45,196,64,127,46,199,60,167,46,06,50,339,46,8*5B
$GPGSV,3,2,09,194,41,171,25,09,33,106,37,11,27,285,26,04,21,073,39,8*51
$GPGSV,3,3,09,03,09,038,31,8*57
$GLGSV,3,1,09,68,49,148,37,67,47,062,40,82,37,037,42,83,33,341,15,1*7E
$GLGSV,3,2,09,80,24,230,15,73,23,290,25,69,10,185,,66,06,027,15,1*77
$GLGSV,3,3,09,74,03,328,,1*48
$GAGSV,2,1,08,24,52,243,16,10,49,334,39,12,48,015,39,11,35,300,29,7*76
$GAGSV,2,2,08,19,31,086,29,04,27,154,28,25,25,307,29,33,15,064,37,7*72
$GAGSV,2,1,08,24,52,243,20,10,49,334,43,12,48,015,40,11,35,300,31,1*7F
$GAGSV,2,2,08,19,31,086,27,04,27,154,29,25,25,307,31,33,15,064,35,1*70
$GBGSV,4,1,16,40,83,129,42,07,81,247,41,10,72,290,38,33,63,150,44,1*78
$GBGSV,4,2,16,14,61,084,43,08,58,269,39,43,53,054,44,13,49,257,28,1*79
$GBGSV,4,3,16,42,40,054,45,28,37,324,36,11,33,080,42,41,22,197,,1*7E
$GBGSV,4,4,16,23,19,221,21,34,17,097,20,37,16,273,15,25,02,178,,1*7D
$GBGSV,2,1,06,40,83,129,45,33,63,150,45,43,53,054,43,42,40,054,43,4*71
$GBGSV,2,2,06,23,19,221,20,34,17,097,30,4*73
$GNGGA,034531.000,2500.8060100,N,12132.4311600,E,2,58,0.48,17.92,M,15.25,M,1,3335*73
$GNRMC,034531.000,A,2500.8060100,N,12132.4311600,E,0.00,85.16,270623,,,D,V*3D
$GPHDT,45.484,T*0C
$GNGGA,034531.200,2500.8060100,N,12132.4311600,E,2,58,0.48,17.92,M,15.25,M,1,3335*71
$GNRMC,034531.200,A,2500.8060100,N,12132.4311600,E,0.00,85.16,270623,,,D,V*3F
$GPHDT,45.715,T*07
$GNGGA,034531.400,2500.8060100,N,12132.4311600,E,2,58,0.48,17.90,M,15.25,M,1,3335*75
$GNRMC,034531.400,A,2500.8060100,N,12132.4311600,E,0.00,85.16,270623,,,D,V*39
$GPHDT,45.926,T*09
$GNGGA,034531.600,2500.8060100,N,12132.4311500,E,2,58,0.48,17.89,M,15.25,M,1,3335*7C
$GNRMC,034531.600,A,2500.8060100,N,12132.4311500,E,0.00,85.16,270623,,,D,V*38
$GPHDT,45.807,T*0B
$GNGGA,034531.800,2500.8060100,N,12132.4311500,E,2,58,0.48,17.86,M,15.25,M,1,3335*7D
$GNRMC,034531.800,A,2500.8060100,N,12132.4311500,E,0.00,85.16,270623,,,D,V*36
$GPHDT,45.535,T*07
$GNGSA,A,3,195,19,17,196,199,06,194,09,11,14,04,12,0.88,0.48,0.74,1*03
$GNGSA,A,3,68,67,82,73,,,,,,,,,0.88,0.48,0.74,2*0C
$GNGSA,A,3,24,10,12,11,19,04,25,33,,,,,0.88,0.48,0.74,3*03
$GNGSA,A,3,40,07,10,33,14,08,43,13,42,28,11,23,0.88,0.48,0.74,4*0C
$GNGSA,A,3,34,,,,,,,,,,,,0.88,0.48,0.74,4*0C
$GPGSV,4,1,16,195,67,043,41,19,66,019,42,17,64,075,42,196,64,127,41,1*63
$GPGSV,4,2,16,199,60,167,37,50,60,167,39,06,50,339,44,194,41,171,34,1*6C
$GPGSV,4,3,16,09,33,106,41,20,28,230,15,11,27,285,20,14,26,177,19,1*62
$GPGSV,4,4,16,04,21,073,40,12,13,318,27,03,09,038,15,05,03,221,,1*68
$GPGSV,3,1,09,195,67,043,45,196,64,127,46,199,60,167,46,06,50,339,46,8*5B
$GPGSV,3,2,09,194,41,171,25,09,33,106,38,11,27,285,26,04,21,073,40,8*50
$GPGSV,3,3,09,03,09,038,31,8*57
$GLGSV,2,1,07,68,49,148,37,67,47,062,40,82,37,037,42,83,33,341,16,1*72
$GLGSV,2,2,07,80,24,230,14,73,23,290,25,66,06,027,13,1*4D
$GAGSV,2,1,08,24,52,243,16,10,49,334,39,12,48,015,39,11,35,300,29,7*76
$GAGSV,2,2,08,19,31,086,29,04,27,154,28,25,25,307,29,33,15,064,37,7*72
$GAGSV,2,1,08,24,52,243,20,10,49,334,43,12,48,015,40,11,35,300,32,1*7C
$GAGSV,2,2,08,19,31,086,27,04,27,154,29,25,25,307,31,33,15,064,35,1*70
$GBGSV,4,1,16,40,83,129,42,07,81,247,41,10,72,290,38,33,63,150,44,1*78
$GBGSV,4,2,16,14,61,084,43,08,58,269,39,43,53,054,44,13,49,257,28,1*79
$GBGSV,4,3,16,42,40,054,45,28,37,324,35,11,33,080,42,41,22,197,,1*7D
$GBGSV,4,4,16,23,19,221,21,34,17,097,19,37,16,273,17,25,02,178,,1*75
$GBGSV,2,1,06,40,83,129,45,33,63,150,45,43,53,054,43,42,40,054,43,4*71
$GBGSV,2,2,06,23,19,221,21,34,17,097,30,4*72
$GNGGA,034532.000,2500.8060100,N,12132.4311400,E,2,58,0.48,17.85,M,15.25,M,2,3335*77
$GNRMC,034532.000,A,2500.8060100,N,12132.4311400,E,0.00,85.16,270623,,,D,V*3C
$GPHDT,45.782,T*09
$GNGGA,034532.200,2500.8060200,N,12132.4311300,E,2,58,0.48,17.84,M,15.25,M,2,3335*70
$GNRMC,034532.200,A,2500.8060200,N,12132.4311300,E,0.00,85.16,270623,,,D,V*3A
$GPHDT,46.061,T*00
$GNGGA,034532.400,2500.8060200,N,12132.4311300,E,2,58,0.48,17.83,M,15.25,M,2,3335*71
$GNRMC,034532.400,A,2500.8060200,N,12132.4311300,E,0.00,85.16,270623,,,D,V*3C
$GPHDT,46.134,T*01
