$FW : RTK35X,V1.1X0314AS,Lib20210517,1*54
$Tool : LOCOSYS , GNSS Firebird , v1.0.0.19*39
$---------------------------------------------------*2D
$GNGGA,034632.800,2500.8080100,N,12132.4295700,E,2,61,0.45,17.57,M,15.25,M,2,3335*74
$GNRMC,034632.800,A,2500.8080100,N,12132.4295700,E,0.00,85.16,270623,,,D,V*37
$GPHDT,,T*1B
$GNGSA,A,3,195,19,17,196,199,06,194,09,20,11,14,04,0.84,0.45,0.71,1*06
$GNGSA,A,3,12,,,,,,,,,,,,0.84,0.45,0.71,1*09
$GNGSA,A,3,68,67,82,80,73,,,,,,,,0.84,0.45,0.71,2*00
$GNGSA,A,3,10,12,11,19,04,25,33,,,,,,0.84,0.45,0.71,3*01
$GNGSA,A,3,40,07,10,33,14,08,43,13,42,28,11,34,0.84,0.45,0.71,4*0E
$GNGSA,A,3,37,23,,,,,,,,,,,0.84,0.45,0.71,4*0A
$GPGSV,4,1,16,195,67,043,43,19,66,020,41,17,64,076,43,196,64,127,39,1*65
$GPGSV,4,2,16,199,60,167,35,50,60,167,38,06,50,340,35,194,41,171,33,1*60
$GPGSV,4,3,16,09,33,105,44,20,29,231,17,11,27,285,22,14,25,176,25,1*69
$GPGSV,4,4,16,04,21,072,42,12,13,318,27,03,09,038,20,05,03,221,,1*6D
$GPGSV,3,1,10,195,67,043,45,196,64,127,46,199,60,167,46,06,50,340,42,8*59
$GPGSV,3,2,10,194,41,171,28,09,33,105,46,11,27,285,24,14,25,176,23,8*59
$GPGSV,3,3,10,04,21,072,41,03,09,038,20,8*68
$GLGSV,2,1,07,68,50,147,43,67,47,061,43,82,37,038,44,83,33,341,15,1*7C
$GLGSV,2,2,07,80,24,230,17,73,23,289,16,66,05,027,25,1*40
$GAGSV,2,1,08,24,51,242,,10,49,334,37,12,48,015,34,11,35,300,35,7*7D
$GAGSV,2,2,08,19,31,086,37,04,28,154,29,25,25,307,32,33,14,064,37,7*78
$GAGSV,2,1,07,10,49,334,39,12,48,015,40,11,35,300,32,19,31,086,36,1*79
$GAGSV,2,2,07,04,28,154,36,25,25,307,32,33,14,064,27,1*4E
$GBGSV,4,1,16,40,83,131,40,07,81,246,39,10,72,290,40,33,64,149,42,1*7B
$GBGSV,4,2,16,14,61,083,45,08,58,270,38,43,53,055,44,13,49,258,29,1*7E
$GBGSV,4,3,16,42,40,053,44,28,38,324,27,11,33,080,42,41,22,197,,1*77
$GBGSV,4,4,16,23,18,221,,34,17,097,36,37,16,273,18,06,01,188,,1*78
$GBGSV,2,1,07,40,83,131,44,33,64,149,46,43,53,055,43,42,40,053,45,4*74
$GBGSV,2,2,07,28,38,324,24,23,18,221,13,37,16,273,18,4*41
$GNGGA,034633.000,2500.8080300,N,12132.4295700,E,2,61,0.45,17.57,M,15.25,M,3,3335*7E
$GNRMC,034633.000,A,2500.8080300,N,12132.4295700,E,0.00,85.16,270623,,,D,V*3C
$GPHDT,,T*1B
$GNGGA,034633.200,2500.8080500,N,12132.4295700,E,2,61,0.45,17.57,M,15.25,M,3,3335*7A
$GNRMC,034633.200,A,2500.8080500,N,12132.4295700,E,0.00,85.16,270623,,,D,V*38
$GPHDT,272.836,T*3F
$GNGGA,034633.400,2500.8080700,N,12132.4295700,E,2,61,0.45,17.58,M,15.25,M,3,3335*71
$GNRMC,034633.400,A,2500.8080700,N,12132.4295700,E,0.00,85.16,270623,,,D,V*3C
$GPHDT,273.310,T*31
$GNGGA,034633.600,2500.8080900,N,12132.4295700,E,2,61,0.45,17.58,M,15.25,M,3,3335*7D
$GNRMC,034633.600,A,2500.8080900,N,12132.4295700,E,0.00,85.16,270623,,,D,V*30
$GPHDT,272.951,T*3F
$GNGGA,034633.800,2500.8081100,N,12132.4295600,E,2,61,0.45,17.59,M,15.25,M,3,3335*7A
$GNRMC,034633.800,A,2500.8081100,N,12132.4295600,E,0.00,85.16,270623,,,D,V*36
$GPHDT,273.483,T*3C
$GNGSA,A,3,195,19,17,196,199,06,194,09,20,11,14,04,0.84,0.45,0.71,1*06
$GNGSA,A,3,12,,,,,,,,,,,,0.84,0.45,0.71,1*09
$GNGSA,A,3,68,67,82,80,73,,,,,,,,0.84,0.45,0.71,2*00
$GNGSA,A,3,10,12,11,19,04,25,33,,,,,,0.84,0.45,0.71,3*01
$GNGSA,A,3,40,07,10,33,14,08,43,13,42,28,11,34,0.84,0.45,0.71,4*0E
$GNGSA,A,3,37,23,,,,,,,,,,,0.84,0.45,0.71,4*0A
$GPGSV,4,1,16,195,67,043,43,19,66,020,41,17,64,076,43,196,64,127,39,1*65
$GPGSV,4,2,16,199,60,167,35,50,60,167,37,06,50,340,35,194,41,171,32,1*6E
$GPGSV,4,3,16,09,33,105,44,20,29,231,17,11,27,285,23,14,25,176,24,1*69
$GPGSV,4,4,16,04,21,072,41,12,13,318,25,03,09,038,20,05,03,221,,1*6C
$GPGSV,3,1,10,195,67,043,45,196,64,127,46,199,60,167,46,06,50,340,42,8*59
$GPGSV,3,2,10,194,41,171,28,09,33,105,46,11,27,285,23,14,25,176,22,8*5F
$GPGSV,3,3,10,04,21,072,41,03,09,038,25,8*6D
$GLGSV,2,1,07,68,50,147,43,67,47,061,44,82,37,038,44,83,33,341,12,1*7C
$GLGSV,2,2,07,80,24,230,17,73,23,289,16,66,05,027,26,1*43
$GAGSV,2,1,08,24,51,242,,10,49,334,38,12,48,015,34,11,35,300,35,7*72
$GAGSV,2,2,08,19,31,086,37,04,28,154,29,25,25,307,32,33,14,064,36,7*79
$GAGSV,2,1,07,10,49,334,39,12,48,015,40,11,35,300,33,19,31,086,37,1*79
$GAGSV,2,2,07,04,28,154,36,25,25,307,32,33,14,064,26,1*4F
$GBGSV,5,1,17,40,83,131,40,07,81,246,40,10,72,290,40,33,64,149,42,1*75
$GBGSV,5,2,17,14,61,083,45,08,58,270,37,43,53,055,43,13,49,258,29,1*76
$GBGSV,5,3,17,42,40,053,43,28,38,324,27,11,33,080,42,41,22,197,,1*70
$GBGSV,5,4,17,23,18,221,,34,17,097,35,37,16,273,18,25,02,178,,1*76
$GBGSV,5,5,17,06,01,188,,1*46
$GBGSV,2,1,07,40,83,131,44,33,64,149,46,43,53,055,43,42,40,053,44,4*75
$GBGSV,2,2,07,28,38,324,20,23,18,221,14,37,16,273,17,4*4D
$GNGGA,034634.000,2500.8081300,N,12132.4295600,E,2,61,0.45,17.60,M,15.25,M,4,3335*7A
$GNRMC,034634.000,A,2500.8081300,N,12132.4295600,E,0.00,85.16,270623,,,D,V*3B
$GPHDT,272.582,T*3D
$GNGGA,034634.200,2500.8081400,N,12132.4295600,E,2,61,0.45,17.61,M,15.25,M,4,3335*7E
$GNRMC,034634.200,A,2500.8081400,N,12132.4295600,E,0.00,85.16,270623,,,D,V*3E
$GPHDT,272.991,T*33
$GNGGA,034634.400,2500.8081600,N,12132.4295600,E,2,61,0.45,17.62,M,15.25,M,4,3335*79
$GNRMC,034634.400,A,2500.8081600,N,12132.4295600,E,0.00,85.16,270623,,,D,V*3A
$GPHDT,273.091,T*3B
$GNGGA,034634.600,2500.8081700,N,12132.4295700,E,2,61,0.45,17.63,M,15.25,M,4,3335*7A
$GNRMC,034634.600,A,2500.8081700,N,12132.4295700,E,0.00,85.16,270623,,,D,V*38
$GPHDT,272.956,T*38
$GNGGA,034634.800,2500.8081800,N,12132.4295700,E,2,61,0.45,17.64,M,15.25,M,4,3335*7C
$GNRMC,034634.800,A,2500.8081800,N,12132.4295700,E,0.00,85.16,270623,,,D,V*39
$GPHDT,272.689,T*35
$GNGSA,A,3,195,19,17,196,199,06,194,09,20,11,14,04,0.84,0.45,0.71,1*06
$GNGSA,A,3,12,,,,,,,,,,,,0.84,0.45,0.71,1*09
$GNGSA,A,3,68,67,82,80,73,,,,,,,,0.84,0.45,0.71,2*00
$GNGSA,A,3,10,12,11,19,04,25,33,,,,,,0.84,0.45,0.71,3*01
$GNGSA,A,3,40,07,10,33,14,08,43,13,42,28,11,34,0.84,0.45,0.71,4*0E
$GNGSA,A,3,37,23,,,,,,,,,,,0.84,0.45,0.71,4*0A
$GPGSV,4,1,16,195,67,043,43,19,66,020,41,17,64,076,43,196,64,127,39,1*65
$GPGSV,4,2,16,199,60,167,35,50,60,167,37,06,50,340,38,194,41,171,32,1*63
$GPGSV,4,3,16,09,33,105,44,20,29,231,17,11,27,285,24,14,25,176,24,1*6E
$GPGSV,4,4,16,04,21,072,41,12,13,318,26,03,09,038,20,05,03,221,,1*6F
$GPGSV,3,1,10,195,67,043,45,196,64,127,46,199,60,167,46,06,50,340,41,8*5A
$GPGSV,3,2,10,194,41,171,28,09,33,105,46,11,27,285,22,14,25,176,22,8*5E
$GPGSV,3,3,10,04,21,072,40,03,09,038,25,8*6C
$GLGSV,2,1,08,68,50,147,43,67,47,061,44,82,37,038,44,83,33,341,13,1*72
$GLGSV,2,2,08,80,24,230,20,73,23,289,16,69,11,185,,66,05,027,25,1*78
$GAGSV,2,1,08,24,51,242,,10,49,334,38,12,48,015,35,11,35,300,35,7*73
$GAGSV,2,2,08,19,31,086,36,04,28,154,27,25,25,307,32,33,14,064,36,7*76
$GAGSV,2,1,07,10,49,334,39,12,48,015,40,11,35,300,33,19,31,086,37,1*79
$GAGSV,2,2,07,04,28,154,36,25,25,307,33,33,14,064,23,1*4B
$GBGSV,4,1,15,40,83,131,40,07,81,246,40,10,72,290,40,33,64,149,42,1*76
$GBGSV,4,2,15,14,61,083,45,08,58,270,37,43,53,055,43,13,49,258,29,1*75
$GBGSV,4,3,15,42,40,053,43,28,38,324,30,11,33,080,42,41,22,197,,1*75
$GBGSV,4,4,15,23,18,221,,34,17,097,35,37,16,273,18,1*4E
$GBGSV,2,1,07,40,83,131,44,33,64,149,45,43,53,055,43,42,40,053,43,4*71
$GBGSV,2,2,07,28,38,324,20,23,18,221,13,37,16,273,14,4*49
$GNGGA,034635.000,2500.8081900,N,12132.4295800,E,2,61,0.45,17.66,M,15.25,M,5,3335*78
$GNRMC,034635.000,A,2500.8081900,N,12132.4295800,E,0.00,85.16,270623,,,D,V*3E
$GPHDT,272.905,T*3E
$GNGGA,034635.200,2500.8082000,N,12132.4295900,E,2,61,0.45,17.69,M,15.25,M,5,3335*7E
$GNRMC,034635.200,A,2500.8082000,N,12132.4295900,E,0.00,85.16,270623,,,D,V*37
$GPHDT,273.388,T*30
$GNGGA,034635.400,2500.8082100,N,12132.4296000,E,2,61,0.45,17.71,M,15.25,M,5,3335*7A
$GNRMC,034635.400,A,2500.8082100,N,12132.4296000,E,0.00,85.16,270623,,,D,V*3A
$GPHDT,272.936,T*3E
$GNGGA,034635.600,2500.8082200,N,12132.4296100,E,2,61,0.45,17.73,M,15.25,M,5,3335*78
$GNRMC,034635.600,A,2500.8082200,N,12132.4296100,E,0.00,85.16,270623,,,D,V*3A
$GPHDT,272.644,T*34
$GNGGA,034635.800,2500.8082200,N,12132.4296100,E,2,61,0.45,17.74,M,15.25,M,5,3335*71
$GNRMC,034635.800,A,2500.8082200,N,12132.4296100,E,0.00,85.16,270623,,,D,V*34
$GPHDT,273.070,T*34
$GNGSA,A,3,195,19,17,196,199,06,194,09,20,11,14,04,0.86,0.46,0.72,1*04
$GNGSA,A,3,12,,,,,,,,,,,,0.86,0.46,0.72,1*0B
$GNGSA,A,3,68,67,82,80,73,,,,,,,,0.86,0.46,0.72,2*02
$GNGSA,A,3,10,12,11,19,04,25,33,,,,,,0.86,0.46,0.72,3*03
$GNGSA,A,3,40,07,10,33,14,08,43,13,42,28,11,34,0.86,0.46,0.72,4*0C
$GNGSA,A,3,37,,,,,,,,,,,,0.86,0.46,0.72,4*09
$GPGSV,4,1,16,195,67,043,43,19,66,020,42,17,64,076,43,196,64,127,40,1*68
$GPGSV,4,2,16,199,60,167,35,50,60,167,37,06,50,340,38,194,41,171,32,1*63
$GPGSV,4,3,16,09,33,105,44,20,29,231,16,11,27,285,23,14,25,176,24,1*68
$GPGSV,4,4,16,04,21,072,41,12,13,318,26,03,09,038,19,05,03,221,,1*65
$GPGSV,3,1,10,195,67,043,45,196,64,127,46,199,60,167,46,06,50,340,41,8*5A
$GPGSV,3,2,10,194,41,171,28,09,33,105,46,11,27,285,23,14,25,176,20,8*5D
$GPGSV,3,3,10,04,21,072,40,03,09,038,25,8*6C
$GLGSV,2,1,07,68,50,147,43,67,47,061,44,82,37,038,44,83,33,341,,1*7F
$GLGSV,2,2,07,80,24,230,20,73,23,289,16,66,05,027,24,1*45
$GAGSV,2,1,08,24,51,242,,10,49,334,38,12,48,015,35,11,35,300,35,7*73
$GAGSV,2,2,08,19,31,086,36,04,28,154,27,25,25,307,32,33,14,064,36,7*76
$GAGSV,2,1,07,10,49,334,39,12,48,015,40,11,35,300,33,19,31,086,37,1*79
$GAGSV,2,2,07,04,28,154,36,25,25,307,33,33,14,064,23,1*4B
$GBGSV,5,1,17,40,83,131,40,07,81,246,40,10,72,290,40,33,64,149,42,1*75
$GBGSV,5,2,17,14,61,083,45,08,58,270,37,43,53,055,43,13,49,258,30,1*7E
$GBGSV,5,3,17,42,40,053,43,28,38,324,30,11,33,080,42,41,22,197,,1*76
$GBGSV,5,4,17,23,18,221,,34,17,097,35,37,16,273,18,25,02,178,,1*76
$GBGSV,5,5,17,06,01,188,,1*46
$GBGSV,2,1,05,40,83,131,44,33,64,149,45,43,53,055,43,42,40,053,43,4*73
$GBGSV,2,2,05,28,38,324,21,4*41
$GNGGA,034636.000,2500.8082400,N,12132.4296200,E,2,59,0.46,17.75,M,15.25,M,6,3335*75
$GNRMC,034636.000,A,2500.8082400,N,12132.4296200,E,0.00,85.16,270623,,,D,V*3A
$GPHDT,272.882,T*30
$GNGGA,034636.200,2500.8082400,N,12132.4296200,E,2,59,0.46,17.77,M,15.25,M,6,3335*75
$GNRMC,034636.200,A,2500.8082400,N,12132.4296200,E,0.00,85.16,270623,,,D,V*38
$GPHDT,273.549,T*3B
$GNGGA,034636.400,2500.8082500,N,12132.4296300,E,2,59,0.46,17.77,M,15.25,M,6,3335*73
$GNRMC,034636.400,A,2500.8082500,N,12132.4296300,E,0.00,85.16,270623,,,D,V*3E
$GPHDT,272.467,T*37
$GNGGA,034636.600,2500.8082600,N,12132.4296300,E,2,59,0.46,17.78,M,15.25,M,6,3335*7D
$GNRMC,034636.600,A,2500.8082600,N,12132.4296300,E,0.00,85.16,270623,,,D,V*3F
$GPHDT,273.054,T*32
$GNGGA,034636.800,2500.8082700,N,12132.4296300,E,2,59,0.46,17.78,M,15.25,M,4,3335*70
$GNRMC,034636.800,A,2500.8082700,N,12132.4296300,E,0.00,85.16,270623,,,D,V*30
$GPHDT,272.945,T*3A
$GNGSA,A,3,195,19,17,196,199,06,194,09,20,11,14,04,0.86,0.46,0.72,1*04
$GNGSA,A,3,12,,,,,,,,,,,,0.86,0.46,0.72,1*0B
$GNGSA,A,3,68,67,82,80,73,,,,,,,,0.86,0.46,0.72,2*02
$GNGSA,A,3,10,12,11,19,04,25,33,,,,,,0.86,0.46,0.72,3*03
$GNGSA,A,3,40,07,10,33,14,08,43,13,42,28,11,34,0.86,0.46,0.72,4*0C
$GNGSA,A,3,37,,,,,,,,,,,,0.86,0.46,0.72,4*09
$GPGSV,4,1,16,195,67,043,43,19,66,020,42,17,64,076,43,196,64,127,40,1*68
$GPGSV,4,2,16,199,60,167,35,50,60,167,37,06,50,340,38,194,41,171,32,1*63
$GPGSV,4,3,16,09,33,105,44,20,29,231,16,11,27,285,22,14,25,176,24,1*69
$GPGSV,4,4,16,04,21,072,41,12,13,318,26,03,09,038,19,05,03,221,,1*65
$GPGSV,3,1,10,195,67,043,45,196,64,127,46,199,60,167,46,06,50,340,41,8*5A
$GPGSV,3,2,10,194,41,171,29,09,33,105,46,11,27,285,25,14,25,176,21,8*5B
$GPGSV,3,3,10,04,21,072,40,03,09,038,25,8*6C
$GLGSV,2,1,07,68,50,147,43,67,47,061,44,82,37,038,44,83,33,341,,1*7F
$GLGSV,2,2,07,80,24,230,20,73,23,289,15,66,05,027,22,1*40
$GAGSV,2,1,08,24,51,242,,10,49,334,38,12,48,015,35,11,35,300,35,7*73
$GAGSV,2,2,08,19,31,086,36,04,28,154,27,25,25,307,31,33,14,064,36,7*75
$GAGSV,2,1,07,10,49,334,39,12,48,015,40,11,35,300,33,19,31,086,37,1*79
$GAGSV,2,2,07,04,28,154,36,25,25,307,33,33,14,064,24,1*4C
$GBGSV,4,1,16,40,83,131,40,07,81,246,40,10,72,290,40,33,64,149,42,1*75
$GBGSV,4,2,16,14,61,083,45,08,58,270,37,43,53,055,43,13,49,258,30,1*7E
$GBGSV,4,3,16,42,40,053,43,28,38,324,30,11,33,080,42,41,22,197,,1*76
$GBGSV,4,4,16,23,18,221,,34,17,097,35,37,16,273,18,06,01,188,,1*7B
$GBGSV,2,1,05,40,83,131,44,33,64,149,45,43,53,055,44,42,40,053,43,4*74
$GBGSV,2,2,05,28,38,324,23,4*43
$GNGGA,034637.000,2500.8082800,N,12132.4296300,E,2,59,0.46,17.79,M,15.25,M,3,3335*70
$GNRMC,034637.000,A,2500.8082800,N,12132.4296300,E,0.00,85.16,270623,,,D,V*36
$GPHDT,273.105,T*37
$GNGGA,034637.200,2500.8082800,N,12132.4296300,E,2,59,0.46,17.79,M,15.25,M,1,3335*70
$GNRMC,034637.200,A,2500.8082800,N,12132.4296300,E,0.00,85.16,270623,,,D,V*34
$GPHDT,273.343,T*37
$GNGGA,034637.400,2500.8082800,N,12132.4296400,E,2,59,0.46,17.80,M,15.25,M,1,3335*77
$GNRMC,034637.400,A,2500.8082800,N,12132.4296400,E,0.00,85.16,270623,,,D,V*35
$GPHDT,273.329,T*3B
$GNGGA,034637.600,2500.8082900,N,12132.4296500,E,2,58,0.47,17.81,M,15.25,M,1,3335*74
$GNRMC,034637.600,A,2500.8082900,N,12132.4296500,E,0.00,85.16,270623,,,D,V*37
$GPHDT,273.618,T*3C
$GNGGA,034637.800,2500.8082900,N,12132.4296500,E,2,58,0.47,17.82,M,15.25,M,1,3335*79
$GNRMC,034637.800,A,2500.8082900,N,12132.4296500,E,0.00,85.16,270623,,,D,V*39
$GPHDT,272.943,T*3C
$GNGSA,A,3,195,19,17,196,199,06,194,09,11,14,04,12,0.88,0.48,0.74,1*03
$GNGSA,A,3,68,67,82,80,,,,,,,,,0.88,0.48,0.74,2*00
$GNGSA,A,3,10,12,11,19,04,25,33,,,,,,0.88,0.48,0.74,3*05
$GNGSA,A,3,40,07,10,33,14,08,43,13,42,28,11,34,0.88,0.48,0.74,4*0A
$GNGSA,A,3,37,,,,,,,,,,,,0.88,0.48,0.74,4*0F
$GPGSV,4,1,16,195,67,043,43,19,66,020,42,17,64,076,43,196,64,127,40,1*68
$GPGSV,4,2,16,199,60,167,35,50,60,167,37,06,50,340,38,194,41,171,33,1*62
$GPGSV,4,3,16,09,33,105,44,20,29,231,16,11,27,285,22,14,25,176,22,1*6F
$GPGSV,4,4,16,04,21,072,40,12,13,318,26,03,09,038,18,05,03,221,,1*65
$GPGSV,3,1,10,195,67,043,45,196,64,127,46,199,60,167,46,06,50,340,40,8*5B
$GPGSV,3,2,10,194,41,171,29,09,33,105,46,11,27,285,24,14,25,176,21,8*5A
$GPGSV,3,3,10,04,21,072,40,03,09,038,25,8*6C
$GLGSV,2,1,07,68,50,147,43,67,47,061,44,82,37,038,44,83,33,341,,1*7F
$GLGSV,2,2,07,80,24,230,22,73,23,289,18,66,05,027,22,1*4F
$GAGSV,2,1,08,24,51,242,,10,49,334,38,12,48,015,35,11,35,300,35,7*73
$GAGSV,2,2,08,19,31,086,36,04,28,154,27,25,25,307,31,33,14,064,36,7*75
$GAGSV,2,1,07,10,49,334,39,12,48,015,40,11,35,300,33,19,31,086,37,1*79
$GAGSV,2,2,07,04,28,154,36,25,25,307,33,33,14,064,21,1*49
$GBGSV,4,1,15,40,83,131,40,07,81,245,40,10,72,290,40,33,64,149,42,1*75
$GBGSV,4,2,15,14,61,083,45,08,58,270,37,43,53,055,43,13,49,258,29,1*75
$GBGSV,4,3,15,42,40,053,42,28,38,324,30,11,33,080,42,41,22,197,,1*74
$GBGSV,4,4,15,23,18,221,,34,17,097,35,37,16,273,18,1*4E
$GBGSV,2,1,05,40,83,131,44,33,64,149,45,43,53,055,44,42,40,053,42,4*75
$GBGSV,2,2,05,28,38,324,22,4*42
$GNGGA,034638.000,2500.8082900,N,12132.4296600,E,2,57,0.48,17.84,M,15.25,M,2,3335*78
$GNRMC,034638.000,A,2500.8082900,N,12132.4296600,E,0.00,85.16,270623,,,D,V*3D
$GPHDT,272.927,T*3E
$GNGGA,034638.200,2500.8082900,N,12132.4296700,E,2,58,0.48,17.86,M,15.25,M,2,3335*76
$GNRMC,034638.200,A,2500.8082900,N,12132.4296700,E,0.00,85.16,270623,,,D,V*3E
$GPHDT,273.283,T*3A
$GNGGA,034638.400,2500.8083000,N,12132.4296700,E,2,58,0.48,17.86,M,15.25,M,2,3335*78
$GNRMC,034638.400,A,2500.8083000,N,12132.4296700,E,0.00,85.16,270623,,,D,V*30
$GPHDT,273.418,T*3E
$GNGGA,034638.600,2500.8083000,N,12132.4296800,E,2,58,0.48,17.87,M,15.25,M,2,3335*74
$GNRMC,034638.600,A,2500.8083000,N,12132.4296800,E,0.00,85.16,270623,,,D,V*3D
$GPHDT,272.992,T*30
$GNGGA,034638.800,2500.8083000,N,12132.4296800,E,2,58,0.48,17.89,M,15.25,M,2,3335*74
$GNRMC,034638.800,A,2500.8083000,N,12132.4296800,E,0.00,85.16,270623,,,D,V*33
$GPHDT,272.979,T*35
$GNGSA,A,3,195,19,17,196,199,06,194,09,11,14,04,12,0.87,0.48,0.73,1*0B
$GNGSA,A,3,68,67,82,80,73,,,,,,,,0.87,0.48,0.73,2*0C
$GNGSA,A,3,10,12,11,19,04,25,33,,,,,,0.87,0.48,0.73,3*0D
$GNGSA,A,3,40,07,10,33,14,08,43,13,42,28,11,34,0.87,0.48,0.73,4*02
$GNGSA,A,3,37,,,,,,,,,,,,0.87,0.48,0.73,4*07
$GPGSV,4,1,16,195,67,043,43,19,66,020,42,17,64,076,43,196,64,127,40,1*68
$GPGSV,4,2,16,199,60,167,35,50,60,167,37,06,50,340,38,194,41,171,33,1*62
$GPGSV,4,3,16,09,33,105,44,20,29,231,17,11,27,285,23,14,25,176,22,1*6F
$GPGSV,4,4,16,04,21,072,40,12,13,318,27,03,09,038,18,05,03,221,,1*64
$GPGSV,3,1,10,195,67,043,45,196,64,127,46,199,60,167,46,06,50,340,40,8*5B
$GPGSV,3,2,10,194,41,171,29,09,33,105,46,11,27,285,24,14,25,176,21,8*5A
$GPGSV,3,3,10,04,21,072,40,03,09,038,25,8*6C
$GLGSV,2,1,07,68,50,147,43,67,47,061,44,82,37,038,44,83,33,341,,1*7F
$GLGSV,2,2,07,80,24,230,21,73,23,289,18,66,05,027,22,1*4C
$GAGSV,2,1,08,24,51,242,,10,49,334,39,12,48,015,35,11,35,300,35,7*72
$GAGSV,2,2,08,19,31,086,36,04,28,154,28,25,25,307,31,33,14,064,37,7*7B
$GAGSV,2,1,07,10,49,334,39,12,48,015,40,11,35,300,33,19,31,086,37,1*79
$GAGSV,2,2,07,04,28,154,36,25,25,307,33,33,14,064,21,1*49
$GBGSV,4,1,15,40,83,131,40,07,81,245,40,10,72,289,40,33,64,149,42,1*7D
$GBGSV,4,2,15,14,61,083,45,08,58,270,37,43,53,055,43,13,49,258,29,1*75
$GBGSV,4,3,15,42,40,053,42,28,38,324,30,11,32,080,42,41,22,197,,1*75
$GBGSV,4,4,15,23,18,221,,34,17,097,34,37,16,273,17,1*40
$GBGSV,2,1,05,40,83,131,44,33,64,149,46,43,53,055,44,42,40,053,42,4*76
$GBGSV,2,2,05,28,38,324,22,4*42
$GNGGA,034639.000,2500.8083000,N,12132.4296900,E,2,58,0.48,17.89,M,15.25,M,3,3335*7D
$GNRMC,034639.000,A,2500.8083000,N,12132.4296900,E,0.00,85.16,270623,,,D,V*3B
$GPHDT,272.963,T*3E
$GNGGA,034639.200,2500.8083000,N,12132.4296900,E,2,58,0.48,17.90,M,15.25,M,3,3335*77
$GNRMC,034639.200,A,2500.8083000,N,12132.4296900,E,0.00,85.16,270623,,,D,V*39
$GPHDT,272.650,T*31
$GNGGA,034639.400,2500.8083100,N,12132.4297000,E,2,58,0.48,17.90,M,15.25,M,3,3335*78
$GNRMC,034639.400,A,2500.8083100,N,12132.4297000,E,0.00,85.16,270623,,,D,V*36
$GPHDT,272.858,T*37
$GNGGA,034639.600,2500.8083100,N,12132.4297100,E,2,58,0.48,17.91,M,15.25,M,3,3335*7A
$GNRMC,034639.600,A,2500.8083100,N,12132.4297100,E,0.00,85.16,270623,,,D,V*35
$GPHDT,273.045,T*32
$GNGGA,034639.800,2500.8083100,N,12132.4297200,E,2,58,0.48,17.91,M,15.25,M,3,3335*77
$GNRMC,034639.800,A,2500.8083100,N,12132.4297200,E,0.00,85.16,270623,,,D,V*38
$GPHDT,272.968,T*35
$GNGSA,A,3,195,19,17,196,199,06,194,09,11,14,04,12,0.87,0.48,0.73,1*0B
$GNGSA,A,3,68,67,82,80,73,,,,,,,,0.87,0.48,0.73,2*0C
$GNGSA,A,3,10,12,11,19,04,25,33,,,,,,0.87,0.48,0.73,3*0D
$GNGSA,A,3,40,07,10,33,14,08,43,13,42,28,11,34,0.87,0.48,0.73,4*02
$GNGSA,A,3,37,,,,,,,,,,,,0.87,0.48,0.73,4*07
$GPGSV,4,1,16,195,67,043,42,19,66,020,42,17,64,076,42,196,64,127,40,1*68
$GPGSV,4,2,16,199,60,167,35,50,60,167,37,06,50,340,38,194,41,171,33,1*62
$GPGSV,4,3,16,09,33,105,44,20,29,231,17,11,27,285,22,14,25,176,22,1*6E
$GPGSV,4,4,16,04,21,072,40,12,13,318,27,03,09,038,18,05,03,221,,1*64
$GPGSV,3,1,10,195,67,043,45,196,64,127,46,199,60,167,46,06,50,340,40,8*5B
$GPGSV,3,2,10,194,41,171,29,09,33,105,46,11,27,285,24,14,25,176,21,8*5A
$GPGSV,3,3,10,04,21,072,40,03,09,038,24,8*6D
$GLGSV,2,1,08,68,50,147,43,67,47,061,44,82,37,038,44,83,33,341,,1*70
$GLGSV,2,2,08,80,24,230,21,73,23,289,20,69,11,185,,66,05,027,22,1*7B
$GAGSV,2,1,08,24,51,242,,10,49,334,39,12,48,015,35,11,35,300,35,7*72
$GAGSV,2,2,08,19,31,086,36,04,28,154,28,25,25,307,31,33,14,064,37,7*7B
$GAGSV,2,1,07,10,49,334,39,12,48,015,40,11,35,300,33,19,31,086,37,1*79
$GAGSV,2,2,07,04,28,154,36,25,25,307,32,33,14,064,23,1*4A
$GBGSV,4,1,16,40,83,131,40,07,81,245,40,10,72,289,40,33,64,149,42,1*7E
$GBGSV,4,2,16,14,61,082,45,08,58,270,37,43,53,055,44,13,49,258,29,1*70
$GBGSV,4,3,16,42,40,053,42,28,38,324,32,11,32,080,42,41,22,197,,1*74
$GBGSV,4,4,16,23,18,221,,34,17,097,34,37,16,273,17,39,02,178,,1*75
$GBGSV,2,1,05,40,83,131,44,33,64,149,46,43,53,055,44,42,40,053,42,4*76
$GBGSV,2,2,05,28,38,324,22,4*42
$GNGGA,034640.000,2500.8083200,N,12132.4297300,E,2,58,0.48,17.91,M,15.25,M,4,3335*74
$GNRMC,034640.000,A,2500.8083200,N,12132.4297300,E,0.00,85.16,270623,,,D,V*3C
$GPHDT,273.081,T*3A
$GNGGA,034640.200,2500.8083200,N,12132.4297400,E,2,58,0.48,17.91,M,15.25,M,4,3335*71
$GNRMC,034640.200,A,2500.8083200,N,12132.4297400,E,0.00,85.16,270623,,,D,V*39
$GPHDT,272.842,T*3C
$GNGGA,034640.400,2500.8083200,N,12132.4297400,E,2,58,0.48,17.92,M,15.25,M,4,3335*74
$GNRMC,034640.400,A,2500.8083200,N,12132.4297400,E,0.00,85.16,270623,,,D,V*3F
$GPHDT,272.967,T*3A
$GNGGA,034640.600,2500.8083200,N,12132.4297500,E,2,59,0.46,17.92,M,15.25,M,4,3335*78
$GNRMC,034640.600,A,2500.8083200,N,12132.4297500,E,0.00,85.16,270623,,,D,V*3C
$GPHDT,273.003,T*30
$GNGGA,034640.800,2500.8083300,N,12132.4297500,E,2,59,0.46,17.92,M,15.25,M,4,3335*77
$GNRMC,034640.800,A,2500.8083300,N,12132.4297500,E,0.00,85.16,270623,,,D,V*33
$GPHDT,273.076,T*32
$GNGSA,A,3,195,19,17,196,199,06,194,09,20,11,14,04,0.86,0.46,0.72,1*04
$GNGSA,A,3,12,,,,,,,,,,,,0.86,0.46,0.72,1*0B
$GNGSA,A,3,68,67,82,80,73,,,,,,,,0.86,0.46,0.72,2*02
$GNGSA,A,3,10,12,11,19,04,25,33,,,,,,0.86,0.46,0.72,3*03
$GNGSA,A,3,40,07,10,33,14,08,43,13,42,28,11,34,0.86,0.46,0.72,4*0C
$GNGSA,A,3,37,,,,,,,,,,,,0.86,0.46,0.72,4*09
$GPGSV,4,1,16,195,67,043,42,19,66,020,42,17,64,076,42,196,64,127,40,1*68
$GPGSV,4,2,16,199,60,167,35,50,60,167,38,06,50,340,38,194,41,171,33,1*6D
$GPGSV,4,3,16,09,33,105,44,20,29,231,17,11,27,285,23,14,25,176,22,1*6F
$GPGSV,4,4,16,04,21,072,40,12,13,318,26,03,09,038,18,05,03,221,,1*65
$GPGSV,3,1,10,195,67,043,45,196,64,127,46,199,60,167,46,06,50,340,41,8*5A
$GPGSV,3,2,10,194,41,171,29,09,33,105,46,11,27,285,23,14,25,176,21,8*5D
$GPGSV,3,3,10,04,21,072,40,03,09,038,24,8*6D
$GLGSV,3,1,09,68,50,147,43,67,47,061,44,82,37,038,44,83,33,341,,1*70
$GLGSV,3,2,09,80,24,230,20,73,23,289,19,69,11,185,,66,05,027,22,1*70
$GLGSV,3,3,09,74,03,328,,1*48
$GAGSV,2,1,08,24,51,242,,10,49,334,39,12,48,015,35,11,35,300,35,7*72
$GAGSV,2,2,08,19,31,086,37,04,28,154,26,25,25,307,32,33,14,064,37,7*77
$GAGSV,2,1,07,10,49,334,40,12,48,015,40,11,35,300,33,19,31,086,37,1*77
$GAGSV,2,2,07,04,28,154,36,25,25,307,32,33,14,064,22,1*4B
$GBGSV,4,1,15,40,83,131,40,07,81,245,40,10,72,289,40,33,64,149,42,1*7D
$GBGSV,4,2,15,14,61,082,45,08,58,270,37,43,53,055,44,13,49,258,29,1*73
$GBGSV,4,3,15,42,40,053,42,28,38,324,32,11,32,080,42,41,22,197,,1*77
$GBGSV,4,4,15,23,18,221,,34,17,097,33,37,16,273,17,1*47
$GBGSV,2,1,05,40,83,131,44,33,64,149,46,43,53,055,44,42,40,053,42,4*76
$GBGSV,2,2,05,28,38,324,20,4*40
$GNGGA,034641.000,2500.8083200,N,12132.4297500,E,2,59,0.46,17.92,M,15.25,M,5,3335*7E
$GNRMC,034641.000,A,2500.8083200,N,12132.4297500,E,0.00,85.16,270623,,,D,V*3B
$GPHDT,272.854,T*3B
$GNGGA,034641.200,2500.8083300,N,12132.4297700,E,2,59,0.46,17.93,M,15.25,M,5,3335*7E
$GNRMC,034641.200,A,2500.8083300,N,12132.4297700,E,0.00,85.16,270623,,,D,V*3A
$GPHDT,272.741,T*30
$GNGGA,034641.400,2500.8083300,N,12132.4297700,E,2,59,0.46,17.94,M,15.25,M,5,3335*7F
$GNRMC,034641.400,A,2500.8083300,N,12132.4297700,E,0.00,85.16,270623,,,D,V*3C
$GPHDT,272.463,T*33
$GNGGA,034641.600,2500.8083300,N,12132.4297700,E,2,60,0.46,17.94,M,15.25,M,5,3335*77
$GNRMC,034641.600,A,2500.8083300,N,12132.4297700,E,0.00,85.16,270623,,,D,V*3E
$GPHDT,272.341,T*34
$GNGGA,034641.800,2500.8083400,N,12132.4297700,E,2,60,0.46,17.94,M,15.25,M,5,3335*7E
$GNRMC,034641.800,A,2500.8083400,N,12132.4297700,E,0.00,85.16,270623,,,D,V*37
$GPHDT,272.767,T*34
$GNGSA,A,3,195,19,17,196,199,06,194,09,20,11,14,04,0.86,0.46,0.72,1*04
$GNGSA,A,3,12,,,,,,,,,,,,0.86,0.46,0.72,1*0B
$GNGSA,A,3,68,67,82,80,73,,,,,,,,0.86,0.46,0.72,2*02
$GNGSA,A,3,24,10,12,11,19,04,25,33,,,,,0.86,0.46,0.72,3*05
$GNGSA,A,3,40,07,10,33,14,08,43,13,42,28,11,34,0.86,0.46,0.72,4*0C
$GNGSA,A,3,37,,,,,,,,,,,,0.86,0.46,0.72,4*09
$GPGSV,4,1,16,195,67,043,42,19,66,020,41,17,64,076,42,196,64,127,40,1*6B
$GPGSV,4,2,16,199,60,167,35,50,60,167,38,06,50,340,38,194,41,171,33,1*6D
$GPGSV,4,3,16,09,33,105,44,20,29,231,16,11,27,285,22,14,25,176,22,1*6F
$GPGSV,4,4,16,04,21,072,40,12,13,318,23,03,09,038,18,05,03,221,,1*60
$GPGSV,3,1,10,195,67,043,45,196,64,127,46,199,60,167,46,06,50,340,39,8*55
$GPGSV,3,2,10,194,41,171,29,09,33,105,46,11,27,285,23,14,25,176,21,8*5D
$GPGSV,3,3,10,04,21,072,40,03,09,038,24,8*6D
$GLGSV,2,1,07,68,50,147,43,67,47,061,44,82,37,038,44,83,33,341,,1*7F
$GLGSV,2,2,07,80,24,230,20,73,23,289,24,66,05,027,22,1*42
$GAGSV,2,1,08,24,51,242,17,10,49,334,39,12,48,015,35,11,35,300,35,7*74
$GAGSV,2,2,08,19,31,086,37,04,28,154,25,25,25,307,31,33,14,064,37,7*77
$GAGSV,2,1,07,10,49,334,40,12,48,015,40,11,35,300,33,19,31,086,37,1*77
$GAGSV,2,2,07,04,28,154,36,25,25,307,33,33,14,064,22,1*4A
$GBGSV,4,1,16,40,83,131,40,07,81,245,40,10,72,289,40,33,64,149,43,1*7F
$GBGSV,4,2,16,14,61,082,45,08,58,270,37,43,53,055,44,13,49,258,30,1*78
$GBGSV,4,3,16,42,40,053,42,28,38,324,31,11,32,080,42,41,22,197,,1*77
$GBGSV,4,4,16,23,18,221,,34,17,097,32,37,16,273,15,06,01,188,,1*71
$GBGSV,2,1,05,40,83,131,44,33,64,149,46,43,53,055,44,42,40,053,42,4*76
$GBGSV,2,2,05,28,38,324,23,4*43
$GNGGA,034642.000,2500.8083500,N,12132.4297700,E,2,60,0.46,17.93,M,15.25,M,6,3335*70
$GNRMC,034642.000,A,2500.8083500,N,12132.4297700,E,0.00,85.16,270623,,,D,V*3D
$GPHDT,272.440,T*32
$GNGGA,034642.200,2500.8083600,N,12132.4297700,E,2,60,0.46,17.94,M,15.25,M,6,3335*76
$GNRMC,034642.200,A,2500.8083600,N,12132.4297700,E,0.00,85.16,270623,,,D,V*3C
$GPHDT,272.743,T*32
$GNGGA,034642.400,2500.8083600,N,12132.4297700,E,2,60,0.46,17.93,M,15.25,M,6,3335*77
$GNRMC,034642.400,A,2500.8083600,N,12132.4297700,E,0.00,85.16,270623,,,D,V*3A
$GPHDT,272.705,T*30
$GNGGA,034642.600,2500.8083600,N,12132.4297700,E,2,60,0.46,17.93,M,15.25,M,4,3335*77
$GNRMC,034642.600,A,2500.8083600,N,12132.4297700,E,0.00,85.16,270623,,,D,V*38
$GPHDT,272.576,T*36
$GNGGA,034642.800,2500.8083600,N,12132.4297800,E,2,60,0.46,17.94,M,15.25,M,2,3335*77
$GNRMC,034642.800,A,2500.8083600,N,12132.4297800,E,0.00,85.16,270623,,,D,V*39
$GPHDT,272.365,T*32
$GNGSA,A,3,195,19,17,196,199,06,194,09,20,11,14,04,0.86,0.46,0.72,1*04
$GNGSA,A,3,12,,,,,,,,,,,,0.86,0.46,0.72,1*0B
$GNGSA,A,3,68,67,82,80,73,,,,,,,,0.86,0.46,0.72,2*02
$GNGSA,A,3,24,10,12,11,19,04,25,33,,,,,0.86,0.46,0.72,3*05
$GNGSA,A,3,40,07,10,33,14,08,43,13,42,28,11,34,0.86,0.46,0.72,4*0C
$GNGSA,A,3,37,,,,,,,,,,,,0.86,0.46,0.72,4*09
$GPGSV,4,1,16,195,67,043,42,19,66,020,40,17,64,076,42,196,64,127,40,1*6A
$GPGSV,4,2,16,199,60,167,35,50,60,167,38,06,50,340,40,194,41,171,33,1*62
$GPGSV,4,3,16,09,33,105,44,20,29,231,17,11,27,285,21,14,25,176,22,1*6D
$GPGSV,4,4,16,04,21,072,42,12,13,318,23,03,09,038,21,05,03,221,,1*68
$GPGSV,3,1,10,195,67,043,45,196,64,127,45,199,60,167,46,06,50,340,42,8*5A
$GPGSV,3,2,10,194,41,171,30,09,33,105,45,11,27,285,22,14,25,176,20,8*56
$GPGSV,3,3,10,04,21,072,38,03,09,038,26,8*60
$GLGSV,2,1,07,68,50,147,43,67,47,061,43,82,37,038,42,83,33,341,,1*7E
$GLGSV,2,2,07,80,24,230,20,73,23,289,25,66,05,027,21,1*40
$GAGSV,2,1,08,24,51,242,18,10,49,334,38,12,48,015,34,11,35,300,35,7*7B
$GAGSV,2,2,08,19,31,086,37,04,28,154,25,25,25,307,32,33,14,064,36,7*75
$GAGSV,2,1,07,10,49,334,42,12,48,015,40,11,35,300,33,19,31,086,36,1*74
$GAGSV,2,2,07,04,28,154,36,25,25,307,33,33,14,064,34,1*4D
$GBGSV,4,1,16,40,83,131,40,07,81,245,41,10,72,289,39,33,64,149,43,1*70
$GBGSV,4,2,16,14,61,082,45,08,58,270,37,43,53,055,44,13,49,258,29,1*70
$GBGSV,4,3,16,42,40,053,45,28,38,325,32,11,32,080,42,41,22,197,,1*72
$GBGSV,4,4,16,23,18,221,,34,17,097,31,37,16,273,16,06,01,188,,1*71
$GBGSV,2,1,06,40,83,131,45,33,64,149,46,43,53,055,44,42,40,053,44,4*72
$GBGSV,2,2,06,28,38,325,21,34,17,097,23,4*7D
$GNGGA,034643.000,2500.8083500,N,12132.4298000,E,2,61,0.46,17.95,M,15.25,M,1,3335*79
$GNRMC,034643.000,A,2500.8083500,N,12132.4298000,E,0.00,85.16,270623,,,D,V*34
$GPHDT,272.822,T*3A
$GNGGA,034643.200,2500.8083400,N,12132.4298000,E,2,59,0.47,17.96,M,15.25,M,1,3335*73
$GNRMC,034643.200,A,2500.8083400,N,12132.4298000,E,0.00,85.16,270623,,,D,V*37
$GPHDT,272.392,T*3A
$GNGGA,034643.400,2500.8083400,N,12132.4298100,E,2,59,0.47,17.97,M,15.25,M,1,3335*75
$GNRMC,034643.400,A,2500.8083400,N,12132.4298100,E,0.00,85.16,270623,,,D,V*30
$GPHDT,272.794,T*38
$GNGGA,034643.600,2500.8083400,N,12132.4298000,E,2,59,0.47,17.97,M,15.25,M,1,3335*76
$GNRMC,034643.600,A,2500.8083400,N,12132.4298000,E,0.00,85.16,270623,,,D,V*33
$GPHDT,273.552,T*31
$GNGGA,034643.800,2500.8083400,N,12132.4298100,E,2,62,0.46,17.96,M,15.25,