$FW : RTK35X,V1.1X0314AS,Lib20210517,1*54
$Tool : LOCOSYS , GNSS Firebird , v1.0.0.19*39
$---------------------------------------------------*2D
$GPHDT,182.407,T*3D
$GNGGA,034717.400,2500.8073200,N,12132.4303300,E,2,60,0.47,17.93,M,15.25,M,3,3335*71
$GNRMC,034717.400,A,2500.8073200,N,12132.4303300,E,0.00,85.16,270623,,,D,V*38
$GPHDT,182.203,T*3F
$GNGGA,034717.600,2500.8073200,N,12132.4303400,E,2,61,0.46,17.92,M,15.25,M,3,3335*75
$GNRMC,034717.600,A,2500.8073200,N,12132.4303400,E,0.00,85.16,270623,,,D,V*3D
$GPHDT,181.577,T*38
$GNGGA,034717.800,2500.8073200,N,12132.4303400,E,2,61,0.46,17.92,M,15.25,M,3,3335*7B
$GNRMC,034717.800,A,2500.8073200,N,12132.4303400,E,0.00,85.16,270623,,,D,V*33
$GPHDT,182.096,T*31
$GNGSA,A,3,195,19,17,196,199,06,194,09,20,11,14,04,0.86,0.46,0.72,1*04
$GNGSA,A,3,12,,,,,,,,,,,,0.86,0.46,0.72,1*0B
$GNGSA,A,3,68,67,82,80,73,,,,,,,,0.86,0.46,0.72,2*02
$GNGSA,A,3,10,12,11,19,04,25,33,24,,,,,0.86,0.46,0.72,3*05
$GNGSA,A,3,40,07,10,33,14,08,43,13,42,28,11,34,0.86,0.46,0.72,4*0C
$GNGSA,A,3,37,,,,,,,,,,,,0.86,0.46,0.72,4*09
$GPGSV,4,1,16,195,67,043,39,19,66,021,38,17,64,077,44,196,64,127,41,1*6E
$GPGSV,4,2,16,199,60,167,37,50,60,167,39,06,50,340,43,194,41,171,31,1*60
$GPGSV,4,3,16,09,33,105,44,20,29,231,20,11,28,286,29,14,25,176,12,1*6E
$GPGSV,4,4,16,04,21,072,38,12,13,317,29,03,09,038,,05,03,221,,1*63
$GPGSV,3,1,09,195,67,043,45,196,64,127,46,199,60,167,45,06,50,340,46,8*56
$GPGSV,3,2,09,194,41,171,27,09,33,105,47,11,28,286,14,14,25,176,21,8*52
$GPGSV,3,3,09,04,21,072,40,8*52
$GLGSV,2,1,07,68,50,147,44,67,46,060,43,82,37,038,43,83,34,342,15,1*78
$GLGSV,2,2,07,80,24,230,14,73,23,289,26,66,05,027,17,1*41
$GAGSV,2,1,08,24,51,242,,10,49,335,41,12,48,015,36,11,35,300,26,7*7D
$GAGSV,2,2,08,19,31,086,35,04,28,153,22,25,25,307,27,33,14,064,36,7*73
$GAGSV,2,1,08,24,51,242,17,10,49,335,44,12,48,015,41,11,35,300,28,1*76
$GAGSV,2,2,08,19,31,086,39,04,28,153,32,25,25,307,28,33,14,064,29,1*79
$GBGSV,4,1,15,40,83,133,40,07,81,245,41,10,72,289,37,33,64,148,42,1*7F
$GBGSV,4,2,15,14,61,082,40,08,58,270,39,43,53,056,43,13,49,258,27,1*72
$GBGSV,4,3,15,42,40,053,45,28,38,325,34,11,32,081,40,41,22,197,,1*74
$GBGSV,4,4,15,23,18,220,,34,17,097,35,37,16,272,14,1*42
$GBGSV,2,1,05,40,83,133,45,33,64,148,46,43,53,056,43,42,40,053,44,4*76
$GBGSV,2,2,05,28,38,325,25,4*44
$GNGGA,034718.000,2500.8073200,N,12132.4303400,E,2,60,0.46,17.93,M,15.25,M,4,3335*7B
$GNRMC,034718.000,A,2500.8073200,N,12132.4303400,E,0.00,85.16,270623,,,D,V*34
$GPHDT,182.056,T*3D
$GNGGA,034718.200,2500.8073200,N,12132.4303500,E,2,60,0.46,17.94,M,15.25,M,2,3335*79
$GNRMC,034718.200,A,2500.8073200,N,12132.4303500,E,0.00,85.16,270623,,,D,V*37
$GPHDT,182.215,T*38
$GNGGA,034718.400,2500.8073200,N,12132.4303700,E,2,61,0.46,17.99,M,15.25,M,2,3335*71
$GNRMC,034718.400,A,2500.8073200,N,12132.4303700,E,0.00,85.16,270623,,,D,V*33
$GPHDT,182.490,T*33
$GNGGA,034718.600,2500.8073200,N,12132.4303800,E,2,61,0.46,18.01,M,15.25,M,0,3335*70
$GNRMC,034718.600,A,2500.8073200,N,12132.4303800,E,0.00,85.16,270623,,,D,V*3E
$GPHDT,182.517,T*3D
$GNGGA,034718.800,2500.8073100,N,12132.4304100,E,2,60,0.46,18.06,M,15.25,M,0,3335*75
$GNRMC,034718.800,A,2500.8073100,N,12132.4304100,E,0.00,85.16,270623,,,D,V*3D
$GPHDT,182.605,T*3D
$GNGSA,A,3,195,19,17,196,199,06,194,09,20,11,04,12,0.86,0.46,0.72,1*02
$GNGSA,A,3,14,,,,,,,,,,,,0.86,0.46,0.72,1*0D
$GNGSA,A,3,68,67,82,80,73,,,,,,,,0.86,0.46,0.72,2*02
$GNGSA,A,3,10,12,11,19,04,25,33,24,,,,,0.86,0.46,0.72,3*05
$GNGSA,A,3,40,07,10,33,14,08,43,13,42,28,11,34,0.86,0.46,0.72,4*0C
$GNGSA,A,3,37,,,,,,,,,,,,0.86,0.46,0.72,4*09
$GPGSV,4,1,16,195,67,043,39,19,66,021,38,17,64,077,44,196,64,127,41,1*6E
$GPGSV,4,2,16,50,60,167,39,199,60,167,37,06,50,340,42,194,41,171,31,1*61
$GPGSV,4,3,16,09,33,105,43,20,29,231,20,11,28,286,33,14,25,176,13,1*63
$GPGSV,4,4,16,04,21,072,38,12,13,317,31,03,09,038,22,05,03,221,,1*6A
$GPGSV,3,1,09,195,67,043,46,196,64,127,46,199,60,167,45,06,50,340,46,8*55
$GPGSV,3,2,09,194,41,171,29,09,33,105,47,11,28,286,14,14,25,176,22,8*5F
$GPGSV,3,3,09,04,21,072,40,8*52
$GLGSV,3,1,09,68,50,147,44,67,46,060,43,82,37,038,44,83,34,342,13,1*76
$GLGSV,3,2,09,80,24,230,12,73,23,289,29,69,11,185,,66,05,027,16,1*75
$GLGSV,3,3,09,74,03,328,,1*48
$GAGSV,2,1,08,24,51,242,,10,49,335,41,12,48,015,37,11,35,300,32,7*79
$GAGSV,2,2,08,19,31,086,35,04,28,153,23,25,25,307,33,33,14,064,34,7*75
$GAGSV,2,1,08,24,51,242,16,10,49,335,44,12,48,015,42,11,35,300,31,1*7C
$GAGSV,2,2,08,19,31,086,39,04,28,153,33,25,25,307,32,33,14,064,26,1*7C
$GBGSV,5,1,18,40,83,133,40,07,81,245,41,10,72,289,38,33,64,148,42,1*7C
$GBGSV,5,2,18,14,61,082,38,08,58,270,38,43,53,056,43,13,49,258,24,1*73
$GBGSV,5,3,18,42,40,053,45,28,38,325,34,11,32,081,41,41,22,197,,1*79
$GBGSV,5,4,18,23,18,220,,34,17,097,35,37,16,272,14,39,03,178,,1*79
$GBGSV,5,5,18,25,02,178,,06,01,188,,1*72
$GBGSV,2,1,06,40,83,133,45,33,64,148,46,43,53,056,44,42,40,053,44,4*72
$GBGSV,2,2,06,28,38,325,25,34,17,097,27,4*7D
$GNGGA,034719.000,2500.8073100,N,12132.4304400,E,2,60,0.46,18.11,M,15.25,M,1,3335*7E
$GNRMC,034719.000,A,2500.8073100,N,12132.4304400,E,0.00,85.16,270623,,,D,V*31
$GPHDT,182.388,T*3D
$GNGGA,034719.200,2500.8073100,N,12132.4304600,E,2,59,0.47,18.16,M,15.25,M,1,3335*72
$GNRMC,034719.200,A,2500.8073100,N,12132.4304600,E,0.00,85.16,270623,,,D,V*31
$GPHDT,182.556,T*38
$GNGGA,034719.400,2500.8073000,N,12132.4304800,E,2,59,0.47,18.21,M,15.25,M,1,3335*7F
$GNRMC,034719.400,A,2500.8073000,N,12132.4304800,E,0.00,85.16,270623,,,D,V*38
$GPHDT,182.496,T*35
$GNGGA,034719.600,2500.8073000,N,12132.4304900,E,2,59,0.47,18.22,M,15.25,M,1,3335*7F
$GNRMC,034719.600,A,2500.8073000,N,12132.4304900,E,0.00,85.16,270623,,,D,V*3B
$GPHDT,182.551,T*3F
$GNGGA,034719.800,2500.8072900,N,12132.4305100,E,2,59,0.47,18.26,M,15.25,M,1,3335*74
$GNRMC,034719.800,A,2500.8072900,N,12132.4305100,E,0.00,85.16,270623,,,D,V*34
$GPHDT,182.512,T*38
$GNGSA,A,3,195,19,17,196,199,06,194,09,20,11,04,12,0.87,0.47,0.73,1*03
$GNGSA,A,3,14,,,,,,,,,,,,0.87,0.47,0.73,1*0C
$GNGSA,A,3,68,67,82,73,,,,,,,,,0.87,0.47,0.73,2*0B
$GNGSA,A,3,10,12,11,19,04,25,33,24,,,,,0.87,0.47,0.73,3*04
$GNGSA,A,3,40,07,10,33,14,08,43,13,42,28,11,34,0.87,0.47,0.73,4*0D
$GNGSA,A,3,37,,,,,,,,,,,,0.87,0.47,0.73,4*08
$GPGSV,4,1,16,195,67,043,39,19,66,021,38,17,64,077,44,196,64,127,41,1*6E
$GPGSV,4,2,16,199,60,167,37,50,60,167,39,06,50,340,42,194,41,171,32,1*62
$GPGSV,4,3,16,09,33,105,43,20,29,231,21,11,28,286,32,14,25,176,13,1*63
$GPGSV,4,4,16,04,21,072,39,12,13,317,30,03,09,038,23,05,03,221,,1*6B
$GPGSV,3,1,09,195,67,043,46,196,64,127,46,199,60,167,45,06,50,340,46,8*55
$GPGSV,3,2,09,194,41,171,28,09,33,105,47,11,28,286,14,14,25,176,21,8*5D
$GPGSV,3,3,09,04,21,072,40,8*52
$GLGSV,2,1,08,68,50,147,44,67,46,060,43,82,37,038,44,83,34,342,10,1*75
$GLGSV,2,2,08,80,24,230,13,73,23,289,29,66,05,027,16,74,03,328,,1*7E
$GAGSV,2,1,08,24,51,242,,10,49,335,41,12,48,015,37,11,35,300,34,7*7F
$GAGSV,2,2,08,19,31,086,35,04,28,153,24,25,25,307,33,33,14,064,34,7*72
$GAGSV,2,1,08,24,51,242,16,10,49,335,43,12,48,015,42,11,35,300,31,1*7B
$GAGSV,2,2,08,19,31,086,39,04,28,153,30,25,25,307,33,33,14,064,26,1*7E
$GBGSV,5,1,17,40,83,133,40,07,81,245,41,10,72,289,38,33,64,148,42,1*73
$GBGSV,5,2,17,14,61,082,39,08,58,270,38,43,53,056,43,13,49,258,24,1*7D
$GBGSV,5,3,17,42,40,053,45,28,38,325,34,11,32,081,41,41,22,197,,1*76
$GBGSV,5,4,17,23,18,220,,34,17,097,35,37,16,272,12,39,03,178,,1*70
$GBGSV,5,5,17,25,02,178,,1*4B
$GBGSV,2,1,06,40,83,133,45,33,64,148,46,43,53,056,44,42,40,053,44,4*72
$GBGSV,2,2,06,28,38,325,26,34,17,097,29,4*70
$GNGGA,034720.000,2500.8072900,N,12132.4305200,E,2,59,0.47,18.29,M,15.25,M,2,3335*79
$GNRMC,034720.000,A,2500.8072900,N,12132.4305200,E,0.00,85.16,270623,,,D,V*35
$GPHDT,182.779,T*37
$GNGGA,034720.200,2500.8072900,N,12132.4305300,E,2,58,0.48,18.30,M,15.25,M,2,3335*7C
$GNRMC,034720.200,A,2500.8072900,N,12132.4305300,E,0.00,85.16,270623,,,D,V*36
$GPHDT,182.697,T*36
$GNGGA,034720.400,2500.8072800,N,12132.4305300,E,2,58,0.48,18.30,M,15.25,M,1,3335*78
$GNRMC,034720.400,A,2500.8072800,N,12132.4305300,E,0.00,85.16,270623,,,D,V*31
$GPHDT,182.532,T*3A
$GNGGA,034720.600,2500.8072800,N,12132.4305300,E,2,58,0.48,18.31,M,15.25,M,1,3335*7B
$GNRMC,034720.600,A,2500.8072800,N,12132.4305300,E,0.00,85.16,270623,,,D,V*33
$GPHDT,182.389,T*3C
$GNGGA,034720.800,2500.8072800,N,12132.4305500,E,2,58,0.48,18.35,M,15.25,M,1,3335*77
$GNRMC,034720.800,A,2500.8072800,N,12132.4305500,E,0.00,85.16,270623,,,D,V*3B
$GPHDT,182.493,T*30
$GNGSA,A,3,195,19,17,196,199,06,194,09,20,11,04,12,0.90,0.48,0.76,1*0F
$GNGSA,A,3,14,,,,,,,,,,,,0.90,0.48,0.76,1*00
$GNGSA,A,3,68,67,82,73,,,,,,,,,0.90,0.48,0.76,2*07
$GNGSA,A,3,10,12,11,19,04,25,33,24,,,,,0.90,0.48,0.76,3*08
$GNGSA,A,3,40,07,10,33,14,08,43,13,42,28,11,34,0.90,0.48,0.76,4*01
$GPGSV,4,1,16,195,67,043,39,19,66,021,37,17,64,077,44,196,64,127,40,1*60
$GPGSV,4,2,16,199,60,167,37,50,60,167,39,06,50,340,42,194,41,171,31,1*61
$GPGSV,4,3,16,09,33,105,43,20,29,231,20,11,28,286,32,14,25,176,16,1*67
$GPGSV,4,4,16,04,21,072,39,12,13,317,30,03,09,038,25,05,03,221,,1*6D
$GPGSV,2,1,08,195,67,043,46,196,64,127,46,199,60,167,45,06,50,340,46,8*55
$GPGSV,2,2,08,194,41,171,28,09,33,105,47,14,25,176,21,04,21,072,41,8*59
$GLGSV,2,1,07,68,50,147,44,67,46,060,43,82,37,038,44,83,34,342,14,1*7E
$GLGSV,2,2,07,80,24,230,17,73,23,289,29,66,05,027,15,1*4F
$GAGSV,2,1,08,24,51,242,,10,49,335,41,12,48,015,37,11,35,300,34,7*7F
$GAGSV,2,2,08,19,31,086,35,04,28,153,24,25,25,307,33,33,14,064,34,7*72
$GAGSV,2,1,08,24,51,242,17,10,49,335,43,12,48,015,42,11,35,300,31,1*7A
$GAGSV,2,2,08,19,31,086,39,04,28,153,31,25,25,307,34,33,14,064,28,1*76
$GBGSV,4,1,15,40,83,133,40,07,81,245,41,10,72,289,38,33,64,148,42,1*70
$GBGSV,4,2,15,14,61,082,39,08,58,270,38,43,53,056,43,13,49,258,24,1*7E
$GBGSV,4,3,15,42,40,053,45,28,38,325,33,11,32,081,41,41,22,197,,1*72
$GBGSV,4,4,15,23,18,220,,34,17,097,35,37,16,272,13,1*45
$GBGSV,2,1,06,40,83,133,45,33,64,148,46,43,53,056,44,42,40,053,45,4*73
$GBGSV,2,2,06,28,38,325,26,34,17,097,30,4*78
$GNGGA,034721.000,2500.8072800,N,12132.4305800,E,2,57,0.48,18.40,M,15.25,M,2,3335*7D
$GNRMC,034721.000,A,2500.8072800,N,12132.4305800,E,0.00,85.16,270623,,,D,V*3F
$GPHDT,182.481,T*33
$GNGGA,034721.200,2500.8072800,N,12132.4305900,E,2,57,0.48,18.45,M,15.25,M,2,3335*7B
$GNRMC,034721.200,A,2500.8072800,N,12132.4305900,E,0.00,85.16,270623,,,D,V*3C
$GPHDT,182.036,T*3B
$GNGGA,034721.400,2500.8072800,N,12132.4305900,E,2,57,0.48,18.45,M,15.25,M,1,3335*7E
$GNRMC,034721.400,A,2500.8072800,N,12132.4305900,E,0.00,85.16,270623,,,D,V*3A
$GPHDT,182.669,T*37
$GNGGA,034721.600,2500.8072800,N,12132.4305900,E,2,57,0.48,18.45,M,15.25,M,0,3335*7D
$GNRMC,034721.600,A,2500.8072800,N,12132.4305900,E,0.00,85.16,270623,,,D,V*38
$GPHDT,182.355,T*3D
$GNGGA,034721.800,2500.8072800,N,12132.4305900,E,2,58,0.47,18.46,M,15.25,M,0,3335*70
$GNRMC,034721.800,A,2500.8072800,N,12132.4305900,E,0.00,85.16,270623,,,D,V*36
$GPHDT,182.407,T*3D
$GNGSA,A,3,195,19,17,196,199,06,194,09,20,11,04,12,0.88,0.47,0.74,1*0B
$GNGSA,A,3,14,,,,,,,,,,,,0.88,0.47,0.74,1*04
$GNGSA,A,3,68,67,82,80,73,,,,,,,,0.88,0.47,0.74,2*0B
$GNGSA,A,3,10,12,11,19,04,25,33,24,,,,,0.88,0.47,0.74,3*0C
$GNGSA,A,3,40,07,10,33,14,08,43,13,42,28,11,34,0.88,0.47,0.74,4*05
$GPGSV,4,1,16,195,67,043,39,19,66,021,36,17,64,077,44,196,64,127,40,1*61
$GPGSV,4,2,16,199,60,167,37,50,60,167,38,06,50,340,42,194,41,171,31,1*60
$GPGSV,4,3,16,09,33,105,43,20,29,231,18,11,28,286,32,14,25,176,14,1*6E
$GPGSV,4,4,16,04,21,072,39,12,13,317,30,03,09,038,24,05,03,221,,1*6C
$GPGSV,2,1,08,195,67,043,46,196,64,127,46,199,60,167,45,06,50,340,46,8*55
$GPGSV,2,2,08,194,41,171,29,09,33,105,47,14,25,176,22,04,21,072,41,8*5B
$GLGSV,2,1,07,68,50,147,44,67,46,060,43,82,37,038,44,83,34,342,13,1*79
$GLGSV,2,2,07,80,24,230,17,73,23,289,29,66,05,027,15,1*4F
$GAGSV,2,1,08,24,51,242,,10,49,335,41,12,48,015,37,11,35,300,34,7*7F
$GAGSV,2,2,08,19,31,086,35,04,28,153,24,25,25,307,33,33,14,064,34,7*72
$GAGSV,2,1,08,24,51,242,15,10,49,335,43,12,48,015,42,11,35,300,32,1*7B
$GAGSV,2,2,08,19,31,086,39,04,28,153,32,25,25,307,35,33,14,064,29,1*75
$GBGSV,4,1,14,40,83,133,40,07,81,245,41,10,72,289,38,33,64,148,43,1*70
$GBGSV,4,2,14,14,61,082,39,08,58,270,38,43,53,056,43,13,49,258,22,1*79
$GBGSV,4,3,14,42,40,053,45,28,38,325,34,11,32,081,41,41,22,197,,1*74
$GBGSV,4,4,14,34,17,097,35,37,16,272,14,1*7B
$GBGSV,2,1,06,40,83,133,45,33,64,148,46,43,53,056,44,42,40,053,45,4*73
$GBGSV,2,2,06,28,38,325,26,34,17,097,27,4*7E
$GNGGA,034722.000,2500.8072800,N,12132.4305900,E,2,58,0.47,18.46,M,15.25,M,1,3335*7A
$GNRMC,034722.000,A,2500.8072800,N,12132.4305900,E,0.00,85.16,270623,,,D,V*3D
$GPHDT,182.279,T*32
$GNGGA,034722.200,2500.8072800,N,12132.4305900,E,2,59,0.46,18.46,M,15.25,M,1,3335*78
$GNRMC,034722.200,A,2500.8072800,N,12132.4305900,E,0.00,85.16,270623,,,D,V*3F
$GPHDT,182.220,T*3E
$GNGGA,034722.400,2500.8072800,N,12132.4305900,E,2,59,0.46,18.47,M,15.25,M,1,3335*7F
$GNRMC,034722.400,A,2500.8072800,N,12132.4305900,E,0.00,85.16,270623,,,D,V*39
$GPHDT,182.454,T*3B
$GNGGA,034722.600,2500.8072800,N,12132.4305800,E,2,59,0.46,18.47,M,15.25,M,1,3335*7C
$GNRMC,034722.600,A,2500.8072800,N,12132.4305800,E,0.00,85.16,270623,,,D,V*3A
$GPHDT,182.380,T*35
$GNGGA,034722.800,2500.8072700,N,12132.4305700,E,2,60,0.46,18.47,M,15.25,M,1,3335*78
$GNRMC,034722.800,A,2500.8072700,N,12132.4305700,E,0.00,85.16,270623,,,D,V*34
$GPHDT,181.969,T*3B
$GNGSA,A,3,195,19,17,196,199,06,194,09,20,11,04,12,0.86,0.46,0.72,1*02
$GNGSA,A,3,14,,,,,,,,,,,,0.86,0.46,0.72,1*0D
$GNGSA,A,3,68,67,82,80,73,,,,,,,,0.86,0.46,0.72,2*02
$GNGSA,A,3,10,12,11,19,04,25,33,24,,,,,0.86,0.46,0.72,3*05
$GNGSA,A,3,40,07,10,33,14,08,43,13,42,28,11,34,0.86,0.46,0.72,4*0C
$GNGSA,A,3,37,,,,,,,,,,,,0.86,0.46,0.72,4*09
$GPGSV,4,1,16,195,67,043,39,19,66,021,36,17,64,077,44,196,64,127,40,1*61
$GPGSV,4,2,16,199,60,167,37,50,60,167,39,06,50,341,42,194,41,171,32,1*63
$GPGSV,4,3,16,09,33,105,42,20,29,231,18,11,28,286,32,14,25,176,16,1*6D
$GPGSV,4,4,16,04,21,072,39,12,13,317,30,03,08,038,22,05,03,222,,1*68
$GPGSV,3,1,09,195,67,043,46,196,64,127,46,199,60,167,45,06,50,341,46,8*54
$GPGSV,3,2,09,194,41,171,29,09,33,105,47,11,28,286,24,14,25,176,21,8*5F
$GPGSV,3,3,09,04,21,072,41,8*53
$GLGSV,2,1,07,68,50,147,44,67,46,060,43,82,37,038,45,83,34,342,12,1*79
$GLGSV,2,2,07,80,24,230,16,73,23,289,29,66,05,027,17,1*4C
$GAGSV,2,1,08,24,51,242,,10,49,335,41,12,48,015,37,11,35,300,34,7*7F
$GAGSV,2,2,08,19,31,086,35,04,28,153,24,25,25,307,33,33,14,064,34,7*72
$GAGSV,2,1,08,24,51,242,14,10,49,335,43,12,48,015,42,11,35,300,32,1*7A
$GAGSV,2,2,08,19,31,086,39,04,28,153,31,25,25,307,35,33,14,064,29,1*76
$GBGSV,4,1,15,40,83,133,40,07,81,245,41,10,72,289,38,33,64,148,43,1*71
$GBGSV,4,2,15,14,61,082,39,08,58,270,38,43,53,056,43,13,49,258,23,1*79
$GBGSV,4,3,15,42,40,053,45,28,38,325,34,11,32,081,41,41,22,197,,1*75
$GBGSV,4,4,15,23,18,220,,34,17,097,35,37,16,272,12,1*44
$GBGSV,2,1,07,40,83,133,45,33,64,148,46,43,53,056,44,42,40,053,45,4*72
$GBGSV,2,2,07,28,38,325,25,34,17,097,29,37,16,272,20,4*44
$GNGGA,034723.000,2500.8072600,N,12132.4305600,E,2,60,0.46,18.48,M,15.25,M,2,3335*7D
$GNRMC,034723.000,A,2500.8072600,N,12132.4305600,E,0.01,85.16,270623,,,D,V*3C
$PAIR010,0,1,2268,186461*38
$GPHDT,182.320,T*3F
$GNGGA,034723.200,2500.8072600,N,12132.4305500,E,2,60,0.46,18.47,M,15.25,M,2,3335*73
$GNRMC,034723.200,A,2500.8072600,N,12132.4305500,E,0.00,85.16,270623,,,D,V*3C
$GPHDT,182.635,T*3E
$GNGGA,034723.400,2500.8072500,N,12132.4305600,E,2,60,0.46,18.51,M,15.25,M,2,3335*72
$GNRMC,034723.400,A,2500.8072500,N,12132.4305600,E,0.00,85.16,270623,,,D,V*3A
$GPHDT,182.525,T*3C
$GNGGA,034723.600,2500.8072500,N,12132.4305800,E,2,59,0.46,18.55,M,15.25,M,2,3335*70
$GNRMC,034723.600,A,2500.8072500,N,12132.4305800,E,0.00,85.16,270623,,,D,V*36
$GPHDT,182.708,T*31
$GNGGA,034723.800,2500.8072500,N,12132.4305800,E,2,59,0.46,18.55,M,15.25,M,2,3335*7E
$GNRMC,034723.800,A,2500.8072500,N,12132.4305800,E,0.00,85.16,270623,,,D,V*38
$GPHDT,182.177,T*3F
$GNGSA,A,3,195,19,17,196,199,06,194,09,20,11,04,12,0.86,0.46,0.72,1*02
$GNGSA,A,3,14,,,,,,,,,,,,0.86,0.46,0.72,1*0D
$GNGSA,A,3,68,67,82,80,73,,,,,,,,0.86,0.46,0.72,2*02
$GNGSA,A,3,10,12,11,19,04,25,33,24,,,,,0.86,0.46,0.72,3*05
$GNGSA,A,3,40,07,10,33,14,08,43,13,42,28,11,34,0.86,0.46,0.72,4*0C
$GNGSA,A,3,37,,,,,,,,,,,,0.86,0.46,0.72,4*09
$GPGSV,4,1,16,195,67,043,38,19,66,021,36,17,64,077,44,196,64,127,40,1*60
$GPGSV,4,2,16,199,60,167,37,50,60,167,39,06,50,341,42,194,41,171,31,1*60
$GPGSV,4,3,16,09,33,105,42,20,29,231,17,11,28,286,31,14,25,176,15,1*62
$GPGSV,4,4,16,04,21,072,39,12,13,317,30,03,08,038,23,05,03,222,,1*69
$GPGSV,3,1,10,195,67,043,46,196,64,127,46,199,60,167,45,06,50,341,46,8*5C
$GPGSV,3,2,10,194,41,171,27,09,33,105,47,11,28,286,22,14,25,176,21,8*5F
$GPGSV,3,3,10,04,21,072,41,03,08,038,20,8*69
$GLGSV,2,1,07,68,50,147,44,67,46,060,43,82,37,038,45,83,34,342,12,1*79
$GLGSV,2,2,07,80,24,230,17,73,23,289,29,66,05,027,14,1*4E
$GAGSV,2,1,08,24,51,242,,10,49,335,41,12,48,015,37,11,35,300,34,7*7F
$GAGSV,2,2,08,19,31,086,35,04,28,153,24,25,25,307,33,33,14,064,35,7*73
$GAGSV,2,1,08,24,51,242,12,10,49,335,43,12,48,015,42,11,35,300,32,1*7C
$GAGSV,2,2,08,19,31,086,39,04,28,153,31,25,25,307,35,33,14,064,29,1*76
$GBGSV,4,1,15,40,83,133,40,07,81,245,41,10,72,289,38,33,64,148,43,1*71
$GBGSV,4,2,15,14,61,082,39,08,58,270,38,43,53,056,43,13,49,258,24,1*7E
$GBGSV,4,3,15,42,40,053,45,28,38,325,34,11,32,081,41,41,22,197,,1*75
$GBGSV,4,4,15,23,18,220,,34,17,097,35,37,16,272,14,1*42
$GBGSV,2,1,06,40,83,133,45,33,64,148,46,43,53,056,44,42,40,053,45,4*73
$GBGSV,2,2,06,28,38,325,25,37,16,272,20,4*71
$GNGGA,034724.000,2500.8072400,N,12132.4305700,E,2,59,0.46,18.55,M,15.25,M,3,3335*7E
$GNRMC,034724.000,A,2500.8072400,N,12132.4305700,E,0.00,85.16,270623,,,D,V*39
$GPHDT,182.567,T*3A
$GNGGA,034724.200,2500.8072300,N,12132.4305800,E,2,60,0.46,18.59,M,15.25,M,3,3335*72
$GNRMC,034724.200,A,2500.8072300,N,12132.4305800,E,0.00,85.16,270623,,,D,V*33
$GPHDT,182.264,T*3E
$GNGGA,034724.400,2500.8072300,N,12132.4305800,E,2,60,0.46,18.59,M,15.25,M,3,3335*74
$GNRMC,034724.400,A,2500.8072300,N,12132.4305800,E,0.00,85.16,270623,,,D,V*35
$GPHDT,182.570,T*3C
$GNGGA,034724.600,2500.8072200,N,12132.4305800,E,2,60,0.46,18.60,M,15.25,M,3,3335*7D
$GNRMC,034724.600,A,2500.8072200,N,12132.4305800,E,0.00,85.16,270623,,,D,V*36
$GPHDT,182.484,T*36
$GNGGA,034724.800,2500.8072200,N,12132.4305900,E,2,59,0.46,18.62,M,15.25,M,3,3335*7A
$GNRMC,034724.800,A,2500.8072200,N,12132.4305900,E,0.00,85.16,270623,,,D,V*39
$GPHDT,182.421,T*39
$GNGSA,A,3,195,19,17,196,199,06,194,09,20,11,04,12,0.86,0.46,0.72,1*02
$GNGSA,A,3,14,,,,,,,,,,,,0.86,0.46,0.72,1*0D
$GNGSA,A,3,68,67,82,80,73,,,,,,,,0.86,0.46,0.72,2*02
$GNGSA,A,3,10,12,11,19,04,25,33,,,,,,0.86,0.46,0.72,3*03
$GNGSA,A,3,40,07,10,33,14,08,43,13,42,28,11,34,0.86,0.46,0.72,4*0C
$GNGSA,A,3,37,,,,,,,,,,,,0.86,0.46,0.72,4*09
$GPGSV,4,1,16,195,67,043,38,19,66,021,36,17,64,077,44,196,64,127,40,1*60
$GPGSV,4,2,16,199,60,167,37,50,60,167,39,06,50,341,42,194,41,171,31,1*60
$GPGSV,4,3,16,09,33,105,42,20,29,231,16,11,28,286,31,14,25,176,13,1*65
$GPGSV,4,4,16,04,21,072,39,12,13,317,30,03,08,038,23,05,03,222,,1*69
$GPGSV,3,1,10,195,67,043,46,196,64,127,46,199,60,167,45,06,50,341,46,8*5C
$GPGSV,3,2,10,194,41,171,27,09,33,105,47,11,28,286,22,14,25,176,22,8*5C
$GPGSV,3,3,10,04,21,072,41,03,08,038,19,8*63
$GLGSV,2,1,07,68,50,147,44,67,46,060,43,82,37,038,45,83,34,342,15,1*7E
$GLGSV,2,2,07,80,24,230,17,73,23,289,29,66,05,027,17,1*4D
$GAGSV,2,1,08,24,51,242,,10,49,335,40,12,48,015,37,11,35,300,34,7*7E
$GAGSV,2,2,08,19,31,086,35,04,28,153,25,25,25,307,33,33,14,064,36,7*71
$GAGSV,2,1,08,24,51,242,08,10,49,335,43,12,48,015,42,11,35,300,32,1*77
$GAGSV,2,2,08,19,31,086,39,04,28,153,31,25,25,307,35,33,14,064,29,1*76
$GBGSV,4,1,16,40,83,133,39,07,81,245,41,10,72,289,38,33,64,148,43,1*7C
$GBGSV,4,2,16,14,61,082,39,08,58,270,38,43,53,056,43,13,49,258,23,1*7A
$GBGSV,4,3,16,42,40,053,45,28,38,325,34,11,32,081,41,41,22,197,,1*76
$GBGSV,4,4,16,23,18,220,,34,17,097,35,37,16,272,13,06,01,188,,1*70
$GBGSV,2,1,06,40,83,133,45,33,64,148,46,43,53,056,44,42,40,053,45,4*73
$GBGSV,2,2,06,28,38,325,26,37,16,272,19,4*78
$GNGGA,034725.000,2500.8072100,N,12132.4305900,E,2,58,0.46,18.65,M,15.25,M,3,3335*76
$GNRMC,034725.000,A,2500.8072100,N,12132.4305900,E,0.00,85.16,270623,,,D,V*33
$GPHDT,182.728,T*33
$GNGGA,034725.200,2500.8072000,N,12132.4306000,E,2,59,0.46,18.69,M,15.25,M,3,3335*72
$GNRMC,034725.200,A,2500.8072000,N,12132.4306000,E,0.00,85.16,270623,,,D,V*3A
$GPHDT,182.793,T*33
$GNGGA,034725.400,2500.8071900,N,12132.4306100,E,2,59,0.46,18.72,M,15.25,M,1,3335*77
$GNRMC,034725.400,A,2500.8071900,N,12132.4306100,E,0.00,85.16,270623,,,D,V*37
$GPHDT,182.584,T*37
$GNGGA,034725.600,2500.8071900,N,12132.4306200,E,2,59,0.46,18.76,M,15.25,M,0,3335*73
$GNRMC,034725.600,A,2500.8071900,N,12132.4306200,E,0.00,85.16,270623,,,D,V*36
$GPHDT,182.589,T*3A
$GNGGA,034725.800,2500.8071900,N,12132.4306300,E,2,59,0.46,18.80,M,15.25,M,0,3335*75
$GNRMC,034725.800,A,2500.8071900,N,12132.4306300,E,0.00,85.16,270623,,,D,V*39
$GPHDT,182.990,T*3E
$GNGSA,A,3,195,19,17,196,199,06,194,09,20,11,04,12,0.86,0.46,0.72,1*02
$GNGSA,A,3,14,,,,,,,,,,,,0.86,0.46,0.72,1*0D
$GNGSA,A,3,68,67,82,80,73,,,,,,,,0.86,0.46,0.72,2*02
$GNGSA,A,3,10,12,11,19,04,25,33,24,,,,,0.86,0.46,0.72,3*05
$GNGSA,A,3,40,07,10,33,14,08,43,13,42,28,11,34,0.86,0.46,0.72,4*0C
$GNGSA,A,3,37,,,,,,,,,,,,0.86,0.46,0.72,4*09
$GPGSV,4,1,16,195,67,043,38,19,66,021,36,17,64,077,44,196,64,127,40,1*60
$GPGSV,4,2,16,199,60,167,37,50,60,167,38,06,50,341,42,194,41,171,31,1*61
$GPGSV,4,3,16,09,33,105,42,20,29,231,15,11,28,286,31,14,25,176,13,1*66
$GPGSV,4,4,16,04,21,072,39,12,13,317,30,03,08,038,23,05,03,222,,1*69
$GPGSV,3,1,10,195,67,043,46,196,64,127,46,199,60,167,46,06,50,341,46,8*5F
$GPGSV,3,2,10,194,41,171,29,09,33,105,47,11,28,286,25,14,25,176,23,8*54
$GPGSV,3,3,10,04,21,072,41,03,08,038,21,8*68
$GLGSV,2,1,07,68,50,147,43,67,46,060,43,82,37,038,45,83,34,342,15,1*79
$GLGSV,2,2,07,80,24,230,17,73,23,289,29,66,05,027,18,1*42
$GAGSV,2,1,08,24,51,242,,10,49,335,40,12,48,015,36,11,35,300,34,7*7F
$GAGSV,2,2,08,19,31,086,35,04,28,153,25,25,25,307,33,33,14,064,36,7*71
$GAGSV,2,1,08,24,51,242,12,10,49,335,43,12,48,015,42,11,35,300,32,1*7C
$GAGSV,2,2,08,19,31,086,39,04,28,153,31,25,25,307,35,33,14,064,30,1*7E
$GBGSV,4,1,15,40,83,133,39,07,81,245,41,10,72,289,38,33,64,148,43,1*7F
$GBGSV,4,2,15,14,61,082,39,08,58,270,38,43,53,056,43,13,49,258,22,1*78
$GBGSV,4,3,15,42,40,053,45,28,38,325,34,11,32,081,41,41,22,197,,1*75
$GBGSV,4,4,15,23,18,220,,34,17,097,35,37,16,272,12,1*44
$GBGSV,2,1,06,40,83,133,45,33,64,148,47,43,53,056,44,42,40,053,45,4*72
$GBGSV,2,2,06,28,38,325,26,37,16,272,22,4*70
$GNGGA,034726.000,2500.8071900,N,12132.4306400,E,2,59,0.46,18.84,M,15.25,M,1,3335*7C
$GNRMC,034726.000,A,2500.8071900,N,12132.4306400,E,0.00,85.16,270623,,,D,V*35
$GPHDT,182.459,T*36
$GNGGA,034726.200,2500.8071800,N,12132.4306400,E,2,59,0.46,18.87,M,15.25,M,1,3335*7C
$GNRMC,034726.200,A,2500.8071800,N,12132.4306400,E,0.00,85.16,270623,,,D,V*36
$GPHDT,182.397,T*33
$GNGGA,034726.400,2500.8071700,N,12132.4306500,E,2,59,0.46,18.91,M,15.25,M,1,3335*73
$GNRMC,034726.400,A,2500.8071700,N,12132.4306500,E,0.00,85.16,270623,,,D,V*3E
$GPHDT,182.479,T*34
$GNGGA,034726.600,2500.8071700,N,12132.4306500,E,2,59,0.46,18.94,M,15.25,M,1,3335*74
$GNRMC,034726.600,A,2500.8071700,N,12132.4306500,E,0.00,85.16,270623,,,D,V*3C
$GPHDT,182.982,T*3D
$GNGGA,034726.800,2500.8071700,N,12132.4306600,E,2,59,0.46,18.95,M,15.25,M,1,3335*78
$GNRMC,034726.800,A,2500.8071700,N,12132.4306600,E,0.00,85.16,270623,,,D,V*31
$GPHDT,182.617,T*3E
$GNGSA,A,3,195,19,17,196,199,06,194,09,20,11,04,12,0.86,0.46,0.72,1*02
$GNGSA,A,3,14,,,,,,,,,,,,0.86,0.46,0.72,1*0D
$GNGSA,A,3,68,67,82,80,73,,,,,,,,0.86,0.46,0.72,2*02
$GNGSA,A,3,10,12,11,19,04,25,33,24,,,,,0.86,0.46,0.72,3*05
$GNGSA,A,3,40,07,10,33,14,08,43,13,42,28,11,34,0.86,0.46,0.72,4*0C
$GNGSA,A,3,37,,,,,,,,,,,,0.86,0.46,0.72,4*09
$GPGSV,4,1,16,195,67,043,38,19,66,021,36,17,64,077,44,196,64,127,40,1*60
$GPGSV,4,2,16,199,60,167,37,50,60,167,38,06,50,341,42,194,41,171,31,1*61
$GPGSV,4,3,16,09,33,105,42,20,29,231,14,11,28,286,31,14,25,176,13,1*67
$GPGSV,4,4,16,04,21,072,38,12,13,317,30,03,08,038,23,05,03,222,,1*68
$GPGSV,3,1,10,195,67,043,46,196,64,127,46,199,60,167,46,06,50,341,46,8*5F
$GPGSV,3,2,10,194,41,171,28,09,33,105,47,11,28,286,26,14,25,176,23,8*56
$GPGSV,3,3,10,04,21,072,41,03,08,038,20,8*69
$GLGSV,2,1,07,68,50,147,43,67,46,060,43,82,37,038,45,83,34,342,15,1*79
$GLGSV,2,2,07,80,24,230,17,73,23,289,29,66,05,027,18,1*42
$GAGSV,2,1,08,24,51,242,,10,49,335,40,12,48,015,36,11,35,300,34,7*7F
$GAGSV,2,2,08,19,31,086,36,04,28,153,25,25,25,307,33,33,14,064,36,7*72
$GAGSV,2,1,08,24,51,242,13,10,49,335,43,12,48,015,42,11,35,300,32,1*7D
$GAGSV,2,2,08,19,31,086,39,04,28,153,31,25,25,307,35,33,14,064,30,1*7E
$GBGSV,4,1,15,40,83,133,39,07,81,245,41,10,72,289,38,33,64,148,43,1*7F
$GBGSV,4,2,15,14,61,082,39,08,58,270,38,43,53,056,43,13,49,258,22,1*78
$GBGSV,4,3,15,42,40,053,45,28,38,325,34,11,32,081,41,41,22,197,,1*75
$GBGSV,4,4,15,23,18,220,,34,17,097,35,37,16,272,11,1*47
$GBGSV,2,1,06,40,83,133,45,33,64,148,47,43,53,056,44,42,40,053,45,4*72
$GBGSV,2,2,06,28,38,325,26,37,16,272,21,4*73
$GNGGA,034727.000,2500.8071600,N,12132.4306700,E,2,59,0.46,18.98,M,15.25,M,2,3335*7F
$GNRMC,034727.000,A,2500.8071600,N,12132.4306700,E,0.00,85.16,270623,,,D,V*38
$GPHDT,183.160,T*38
$GNGGA,034727.200,2500.8071600,N,12132.4306700,E,2,59,0.46,19.01,M,15.25,M,2,3335*7C
$GNRMC,034727.200,A,2500.8071600,N,12132.4306700,E,0.00,85.16,270623,,,D,V*3A
$GPHDT,182.509,T*32
$GNGGA,034727.400,2500.8071600,N,12132.4306800,E,2,59,0.46,19.05,M,15.25,M,2,3335*71
$GNRMC,034727.400,A,2500.8071600,N,12132.4306800,E,0.00,85.16,270623,,,D,V*33
$GPHDT,182.753,T*3F
$GNGGA,034727.600,2500.8071600,N,12132.4307000,E,2,58,0.47,19.08,M,15.25,M,2,3335*77
$GNRMC,034727.600,A,2500.8071600,N,12132.4307000,E,0.00,85.16,270623,,,D,V*38
$GPHDT,182.638,T*33
$GNGGA,034727.800,2500.8071600,N,12132.4307000,E,2,59,0.47,19.12,M,15.25,M,2,3335*73
$GNRMC,034727.800,A,2500.8071600,N,12132.4307000,E,0.00,85.16,270623,,,D,V*36
$GPHDT,182.545,T*3A
$GNGSA,A,3,195,19,17,196,199,06,194,09,11,04,12,14,0.86,0.47,0.72,1*04
$GNGSA,A,3,68,67,82,80,73,,,,,,,,0.86,0.47,0.72,2*03
$GNGSA,A,3,10,12,11,19,04,25,33,24,,,,,0.86,0.47,0.72,3*04
$GNGSA,A,3,40,07,10,33,14,08,43,13,42,28,11,34,0.86,0.47,0.72,4*0D
$GNGSA,A,3,37,,,,,,,,,,,,0.86,0.47,0.72,4*08
$GPGSV,4,1,16,195,67,043,39,19,66,021,36,17,64,077,44,196,64,127,40,1*61
$GPGSV,4,2,16,199,60,167,37,50,60,167,39,06,50,341,41,194,41,171,32,1*60
$GPGSV,4,3,16,09,33,105,42,20,29,231,13,11,28,286,30,14,25,176,10,1*62
$GPGSV,4,4,16,04,21,072,38,12,13,317,30,03,08,038,23,05,03,222,,1*68
$GPGSV,3,1,10,195,67,043,46,196,64,127,46,199,60,167,46,06,50,341,46,8*5F
$GPGSV,3,2,10,194,41,171,29,09,33,105,47,11,28,286,25,14,25,176,23,8*54
$GPGSV,3,3,10,04,21,072,41,03,08,038,21,8*68
$GLGSV,2,1,07,68,50,147,43,67,46,060,43,82,37,038,45,83,34,342,16,1*7A
$GLGSV,2,2,07,80,24,230,15,73,23,289,29,66,05,027,15,1*4D
$GAGSV,2,1,08,24,51,242,,10,49,335,40,12,48,015,37,11,35,300,32,7*78
$GAGSV,2,2,08,19,31,086,36,04,28,153,26,25,25,307,33,33,14,064,36,7*71
$GAGSV,2,1,08,24,51,242,14,10,49,335,44,12,48,015,42,11,35,300,30,1*7F
$GAGSV,2,2,08,19,31,086,39,04,28,153,33,25,25,307,34,33,14,064,29,1*75
$GBGSV,4,1,14,40,83,133,39,07,81,245,41,10,72,289,37,33,64,148,43,1*71
$GBGSV,4,2,14,14,61,082,40,08,58,270,38,43,53,056,43,13,49,258,20,1*75
$GBGSV,4,3,14,42,40,053,45,28,38,325,33,11,32,081,41,23,18,220,,1*71
$GBGSV,4,4,14,34,17,097,35,37,16,272,,1*7E
$GBGSV,2,1,07,40,83,133,46,33,64,148,47,43,53,056,44,42,40,053,45,4*70
$GBGSV,2,2,07,28,38,325,27,34,17,097,29,37,16,272,20,4*46
$GNGGA,034728.000,2500.8071600,N,12132.4307100,E,2,59,0.47,19.15,M,15.25,M,3,3335*73
$GNRMC,034728.000,A,2500.8071600,N,12132.4307100,E,0.00,85.16,270623,,,D,V*30
$GPHDT,182.517,T*3D
$GNGGA,034728.200,2500.8071500,N,12132.4307300,E,2,59,0.47,19.18,M,15.25,M,1,3335*7F
$GNRMC,034728.200,A,2500.8071500,N,12132.4307300,E,0.00,85.16,270623,,,D,V*33
$GPHDT,182.444,T*3A
$GNGGA,034728.400,2500.8071400,N,12132.4307400,E,2,59,0.47,19.21,M,15.25,M,1,3335*75
$GNRMC,034728.400,A,2500.8071400,N,12132.4307400,E,0.00,85.16,270623,,,D,V*33
$GPHDT,182.078,T*31
$GNGGA,034728.600,2500.8071400,N,12132.4307500,E,2,59,0.47,19.24,M,15.25,M,1,3335*73
$GNRMC,034728.600,A,2500.8071400,N,12132.4307500,E,0.00,85.16,270623,,,D,V*30
$GPHDT,182.431,T*38
$GNGGA,034728.800,2500.8071400,N,12132.4307500,E,2,60,0.46,19.26,M,15.25,M,1,3335*74
$GNRMC,034728.800,A,2500.8071400,N,12132.4307500,E,0.00,85.16,270623,,,D,V*3E
$GPHDT,182.365,T*3E
$GNGSA,A,3,195,19,17,196,199,06,194,09,11,04,12,14,0.86,0.46,0.72,1*05
$GNGSA,A,3,68,67,82,83,80,73,,,,,,,0.86,0.46,0.72,2*09
$GNGSA,A,3,10,12,11,19,04,25,33,24,,,,,0.86,0.46,0.72,3*05
$GNGSA,A,3,40,07,10,33,14,08,43,13,42,28,11,34,0.86,0.46,0.72,4*0C
$GNGSA,A,3,37,,,,,,,,,,,,0.86,0.46,0.72,4*09
$GPGSV,4,1,15,195,67,043,40,19,66,021,38,17,64,077,44,196,64,127,40,1*62
$GPGSV,4,2,15,50,60,167,39,199,60,167,37,06,50,341,42,194,41,171,32,1*60
$GPGSV,4,3,15,09,33,105,42,20,29,231,14,11,28,286,25,14,25,176,10,1*62
$GPGSV,4,4,15,04,21,072,37,12,13,317,28,03,08,038,21,1*5B
$GPGSV,3,1,10,195,67,043,46,196,64,127,46,199,60,167,46,06,50,341,47,8*5E
$GPGSV,3,2,10,194,41,171,29,09,33,105,47,11,28,286,22,14,25,176,23,8*53
$GPGSV,3,3,10,04,21,072,41,03,08,038,21,8*68
$GLGSV,2,1,07,68,50,147,43,67,46,060,43,82,37,038,44,83,34,342,17,1*7A
$GLGSV,2,2,07,80,24,230,18,73,23,289,28,66,05,027,15,1*41
$GAGSV,2,1,08,24,51,242,,10,49,335,40,12,48,015,37,11,35,300,27,7*7C
$GAGSV,2,2,08,19,31,086,36,04,28,153,26,25,25,307,29,33,14,064,36,7*7A
$GAGSV,2,1,08,24,51,242,12,10,49,335,44,12,48,015,42,11,35,300,27,1*7F
$GAGSV,2,2,08,19,31,086,39,04,28,153,32,25,25,307,30,33,14,064,30,1*78
$GBGSV,4,1,15,40,83,133,38,07,81,245,41,10,72,289,34,33,64,148,43,1*72
$GBGSV,4,2,15,14,61,082,40,08,58,270,36,43,53,056,43,13,49,258,25,1*7F
$GBGSV,4,3,15,42,40,053,45,28,38,325,33,11,32,081,41,41,22,197,,1*72
$GBGSV,4,4,15,23,18,220,,34,17,097,35,37,16,272,,1*47
$GBGSV,2,1,07,40,83,133,46,33,64,148,47,43,53,056,44,42,40,053,45,4*70
$GBGSV,2,2,07,28,38,325,26,34,17,097,28,37,16,272,18,4*4D
$GNGGA,034729.000,2500.8071300,N,12132.4307600,E,2,60,0.46,19.27,M,15.25,M,2,3335*7B
$GNRMC,034729.000,A,2500.8071300,N,12132.4307600,E,0.00,85.16,270623,,,D,V*33
$GPHDT,183.048,T*33
$GNGGA,034729.200,2500.8071100,N,12132.4307600,E,2,60,0.46,19.28,M,15.25,M,2,3335*74
$GNRMC,034729.200,A,2500.8071100,N,12132.4307600,E,0.00,85.16,270623,,,D,V*33
$GPHDT,183.285,T*30
$GNGGA,034729.400,2500.8071100,N,12132.4307600,E,2,59,0.47,19.28,M,15.25,M,2,3335*79
$GNRMC,034729.400,A,2500.8071100,N,12132.4307600,E,0.00,85.16,270623,,,D,V*35
