$FW : RTK35X,V1.1X0314AS,Lib20210517,1*54
$Tool : LOCOSYS , GNSS Firebird , v1.0.0.19*39
$---------------------------------------------------*2D
$GPHDT,,T*1B
$GNGGA,034654.400,2500.8077400,N,12132.4293400,E,2,61,0.46,17.74,M,15.25,M,4,3335*74
$GNRMC,034654.400,A,2500.8077400,N,12132.4293400,E,0.00,85.16,270623,,,D,V*33
$GPHDT,,T*1B
$GNGGA,034654.600,2500.8077300,N,12132.4293500,E,2,61,0.46,17.75,M,15.25,M,4,3335*71
$GNRMC,034654.600,A,2500.8077300,N,12132.4293500,E,0.00,85.16,270623,,,D,V*37
$GPHDT,,T*1B
$GNGGA,034654.800,2500.8077300,N,12132.4293600,E,2,61,0.46,17.75,M,15.25,M,4,3335*7C
$GNRMC,034654.800,A,2500.8077300,N,12132.4293600,E,0.01,85.16,270623,,,D,V*3B
$GPHDT,,T*1B
$GNGSA,A,3,195,19,17,196,199,06,194,09,20,11,14,04,0.86,0.46,0.72,1*04
$GNGSA,A,3,12,,,,,,,,,,,,0.86,0.46,0.72,1*0B
$GNGSA,A,3,68,67,82,80,73,,,,,,,,0.86,0.46,0.72,2*02
$GNGSA,A,3,10,12,11,19,04,25,33,24,,,,,0.86,0.46,0.72,3*05
$GNGSA,A,3,40,07,10,33,14,08,43,13,42,28,11,34,0.86,0.46,0.72,4*0C
$GNGSA,A,3,37,,,,,,,,,,,,0.86,0.46,0.72,4*09
$GPGSV,4,1,16,195,67,043,38,19,66,021,39,17,64,077,42,196,64,127,40,1*69
$GPGSV,4,2,16,199,60,167,36,50,60,167,38,06,50,340,37,194,41,171,33,1*61
$GPGSV,4,3,16,09,33,105,44,20,29,231,17,11,28,286,26,14,25,176,18,1*6F
$GPGSV,4,4,16,04,21,072,42,12,13,317,26,03,09,038,19,05,03,221,,1*69
$GPGSV,2,1,08,195,67,043,44,196,64,127,47,199,60,167,45,06,50,340,42,8*52
$GPGSV,2,2,08,194,41,171,29,09,33,105,47,04,21,072,38,03,09,038,28,8*5C
$GLGSV,2,1,07,68,50,147,43,67,47,061,43,82,37,038,44,83,33,341,,1*78
$GLGSV,2,2,07,80,24,230,16,73,23,289,22,66,05,027,22,1*41
$GAGSV,2,1,08,24,51,242,,10,49,334,34,12,48,015,39,11,35,300,28,7*7F
$GAGSV,2,2,08,19,31,086,36,04,28,154,24,25,25,307,34,33,14,064,36,7*73
$GAGSV,2,1,08,24,51,242,19,10,49,334,42,12,48,015,41,11,35,300,19,1*7D
$GAGSV,2,2,08,19,31,086,37,04,28,154,37,25,25,307,22,33,14,064,29,1*7F
$GBGSV,4,1,15,40,83,132,39,07,81,245,42,10,72,289,39,33,64,149,44,1*7A
$GBGSV,4,2,15,14,61,082,42,08,58,270,39,43,53,056,42,13,49,258,25,1*73
$GBGSV,4,3,15,42,40,053,44,28,38,325,28,11,32,080,41,41,22,197,,1*78
$GBGSV,4,4,15,23,18,221,,34,17,097,31,37,16,273,17,1*45
$GBGSV,2,1,07,40,83,132,44,33,64,149,47,43,53,056,43,42,40,053,44,4*74
$GBGSV,2,2,07,28,38,325,26,34,17,097,25,37,16,273,14,4*4D
$GNGGA,034655.000,2500.8077300,N,12132.4293600,E,2,60,0.46,17.76,M,15.25,M,5,3335*76
$GNRMC,034655.000,A,2500.8077300,N,12132.4293600,E,0.00,85.16,270623,,,D,V*33
$GPHDT,,T*1B
$GNGGA,034655.200,2500.8077300,N,12132.4293700,E,2,59,0.46,17.77,M,15.25,M,5,3335*7E
$GNRMC,034655.200,A,2500.8077300,N,12132.4293700,E,0.00,85.16,270623,,,D,V*30
$GPHDT,,T*1B
$GNGGA,034655.400,2500.8077300,N,12132.4293800,E,2,59,0.46,17.78,M,15.25,M,5,3335*78
$GNRMC,034655.400,A,2500.8077300,N,12132.4293800,E,0.00,85.16,270623,,,D,V*39
$GPHDT,,T*1B
$GNGGA,034655.600,2500.8077300,N,12132.4293900,E,2,59,0.46,17.80,M,15.25,M,5,3335*7C
$GNRMC,034655.600,A,2500.8077300,N,12132.4293900,E,0.00,85.16,270623,,,D,V*3A
$GPHDT,,T*1B
$GNGGA,034655.800,2500.8077300,N,12132.4294000,E,2,59,0.46,17.83,M,15.25,M,5,3335*7F
$GNRMC,034655.800,A,2500.8077300,N,12132.4294000,E,0.00,85.16,270623,,,D,V*3A
$GPHDT,,T*1B
$GNGSA,A,3,195,19,17,196,199,06,194,09,20,11,14,04,0.86,0.46,0.72,1*04
$GNGSA,A,3,12,,,,,,,,,,,,0.86,0.46,0.72,1*0B
$GNGSA,A,3,68,67,82,80,73,,,,,,,,0.86,0.46,0.72,2*02
$GNGSA,A,3,10,12,11,19,04,25,33,24,,,,,0.86,0.46,0.72,3*05
$GNGSA,A,3,40,07,10,33,14,08,43,13,42,28,11,34,0.86,0.46,0.72,4*0C
$GNGSA,A,3,37,,,,,,,,,,,,0.86,0.46,0.72,4*09
$GPGSV,4,1,16,195,67,043,40,19,66,021,39,17,64,077,42,196,64,127,40,1*66
$GPGSV,4,2,16,199,60,167,36,50,60,167,38,06,50,340,37,194,41,171,32,1*60
$GPGSV,4,3,16,09,33,105,44,20,29,231,16,11,28,286,25,14,25,176,18,1*6D
$GPGSV,4,4,16,04,21,072,42,12,13,317,26,03,09,038,19,05,03,221,,1*69
$GPGSV,2,1,08,195,67,043,43,196,64,127,47,199,60,167,45,06,50,340,42,8*55
$GPGSV,2,2,08,194,41,171,28,09,33,105,47,04,21,072,38,03,09,038,27,8*52
$GLGSV,2,1,07,68,50,147,44,67,47,061,43,82,37,038,44,83,33,341,,1*7F
$GLGSV,2,2,07,80,24,230,16,73,23,289,20,66,05,027,22,1*43
$GAGSV,2,1,08,24,51,242,,10,49,334,34,12,48,015,38,11,35,300,28,7*7E
$GAGSV,2,2,08,19,31,086,36,04,28,154,26,25,25,307,34,33,14,064,35,7*72
$GAGSV,2,1,08,24,51,242,19,10,49,334,42,12,48,015,41,11,35,300,20,1*77
$GAGSV,2,2,08,19,31,086,37,04,28,154,37,25,25,307,20,33,14,064,28,1*7C
$GBGSV,4,1,15,40,83,132,39,07,81,245,42,10,72,289,40,33,64,149,44,1*74
$GBGSV,4,2,15,14,61,082,41,08,58,270,39,43,53,056,42,13,49,258,26,1*73
$GBGSV,4,3,15,42,40,053,44,28,38,325,28,11,32,080,42,41,22,197,,1*7B
$GBGSV,4,4,15,23,18,221,,34,17,097,31,37,16,273,17,1*45
$GBGSV,2,1,06,40,83,132,44,33,64,149,47,43,53,056,43,42,40,053,44,4*75
$GBGSV,2,2,06,28,38,325,26,34,17,097,27,4*7E
$GNGGA,034656.000,2500.8077300,N,12132.4294100,E,2,59,0.46,17.85,M,15.25,M,6,3335*70
$GNRMC,034656.000,A,2500.8077300,N,12132.4294100,E,0.00,85.16,270623,,,D,V*30
$GPHDT,,T*1B
$GNGGA,034656.200,2500.8077300,N,12132.4294200,E,2,59,0.46,17.87,M,15.25,M,6,3335*73
$GNRMC,034656.200,A,2500.8077300,N,12132.4294200,E,0.00,85.16,270623,,,D,V*31
$GPHDT,,T*1B
$GNGGA,034656.400,2500.8077300,N,12132.4294400,E,2,59,0.46,17.89,M,15.25,M,6,3335*7D
$GNRMC,034656.400,A,2500.8077300,N,12132.4294400,E,0.00,85.16,270623,,,D,V*31
$GPHDT,,T*1B
$GNGGA,034656.600,2500.8077300,N,12132.4294500,E,2,58,0.47,17.92,M,15.25,M,6,3335*74
$GNRMC,034656.600,A,2500.8077300,N,12132.4294500,E,0.00,85.16,270623,,,D,V*32
$GPHDT,,T*1B
$GNGGA,034656.800,2500.8077300,N,12132.4294700,E,2,58,0.47,17.94,M,15.25,M,4,3335*7C
$GNRMC,034656.800,A,2500.8077300,N,12132.4294700,E,0.00,85.16,270623,,,D,V*3E
$GPHDT,,T*1B
$GNGSA,A,3,195,19,17,196,199,06,194,09,11,14,04,12,0.86,0.47,0.72,1*04
$GNGSA,A,3,68,67,82,80,73,,,,,,,,0.86,0.47,0.72,2*03
$GNGSA,A,3,10,12,11,19,04,25,33,24,,,,,0.86,0.47,0.72,3*04
$GNGSA,A,3,40,07,10,33,14,08,43,13,42,28,11,34,0.86,0.47,0.72,4*0D
$GNGSA,A,3,37,,,,,,,,,,,,0.86,0.47,0.72,4*08
$GPGSV,4,1,16,195,67,043,40,19,66,021,39,17,64,077,42,196,64,127,40,1*66
$GPGSV,4,2,16,199,60,167,36,50,60,167,38,06,50,340,38,194,41,171,32,1*6F
$GPGSV,4,3,16,09,33,105,44,20,29,231,19,11,28,286,25,14,25,176,18,1*62
$GPGSV,4,4,16,04,21,072,42,12,13,317,27,03,09,038,19,05,03,221,,1*68
$GPGSV,2,1,08,195,67,043,43,196,64,127,47,199,60,167,45,06,50,340,42,8*55
$GPGSV,2,2,08,194,41,171,27,09,33,105,47,04,21,072,39,03,09,038,27,8*5C
$GLGSV,2,1,07,68,50,147,44,67,47,061,43,82,37,038,44,83,33,341,,1*7F
$GLGSV,2,2,07,80,24,230,16,73,23,289,18,66,05,027,21,1*4B
$GAGSV,2,1,08,24,51,242,,10,49,334,34,12,48,015,38,11,35,300,28,7*7E
$GAGSV,2,2,08,19,31,086,36,04,28,154,25,25,25,307,34,33,14,064,35,7*71
$GAGSV,2,1,08,24,51,242,19,10,49,334,42,12,48,015,42,11,35,300,20,1*74
$GAGSV,2,2,08,19,31,086,37,04,28,154,37,25,25,307,19,33,14,064,29,1*77
$GBGSV,4,1,15,40,83,132,39,07,81,245,42,10,72,289,40,33,64,149,44,1*74
$GBGSV,4,2,15,14,61,082,41,08,58,270,39,43,53,056,42,13,49,258,26,1*73
$GBGSV,4,3,15,42,40,053,44,28,38,325,27,11,32,080,42,41,22,197,,1*74
$GBGSV,4,4,15,23,18,221,,34,17,097,32,37,16,273,17,1*46
$GBGSV,2,1,06,40,83,132,44,33,64,149,47,43,53,056,43,42,40,053,45,4*74
$GBGSV,2,2,06,28,38,325,25,34,17,097,29,4*73
$GNGGA,034657.000,2500.8077300,N,12132.4294800,E,2,58,0.47,17.96,M,15.25,M,3,3335*7F
$GNRMC,034657.000,A,2500.8077300,N,12132.4294800,E,0.00,85.16,270623,,,D,V*38
$GPHDT,,T*1B
$GNGGA,034657.200,2500.8077300,N,12132.4295000,E,2,58,0.47,17.98,M,15.25,M,1,3335*78
$GNRMC,034657.200,A,2500.8077300,N,12132.4295000,E,0.00,85.16,270623,,,D,V*33
$GPHDT,,T*1B
$GNGGA,034657.400,2500.8077300,N,12132.4295000,E,2,58,0.47,18.00,M,15.25,M,1,3335*70
$GNRMC,034657.400,A,2500.8077300,N,12132.4295000,E,0.00,85.16,270623,,,D,V*35
$GPHDT,,T*1B
$GNGGA,034657.600,2500.8077300,N,12132.4295200,E,2,58,0.47,18.02,M,15.25,M,1,3335*72
$GNRMC,034657.600,A,2500.8077300,N,12132.4295200,E,0.00,85.16,270623,,,D,V*35
$GPHDT,,T*1B
$GNGGA,034657.800,2500.8077300,N,12132.4295300,E,2,58,0.47,18.05,M,15.25,M,1,3335*7A
$GNRMC,034657.800,A,2500.8077300,N,12132.4295300,E,0.00,85.16,270623,,,D,V*3A
$GPHDT,,T*1B
$GNGSA,A,3,195,19,17,196,199,06,194,09,11,14,04,12,0.86,0.47,0.72,1*04
$GNGSA,A,3,68,67,82,80,73,,,,,,,,0.86,0.47,0.72,2*03
$GNGSA,A,3,10,12,11,19,04,25,33,24,,,,,0.86,0.47,0.72,3*04
$GNGSA,A,3,40,07,10,33,14,08,43,13,42,28,11,34,0.86,0.47,0.72,4*0D
$GNGSA,A,3,37,,,,,,,,,,,,0.86,0.47,0.72,4*08
$GPGSV,4,1,16,195,67,043,39,19,66,021,39,17,64,077,42,196,64,127,40,1*68
$GPGSV,4,2,16,199,60,167,36,50,60,167,37,06,50,340,38,194,41,171,34,1*66
$GPGSV,4,3,16,09,33,105,44,20,29,231,17,11,28,286,24,14,25,176,17,1*62
$GPGSV,4,4,16,04,21,072,42,12,13,317,27,03,09,038,22,05,03,221,,1*60
$GPGSV,2,1,08,195,67,043,43,196,64,127,47,199,60,167,45,06,50,340,42,8*55
$GPGSV,2,2,08,194,41,171,26,09,33,105,47,04,21,072,39,03,09,038,26,8*5C
$GLGSV,2,1,07,68,50,147,44,67,47,061,43,82,37,038,44,83,33,341,,1*7F
$GLGSV,2,2,07,80,24,230,16,73,23,289,16,66,05,027,21,1*45
$GAGSV,2,1,08,24,51,242,,10,49,334,34,12,48,015,38,11,35,300,28,7*7E
$GAGSV,2,2,08,19,31,086,36,04,28,153,21,25,25,307,34,33,14,064,35,7*72
$GAGSV,2,1,08,24,51,242,19,10,49,334,42,12,48,015,42,11,35,300,22,1*76
$GAGSV,2,2,08,19,31,086,37,04,28,153,37,25,25,307,19,33,14,064,30,1*78
$GBGSV,4,1,15,40,83,132,39,07,81,245,42,10,72,289,40,33,64,149,44,1*74
$GBGSV,4,2,15,14,61,082,41,08,58,270,39,43,53,056,42,13,49,258,26,1*73
$GBGSV,4,3,15,42,40,053,44,28,38,325,27,11,32,080,42,41,22,197,,1*74
$GBGSV,4,4,15,23,18,221,,34,17,097,33,37,16,273,17,1*47
$GBGSV,2,1,06,40,83,132,44,33,64,149,47,43,53,056,43,42,40,053,45,4*74
$GBGSV,2,2,06,28,38,325,25,34,17,097,28,4*72
$GNGGA,034658.000,2500.8077300,N,12132.4295400,E,2,58,0.47,18.06,M,15.25,M,2,3335*7A
$GNRMC,034658.000,A,2500.8077300,N,12132.4295400,E,0.00,85.16,270623,,,D,V*3A
$GPHDT,,T*1B
$GNGGA,034658.200,2500.8077300,N,12132.4295500,E,2,59,0.47,18.08,M,15.25,M,2,3335*76
$GNRMC,034658.200,A,2500.8077300,N,12132.4295500,E,0.00,85.16,270623,,,D,V*39
$GPHDT,,T*1B
$GNGGA,034658.400,2500.8077300,N,12132.4295600,E,2,59,0.47,18.08,M,15.25,M,2,3335*73
$GNRMC,034658.400,A,2500.8077300,N,12132.4295600,E,0.00,85.16,270623,,,D,V*3C
$GPHDT,,T*1B
$GNGGA,034658.600,2500.8077300,N,12132.4295600,E,2,59,0.47,18.10,M,15.25,M,2,3335*78
$GNRMC,034658.600,A,2500.8077300,N,12132.4295600,E,0.00,85.16,270623,,,D,V*3E
$GPHDT,,T*1B
$GNGGA,034658.800,2500.8077300,N,12132.4295600,E,2,59,0.47,18.11,M,15.25,M,2,3335*77
$GNRMC,034658.800,A,2500.8077300,N,12132.4295600,E,0.00,85.16,270623,,,D,V*30
$GPHDT,,T*1B
$GNGSA,A,3,195,19,17,196,199,06,194,09,11,14,04,12,0.88,0.48,0.74,1*03
$GNGSA,A,3,68,67,82,80,,,,,,,,,0.88,0.48,0.74,2*00
$GNGSA,A,3,10,12,11,19,04,25,33,24,,,,,0.88,0.48,0.74,3*03
$GNGSA,A,3,40,07,10,33,14,08,43,13,42,28,11,34,0.88,0.48,0.74,4*0A
$GNGSA,A,3,37,,,,,,,,,,,,0.88,0.48,0.74,4*0F
$GPGSV,4,1,16,195,67,043,39,19,66,021,39,17,64,077,42,196,64,127,40,1*68
$GPGSV,4,2,16,199,60,167,36,50,60,167,37,06,50,340,38,194,41,171,34,1*66
$GPGSV,4,3,16,09,33,105,44,20,29,231,18,11,28,286,24,14,25,176,17,1*6D
$GPGSV,4,4,16,04,21,072,42,12,13,317,27,03,09,038,22,05,03,221,,1*60
$GPGSV,3,1,09,195,67,043,43,196,64,127,47,199,60,167,45,06,50,340,42,8*55
$GPGSV,3,2,09,194,41,171,21,09,33,105,47,11,28,286,20,04,21,072,39,8*5A
$GPGSV,3,3,09,03,09,038,27,8*50
$GLGSV,2,1,07,68,50,147,43,67,47,061,44,82,37,038,44,83,33,341,,1*7F
$GLGSV,2,2,07,80,24,230,16,73,23,289,13,66,05,027,20,1*41
$GAGSV,2,1,08,24,51,242,,10,49,335,31,12,48,015,37,11,35,300,28,7*75
$GAGSV,2,2,08,19,31,086,36,04,28,153,19,25,25,307,33,33,14,064,35,7*7E
$GAGSV,2,1,08,24,51,242,18,10,49,335,42,12,48,015,42,11,35,300,24,1*70
$GAGSV,2,2,08,19,31,086,37,04,28,153,37,25,25,307,22,33,14,064,31,1*71
$GBGSV,4,1,15,40,83,132,39,07,81,245,42,10,72,289,40,33,64,149,44,1*74
$GBGSV,4,2,15,14,61,082,39,08,58,270,39,43,53,056,42,13,49,258,27,1*7D
$GBGSV,4,3,15,42,40,053,44,28,38,325,28,11,32,080,42,41,22,197,,1*7B
$GBGSV,4,4,15,23,18,221,,34,17,097,32,37,16,273,17,1*46
$GBGSV,2,1,06,40,83,132,44,33,64,149,47,43,53,056,43,42,40,053,45,4*74
$GBGSV,2,2,06,28,38,325,25,34,17,097,28,4*72
$GNGGA,034659.000,2500.8077300,N,12132.4295600,E,2,58,0.48,18.12,M,15.25,M,3,3335*72
$GNRMC,034659.000,A,2500.8077300,N,12132.4295600,E,0.00,85.16,270623,,,D,V*39
$GPHDT,,T*1B
$GNGGA,034659.200,2500.8077300,N,12132.4295700,E,2,58,0.48,18.12,M,15.25,M,3,3335*71
$GNRMC,034659.200,A,2500.8077300,N,12132.4295700,E,0.00,85.16,270623,,,D,V*3A
$GPHDT,,T*1B
$GNGGA,034659.400,2500.8077300,N,12132.4295700,E,2,58,0.48,18.13,M,15.25,M,3,3335*76
$GNRMC,034659.400,A,2500.8077300,N,12132.4295700,E,0.00,85.16,270623,,,D,V*3C
$GPHDT,,T*1B
$GNGGA,034659.600,2500.8077300,N,12132.4295700,E,2,59,0.47,18.13,M,15.25,M,3,3335*7A
$GNRMC,034659.600,A,2500.8077300,N,12132.4295700,E,0.00,85.16,270623,,,D,V*3E
$GPHDT,,T*1B
$GNGGA,034659.800,2500.8077300,N,12132.4295700,E,2,59,0.47,18.14,M,15.25,M,3,3335*73
$GNRMC,034659.800,A,2500.8077300,N,12132.4295700,E,0.00,85.16,270623,,,D,V*30
$GPHDT,,T*1B
$GNGSA,A,3,195,19,17,196,199,06,194,09,20,11,14,04,0.87,0.47,0.73,1*05
$GNGSA,A,3,12,,,,,,,,,,,,0.87,0.47,0.73,1*0A
$GNGSA,A,3,68,67,82,80,,,,,,,,,0.87,0.47,0.73,2*07
$GNGSA,A,3,10,12,11,19,04,25,33,24,,,,,0.87,0.47,0.73,3*04
$GNGSA,A,3,40,07,10,33,14,08,43,13,42,28,11,34,0.87,0.47,0.73,4*0D
$GNGSA,A,3,37,,,,,,,,,,,,0.87,0.47,0.73,4*08
$GPGSV,4,1,16,195,67,043,39,19,66,021,39,17,64,077,43,196,64,127,40,1*69
$GPGSV,4,2,16,199,60,167,36,50,60,167,38,06,50,340,38,194,41,171,34,1*69
$GPGSV,4,3,16,09,33,105,44,20,29,231,17,11,28,286,25,14,25,176,16,1*62
$GPGSV,4,4,16,04,21,072,42,12,13,317,26,03,09,038,21,05,03,221,,1*62
$GPGSV,3,1,09,195,67,043,43,196,64,127,47,199,60,167,45,06,50,340,40,8*57
$GPGSV,3,2,09,194,41,171,17,09,33,105,47,11,28,286,22,04,21,072,39,8*5D
$GPGSV,3,3,09,03,09,038,27,8*50
$GLGSV,2,1,07,68,50,147,43,67,47,061,44,82,37,038,44,83,33,341,,1*7F
$GLGSV,2,2,07,80,24,230,17,73,23,289,13,66,05,027,20,1*40
$GAGSV,2,1,08,24,51,242,,10,49,335,30,12,48,015,37,11,35,300,29,7*75
$GAGSV,2,2,08,19,31,086,36,04,28,153,18,25,25,307,33,33,14,064,35,7*7F
$GAGSV,2,1,08,24,51,242,19,10,49,335,42,12,48,015,42,11,35,300,24,1*71
$GAGSV,2,2,08,19,31,086,37,04,28,153,36,25,25,307,23,33,14,064,31,1*71
$GBGSV,4,1,15,40,83,132,39,07,81,245,42,10,72,289,40,33,64,149,44,1*74
$GBGSV,4,2,15,14,61,082,38,08,58,270,39,43,53,056,42,13,49,258,27,1*7C
$GBGSV,4,3,15,42,40,053,44,28,38,325,29,11,32,080,42,41,22,197,,1*7A
$GBGSV,4,4,15,23,18,221,,34,17,097,31,37,16,273,17,1*45
$GBGSV,2,1,07,40,83,132,44,33,64,149,46,43,53,056,43,42,40,053,45,4*74
$GBGSV,2,2,07,28,38,325,25,34,17,097,28,37,16,273,15,4*42
$GNGGA,034700.000,2500.8077300,N,12132.4295800,E,2,59,0.47,18.14,M,15.25,M,4,3335*7E
$GNRMC,034700.000,A,2500.8077300,N,12132.4295800,E,0.00,85.16,270623,,,D,V*3A
$GPHDT,,T*1B
$GNGGA,034700.200,2500.8077300,N,12132.4295800,E,2,59,0.47,18.15,M,15.25,M,4,3335*7D
$GNRMC,034700.200,A,2500.8077300,N,12132.4295800,E,0.00,85.16,270623,,,D,V*38
$GPHDT,226.455,T*37
$GNGGA,034700.400,2500.8077300,N,12132.4295800,E,2,59,0.47,18.16,M,15.25,M,4,3335*78
$GNRMC,034700.400,A,2500.8077300,N,12132.4295800,E,0.00,85.16,270623,,,D,V*3E
$GPHDT,226.483,T*3C
$GNGGA,034700.600,2500.8077300,N,12132.4295900,E,2,59,0.47,18.16,M,15.25,M,4,3335*7B
$GNRMC,034700.600,A,2500.8077300,N,12132.4295900,E,0.00,85.16,270623,,,D,V*3D
$GPHDT,226.680,T*3D
$GNGGA,034700.800,2500.8077300,N,12132.4295900,E,2,59,0.47,18.17,M,15.25,M,4,3335*74
$GNRMC,034700.800,A,2500.8077300,N,12132.4295900,E,0.00,85.16,270623,,,D,V*33
$GPHDT,226.522,T*36
$GNGSA,A,3,195,19,17,196,199,06,194,09,20,11,04,12,0.89,0.49,0.74,1*04
$GNGSA,A,3,68,67,82,80,,,,,,,,,0.89,0.49,0.74,2*00
$GNGSA,A,3,10,12,11,19,04,25,33,24,,,,,0.89,0.49,0.74,3*03
$GNGSA,A,3,40,07,10,33,14,08,43,13,42,28,11,34,0.89,0.49,0.74,4*0A
$GNGSA,A,3,37,,,,,,,,,,,,0.89,0.49,0.74,4*0F
$GPGSV,4,1,15,195,67,043,39,19,66,021,39,17,64,077,43,196,64,127,41,1*6B
$GPGSV,4,2,15,50,60,167,38,199,60,167,36,06,50,340,38,194,41,171,33,1*6D
$GPGSV,4,3,15,09,33,105,44,20,29,231,17,11,28,286,26,14,25,176,15,1*61
$GPGSV,4,4,15,04,21,072,42,12,13,317,27,03,09,038,20,1*56
$GPGSV,3,1,09,195,67,043,43,196,64,127,47,199,60,167,45,06,50,340,40,8*57
$GPGSV,3,2,09,194,41,171,17,09,33,105,47,11,28,286,22,04,21,072,39,8*5D
$GPGSV,3,3,09,03,09,038,27,8*50
$GLGSV,2,1,07,68,50,147,43,67,47,061,44,82,37,038,44,83,33,341,,1*7F
$GLGSV,2,2,07,80,24,230,19,73,23,289,15,66,05,027,21,1*49
$GAGSV,2,1,08,24,51,242,,10,49,335,30,12,48,015,37,11,35,300,29,7*75
$GAGSV,2,2,08,19,31,086,36,04,28,153,18,25,25,307,32,33,14,064,35,7*7E
$GAGSV,2,1,08,24,51,242,18,10,49,335,42,12,48,015,42,11,35,300,24,1*70
$GAGSV,2,2,08,19,31,086,37,04,28,153,36,25,25,307,23,33,14,064,30,1*70
$GBGSV,4,1,15,40,83,132,39,07,81,245,42,10,72,289,40,33,64,149,44,1*74
$GBGSV,4,2,15,14,61,082,38,08,58,270,39,43,53,056,42,13,49,258,27,1*7C
$GBGSV,4,3,15,42,40,053,44,28,38,325,29,11,32,080,42,41,22,197,,1*7A
$GBGSV,4,4,15,23,18,221,,34,17,097,32,37,16,273,17,1*46
$GBGSV,2,1,06,40,83,132,44,33,64,149,46,43,53,056,43,42,40,053,45,4*75
$GBGSV,2,2,06,28,38,325,25,34,17,097,27,4*7D
$GNGGA,034701.000,2500.8077300,N,12132.4295900,E,2,58,0.49,18.17,M,15.25,M,5,3335*73
$GNRMC,034701.000,A,2500.8077300,N,12132.4295900,E,0.00,85.16,270623,,,D,V*3A
$GPHDT,226.553,T*30
$GNGGA,034701.200,2500.8077200,N,12132.4295900,E,2,58,0.49,18.17,M,15.25,M,5,3335*70
$GNRMC,034701.200,A,2500.8077200,N,12132.4295900,E,0.00,85.16,270623,,,D,V*39
$GPHDT,226.353,T*36
$GNGGA,034701.400,2500.8077300,N,12132.4295900,E,2,58,0.49,18.17,M,15.25,M,5,3335*77
$GNRMC,034701.400,A,2500.8077300,N,12132.4295900,E,0.00,85.16,270623,,,D,V*3E
$GPHDT,226.785,T*39
$GNGGA,034701.600,2500.8077300,N,12132.4295900,E,2,58,0.49,18.18,M,15.25,M,5,3335*7A
$GNRMC,034701.600,A,2500.8077300,N,12132.4295900,E,0.00,85.16,270623,,,D,V*3C
$GPHDT,226.753,T*32
$GNGGA,034701.800,2500.8077300,N,12132.4296000,E,2,58,0.49,18.18,M,15.25,M,5,3335*7E
$GNRMC,034701.800,A,2500.8077300,N,12132.4296000,E,0.00,85.16,270623,,,D,V*38
$GPHDT,226.405,T*32
$GNGSA,A,3,195,19,17,196,199,06,194,09,20,11,04,12,0.87,0.47,0.73,1*03
$GNGSA,A,3,14,,,,,,,,,,,,0.87,0.47,0.73,1*0C
$GNGSA,A,3,68,67,82,80,,,,,,,,,0.87,0.47,0.73,2*07
$GNGSA,A,3,10,12,11,19,04,25,33,24,,,,,0.87,0.47,0.73,3*04
$GNGSA,A,3,40,07,10,33,14,08,43,13,42,28,11,34,0.87,0.47,0.73,4*0D
$GNGSA,A,3,37,,,,,,,,,,,,0.87,0.47,0.73,4*08
$GPGSV,4,1,16,195,67,043,39,19,66,021,39,17,64,077,43,196,64,127,41,1*68
$GPGSV,4,2,16,199,60,167,36,50,60,167,38,06,50,340,38,194,41,171,32,1*6F
$GPGSV,4,3,16,09,33,105,44,20,29,231,17,11,28,286,26,14,25,176,16,1*61
$GPGSV,4,4,16,04,21,072,42,12,13,317,27,03,09,038,20,05,03,221,,1*62
$GPGSV,3,1,10,195,67,043,43,196,64,127,47,199,60,167,45,06,50,340,40,8*5F
$GPGSV,3,2,10,194,41,171,17,09,33,105,47,11,28,286,22,14,25,176,20,8*5D
$GPGSV,3,3,10,04,21,072,39,03,09,038,27,8*60
$GLGSV,2,1,07,68,50,147,43,67,47,061,44,82,37,038,44,83,33,341,,1*7F
$GLGSV,2,2,07,80,24,230,19,73,23,289,17,66,05,027,20,1*4A
$GAGSV,2,1,08,24,51,242,,10,49,335,32,12,48,015,37,11,35,300,29,7*77
$GAGSV,2,2,08,19,31,086,36,04,28,153,18,25,25,307,32,33,14,064,35,7*7E
$GAGSV,2,1,08,24,51,242,17,10,49,335,42,12,48,015,42,11,35,300,24,1*7F
$GAGSV,2,2,08,19,31,086,37,04,28,153,36,25,25,307,24,33,14,064,30,1*77
$GBGSV,4,1,15,40,83,132,39,07,81,245,42,10,72,289,40,33,64,149,44,1*74
$GBGSV,4,2,15,14,61,082,37,08,58,270,39,43,53,056,42,13,49,258,27,1*73
$GBGSV,4,3,15,42,40,053,44,28,38,325,27,11,32,080,42,41,22,197,,1*74
$GBGSV,4,4,15,23,18,221,,34,17,097,32,37,16,273,15,1*44
$GBGSV,2,1,07,40,83,132,44,33,64,149,46,43,53,056,43,42,40,053,45,4*74
$GBGSV,2,2,07,28,38,325,26,34,17,097,27,37,16,273,15,4*4E
$GNGGA,034702.000,2500.8077300,N,12132.4296000,E,2,59,0.47,18.18,M,15.25,M,6,3335*79
$GNRMC,034702.000,A,2500.8077300,N,12132.4296000,E,0.00,85.16,270623,,,D,V*33
$GPHDT,226.525,T*31
$GNGGA,034702.200,2500.8077300,N,12132.4296000,E,2,59,0.47,18.19,M,15.25,M,6,3335*7A
$GNRMC,034702.200,A,2500.8077300,N,12132.4296000,E,0.00,85.16,270623,,,D,V*31
$GPHDT,226.545,T*37
$GNGGA,034702.400,2500.8077300,N,12132.4296100,E,2,59,0.47,18.20,M,15.25,M,4,3335*75
$GNRMC,034702.400,A,2500.8077300,N,12132.4296100,E,0.00,85.16,270623,,,D,V*36
$GPHDT,226.982,T*30
$GNGGA,034702.600,2500.8077400,N,12132.4296200,E,2,59,0.47,18.21,M,15.25,M,2,3335*74
$GNRMC,034702.600,A,2500.8077400,N,12132.4296200,E,0.00,85.16,270623,,,D,V*30
$GPHDT,226.560,T*30
$GNGGA,034702.800,2500.8077400,N,12132.4296200,E,2,59,0.47,18.22,M,15.25,M,2,3335*79
$GNRMC,034702.800,A,2500.8077400,N,12132.4296200,E,0.00,85.16,270623,,,D,V*3E
$GPHDT,226.630,T*36
$GNGSA,A,3,195,19,17,196,199,06,194,09,20,11,04,12,0.86,0.46,0.72,1*02
$GNGSA,A,3,14,,,,,,,,,,,,0.86,0.46,0.72,1*0D
$GNGSA,A,3,68,67,82,80,73,,,,,,,,0.86,0.46,0.72,2*02
$GNGSA,A,3,10,12,11,19,04,25,33,24,,,,,0.86,0.46,0.72,3*05
$GNGSA,A,3,40,07,10,33,14,08,43,13,42,28,11,34,0.86,0.46,0.72,4*0C
$GNGSA,A,3,37,,,,,,,,,,,,0.86,0.46,0.72,4*09
$GPGSV,4,1,16,195,67,043,39,19,66,021,39,17,64,077,43,196,64,127,41,1*68
$GPGSV,4,2,16,199,60,167,37,50,60,167,38,06,50,340,38,194,41,171,33,1*6F
$GPGSV,4,3,16,09,33,105,44,20,29,231,17,11,28,286,27,14,25,176,13,1*65
$GPGSV,4,4,16,04,21,072,42,12,13,317,26,03,09,038,20,05,03,221,,1*63
$GPGSV,3,1,10,195,67,043,43,196,64,127,47,199,60,167,45,06,50,340,41,8*5E
$GPGSV,3,2,10,194,41,171,13,09,33,105,47,11,28,286,24,14,25,176,22,8*5D
$GPGSV,3,3,10,04,21,072,39,03,09,038,27,8*60
$GLGSV,2,1,07,68,50,147,43,67,47,061,44,82,37,038,44,83,33,341,,1*7F
$GLGSV,2,2,07,80,24,230,19,73,23,289,18,66,05,027,20,1*45
$GAGSV,2,1,08,24,51,242,,10,49,335,32,12,48,015,36,11,35,300,29,7*76
$GAGSV,2,2,08,19,31,086,36,04,28,153,19,25,25,307,32,33,14,064,35,7*7F
$GAGSV,2,1,08,24,51,242,18,10,49,335,43,12,48,015,42,11,35,300,25,1*70
$GAGSV,2,2,08,19,31,086,37,04,28,153,36,25,25,307,25,33,14,064,31,1*77
$GBGSV,4,1,15,40,83,132,39,07,81,245,42,10,72,289,40,33,64,149,43,1*73
$GBGSV,4,2,15,14,61,082,36,08,58,270,39,43,53,056,42,13,49,258,27,1*72
$GBGSV,4,3,15,42,40,053,44,28,38,325,27,11,32,080,42,41,22,197,,1*74
$GBGSV,4,4,15,23,18,221,,34,17,097,32,37,16,273,14,1*45
$GBGSV,2,1,07,40,83,132,44,33,64,149,46,43,53,056,43,42,40,053,45,4*74
$GBGSV,2,2,07,28,38,325,26,34,17,097,27,37,16,273,15,4*4E
$GNGGA,034703.000,2500.8077400,N,12132.4296300,E,2,60,0.46,18.23,M,15.25,M,1,3335*78
$GNRMC,034703.000,A,2500.8077400,N,12132.4296300,E,0.00,85.16,270623,,,D,V*36
$GPHDT,226.543,T*31
$GNGGA,034703.200,2500.8077400,N,12132.4296400,E,2,60,0.46,18.25,M,15.25,M,1,3335*7B
$GNRMC,034703.200,A,2500.8077400,N,12132.4296400,E,0.00,85.16,270623,,,D,V*33
$GPHDT,226.779,T*3A
$GNGGA,034703.400,2500.8077400,N,12132.4296500,E,2,60,0.46,18.26,M,15.25,M,1,3335*7F
$GNRMC,034703.400,A,2500.8077400,N,12132.4296500,E,0.00,85.16,270623,,,D,V*34
$GPHDT,226.715,T*30
$GNGGA,034703.600,2500.8077400,N,12132.4296500,E,2,60,0.46,18.27,M,15.25,M,0,3335*7D
$GNRMC,034703.600,A,2500.8077400,N,12132.4296500,E,0.00,85.16,270623,,,D,V*36
$GPHDT,226.782,T*3E
$GNGGA,034703.800,2500.8077400,N,12132.4296600,E,2,60,0.46,18.28,M,15.25,M,0,3335*7F
$GNRMC,034703.800,A,2500.8077400,N,12132.4296600,E,0.00,85.16,270623,,,D,V*3B
$GPHDT,226.770,T*33
$GNGSA,A,3,195,19,17,196,199,06,194,09,20,11,04,12,0.86,0.46,0.72,1*02
$GNGSA,A,3,14,,,,,,,,,,,,0.86,0.46,0.72,1*0D
$GNGSA,A,3,68,67,82,80,73,,,,,,,,0.86,0.46,0.72,2*02
$GNGSA,A,3,10,12,11,19,04,25,33,24,,,,,0.86,0.46,0.72,3*05
$GNGSA,A,3,40,07,10,33,14,08,43,13,42,28,11,34,0.86,0.46,0.72,4*0C
$GNGSA,A,3,37,,,,,,,,,,,,0.86,0.46,0.72,4*09
$GPGSV,4,1,16,195,67,043,39,19,66,021,39,17,64,077,43,196,64,127,41,1*68
$GPGSV,4,2,16,199,60,167,37,50,60,167,39,06,50,340,38,194,41,171,31,1*6C
$GPGSV,4,3,16,09,33,105,44,20,29,231,17,11,28,286,28,14,25,176,14,1*6D
$GPGSV,4,4,16,04,21,072,42,12,13,317,26,03,09,038,20,05,03,221,,1*63
$GPGSV,3,1,10,195,67,043,43,196,64,127,47,199,60,167,45,06,50,340,41,8*5E
$GPGSV,3,2,10,194,41,171,12,09,33,105,47,11,28,286,24,14,25,176,22,8*5C
$GPGSV,3,3,10,04,21,072,39,03,09,038,27,8*60
$GLGSV,2,1,07,68,50,147,43,67,47,061,44,82,37,038,44,83,33,341,,1*7F
$GLGSV,2,2,07,80,24,230,19,73,23,289,20,66,05,027,20,1*4E
$GAGSV,2,1,08,24,51,242,,10,49,335,32,12,48,015,36,11,35,300,29,7*76
$GAGSV,2,2,08,19,31,086,36,04,28,153,19,25,25,307,32,33,14,064,35,7*7F
$GAGSV,2,1,08,24,51,242,17,10,49,335,43,12,48,015,42,11,35,300,25,1*7F
$GAGSV,2,2,08,19,31,086,37,04,28,153,36,25,25,307,25,33,14,064,31,1*77
$GBGSV,4,1,15,40,83,132,39,07,81,245,42,10,72,289,40,33,64,149,43,1*73
$GBGSV,4,2,15,14,61,082,35,08,58,270,39,43,53,056,42,13,49,258,27,1*71
$GBGSV,4,3,15,42,40,053,44,28,38,325,27,11,32,080,42,41,22,197,,1*74
$GBGSV,4,4,15,23,18,221,,34,17,097,31,37,16,273,15,1*47
$GBGSV,2,1,07,40,83,132,44,33,64,149,46,43,53,056,43,42,40,053,45,4*74
$GBGSV,2,2,07,28,38,325,25,34,17,097,27,37,16,273,16,4*4E
$GNGGA,034704.000,2500.8077400,N,12132.4296600,E,2,60,0.46,18.29,M,15.25,M,1,3335*70
$GNRMC,034704.000,A,2500.8077400,N,12132.4296600,E,0.00,85.16,270623,,,D,V*34
$GPHDT,226.385,T*3D
$GNGGA,034704.200,2500.8077400,N,12132.4296800,E,2,61,0.46,18.31,M,15.25,M,1,3335*74
$GNRMC,034704.200,A,2500.8077400,N,12132.4296800,E,0.00,85.16,270623,,,D,V*38
$GPHDT,226.271,T*37
$GNGGA,034704.400,2500.8077400,N,12132.4296800,E,2,62,0.45,18.32,M,15.25,M,1,3335*71
$GNRMC,034704.400,A,2500.8077400,N,12132.4296800,E,0.00,85.16,270623,,,D,V*3E
$GPHDT,226.695,T*39
$GNGGA,034704.600,2500.8077400,N,12132.4296800,E,2,62,0.45,18.32,M,15.25,M,1,3335*73
$GNRMC,034704.600,A,2500.8077400,N,12132.4296800,E,0.00,85.16,270623,,,D,V*3C
$GPHDT,226.628,T*3F
$GNGGA,034704.800,2500.8077300,N,12132.4296900,E,2,62,0.45,18.33,M,15.25,M,0,3335*7B
$GNRMC,034704.800,A,2500.8077300,N,12132.4296900,E,0.00,85.16,270623,,,D,V*34
$GPHDT,226.268,T*3F
$GNGSA,A,3,195,19,17,196,199,06,194,09,20,11,04,12,0.86,0.46,0.72,1*02
$GNGSA,A,3,14,,,,,,,,,,,,0.86,0.46,0.72,1*0D
$GNGSA,A,3,68,67,82,80,73,,,,,,,,0.86,0.46,0.72,2*02
$GNGSA,A,3,10,12,11,19,04,25,33,24,,,,,0.86,0.46,0.72,3*05
$GNGSA,A,3,40,07,10,33,14,08,43,13,42,28,11,34,0.86,0.46,0.72,4*0C
$GNGSA,A,3,37,,,,,,,,,,,,0.86,0.46,0.72,4*09
$GPGSV,4,1,16,195,67,043,39,19,66,021,39,17,64,077,43,196,64,127,41,1*68
$GPGSV,4,2,16,50,60,167,39,199,60,167,37,06,50,340,38,194,41,171,31,1*6C
$GPGSV,4,3,16,09,33,105,44,20,29,231,17,11,28,286,28,14,25,176,12,1*6B
$GPGSV,4,4,16,04,21,072,42,12,13,317,26,03,09,038,20,05,03,221,,1*63
$GPGSV,3,1,09,195,67,043,43,196,64,127,47,199,60,167,45,06,50,340,41,8*56
$GPGSV,3,2,09,09,33,105,47,11,28,286,24,14,25,176,21,04,21,072,39,8*62
$GPGSV,3,3,09,03,09,038,26,8*51
$GLGSV,3,1,09,68,50,147,43,67,46,060,44,82,37,038,44,83,33,341,,1*70
$GLGSV,3,2,09,80,24,230,19,73,23,289,21,69,11,185,,66,05,027,21,1*72
$GLGSV,3,3,09,74,03,328,,1*48
$GAGSV,2,1,08,24,51,242,,10,49,335,32,12,48,015,36,11,35,300,29,7*76
$GAGSV,2,2,08,19,31,086,36,04,28,153,19,25,25,307,32,33,14,064,35,7*7F
$GAGSV,2,1,08,24,51,242,17,10,49,335,43,12,48,015,42,11,35,300,25,1*7F
$GAGSV,2,2,08,19,31,086,37,04,28,153,36,25,25,307,25,33,14,064,31,1*77
$GBGSV,5,1,18,40,83,132,39,07,81,245,42,10,72,289,39,33,64,149,43,1*71
$GBGSV,5,2,18,14,61,082,35,08,58,270,39,43,53,056,42,13,49,258,28,1*72
$GBGSV,5,3,18,42,40,053,44,28,38,325,29,11,32,080,42,41,22,197,,1*76
$GBGSV,5,4,18,23,18,221,,34,17,097,31,37,16,273,16,39,03,178,,1*7F
$GBGSV,5,5,18,25,02,178,,06,01,188,,1*72
$GBGSV,2,1,07,40,83,132,44,33,64,149,46,43,53,056,43,42,40,053,45,4*74
$GBGSV,2,2,07,28,38,325,25,34,17,097,27,37,16,273,17,4*4F
$GNGGA,034705.000,2500.8077300,N,12132.4296900,E,2,60,0.46,18.34,M,15.25,M,1,3335*75
$GNRMC,034705.000,A,2500.8077300,N,12132.4296900,E,0.00,85.16,270623,,,D,V*3D
$GPHDT,226.778,T*3B
$GNGGA,034705.200,2500.8077300,N,12132.4297000,E,2,60,0.46,18.36,M,15.25,M,1,3335*7D
$GNRMC,034705.200,A,2500.8077300,N,12132.4297000,E,0.00,85.16,270623,,,D,V*37
$GPHDT,226.670,T*32
$GNGGA,034705.400,2500.8077300,N,12132.4297100,E,2,60,0.46,18.36,M,15.25,M,1,3335*7A
$GNRMC,034705.400,A,2500.8077300,N,12132.4297100,E,0.00,85.16,270623,,,D,V*30
$GPHDT,226.863,T*3E
$GNGGA,034705.600,2500.8077200,N,12132.4297100,E,2,60,0.46,18.36,M,15.25,M,1,3335*79
$GNRMC,034705.600,A,2500.8077200,N,12132.4297100,E,0.00,85.16,270623,,,D,V*33
$GPHDT,227.033,T*32
