$FW : RTK35X,V1.1X0314AS,Lib20210517,0*55
$Tool : LOCOSYS , GNSS Firebird , v1.0.0.19*39
$---------------------------------------------------*2D
$GNACCURACY,3.3*16
$GNGGA,113018.500,2500.8047927,N,12132.4797438,E,4,53,0.48,17.303,M,15.25,M,20,3335*72
$GNRMC,113018.500,A,2500.8047927,N,12132.4797438,E,0.02,87.98,100523,,,R,V*2E
$GNACCURACY,3.3*16
$GNGGA,113018.600,2500.8047948,N,12132.4797151,E,4,54,0.48,17.282,M,15.25,M,20,3335*7D
$GNRMC,113018.600,A,2500.8047948,N,12132.4797151,E,0.02,87.98,100523,,,R,V*2E
$GNACCURACY,3.3*16
$GNGGA,113018.700,2500.8047965,N,12132.4797241,E,4,52,0.51,17.291,M,15.25,M,20,3335*7D
$GNRMC,113018.700,A,2500.8047965,N,12132.4797241,E,0.02,87.98,100523,,,R,V*22
$GNACCURACY,3.3*16
$GNGGA,113018.800,2500.8048004,N,12132.4797371,E,4,52,0.51,17.287,M,15.25,M,20,3335*76
$GNRMC,113018.800,A,2500.8048004,N,12132.4797371,E,0.02,87.98,100523,,,R,V*2E
$GNACCURACY,3.3*16
$GNGGA,113018.900,2500.8048026,N,12132.4797376,E,4,55,0.48,17.288,M,15.25,M,20,3335*70
$GNRMC,113018.900,A,2500.8048026,N,12132.4797376,E,0.02,87.98,100523,,,R,V*28
$GNGSA,A,3,13,196,195,199,15,05,11,20,29,30,194,,0.88,0.48,0.74,1*09
$GNGSA,A,3,84,70,85,71,69,,,,,,,,0.88,0.48,0.74,2*02
$GNGSA,A,3,13,08,07,15,26,,,,,,,,0.88,0.48,0.74,3*01
$GNGSA,A,3,28,38,39,08,33,41,13,16,06,43,27,09,0.88,0.48,0.74,4*05
$GNGSA,A,3,10,07,40,24,,,,,,,,,0.88,0.48,0.74,4*0F
$GPGSV,4,1,15,13,84,034,42,196,72,049,42,195,63,152,45,50,60,167,40,1*62
$GPGSV,4,2,15,199,60,167,37,15,58,250,25,05,50,011,43,11,48,115,33,1*52
$GPGSV,4,3,15,20,43,049,34,29,43,279,32,30,19,060,41,194,12,162,24,1*5D
$GPGSV,4,4,15,24,11,189,24,06,09,131,19,18,05,318,25,1*55
$GPGSV,3,1,09,196,72,049,43,195,63,152,45,199,60,167,45,11,48,115,44,8*57
$GPGSV,3,2,09,30,19,060,39,194,12,162,23,24,11,189,28,06,09,131,13,8*5B
$GPGSV,3,3,09,18,05,318,19,8*5A
$GLGSV,2,1,05,84,65,154,28,70,53,310,19,85,48,331,38,71,24,253,23,1*7E
$GLGSV,2,2,05,69,23,027,23,1*47
$GAGSV,2,1,06,13,69,349,42,08,68,019,42,07,52,236,19,15,49,123,41,7*78
$GAGSV,2,2,06,26,17,322,21,34,01,135,,7*76
$GAGSV,1,1,04,13,69,349,43,08,68,019,44,07,52,236,30,15,49,123,45,1*77
$GBGSV,5,1,19,28,70,259,34,38,57,014,44,39,51,178,45,08,49,353,37,1*77
$GBGSV,5,2,19,33,49,017,42,41,48,289,35,13,44,335,37,16,43,181,40,1*77
$GBGSV,5,3,19,06,37,186,39,43,32,164,45,27,30,315,32,09,23,193,34,1*7F
$GBGSV,5,4,19,10,23,220,22,07,21,204,24,40,17,197,25,25,14,146,17,1*76
$GBGSV,5,5,19,24,13,091,18,11,09,154,,42,08,054,,1*4D
$GBGSV,2,1,07,28,70,259,38,38,57,014,45,39,51,178,44,33,49,017,43,4*7E
$GBGSV,2,2,07,41,48,289,40,43,32,164,41,27,30,315,32,4*4A
$GNACCURACY,3.3*16
$PAIRSAT,1,35,1,0,200,2,0,200,3,0,200,4,0,200,5,0,201,6,0,221,7,0,200,8,0,200,9,0,200,10,0,200,11,0,221,12,0,200,13,0,201,14,0,200,15,0,201,16,0,200,17,0,200,18,0,221,19,0,200,20,0,201,21,0,200,23,0,200,24,0,200,25,0,200,26,0,200,27,0,200,28,0,200,29,0,201,30,0,221,31,0,200,32,0,200,194,0,621,195,0,621,196,0,620,199,0,621*6A
$PAIRSAT,2,16,69,0,1,70,0,201,71,0,201,73,0,200,74,0,200,75,0,200,76,0,200,77,0,200,79,0,200,80,0,200,81,0,200,82,0,200,83,0,200,84,0,201,85,0,201,87,0,200*70
$PAIRSAT,3,22,2,0,200,4,0,1200,5,0,200,7,0,1221,8,0,1221,9,0,1200,10,0,1200,11,0,1200,12,0,1200,13,0,1221,15,0,1221,19,0,1200,21,0,1200,24,0,1200,25,0,1200,26,0,1221,27,0,1200,30,0,1200,31,0,1200,33,0,1200,34,0,1221,36,0,1200*76
$PAIRSAT,4,46,1,0,201,2,0,201,3,0,201,4,0,201,5,0,200,6,0,1,7,0,201,8,0,201,9,0,201,10,0,201,11,0,201,12,0,200,13,0,1,15,0,200,16,0,201,19,0,600,20,0,600,21,0,600,22,0,600,23,0,600,24,0,621,25,0,621,26,0,600,27,0,621,28,0,621,29,0,600,30,0,600,32,0,600,33,0,621,34,0,600,35,0,600,36,0,600,37,0,600,38,0,621,39,0,621,40,0,621,41,0,621,42,0,621,43,0,621,44,0,600,45,0,600,46,0,400,57,0,200,59,0,601,60,0,601,61,0,600*4F
$PAIRDGP,8,5,6,11,13,15,20,29,30*42
$GNGGA,113019.000,2500.8048031,N,12132.4797364,E,4,54,0.48,17.271,M,15.25,M,21,3335*7B
$GNRMC,113019.000,A,2500.8048031,N,12132.4797364,E,0.02,87.98,100523,,,R,V*25
$GNACCURACY,3.3*16
$GNGGA,113019.100,2500.8048030,N,12132.4797395,E,4,51,0.52,17.304,M,15.25,M,21,3335*78
$GNRMC,113019.100,A,2500.8048030,N,12132.4797395,E,0.02,87.98,100523,,,R,V*2B
$GNACCURACY,3.3*16
$GNGGA,113019.200,2500.8048086,N,12132.4797318,E,4,53,0.48,17.295,M,15.25,M,21,3335*73
$GNRMC,113019.200,A,2500.8048086,N,12132.4797318,E,0.02,87.98,100523,,,R,V*20
$GNACCURACY,3.3*16
$GNGGA,113019.300,2500.8048024,N,12132.4797405,E,4,53,0.48,17.296,M,15.25,M,21,3335*72
$GNRMC,113019.300,A,2500.8048024,N,12132.4797405,E,0.02,87.98,100523,,,R,V*22
$GNACCURACY,3.3*16
$GNGGA,113019.400,2500.8048019,N,12132.4797458,E,4,51,0.52,17.305,M,15.25,M,21,3335*71
$GNRMC,113019.400,A,2500.8048019,N,12132.4797458,E,0.03,87.98,100523,,,R,V*22
$GNACCURACY,3.3*16
$GNGGA,113019.500,2500.8048051,N,12132.4797372,E,4,51,0.52,17.273,M,15.25,M,21,3335*73
$GNRMC,113019.500,A,2500.8048051,N,12132.4797372,E,0.03,87.98,100523,,,R,V*20
$GNACCURACY,3.3*16
$GNGGA,113019.600,2500.8048028,N,12132.4797470,E,4,51,0.52,17.294,M,15.25,M,21,3335*72
$GNRMC,113019.600,A,2500.8048028,N,12132.4797470,E,0.03,87.98,100523,,,R,V*28
$GNACCURACY,3.3*16
$GNGGA,113019.700,2500.8048046,N,12132.4797463,E,4,51,0.52,17.280,M,15.25,M,21,3335*7C
$GNRMC,113019.700,A,2500.8048046,N,12132.4797463,E,0.03,87.98,100523,,,R,V*23
$GNACCURACY,3.3*16
$GNGGA,113019.800,2500.8048033,N,12132.4797426,E,4,51,0.52,17.264,M,15.25,M,21,3335*7A
$GNRMC,113019.800,A,2500.8048033,N,12132.4797426,E,0.03,87.98,100523,,,R,V*2F
$GNACCURACY,3.3*16
$GNGGA,113019.900,2500.8048070,N,12132.4797411,E,4,51,0.52,17.282,M,15.25,M,21,3335*70
$GNRMC,113019.900,A,2500.8048070,N,12132.4797411,E,0.03,87.98,100523,,,R,V*2D
$GNGSA,A,3,13,196,195,199,15,05,11,20,29,30,194,,0.97,0.52,0.82,1*05
$GNGSA,A,3,84,70,85,71,69,,,,,,,,0.97,0.52,0.82,2*0E
$GNGSA,A,3,13,08,07,15,26,,,,,,,,0.97,0.52,0.82,3*0D
$GNGSA,A,3,28,38,39,08,33,41,13,16,06,43,27,09,0.97,0.52,0.82,4*09
$GNGSA,A,3,07,,,,,,,,,,,,0.97,0.52,0.82,4*00
$GPGSV,4,1,15,13,84,034,42,196,72,049,42,195,63,152,45,50,60,167,40,1*62
$GPGSV,4,2,15,199,60,167,36,15,58,250,26,05,50,011,43,11,48,115,33,1*50
$GPGSV,4,3,15,20,43,049,33,29,43,279,33,30,19,060,40,194,12,162,22,1*5C
$GPGSV,4,4,15,24,11,189,29,06,09,131,18,18,05,318,25,1*59
$GPGSV,2,1,08,196,72,049,43,195,63,152,43,199,60,167,44,11,48,115,43,8*57
$GPGSV,2,2,08,30,19,060,39,194,12,162,21,24,11,189,27,18,05,318,21,8*5D
$GLGSV,2,1,05,84,65,154,29,70,53,310,19,85,48,331,39,71,24,253,21,1*7C
$GLGSV,2,2,05,69,23,027,23,1*47
$GAGSV,2,1,06,13,69,349,42,08,68,019,42,07,52,236,17,15,49,123,41,7*76
$GAGSV,2,2,06,26,17,322,21,34,01,135,,7*76
$GAGSV,1,1,04,13,69,349,43,08,68,019,42,07,52,236,29,15,49,123,44,1*78
$GBGSV,5,1,19,28,70,259,32,38,57,014,44,39,51,178,45,08,49,353,36,1*70
$GBGSV,5,2,19,33,49,017,42,41,48,289,34,13,44,335,38,16,43,181,40,1*79
$GBGSV,5,3,19,06,37,186,39,43,32,164,45,27,30,315,25,09,23,193,33,1*7E
$GBGSV,5,4,19,10,23,220,19,07,21,204,21,40,17,197,,25,14,146,18,1*73
$GBGSV,5,5,19,24,13,091,17,11,09,154,,42,08,054,,1*42
$GBGSV,2,1,07,28,70,259,38,38,57,014,45,39,51,178,44,33,49,017,42,4*7F
$GBGSV,2,2,07,41,48,289,39,43,32,164,41,27,30,315,31,4*47
$GNACCURACY,3.3*16
$PAIRSAT,1,35,1,0,200,2,0,200,3,0,200,4,0,200,5,0,201,6,0,221,7,0,200,8,0,200,9,0,200,10,0,200,11,0,221,12,0,200,13,0,201,14,0,200,15,0,201,16,0,200,17,0,200,18,0,221,19,0,200,20,0,201,21,0,200,23,0,200,24,0,200,25,0,200,26,0,200,27,0,200,28,0,200,29,0,201,30,0,221,31,0,200,32,0,200,194,0,621,195,0,621,196,0,620,199,0,621*6A
$PAIRSAT,2,16,69,0,1,70,0,201,71,0,201,73,0,200,74,0,200,75,0,200,76,0,200,77,0,200,79,0,200,80,0,200,81,0,200,82,0,200,83,0,200,84,0,201,85,0,201,87,0,200*70
$PAIRSAT,3,22,2,0,200,4,0,1200,5,0,200,7,0,1221,8,0,1221,9,0,1200,10,0,1200,11,0,1200,12,0,1200,13,0,1221,15,0,1221,19,0,1200,21,0,1200,24,0,1200,25,0,1200,26,0,1221,27,0,1200,30,0,1200,31,0,1200,33,0,1200,34,0,1221,36,0,1200*76
$PAIRSAT,4,46,1,0,201,2,0,201,3,0,201,4,0,201,5,0,200,6,0,1,7,0,201,8,0,201,9,0,201,10,0,201,11,0,201,12,0,200,13,0,1,15,0,200,16,0,201,19,0,600,20,0,600,21,0,600,22,0,600,23,0,600,24,0,621,25,0,621,26,0,600,27,0,621,28,0,621,29,0,600,30,0,600,32,0,600,33,0,621,34,0,600,35,0,600,36,0,600,37,0,600,38,0,621,39,0,621,40,0,621,41,0,621,42,0,621,43,0,621,44,0,600,45,0,600,46,0,400,57,0,200,59,0,601,60,0,601,61,0,600*4F
$PAIRDGP,8,5,6,11,13,15,20,29,30*42
$GNGGA,113020.000,2500.8048047,N,12132.4797397,E,4,51,0.52,17.277,M,15.25,M,22,3335*77
$GNRMC,113020.000,A,2500.8048047,N,12132.4797397,E,0.03,87.98,100523,,,R,V*23
$GNACCURACY,3.3*16
$GNGGA,113020.100,2500.8048038,N,12132.4797374,E,4,51,0.52,17.271,M,15.25,M,22,3335*75
$GNRMC,113020.100,A,2500.8048038,N,12132.4797374,E,0.03,87.98,100523,,,R,V*27
$GNACCURACY,3.3*16
$GNGGA,113020.200,2500.8048020,N,12132.4797314,E,4,51,0.52,17.268,M,15.25,M,22,3335*71
$GNRMC,113020.200,A,2500.8048020,N,12132.4797314,E,0.03,87.98,100523,,,R,V*2B
$GNACCURACY,3.3*16
$GNGGA,113020.300,2500.8048038,N,12132.4797372,E,4,51,0.52,17.280,M,15.25,M,22,3335*7F
$GNRMC,113020.300,A,2500.8048038,N,12132.4797372,E,0.03,87.98,100523,,,R,V*23
$GNACCURACY,3.3*16
$GNGGA,113020.400,2500.8048024,N,12132.4797196,E,4,51,0.52,17.271,M,15.25,M,22,3335*73
$GNRMC,113020.400,A,2500.8048024,N,12132.4797196,E,0.03,87.98,100523,,,R,V*21
$GNACCURACY,3.3*16
$GNGGA,113020.500,2500.8048065,N,12132.4797341,E,4,51,0.52,17.266,M,15.25,M,22,3335*79
$GNRMC,113020.500,A,2500.8048065,N,12132.4797341,E,0.03,87.98,100523,,,R,V*2D
$GNACCURACY,3.3*16
$GNGGA,113020.600,2500.8048093,N,12132.4797281,E,4,51,0.52,17.279,M,15.25,M,22,3335*70
$GNRMC,113020.600,A,2500.8048093,N,12132.4797281,E,0.03,87.98,100523,,,R,V*2A
$GNACCURACY,3.3*16
$GNGGA,113020.700,2500.8048096,N,12132.4797294,E,4,51,0.52,17.289,M,15.25,M,22,3335*7F
$GNRMC,113020.700,A,2500.8048096,N,12132.4797294,E,0.03,87.98,100523,,,R,V*2A
$GNACCURACY,3.3*16
$GNGGA,113020.800,2500.8048112,N,12132.4797297,E,4,51,0.52,17.282,M,15.25,M,22,3335*75
$GNRMC,113020.800,A,2500.8048112,N,12132.4797297,E,0.03,87.98,100523,,,R,V*2B
$GNACCURACY,3.3*16
$GNGGA,113020.900,2500.8048104,N,12132.4797102,E,4,51,0.52,17.278,M,15.25,M,22,3335*79
$GNRMC,113020.900,A,2500.8048104,N,12132.4797102,E,0.03,87.98,100523,,,R,V*22
$GNGSA,A,3,13,196,195,199,15,05,11,20,29,30,194,,0.97,0.52,0.82,1*05
$GNGSA,A,3,84,70,85,71,69,,,,,,,,0.97,0.52,0.82,2*0E
$GNGSA,A,3,13,08,07,15,26,,,,,,,,0.97,0.52,0.82,3*0D
$GNGSA,A,3,28,38,39,08,33,41,13,16,06,43,27,09,0.97,0.52,0.82,4*09
$GNGSA,A,3,07,,,,,,,,,,,,0.97,0.52,0.82,4*00
$GPGSV,4,1,15,13,84,034,42,196,72,049,42,195,63,152,45,50,60,167,40,1*62
$GPGSV,4,2,15,199,60,167,37,15,58,250,31,05,50,011,44,11,48,115,30,1*53
$GPGSV,4,3,15,20,43,049,32,29,43,279,32,30,19,060,39,194,12,162,21,1*51
$GPGSV,4,4,15,24,11,189,29,06,09,131,18,18,05,318,23,1*5F
$GPGSV,2,1,08,196,72,049,43,195,63,152,43,199,60,167,44,11,48,115,43,8*57
$GPGSV,2,2,08,30,19,060,39,194,12,162,18,24,11,189,28,18,05,318,20,8*59
$GLGSV,2,1,05,84,65,154,29,70,53,310,18,85,48,331,41,71,24,253,20,1*73
$GLGSV,2,2,05,69,23,027,23,1*47
$GAGSV,2,1,06,13,69,349,42,08,68,019,41,07,52,236,17,15,49,123,42,7*76
$GAGSV,2,2,06,26,17,322,20,34,01,135,,7*77
$GAGSV,1,1,04,13,69,349,42,08,68,019,42,07,52,236,25,15,49,123,44,1*75
$GBGSV,5,1,19,28,70,259,33,38,57,014,45,39,51,178,44,08,49,353,36,1*71
$GBGSV,5,2,19,33,49,017,42,41,48,289,37,13,44,335,38,16,43,181,40,1*7A
$GBGSV,5,3,19,06,37,186,39,43,32,164,45,27,30,315,31,09,23,193,32,1*7A
$GBGSV,5,4,19,10,23,220,17,07,21,204,21,40,17,197,,25,14,146,19,1*7C
$GBGSV,5,5,19,24,13,091,17,11,09,154,,42,08,054,,1*42
$GBGSV,2,1,07,28,70,259,38,38,57,014,45,39,51,178,44,33,49,017,42,4*7F
$GBGSV,2,2,07,41,48,289,37,43,32,164,41,27,30,315,32,4*4A
$GNACCURACY,3.3*16
$PAIRSAT,1,35,1,0,200,2,0,200,3,0,200,4,0,200,5,0,201,6,0,221,7,0,200,8,0,200,9,0,200,10,0,200,11,0,221,12,0,200,13,0,201,14,0,200,15,0,201,16,0,200,17,0,200,18,0,221,19,0,200,20,0,201,21,0,200,23,0,200,24,0,200,25,0,200,26,0,200,27,0,200,28,0,200,29,0,201,30,0,221,31,0,200,32,0,200,194,0,621,195,0,621,196,0,620,199,0,621*6A
$PAIRSAT,2,16,69,0,1,70,0,201,71,0,201,73,0,200,74,0,200,75,0,200,76,0,200,77,0,200,79,0,200,80,0,200,81,0,200,82,0,200,83,0,200,84,0,201,85,0,201,87,0,200*70
$PAIRSAT,3,22,2,0,200,4,0,1200,5,0,200,7,0,1221,8,0,1221,9,0,1200,10,0,1200,11,0,1200,12,0,1200,13,0,1221,15,0,1221,19,0,1200,21,0,1200,24,0,1200,25,0,1200,26,0,1221,27,0,1200,30,0,1200,31,0,1200,33,0,1200,34,0,1221,36,0,1200*76
$PAIRSAT,4,46,1,0,201,2,0,201,3,0,201,4,0,201,5,0,200,6,0,1,7,0,201,8,0,201,9,0,201,10,0,201,11,0,201,12,0,200,13,0,201,15,0,200,16,0,201,19,0,600,20,0,600,21,0,600,22,0,600,23,0,600,24,0,621,25,0,621,26,0,600,27,0,621,28,0,621,29,0,600,30,0,600,32,0,600,33,0,621,34,0,600,35,0,600,36,0,600,37,0,600,38,0,621,39,0,621,40,0,621,41,0,621,42,0,621,43,0,621,44,0,600,45,0,600,46,0,400,57,0,200,59,0,601,60,0,601,61,0,600*4D
$PAIRDGP,8,5,6,11,13,15,20,29,30*42
$GNGGA,113021.000,2500.8048110,N,12132.4797258,E,4,51,0.52,17.304,M,15.25,M,23,3335*73
$GNRMC,113021.000,A,2500.8048110,N,12132.4797258,E,0.03,87.98,100523,,,R,V*23
$GNACCURACY,3.3*16
$GNGGA,113021.100,2500.8048140,N,12132.4797300,E,4,51,0.52,17.303,M,15.25,M,23,3335*7C
$GNRMC,113021.100,A,2500.8048140,N,12132.4797300,E,0.03,87.98,100523,,,R,V*2B
$GNACCURACY,3.3*16
$GNGGA,113021.200,2500.8048111,N,12132.4797214,E,4,51,0.52,17.302,M,15.25,M,23,3335*7E
$GNRMC,113021.200,A,2500.8048111,N,12132.4797214,E,0.03,87.98,100523,,,R,V*28
$GNACCURACY,3.3*16
$GNGGA,113021.300,2500.8048112,N,12132.4797289,E,4,51,0.52,17.304,M,15.25,M,23,3335*7E
$GNRMC,113021.300,A,2500.8048112,N,12132.4797289,E,0.03,87.98,100523,,,R,V*2E
$GNACCURACY,3.3*16
$GNGGA,113021.400,2500.8048080,N,12132.4797371,E,4,51,0.52,17.304,M,15.25,M,23,3335*75
$GNRMC,113021.400,A,2500.8048080,N,12132.4797371,E,0.03,87.98,100523,,,R,V*25
$GNACCURACY,3.3*16
$GNGGA,113021.500,2500.8048099,N,12132.4797221,E,4,51,0.52,17.304,M,15.25,M,23,3335*78
$GNRMC,113021.500,A,2500.8048099,N,12132.4797221,E,0.03,87.98,100523,,,R,V*28
$GNACCURACY,3.3*16
$GNGGA,113021.600,2500.8048103,N,12132.4797359,E,4,51,0.52,17.310,M,15.25,M,23,3335*72
$GNRMC,113021.600,A,2500.8048103,N,12132.4797359,E,0.03,87.98,100523,,,R,V*27
$GNACCURACY,3.3*16
$GNGGA,113021.700,2500.8048149,N,12132.4797247,E,4,51,0.52,17.292,M,15.25,M,23,3335*78
$GNRMC,113021.700,A,2500.8048149,N,12132.4797247,E,0.03,87.98,100523,,,R,V*26
$GNACCURACY,3.3*16
$GNGGA,113021.800,2500.8048131,N,12132.4797343,E,4,51,0.52,17.318,M,15.25,M,23,3335*7E
$GNRMC,113021.800,A,2500.8048131,N,12132.4797343,E,0.03,87.98,100523,,,R,V*23
$GNACCURACY,3.3*16
$GNGGA,113021.900,2500.8048133,N,12132.4797332,E,4,51,0.52,17.285,M,15.25,M,23,3335*7E
$GNRMC,113021.900,A,2500.8048133,N,12132.4797332,E,0.03,87.98,100523,,,R,V*26
$GNGSA,A,3,13,196,195,199,15,05,11,20,29,30,194,,0.97,0.52,0.82,1*05
$GNGSA,A,3,84,70,85,71,69,,,,,,,,0.97,0.52,0.82,2*0E
$GNGSA,A,3,13,08,07,15,26,,,,,,,,0.97,0.52,0.82,3*0D
$GNGSA,A,3,28,38,39,08,33,41,13,16,06,43,27,09,0.97,0.52,0.82,4*09
$GNGSA,A,3,07,,,,,,,,,,,,0.97,0.52,0.82,4*00
$GPGSV,4,1,15,13,84,034,42,196,72,049,43,195,63,152,45,50,60,167,40,1*63
$GPGSV,4,2,15,199,60,167,38,15,58,250,36,05,50,011,44,11,48,115,34,1*5F
$GPGSV,4,3,15,20,43,049,31,29,43,279,29,30,19,060,39,194,12,162,26,1*5F
$GPGSV,4,4,15,24,11,189,28,06,09,131,17,18,05,318,21,1*53
$GPGSV,2,1,08,196,72,049,43,195,63,152,43,199,60,167,45,11,48,115,43,8*56
$GPGSV,2,2,08,30,19,060,39,194,12,162,17,24,11,189,24,18,05,318,19,8*50
$GLGSV,2,1,05,84,65,154,32,70,53,310,18,85,48,331,41,71,24,253,19,1*73
$GLGSV,2,2,05,69,23,027,20,1*44
$GAGSV,2,1,06,13,69,349,42,08,68,019,41,07,52,236,17,15,49,123,42,7*76
$GAGSV,2,2,06,26,17,322,17,34,01,135,,7*73
$GAGSV,1,1,04,13,69,349,43,08,68,019,42,07,52,236,26,15,49,123,44,1*77
$GBGSV,5,1,19,28,70,259,32,38,57,014,46,39,51,178,44,08,49,353,36,1*73
$GBGSV,5,2,19,33,49,017,42,41,48,289,39,13,44,335,38,16,43,181,41,1*75
$GBGSV,5,3,19,06,37,186,40,43,32,164,45,27,30,315,33,09,23,193,35,1*71
$GBGSV,5,4,19,10,23,220,17,07,21,204,18,40,17,197,,25,14,146,20,1*7C
$GBGSV,5,5,19,24,13,091,17,11,09,154,,42,08,054,,1*42
$GBGSV,2,1,07,28,70,259,37,38,57,014,45,39,51,178,44,33,49,017,42,4*70
$GBGSV,2,2,07,41,48,289,37,43,32,164,41,27,30,315,30,4*48
$GNACCURACY,3.3*16
$PAIRSAT,1,35,1,0,200,2,0,200,3,0,200,4,0,200,5,0,201,6,0,221,7,0,200,8,0,200,9,0,200,10,0,200,11,0,221,12,0,200,13,0,201,14,0,200,15,0,201,16,0,200,17,0,200,18,0,221,19,0,200,20,0,201,21,0,200,23,0,200,24,0,200,25,0,200,26,0,200,27,0,200,28,0,200,29,0,201,30,0,221,31,0,200,32,0,200,194,0,621,195,0,621,196,0,620,199,0,621*6A
$PAIRSAT,2,16,69,0,1,70,0,201,71,0,201,73,0,200,74,0,200,75,0,200,76,0,200,77,0,200,79,0,200,80,0,200,81,0,200,82,0,200,83,0,200,84,0,201,85,0,201,87,0,200*70
$PAIRSAT,3,22,2,0,200,4,0,1200,5,0,200,7,0,1221,8,0,1221,9,0,1200,10,0,1200,11,0,1200,12,0,1200,13,0,1221,15,0,1221,19,0,1200,21,0,1200,24,0,1200,25,0,1200,26,0,1221,27,0,1200,30,0,1200,31,0,1200,33,0,1200,34,0,1221,36,0,1200*76
$PAIRSAT,4,46,1,0,201,2,0,201,3,0,201,4,0,201,5,0,200,6,0,1,7,0,201,8,0,201,9,0,201,10,0,201,11,0,201,12,0,200,13,0,201,15,0,200,16,0,201,19,0,600,20,0,600,21,0,600,22,0,600,23,0,600,24,0,621,25,0,621,26,0,600,27,0,621,28,0,621,29,0,600,30,0,600,32,0,600,33,0,621,34,0,600,35,0,600,36,0,600,37,0,600,38,0,621,39,0,621,40,0,621,41,0,621,42,0,621,43,0,621,44,0,600,45,0,600,46,0,400,57,0,200,59,0,601,60,0,601,61,0,600*4D
$PAIRDGP,8,5,6,11,13,15,20,29,30*42
$GNGGA,113022.000,2500.8048111,N,12132.4797345,E,4,51,0.52,17.306,M,15.25,M,24,3335*79
$GNRMC,113022.000,A,2500.8048111,N,12132.4797345,E,0.03,87.98,100523,,,R,V*2C
$GNACCURACY,3.3*16
$GNGGA,113022.100,2500.8048106,N,12132.4797373,E,4,51,0.52,17.304,M,15.25,M,24,3335*79
$GNRMC,113022.100,A,2500.8048106,N,12132.4797373,E,0.03,87.98,100523,,,R,V*2E
$GNACCURACY,3.3*16
$GNGGA,113022.200,2500.8048096,N,12132.4797320,E,4,51,0.52,17.284,M,15.25,M,24,3335*7D
$GNRMC,113022.200,A,2500.8048096,N,12132.4797320,E,0.03,87.98,100523,,,R,V*23
$GNACCURACY,3.3*16
$GNGGA,113022.300,2500.8048115,N,12132.4797334,E,4,51,0.52,17.296,M,15.25,M,24,3335*70
$GNRMC,113022.300,A,2500.8048115,N,12132.4797334,E,0.03,87.98,100523,,,R,V*2D
$GNACCURACY,3.3*16
$GNGGA,113022.400,2500.8048146,N,12132.4797312,E,4,50,0.53,17.293,M,15.25,M,24,3335*70
$GNRMC,113022.400,A,2500.8048146,N,12132.4797312,E,0.03,87.98,100523,,,R,V*28
$GNACCURACY,3.3*16
$GNGGA,113022.500,2500.8048159,N,12132.4797448,E,4,50,0.53,17.285,M,15.25,M,24,3335*70
$GNRMC,113022.500,A,2500.8048159,N,12132.4797448,E,0.03,87.98,100523,,,R,V*2F
$GNACCURACY,3.3*16
$GNGGA,113022.600,2500.8048182,N,12132.4797441,E,4,50,0.53,17.313,M,15.25,M,24,3335*72
$GNRMC,113022.600,A,2500.8048182,N,12132.4797441,E,0.03,87.98,100523,,,R,V*23
$GNACCURACY,3.3*16
$GNGGA,113022.700,2500.8048164,N,12132.4797322,E,4,50,0.53,17.277,M,15.25,M,24,3335*7A
$GNRMC,113022.700,A,2500.8048164,N,12132.4797322,E,0.03,87.98,100523,,,R,V*28
$GNACCURACY,3.3*16
$GNGGA,113022.800,2500.8048159,N,12132.4797476,E,4,50,0.53,17.301,M,15.25,M,24,3335*7D
$GNRMC,113022.800,A,2500.8048159,N,12132.4797476,E,0.03,87.98,100523,,,R,V*2F
$GNACCURACY,3.3*16
$GNGGA,113022.900,2500.8048201,N,12132.4797492,E,4,49,0.53,17.277,M,15.25,M,24,3335*70
$GNRMC,113022.900,A,2500.8048201,N,12132.4797492,E,0.03,87.98,100523,,,R,V*2A
$GNGSA,A,3,13,196,195,199,15,05,11,20,29,30,194,,1.00,0.53,0.85,1*0C
$GNGSA,A,3,84,70,85,71,69,,,,,,,,1.00,0.53,0.85,2*07
$GNGSA,A,3,13,08,07,15,26,,,,,,,,1.00,0.53,0.85,3*04
$GNGSA,A,3,28,38,39,08,33,41,13,16,06,43,27,09,1.00,0.53,0.85,4*00
$GPGSV,4,1,15,13,84,034,42,196,72,049,43,195,63,152,45,50,60,167,40,1*63
$GPGSV,4,2,15,199,60,167,38,15,58,250,30,05,50,011,44,11,48,115,34,1*59
$GPGSV,4,3,15,20,43,049,35,29,43,279,32,30,19,060,39,194,12,162,24,1*53
$GPGSV,4,4,15,24,11,189,29,06,09,131,17,18,05,318,23,1*50
$GPGSV,2,1,07,196,72,049,43,195,63,152,43,199,60,167,46,11,48,115,43,8*5A
$GPGSV,2,2,07,30,19,060,39,24,11,189,30,18,05,318,17,8*58
$GLGSV,2,1,05,84,65,154,32,70,53,310,18,85,48,331,41,71,24,253,21,1*78
$GLGSV,2,2,05,69,23,027,22,1*46
$GAGSV,2,1,06,13,69,349,41,08,68,019,41,07,52,236,17,15,49,123,43,7*74
$GAGSV,2,2,06,26,17,322,17,34,01,135,,7*73
$GAGSV,1,1,04,13,69,349,43,08,68,019,42,07,52,236,25,15,49,123,44,1*74
$GBGSV,5,1,19,28,70,259,32,38,57,014,45,39,51,178,44,08,49,353,35,1*73
$GBGSV,5,2,19,33,49,017,42,41,48,289,38,13,44,335,39,16,43,181,41,1*75
$GBGSV,5,3,19,06,37,186,40,43,32,164,45,27,30,315,29,09,23,193,35,1*7A
$GBGSV,5,4,19,10,23,220,14,07,20,204,16,40,17,197,,25,14,146,17,1*74
$GBGSV,5,5,19,24,13,091,17,11,09,154,,42,08,054,,1*42
$GBGSV,2,1,07,28,70,259,36,38,57,014,45,39,51,178,44,33,49,017,42,4*71
$GBGSV,2,2,07,41,48,289,35,43,32,164,42,27,30,315,31,4*48
$GNACCURACY,3.3*16
$PAIRSAT,1,35,1,0,200,2,0,200,3,0,200,4,0,200,5,0,201,6,0,221,7,0,200,8,0,200,9,0,200,10,0,200,11,0,221,12,0,200,13,0,201,14,0,200,15,0,201,16,0,200,17,0,200,18,0,221,19,0,200,20,0,201,21,0,200,23,0,200,24,0,200,25,0,200,26,0,200,27,0,200,28,0,200,29,0,201,30,0,221,31,0,200,32,0,200,194,0,621,195,0,621,196,0,620,199,0,621*6A
$PAIRSAT,2,16,69,0,1,70,0,201,71,0,201,73,0,200,74,0,200,75,0,200,76,0,200,77,0,200,79,0,200,80,0,200,81,0,200,82,0,200,83,0,200,84,0,201,85,0,201,87,0,200*70
$PAIRSAT,3,22,2,0,200,4,0,1200,5,0,200,7,0,1221,8,0,1221,9,0,1200,10,0,1200,11,0,1200,12,0,1200,13,0,1221,15,0,1221,19,0,1200,21,0,1200,24,0,1200,25,0,1200,26,0,1221,27,0,1200,30,0,1200,31,0,1200,33,0,1200,34,0,1221,36,0,1200*76
$PAIRSAT,4,46,1,0,201,2,0,201,3,0,201,4,0,201,5,0,200,6,0,1,7,0,201,8,0,201,9,0,201,10,0,201,11,0,201,12,0,200,13,0,201,15,0,200,16,0,201,19,0,600,20,0,600,21,0,600,22,0,600,23,0,600,24,0,621,25,0,621,26,0,600,27,0,621,28,0,621,29,0,600,30,0,600,32,0,600,33,0,621,34,0,600,35,0,600,36,0,600,37,0,600,38,0,621,39,0,621,40,0,621,41,0,621,42,0,621,43,0,621,44,0,600,45,0,600,46,0,400,57,0,200,59,0,601,60,0,601,61,0,600*4D
$PAIRDGP,8,5,6,11,13,15,20,29,30*42
$GNGGA,113023.000,2500.8048159,N,12132.4797476,E,4,49,0.53,17.275,M,15.25,M,25,3335*7F
$GNRMC,113023.000,A,2500.8048159,N,12132.4797476,E,0.03,87.98,100523,,,R,V*26
$GNACCURACY,3.3*16
$GNGGA,113023.100,2500.8048183,N,12132.4797479,E,4,49,0.53,17.278,M,15.25,M,25,3335*7B
$GNRMC,113023.100,A,2500.8048183,N,12132.4797479,E,0.03,87.98,100523,,,R,V*2F
$GNACCURACY,3.3*16
$GNGGA,113023.200,2500.8048181,N,12132.4797323,E,4,49,0.53,17.281,M,15.25,M,25,3335*74
$GNRMC,113023.200,A,2500.8048181,N,12132.4797323,E,0.03,87.98,100523,,,R,V*26
$GNACCURACY,3.3*16
$GNGGA,113023.300,2500.8048168,N,12132.4797363,E,4,49,0.53,17.252,M,15.25,M,25,3335*78
$GNRMC,113023.300,A,2500.8048168,N,12132.4797363,E,0.03,87.98,100523,,,R,V*24
$GNACCURACY,3.3*16
$GNGGA,113023.400,2500.8048163,N,12132.4797424,E,4,49,0.53,17.286,M,15.25,M,25,3335*79
$GNRMC,113023.400,A,2500.8048163,N,12132.4797424,E,0.00,87.98,100523,,,R,V*2F
$GNACCURACY,3.3*16
$GNGGA,113023.500,2500.8048156,N,12132.4797365,E,4,49,0.53,17.270,M,15.25,M,25,3335*75
$GNRMC,113023.500,A,2500.8048156,N,12132.4797365,E,0.00,87.98,100523,,,R,V*2A
$GNACCURACY,3.3*16
$GNGGA,113023.600,2500.8048154,N,12132.4797350,E,4,49,0.53,17.265,M,15.25,M,25,3335*76
$GNRMC,113023.600,A,2500.8048154,N,12132.4797350,E,0.00,87.98,100523,,,R,V*2D
$GNACCURACY,3.3*16
$GNGGA,113023.700,2500.8048144,N,12132.4797418,E,4,49,0.53,17.265,M,15.25,M,25,3335*7D
$GNRMC,113023.700,A,2500.8048144,N,12132.4797418,E,0.00,87.98,100523,,,R,V*26
$GNACCURACY,3.3*16
$GNGGA,113023.800,2500.8048153,N,12132.4797338,E,4,49,0.53,17.254,M,15.25,M,25,3335*73
$GNRMC,113023.800,A,2500.8048153,N,12132.4797338,E,0.00,87.98,100523,,,R,V*2A
$GNACCURACY,3.3*16
$GNGGA,113023.900,2500.8048136,N,12132.4797369,E,4,50,0.52,17.260,M,15.25,M,25,3335*7B
$GNRMC,113023.900,A,2500.8048136,N,12132.4797369,E,0.00,87.98,100523,,,R,V*2C
$GNGSA,A,3,13,196,195,199,15,05,11,20,29,30,194,,0.97,0.52,0.82,1*05
$GNGSA,A,3,84,70,85,71,69,,,,,,,,0.97,0.52,0.82,2*0E
$GNGSA,A,3,13,08,07,15,26,,,,,,,,0.97,0.52,0.82,3*0D
$GNGSA,A,3,28,38,39,08,33,41,13,16,06,43,27,09,0.97,0.52,0.82,4*09
$GNGSA,A,3,07,,,,,,,,,,,,0.97,0.52,0.82,4*00
$GPGSV,4,1,15,13,84,034,42,196,72,049,43,195,63,152,45,50,60,167,39,1*6D
$GPGSV,4,2,15,199,60,167,37,15,58,250,31,05,50,011,42,11,48,115,31,1*54
$GPGSV,4,3,15,20,43,049,35,29,43,279,26,30,19,060,40,194,12,162,23,1*5F
$GPGSV,4,4,15,24,11,189,28,06,09,131,16,18,05,318,23,1*50
$GPGSV,2,1,07,196,72,049,42,195,63,152,43,199,60,167,46,11,48,115,43,8*5B
$GPGSV,2,2,07,30,19,060,39,24,11,189,28,18,05,318,18,8*5E
$GLGSV,2,1,05,84,65,154,31,70,53,310,20,85,48,331,41,71,24,253,24,1*75
$GLGSV,2,2,05,69,23,027,22,1*46
$GAGSV,2,1,06,13,69,349,41,08,68,019,41,07,52,236,18,15,49,123,43,7*7B
$GAGSV,2,2,06,26,17,322,17,34,01,135,,7*73
$GAGSV,1,1,04,13,69,349,42,08,68,019,42,07,52,236,27,15,49,123,44,1*77
$GBGSV,5,1,19,28,70,259,31,38,57,014,45,39,51,178,44,08,49,353,36,1*73
$GBGSV,5,2,19,33,49,017,42,41,48,289,36,13,44,335,39,16,43,181,41,1*7B
$GBGSV,5,3,19,06,37,186,40,43,32,164,45,27,30,315,31,09,23,193,34,1*72
$GBGSV,5,4,19,10,23,220,16,07,20,204,16,40,17,197,,25,14,146,18,1*79
$GBGSV,5,5,19,24,13,091,18,11,09,154,,42,08,054,,1*4D
$GBGSV,2,1,07,28,70,259,37,38,57,014,45,39,51,178,45,33,49,017,42,4*71
$GBGSV,2,2,07,41,48,289,35,43,32,164,43,27,30,315,31,4*49
$GNACCURACY,3.3*16
$PAIRSAT,1,35,1,0,200,2,0,200,3,0,200,4,0,200,5,0,201,6,0,221,7,0,200,8,0,200,9,0,200,10,0,200,11,0,221,12,0,200,13,0,201,14,0,200,15,0,201,16,0,200,17,0,200,18,0,221,19,0,200,20,0,201,21,0,200,23,0,200,24,0,200,25,0,200,26,0,200,27,0,200,28,0,200,29,0,201,30,0,221,31,0,200,32,0,200,194,0,621,195,0,621,196,0,620,199,0,621*6A
$PAIRSAT,2,16,69,0,1,70,0,201,71,0,201,73,0,200,74,0,200,75,0,200,76,0,200,77,0,200,79,0,200,80,0,200,81,0,200,82,0,200,83,0,200,84,0,201,85,0,201,87,0,200*70
$PAIRSAT,3,22,2,0,200,4,0,1200,5,0,200,7,0,1221,8,0,1221,9,0,1200,10,0,1200,11,0,1200,12,0,1200,13,0,1221,15,0,1221,19,0,1200,21,0,1200,24,0,1200,25,0,1200,26,0,1221,27,0,1200,30,0,1200,31,0,1200,33,0,1200,34,0,1221,36,0,1200*76
$PAIRSAT,4,46,1,0,201,2,0,201,3,0,201,4,0,201,5,0,200,6,0,1,7,0,201,8,0,201,9,0,201,10,0,201,11,0,201,12,0,200,13,0,201,15,0,200,16,0,201,19,0,600,20,0,600,21,0,600,22,0,600,23,0,600,24,0,621,25,0,621,26,0,600,27,0,621,28,0,621,29,0,600,30,0,600,32,0,600,33,0,621,34,0,600,35,0,600,36,0,600,37,0,600,38,0,621,39,0,621,40,0,621,41,0,621,42,0,621,43,0,621,44,0,600,45,0,600,46,0,400,57,0,200,59,0,601,60,0,601,61,0,600*4D
$PAIRDGP,8,5,6,11,13,15,20,29,30*42
$GNGGA,113024.000,2500.8048134,N,12132.4797494,E,4,50,0.52,17.290,M,15.25,M,26,3335*7E
$GNRMC,113024.000,A,2500.8048134,N,12132.4797494,E,0.00,87.98,100523,,,R,V*25
$GNACCURACY,3.3*16
$GNGGA,113024.100,2500.8048151,N,12132.4797427,E,4,50,0.52,17.267,M,15.25,M,26,3335*7C
$GNRMC,113024.100,A,2500.8048151,N,12132.4797427,E,0.00,87.98,100523,,,R,V*2F
$GNACCURACY,3.3*16
$GNGGA,113024.200,2500.8048153,N,12132.4797503,E,4,50,0.52,17.279,M,15.25,M,26,3335*75
$GNRMC,113024.200,A,2500.8048153,N,12132.4797503,E,0.00,87.98,100523,,,R,V*29
$GNACCURACY,3.3*16
$GNGGA,113024.300,2500.8048141,N,12132.4797422,E,4,50,0.52,17.273,M,15.25,M,26,3335*7F
$GNRMC,113024.300,A,2500.8048141,N,12132.4797422,E,0.00,87.98,100523,,,R,V*29
$GNACCURACY,3.3*16
$GNGGA,113024.400,2500.8048149,N,12132.4797357,E,4,50,0.52,17.254,M,15.25,M,26,3335*70
$GNRMC,113024.400,A,2500.8048149,N,12132.4797357,E,0.00,87.98,100523,,,R,V*23
$GNACCURACY,3.3*16
$GNGGA,113024.500,2500.8048130,N,12132.4797581,E,4,50,0.52,17.286,M,15.25,M,26,3335*7D
$GNRMC,113024.500,A,2500.8048130,N,12132.4797581,E,0.00,87.98,100523,,,R,V*21
$GNACCURACY,3.3*16
$GNGGA,113024.600,2500.8048138,N,12132.4797465,E,4,50,0.52,17.279,M,15.25,M,26,3335*7D
$GNRMC,113024.600,A,2500.8048138,N,12132.4797465,E,0.00,87.98,100523,,,R,V*21
$GNACCURACY,3.3*16
$GNGGA,113024.700,2500.8048154,N,12132.4797520,E,4,51,0.52,17.283,M,15.25,M,26,3335*72
$GNRMC,113024.700,A,2500.8048154,N,12132.4797520,E,0.00,87.98,100523,,,R,V*2A
$GNACCURACY,3.3*16
$GNGGA,113024.800,2500.8048166,N,12132.4797513,E,4,51,0.52,17.265,M,15.25,M,26,3335*74
$GNRMC,113024.800,A,2500.8048166,N,12132.4797513,E,0.00,87.98,100523,,,R,V*24
$GNACCURACY,3.3*16
$GNGGA,113024.900,2500.8048153,N,12132.4797651,E,4,51,0.52,17.284,M,15.25,M,26,3335*79
$GNRMC,113024.900,A,2500.8048153,N,12132.4797651,E,0.00,87.98,100523,,,R,V*26
$GNGSA,A,3,13,196,195,199,15,05,11,20,29,30,194,,0.97,0.52,0.82,1*05
$GNGSA,A,3,84,70,85,71,69,,,,,,,,0.97,0.52,0.82,2*0E
$GNGSA,A,3,13,08,07,15,26,,,,,,,,0.97,0.52,0.82,3*0D
$GNGSA,A,3,28,38,39,08,33,41,13,16,06,43,27,09,0.97,0.52,0.82,4*09
$GNGSA,A,3,07,,,,,,,,,,,,0.97,0.52,0.82,4*00
$GPGSV,4,1,15,13,84,034,42,196,72,049,43,195,63,152,45,50,60,167,38,1*6C
$GPGSV,4,2,15,199,60,167,36,15,58,250,22,05,50,011,42,11,48,115,30,1*56
$GPGSV,4,3,15,20,43,049,34,29,43,279,31,30,19,060,40,194,12,162,25,1*5E
$GPGSV,4,4,15,24,11,189,28,06,09,131,18,18,05,318,22,1*5F
$GPGSV,2,1,07,196,72,049,42,195,63,152,43,199,60,167,46,11,48,115,43,8*5B
$GPGSV,2,2,07,30,19,060,39,24,11,189,23,18,05,318,18,8*55
$GLGSV,2,1,05,84,65,154,31,70,53,310,21,85,48,331,41,71,24,253,27,1*77
$GLGSV,2,2,05,69,23,027,25,1*41
$GAGSV,2,1,06,13,69,349,42,08,68,019,41,07,52,236,24,15,49,123,43,7*77
$GAGSV,2,2,06,26,17,322,17,34,01,135,,7*73
$GAGSV,2,1,05,13,69,349,42,08,68,019,42,07,52,236,26,15,49,123,44,1*74
$GAGSV,2,2,05,26,17,322,20,1*43
$GBGSV,5,1,19,28,70,258,32,38,57,014,44,39,51,178,45,08,49,353,37,1*70
$GBGSV,5,2,19,33,49,017,41,41,48,289,34,13,44,335,38,16,43,181,40,1*7A
$GBGSV,5,3,19,06,37,186,40,43,32,164,45,27,30,315,27,09,23,193,34,1*75
$GBGSV,5,4,19,10,23,220,16,07,20,204,18,40,17,197,,25,14,146,18,1*77
$GBGSV,5,5,19,24,13,091,23,11,09,154,,42,08,054,,1*45
$GBGSV,2,1,07,28,70,258,37,38,57,014,45,39,51,178,45,33,49,017,43,4*71
$GBGSV,2,2,07,41,48,289,36,43,32,164,43,27,30,315,31,4*4A
$GNACCURACY,3.3*16
$PAIRSAT,1,35,1,0,200,2,0,200,3,0,200,4,0,200,5,0,201,6,0,221,7,0,200,8,0,200,9,0,200,10,0,200,11,0,221,12,0,200,13,0,201,14,0,200,15,0,201,16,0,200,17,0,200,18,0,221,19,0,200,20,0,201,21,0,200,23,0,200,24,0,200,25,0,200,26,0,200,27,0,200,28,0,200,29,0,201,30,0,221,31,0,200,32,0,200,194,0,621,195,0,621,196,0,620,199,0,621*6A
$PAIRSAT,2,16,69,0,1,70,0,201,71,0,201,73,0,200,74,0,200,75,0,200,76,0,200,77,0,200,79,0,200,80,0,200,81,0,200,82,0,200,83,0,200,84,0,201,85,0,201,87,0,200*70
$PAIRSAT,3,22,2,0,200,4,0,1200,5,0,200,7,0,1221,8,0,1221,9,0,1200,10,0,1200,11,0,1200,12,0,1200,13,0,1221,15,0,1221,19,0,1200,21,0,1200,24,0,1200,25,0,1200,26,0,1221,27,0,1200,30,0,1200,31,0,1200,33,0,1200,34,0,1221,36,0,1200*76
$PAIRSAT,4,46,1,0,201,2,0,201,3,0,201,4,0,201,5,0,200,6,0,1,7,0,201,8,0,201,9,0,201,10,0,201,11,0,201,12,0,200,13,0,201,15,0,200,16,0,201,19,0,600,20,0,600,21,0,600,22,0,600,23,0,600,24,0,621,25,0,621,26,0,600,27,0,621,28,0,621,29,0,600,30,0,600,32,0,600,33,0,621,34,0,600,35,0,600,36,0,600,37,0,600,38,0,621,39,0,621,40,0,621,41,0,621,42,0,621,43,0,621,44,0,600,45,0,600,46,0,400,57,0,200,59,0,601,60,0,601,61,0,600*4D
$PAIRDGP,8,5,6,11,13,15,20,29,30*42
$GNGGA,113025.000,2500.8048194,N,12132.4797663,E,4,51,0.52,17.248,M,15.25,M,27,3335*7A
$GNRMC,113025.000,A,2500.8048194,N,12132.4797663,E,0.00,87.98,100523,,,R,V*24
$GNACCURACY,3.3*16
$GNGGA,113025.100,2500.8048195,N,12132.4797585,E,4,52,0.50,17.238,M,15.25,M,27,3335*77
$GNRMC,113025.100,A,2500.8048195,N,12132.4797585,E,0.00,87.98,100523,,,R,V*2F
$GNACCURACY,3.3*16
$GNGGA,113025.200,2500.8048173,N,12132.4797708,E,4,52,0.50,17.266,M,15.25,M,27,3335*70
$GNRMC,113025.200,A,2500.8048173,N,12132.4797708,E,0.00,87.98,100523,,,R,V*23
$GNACCURACY,3.3*16
$GNGGA,113025.300,2500.8048184,N,12132.4797636,E,4,53,0.49,17.267,M,15.25,M,27,3335*7D
$GNRMC,113025.300,A,2500.8048184,N,12132.4797636,E,0.00,87.98,100523,,,R,V*26
$GNACCURACY,3.3*16
$GNGGA,113025.400,2500.8048160,N,12132.4797705,E,4,53,0.49,17.263,M,15.25,M,27,3335*75
$GNRMC,113025.400,A,2500.8048160,N,12132.4797705,E,0.00,87.98,100523,,,R,V*2A
$GNACCURACY,3.3*16
$GNGGA,113025.500,2500.8048133,N,12132.4797684,E,4,54,0.49,17.259,M,15.25,M,27,3335*74
$GNRMC,113025.500,A,2500.8048133,N,12132.4797684,E,0.00,87.98,100523,,,R,V*25
$GNACCURACY,3.3*16
$GNGGA,113025.600,2500.8048146,N,12132.4797585,E,4,55,0.48,17.243,M,15.25,M,27,3335*7C
$GNRMC,113025.600,A,2500.8048146,N,12132.4797585,E,0.00,87.98,100523,,,R,V*26
$GNACCURACY,3.3*16
$GNGGA,113025.700,2500.8048137,N,12132.4797735,E,4,56,0.48,17.264,M,15.25,M,27,3335*74
$GNRMC,113025.700,A,2500.8048137,N,12132.4797735,E,0.00,87.98,100523,,,R,V*28
$GNACCURACY,3.3*16
$GNGGA,113025.800,2500.8048126,N,12132.4797539,E,4,56,0.48,17.237,M,15.25,M,27,3335*73
$GNRMC,113025.800,A,2500.8048126,N,12132.4797539,E,0.00,87.98,100523,,,R,V*29
$GNACCURACY,3.3*16
$GNGGA,113025.900,2500.8048116,N,12132.4797554,E,4,56,0.48,17.237,M,15.25,M,27,3335*7A
$GNRMC,113025.900,A,2500.8048116,N,12132.4797554,E,0.00,87.98,100523,,,R,V*20
$GNGSA,A,3,13,196,195,199,15,05,11,20,29,30,194,,0.92,0.50,0.77,1*08
$GNGSA,A,3,84,70,85,71,69,,,,,,,,0.92,0.50,0.77,2*03
$GNGSA,A,3,13,08,07,15,26,,,,,,,,0.92,0.50,0.77,3*00
$GNGSA,A,3,28,38,39,08,33,41,13,16,06,43,27,09,0.92,0.50,0.77,4*04
$GNGSA,A,3,10,07,25,,,,,,,,,,0.92,0.50,0.77,4*0B
$GPGSV,4,1,15,13,84,034,42,196,72,049,42,195,63,152,45,50,60,167,38,1*6D
$GPGSV,4,2,15,199,60,167,35,15,58,250,20,05,50,011,43,11,48,115,31,1*57
$GPGSV,4,3,15,20,43,049,36,29,43,279,30,30,19,060,40,194,12,162,27,1*5F
$GPGSV,4,4,15,24,11,189,30,06,09,131,18,18,05,318,20,1*54
$GPGSV,2,1,08,196,72,049,43,195,63,152,43,199,60,167,46,11,48,115,43,8*55
$GPGSV,2,2,08,30,19,060,39,194,12,162,17,24,11,189,21,18,05,318,18,8*54
$GLGSV,2,1,05,84,65,154,31,70,53,310,19,85,48,331,42,71,24,253,18,1*73
$GLGSV,2,2,05,69,23,027,27,1*43
$GAGSV,2,1,06,13,69,349,42,08,68,019,41,07,52,236,28,15,49,123,43,7*7B
$GAGSV,2,2,06,26,17,322,17,34,01,135,,7*73
$GAGSV,2,1,05,13,69,349,41,08,68,019,44,07,52,236,28,15,49,123,44,1*7F
$GAGSV,2,2,05,26,17,322,22,1*41
$GBGSV,5,1,19,28,70,258,33,38,57,014,44,39,51,178,45,08,49,353,36,1*70
$GBGSV,5,2,19,33,49,017,39,41,48,290,31,13,44,335,37,16,43,181,41,1*76
$GBGSV,5,3,19,06,37,186,41,43,32,164,45,27,30,315,24,09,23,193,35,1*76
$GBGSV,5,4,19,10,23,220,22,07,20,204,23,40,17,197,,25,14,146,19,1*79
$GBGSV,5,5,19,24,13,091,,11,09,154,,42,08,054,,1*44
$GBGSV,2,1,07,28,70,258,36,38,57,014,45,39,51,178,45,33,49,017,43,4*70
$GBGSV,2,2,07,41,48,290,36,43,32,164,43,27,30,315,30,4*43
$GNACCURACY,3.3*16
$PAIRSAT,1,35,1,0,200,2,0,200,3,0,200,4,0,200,5,0,201,6,0,221,7,0,200,8,0,200,9,0,200,10,0,200,11,0,221,12,0,200,13,0,201,14,0,200,15,0,201,16,0,200,17,0,200,18,0,221,19,0,200,20,0,201,21,0,200,23,0,200,24,0,200,25,0,200,26,0,200,27,0,200,28,0,200,29,0,201,30,0,221,31,0,200,32,0,200,194,0,621,195,0,621,196,0,620,199,0,621*6A
$PAIRSAT,2,16,69,0,1,70,0,201,71,0,201,73,0,200,74,0,200,75,0,200,76,0,200,77,0,200,79,0,200,80,0,200,81,0,200,82,0,200,83,0,200,84,0,201,85,0,201,87,0,200*70
$PAIRSAT,3,22,2,0,200,4,0,1200,5,0,200,7,0,1221,8,0,1221,9,0,1200,10,0,1200,11,0,1200,12,0,1200,13,0,1221,15,0,1221,19,0,1200,21,0,1200,24,0,1200,25,0,1200,26,0,1221,27,0,1200,30,0,1200,31,0,1200,33,0,1200,34,0,1221,36,0,1200*76
$PAIRSAT,4,46,1,0,201,2,0,201,3,0,201,4,0,201,5,0,200,6,0,1,7,0,201,8,0,201,9,0,201,10,0,201,11,0,201,12,0,200,13,0,201,15,0,200,16,0,201,19,0,600,20,0,600,21,0,600,22,0,600,23,0,600,24,0,621,25,0,621,26,0,600,27,0,621,28,0,621,29,0,600,30,0,600,32,0,600,33,0,621,34,0,600,35,0,600,36,0,600,37,0,600,38,0,621,39,0,621,40,0,621,41,0,621,42,0,621,43,0,621,44,0,600,45,0,600,46,0,400,57,0,200,59,0,601,60,0,601,61,0,600*4D
$PAIRDGP,8,5,6,11,13,15,20,29,30*42
$GNGGA,113026.000,2500.8048118,N,12132.4797592,E,4,54,0.50,17.255,M,15.25,M,28,3335*74
$GNRMC,113026.000,A,2500.8048118,N,12132.4797592,E,0.00,87.98,100523,,,R,V*2E
$GNACCURACY,3.3*16
$GNGGA,113026.100,2500.8048108,N,12132.4797495,E,4,54,0.50,17.234,M,15.25,M,28,3335*75
$GNRMC,113026.100,A,2500.8048108,N,12132.4797495,E,0.00,87.98,100523,,,R,V*28
$GNACCURACY,3.3*16
$GNGGA,113026.200,2500.8048096,N,12132.4797538,E,4,54,0.50,17.265,M,15.25,M,28,3335*72
$GNRMC,113026.200,A,2500.8048096,N,12132.4797538,E,0.00,87.98,100523,,,R,V*2B
$GNACCURACY,3.3*16
$GNGGA,113026.300,2500.8048090,N,12132.4797434,E,4,52,0.52,17.252,M,15.25,M,28,3335*78
$GNRMC,113026.300,A,2500.8048090,N,12132.4797434,E,0.00,87.98,100523,,,R,V*21
$GNACCURACY,3.3*16
$GNGGA,113026.400,2500.8048088,N,12132.4797446,E,4,52,0.52,17.229,M,15.25,M,28,3335*7F
$GNRMC,113026.400,A,2500.8048088,N,12132.4797446,E,0.00,87.98,100523,,,R,V*2A
$GNACCURACY,3.3*16
$GNGGA,113026.500,2500.8048104,N,12132.4797530,E,4,52,0.52,17.249,M,15.25,M,28,3335*7D
$GNRMC,113026.500,A,2500.8048104,N,12132.4797530,E,0.00,87.98,100523,,,R,V*2E
$GNACCURACY,3.3*16
$GNGGA,113026.600,2500.8048117,N,12132.4797466,E,4,52,0.52,17.250,M,15.25,M,28,3335*76
$GNRMC,113026.600,A,2500.8048117,N,12132.4797466,E,0.00,87.98,100523,,,R,V*2D
$GNACCURACY,3.3*16
$GNGGA,113026.700,2500.8048100,N,12132.4797550,E,4,54,0.49,17.245,M,15.25,M,28,3335*7D
$GNRMC,113026.700,A,2500.8048100,N,12132.4797550,E,0.00,87.98,100523,,,R,V*2E
$GNACCURACY,3.3*16
$GNGGA,113026.800,2500.8048137,N,12132.4797399,E,4,52,0.52,17.226,M,15.25,M,28,3335*7C
$GNRMC,113026.800,A,2500.8048137,N,12132.4797399,E,0.00,87.98,100523,,,R,V*26
$GNACCURACY,3.3*16
$GNGGA,113026.900,2500.8048110,N,12132.4797593,E,4,52,0.52,17.240,M,15.25,M,28,3335*74
$GNRMC,113026.900,A,2500.8048110,N,12132.4797593,E,0.00,87.98,100523,,,R,V*2E
$GNGSA,A,3,13,196,195,199,15,05,11,29,20,30,194,,0.97,0.52,0.82,1*05
$GNGSA,A,3,84,70,85,71,69,,,,,,,,0.97,0.52,0.82,2*0E
$GNGSA,A,3,13,08,07,15,26,,,,,,,,0.97,0.52,0.82,3*0D
$GNGSA,A,3,28,38,39,08,33,41,13,16,06,43,27,09,0.97,0.52,0.82,4*09
$GNGSA,A,3,07,,,,,,,,,,,,0.97,0.52,0.82,4*00
$GPGSV,4,1,15,13,84,034,42,196,72,049,41,195,63,152,45,199,60,167,34,1*56
$GPGSV,4,2,15,50,60,167,37,15,58,250,23,05,50,011,43,11,48,115,32,1*61
$GPGSV,4,3,15,29,43,279,30,20,43,049,38,30,19,060,40,194,12,162,29,1*5F
$GPGSV,4,4,15,24,11,189,27,06,09,131,20,18,05,318,19,1*53
$GPGSV,2,1,08,196,72,049,42,195,63,152,43,199,60,167,46,11,48,115,43,8*54
$GPGSV,2,2,08,30,19,060,38,194,12,162,17,24,11,189,26,18,05,318,14,8*5E
$GLGSV,2,1,07,84,65,154,31,70,53,310,18,85,48,331,42,71,24,253,19,1*71
$GLGSV,2,2,07,69,23,027,27,79,04,077,,80,03,124,,1*47
$GAGSV,2,1,06,13,69,349,42,08,68,019,42,07,52,236,26,15,49,123,43,7*76
$GAGSV,2,2,06,26,17,322,17,34,01,135,,7*73
$GAGSV,2,1,05,13,69,349,41,08,68,019,44,07,52,236,28,15,49,123,44,1*7F
$GAGSV,2,2,05,26,17,322,23,1*40
$GBGSV,5,1,19,28,70,258,33,38,57,014,44,39,51,178,45,08,49,353,36,1*70
$GBGSV,5,2,19,33,49,017,40,41,48,290,29,13,44,335,36,16,43,181,41,1*70
$GBGSV,5,3,19,06,37,186,41,43,32,164,45,27,30,315,25,10,23,220,21,1*71
$GBGSV,5,4,19,09,23,193,35,07,20,204,23,40,17,197,,25,14,146,17,1*72
$GBGSV,5,5,19,24,13,091,26,11,09,154,,42,08,054,,1*40
$GBGSV,2,1,08,28,70,258,36,38,57,014,45,39,51,178,45,33,49,017,43,4*7F
$GBGSV,2,2,08,41,48,290,36,43,32,164,43,27,30,315,31,25,14,146,25,4*7B
$GNACCURACY,3.3*16
$PAIRSAT,1,35,1,0,200,2,0,200,3,0,200,4,0,200,5,0,201,6,0,221,7,0,200,8,0,200,9,0,200,10,0,200,11,0,221,12,0,200,13,0,201,14,0,200,15,0,201,16,0,200,17,0,200,18,0,221,19,0,200,20,0,201,21,0,200,23,0,200,24,0,200,25,0,200,26,0,200,27,0,200,28,0,200,29,0,201,30,0,221,31,0,200,32,0,200,194,0,621,195,0,621,196,0,620,199,0,621*6A
$PAIRSAT,2,16,69,0,1,70,0,201,71,0,201,73,0,200,74,0,200,75,0,200,76,0,200,77,0,200,79,0,200,80,0,200,81,0,200,82,0,200,83,0,200,84,0,201,85,0,201,87,0,200*70
$PAIRSAT,3,22,2,0,200,4,0,1200,5,0,200,7,0,1221,8,0,1221,9,0,1200,10,0,1200,11,0,1200,12,0,1200,13,0,1221,15,0,1221,19,0,1200,21,0,1200,24,0,1200,25,0,1200,26,0,1221,27,0,1200,30,0,1200,31,0,1200,33,0,1200,34,0,1221,36,0,1200*76
$PAIRSAT,4,46,1,0,201,2,0,201,3,0,201,4,0,201,5,0,200,6,0,1,7,0,201,8,0,201,9,0,201,10,0,201,11,0,201,12,0,200,13,0,201,15,0,200,16,0,201,19,0,600,20,0,600,21,0,600,22,0,600,23,0,600,24,0,621,25,0,621,26,0,600,27,0,621,28,0,621,29,0,600,30,0,600,32,0,600,33,0,621,34,0,600,35,0,600,36,0,600,37,0,600,38,0,621,39,0,621,40,0,621,41,0,621,42,0,621,43,0,621,44,0,600,45,0,600,46,0,600,57,0,200,59,0,601,60,0,601,61,0,600*4F
$PAIRDGP,8,5,6,11,13,15,20,29,30*42
$GNGGA,113027.000,2500.8048110,N,12132.4797715,E,4,52,0.52,17.268,M,15.25,M,29,3335*7B
$GNRMC,113027.000,A,2500.8048110,N,12132.4797715,E,0.00,87.98,100523,,,R,V*2A
$GNACCURACY,3.3*16
$GNGGA,113027.100,2500.8048140,N,12132.4797498,E,4,52,0.52,17.236,M,15.25,M,29,3335*72
$GNRMC,113027.100,A,2500.8048140,N,12132.4797498,E,0.00,87.98,100523,,,R,V*28
$GNACCURACY,3.3*16
$GNGGA,113027.200,2500.8048125,N,12132.4797540,E,4,53,0.51,17.242,M,15.25,M,29,3335*77
$GNRMC,113027.200,A,2500.8048125,N,12132.4797540,E,0.00,87.98,100523,,,R,V*2C
$GNACCURACY,3.3*16
$GNGGA,113027.300,2500.8048122,N,12132.4797604,E,4,52,0.52,17.243,M,15.25,M,29,3335*71
$GNRMC,113027.300,A,2500.8048122,N,12132.4797604,E,0.00,87.98,100523,,,R,V*29
$GNACCURACY,3.3*16
$GNGGA,113027.400,2500.8048113,N,12132.4797469,E,4,52,0.52,17.217,M,15.25,M,29,3335*7C
$GNRMC,113027.400,A,2500.8048113,N,12132.4797469,E,0.00,87.98,100523,,,R,V*25
$GNACCURACY,3.3*16
$GNGGA,113027.500,2500.8048102,N,12132.4797528,E,4,52,0.52,17.229,M,15.25,M,29,3335*74
$GNRMC,113027.500,A,2500.8048102,N,12132.4797528,E,0.00,87.98,100523,,,R,V*20
$GNACCURACY,3.3*16
$GNGGA,113027.600,2500.8048107,N,12132.4797541,E,4,52,0.52,17.227,M,15.25,M,29,3335*73
$GNRMC,113027.600,A,2500.8048107,N,12132.4797541,E,0.00,87.98,100523,,,R,V*29
$GNACCURACY,3.3*16
$GNGGA,113027.700,2500.8048085,N,12132.4797495,E,4,52,0.52,17.217,M,15.25,M,29,3335*72
$GNRMC,113027.700,A,2500.8048085,N,12132.4797495,E,0.00,87.98,100523,,,R,V*2B
$GNACCURACY,3.3*16
$GNGGA,113027.800,2500.8048078,N,12132.4797588,E,4,52,0.52,17.231,M,15.25,M,29,3335*76
$GNRMC,113027.800,A,2500.8048078,N,12132.4797588,E,0.01,87.98,100523,,,R,V*2A
$GNACCURACY,3.3*16
$GNGGA,113027.900,2500.8048086,N,12132.4797484,E,4,52,0.52,17.224,M,15.25,M,29,3335*7F
$GNRMC,113027.900,A,2500.8048086,N,12132.4797484,E,0.01,87.98,100523,,,R,V*27
$GNGSA,A,3,13,196,195,199,15,05,11,20,29,30,194,,0.97,0.52,0.82,1*05
$GNGSA,A,3,84,70,85,71,69,,,,,,,,0.97,0.52,0.82,2*0E
$GNGSA,A,3,13,08,07,15,26,,,,,,,,0.97,0.52,0.82,3*0D
$GNGSA,A,3,28,38,39,08,33,41,13,16,06,43,27,09,0.97,0.52,0.82,4*09
$GNGSA,A,3,07,,,,,,,,,,,,0.97,0.52,0.82,4*00
$GPGSV,4,1,15,13,84,034,43,196,72,049,41,195,63,152,45,50,60,167,37,1*60
$GPGSV,4,2,15,199,60,167,34,15,58,250,23,05,50,011,43,11,48,115,35,1*51
$GPGSV,4,3,15,20,43,049,36,29,43,279,29,30,19,060,39,194,12,162,29,1*57
$GPGSV,4,4,15,24,11,189,26,06,09,131,17,18,05,318,19,1*56
$GPGSV,3,1,09,196,72,049,42,195,63,152,43,199,60,167,46,11,48,115,44,8*53
$GPGSV,3,2,09,30,19,060,38,194,12,162,18,24,11,189,26,06,09,131,18,8*57
$GPGSV,3,3,09,18,05,318,16,8*55
$GLGSV,2,1,05,84,65,154,30,70,53,310,19,85,48,331,40,71,24,253,24,1*7F
$GLGSV,2,2,05,69,23,027,25,1*41
$GAGSV,2,1,06,13,69,349,42,08,68,019,42,07,52,236,24,15,49,123,43,7*74
$GAGSV,2,2,06,26,17,322,19,34,01,135,,7*7D
$GAGSV,2,1,05,13,69,349,41,08,68,019,43,07,52,236,28,15,49,123,44,1*78
$GAGSV,2,2,05,26,17,322,22,1*41
$GBGSV,5,1,19,28,70,258,28,38,57,014,44,39,51,178,45,08,49,353,37,1*7B
$GBGSV,5,2,19,33,49,017,41,41,48,290,28,13,44,335,35,16,43,181,40,1*72
$GBGSV,5,3,19,06,37,186,41,43,32,164,45,27,30,315,27,09,23,193,36,1*76
$GBGSV,5,4,19,10,23,220,21,07,20,204,25,40,17,197,,25,14,146,17,1*72
$GBGSV,5,5,19,24,13,091,20,11,09,154,,42,08,054,,1*46
$GBGSV,2,1,07,28,70,258,35,38,57,014,45,39,51,178,45,33,49,017,43,4*73
$GBGSV,2,2,07,41,48,290,36,43,32,164,43,27,30,315,31,4*42
$GNACCURACY,3.3*16
$PAIRSAT,1,35,1,0,200,2,0,200,3,0,200,4,0,200,5,0,201,6,0,221,7,0,200,8,0,200,9,0,200,10,0,200,11,0,221,12,0,200,13,0,201,14,0,200,15,0,201,16,0,200,17,0,200,18,0,221,19,0,200,20,0,201,21,0,200,23,0,200,24,0,200,25,0,200,26,0,200,27,0,200,28,0,200,29,0,201,30,0,221,31,0,200,32,0,200,194,0,621,195,0,621,196,0,620,199,0,621*6A
$PAIRSAT,2,16,69,0,1,70,0,201,71,0,201,73,0,200,74,0,200,75,0,200,76,0,200,77,0,200,79,0,200,80,0,200,81,0,200,82,0,200,83,0,200,84,0,201,85,0,201,87,0,200*70
$PAIRSAT,3,22,2,0,200,4,0,1200,5,0,200,7,0,1221,8,0,1221,9,0,1200,10,0,1200,11,0,1200,12,0,1200,13,0,1221,15,0,1221,19,0,1200,21,0,1200,24,0,1200,25,0,1200,26,0,1221,27,0,1200,30,0,1200,31,0,1200,33,0,1200,34,0,1221,36,0,1200*76
$PAIRSAT,4,46,1,0,201,2,0,201,3,0,201,4,0,201,5,0,200,6,0,1,7,0,201,8,0,201,9,0,201,10,0,201,11,0,201,12,0,200,13,0,201,15,0,200,16,0,201,19,0,600,20,0,600,21,0,600,22,0,600,23,0,600,24,0,621,25,0,621,26,0,600,27,0,621,28,0,621,29,0,600,30,0,600,32,0,600,33,0,621,34,0,600,35,0,600,36,0,600,37,0,600,38,0,621,39,0,621,40,0,621,41,0,621,42,0,621,43,0,621,44,0,600,45,0,600,46,0,600,57,0,200,59,0,601,60,0,601,61,0,600*4F
$PAIRDGP,8,5,6,11,13,15,20,29,30*42
$GNGGA,113028.000,2500.8048070,N,12132.4797518,E,4,52,0.52,17.215,M,15.25,M,30,3335*7E
$GNRMC,113028.000,A,2500.8048070,N,12132.4797518,E,0.01,87.98,100523,,,R,V*2C
$GNACCURACY,3.3*16
$GNGGA,113028.100,2500.8048079,N,12132.4797584,E,4,52,0.52,17.217,M,15.25,M,30,3335*71
$GNRMC,113028.100,A,2500.8048079,N,12132.4797584,E,0.01,87.98,100523,,,R,V*21
$GNACCURACY,3.3*16
$GNGGA,113028.200,2500.8048094,N,12132.4797514,E,4,52,0.52,17.220,M,15.25,M,30,3335*7C
$GNRMC,113028.200,A,2500.8048094,N,12132.4797514,E,0.01,87.98,100523,,,R,V*28
$GNACCURACY,3.3*16
$GNGGA,113028.300,2500.8048097,N,12132.4797581,E,4,52,0.52,17.225,M,15.25,M,30,3335*77
$GNRMC,113028.300,A,2500.8048097,N,12132.4797581,E,0.01,87.98,100523,,,R,V*26
$GNACCURACY,3.3*16
$GNGGA,113028.400,2500.8048086,N,12132.4797487,E,4,51,0.52,17.204,M,15.25,M,30,3335*77
$GNRMC,113028.400,A,2500.8048086,N,12132.4797487,E,0.01,87.98,100523,,,R,V*26
$GNACCURACY,3.3*16
$GNGGA,113028.500,2500.8048105,N,12132.4797610,E,4,51,0.52,17.216,M,15.25,M,30,3335*73
$GNRMC,113028.500,A,2500.8048105,N,12132.4797610,E,0.01,87.98,100523,,,R,V*21
$GNACCURACY,3.3*16
$GNGGA,113028.600,2500.8048117,N,12132.4797495,E,4,53,0.51,17.216,M,15.25,M,30,3335*7D
$GNRMC,113028.600,A,2500.8048117,N,12132.4797495,E,0.01,87.98,100523,,,R,V*2E
$GNACCURACY,3.3*16
$GNGGA,113028.700,2500.8048120,N,12132.4797514,E,4,52,0.52,17.217,M,15.25,M,30,3335*73
$GNRMC,113028.700,A,2500.8048120,N,12132.4797514,E,0.01,87.98,100523,,,R,V*23
$GNACCURACY,3.3*16
$GNGGA,113028.800,2500.8048114,N,12132.4797441,E,4,52,0.52,17.208,M,15.25,M,30,3335*74
$GNRMC,113028.800,A,2500.8048114,N,12132.4797441,E,0.01,87.98,100523,,,R,V*2A
$GNACCURACY,3.3*16
$GNGGA,113028.900,2500.8048122,N,12132.4797409,E,4,54,0.49,17.191,M,15.25,M,30,3335*73
$GNRMC,113028.900,A,2500.8048122,N,12132.4797409,E,0.01,87.98,100523,,,R,V*22
$GNGSA,A,3,13,196,195,199,15,05,11,20,29,30,194,,0.97,0.52,0.82,1*05
$GNGSA,A,3,84,70,85,71,69,,,,,,,,0.97,0.52,0.82,2*0E
$GNGSA,A,3,13,08,07,15,26,,,,,,,,0.97,0.52,0.82,3*0D
$GNGSA,A,3,28,38,39,08,33,41,13,16,06,43,09,07,0.97,0.52,0.82,4*0B
$GNGSA,A,3,27,,,,,,,,,,,,0.97,0.52,0.82,4*02
$GPGSV,4,1,15,13,84,034,43,196,72,049,41,195,63,152,45,50,60,167,37,1*60
$GPGSV,4,2,15,199,60,167,34,15,58,250,24,05,50,011,44,11,48,115,30,1*54
$GPGSV,4,3,15,20,43,049,37,29,43,279,29,30,19,060,39,194,12,162,28,1*57
$GPGSV,4,4,15,24,11,189,26,06,09,131,16,18,05,318,19,1*57
$GPGSV,3,1,09,196,72,049,42,195,63,152,43,199,60,167,46,11,48,115,44,8*53
$GPGSV,3,2,09,30,19,060,38,194,12,162,18,24,11,189,24,06,09,131,17,8*5A
$GPGSV,3,3,09,18,05,318,16,8*55
$GLGSV,2,1,05,84,65,154,29,70,53,310,19,85,48,331,40,71,24,253,22,1*71
$GLGSV,2,2,05,69,23,027,24,1*40
$GAGSV,2,1,06,13,69,349,41,08,68,019,42,07,52,236,25,15,49,123,42,7*77
$GAGSV,2,2,06,26,17,322,19,34,01,135,,7*7D
$GAGSV,2,1,05,13,69,349,41,08,68,019,43,07,52,236,29,15,49,123,44,1*79
$GAGSV,2,2,05,26,17,322,18,1*48
$GBGSV,5,1,19,28,70,258,32,38,57,014,44,39,51,178,46,08,49,353,37,1*73
$GBGSV,5,2,19,33,49,017,39,41,48,290,27,13,44,335,36,16,43,181,40,1*71
$GBGSV,5,3,19,06,37,186,41,43,32,164,46,27,30,315,21,09,23,193,36,1*73
$GBGSV,5,4,19,10,23,220,17,07,20,204,24,40,17,197,,25,14,146,,1*70
$GBGSV,5,5,19,24,13,091,20,11,09,154,,42,08,054,,1*46
$GBGSV,2,1,07,28,70,258,36,38,57,014,45,39,51,178,45,33,49,017,43,4*70
$GBGSV,2,2,07,41,48,290,36,43,32,164,43,27,30,315,32,4*41
$GNACCURACY,3.3*16
$PAIRSAT,1,35,1,0,200,2,0,200,3,0,200,4,0,200,5,0,201,6,0,221,7,0,200,8,0,200,9,0,200,10,0,200,11,0,221,12,0,200,13,0,201,14,0,200,15,0,201,16,0,200,17,0,200,18,0,221,19,0,200,20,0,201,21,0,200,23,0,200,24,0,200,25,0,200,26,0,200,27,0,200,28,0,200,29,0,201,30,0,221,31,0,200,32,0,200,194,0,621,195,0,621,196,0,620,199,0,621*6A
$PAIRSAT,2,16,69,0,1,70,0,201,71,0,201,73,0,200,74,0,200,75,0,200,76,0,200,77,0,200,79,0,200,80,0,200,81,0,200,82,0,200,83,0,200,84,0,201,85,0,201,87,0,200*70
$PAIRSAT,3,22,2,0,200,4,0,1200,5,0,200,7,0,1221,8,0,1221,9,0,1200,10,0,1200,11,0,1200,12,0,1200,13,0,1221,15,0,1221,19,0,1200,21,0,1200,24,0,1200,25,0,1200,26,0,1221,27,0,1200,30,0,1200,31,0,1200,33,0,1200,34,0,1221,36,0,1200*76
$PAIRSAT,4,46,1,0,201,2,0,201,3,0,201,4,0,201,5,0,200,6,0,1,7,0,201,8,0,201,9,0,201,10,0,201,11,0,201,12,0,200,13,0,201,15,0,200,16,0,201,19,0,600,20,0,600,21,0,600,22,0,600,23,0,600,24,0,621,25,0,621,26,0,600,27,0,621,28,0,621,29,0,600,30,0,600,32,0,600,33,0,621,34,0,600,35,0,600,36,0,600,37,0,600,38,0,621,39,0,621,40,0,621,41,0,621,42,0,621,43,0,621,44,0,600,45,0,600,46,0,600,57,0,200,59,0,601,60,0,601,61,0,600*4F
$PAIRDGP,8,5,6,11,13,15,20,29,30*42
$GNGGA,113029.000,2500.8048139,N,12132.4797519,E,4,51,0.52,17.224,M,15.25,M,31,3335*72
$GNRMC,113029.000,A,2500.8048139,N,12132.4797519,E,0.01,87.98,100523,,,R,V*20
$GNACCURACY,3.3*16
$GNGGA,113029.100,2500.8048139,N,12132.4797513,E,4,51,0.52,17.218,M,15.25,M,31,3335*76
$GNRMC,113029.100,A,2500.8048139,N,12132.4797513,E,0.01,87.98,100523,,,R,V*2B
$GNACCURACY,3.3*16
$GNGGA,113029.200,2500.8048145,N,12132.4797515,E,4,52,0.50,17.216,M,15.25,M,31,3335*77
$GNRMC,113029.200,A,2500.8048145,N,12132.4797515,E,0.01,87.98,100523,,,R,V*25
$GNACCURACY,3.3*16
$GNGGA,113029.300,2500.8048141,N,12132.4797382,E,4,52,0.50,17.213,M,15.25,M,31,3335*7F
$GNRMC,113029.300,A,2500.8048141,N,12132.4797382,E,0.01,87.98,100523,,,R,V*28
$GNACCURACY,3.3*16
$GNGGA,113029.400,2500.8048169,N,12132.4797350,E,4,52,0.52,17.216,M,15.25,M,31,3335*7A
$GNRMC,113029.400,A,2500.8048169,N,12132.4797350,E,0.01,87.98,100523,,,R,V*2A
$GNACCURACY,3.3*16
$GNGGA,113029.500,2500.8048130,N,12132.4797445,E,4,52,0.52,17.203,M,15.25,M,31,3335*70
$GNRMC,113029.500,A,2500.8048130,N,12132.4797445,E,0.01,87.98,100523,,,R,V*24
$GNACCURACY,3.3*16
$GNGGA,113029.600,2500.8048144,N,12132.4797315,E,4,52,0.52,17.188,M,15.25,M,31,3335*72
$GNRMC,113029.600,A,2500.8048144,N,12132.4797315,E,0.01,87.98,100523,,,R,V*26
$GNACCURACY,3.3*16
$GNGGA,113029.700,2500.8048131,N,12132.4797358,E,4,52,0.52,17.192,M,15.25,M,31,3335*73
$GNRMC,113029.700,A,2500.8048131,N,12132.4797358,E,0.01,87.98,100523,,,R,V*2C
$GNACCURACY,3.3*16
$GNGGA,113029.800,2500.8048124,N,12132.4797502,E,4,52,0.52,17.217,M,15.25,M,31,3335*7F
$GNRMC,113029.800,A,2500.8048124,N,12132.4797502,E,0.01,87.98,100523,,,R,V*2E
$GNACCURACY,3.3*16
$GNGGA,113029.900,2500.8048149,N,12132.4797549,E,4,52,0.52,17.197,M,15.25,M,31,3335*71
$GNRMC,113029.900,A,2500.8048149,N,12132.4797549,E,0.01,87.98,100523,,,R,V*2B
$GNGSA,A,3,13,196,195,199,15,05,11,29,20,30,194,,0.97,0.52,0.82,1*05
$GNGSA,A,3,84,70,85,71,69,,,,,,,,0.97,0.52,0.82,2*0E
$GNGSA,A,3,13,08,07,15,26,,,,,,,,0.97,0.52,0.82,3*0D
$GNGSA,A,3,28,38,39,33,08,41,13,16,06,43,27,09,0.97,0.52,0.82,4*09
$GNGSA,A,3,07,,,,,,,,,,,,0.97,0.52,0.82,4*00
$GPGSV,4,1,15,13,84,033,43,196,72,049,40,195,63,152,45,199,60,167,34,1*51
$GPGSV,4,2,15,50,60,167,36,15,58,250,23,05,50,011,44,11,48,115,33,1*66
$GPGSV,4,3,15,29,43,279,33,20,43,049,35,30,19,060,39,194,12,162,26,1*50
$GPGSV,4,4,15,24,11,189,26,06,09,131,12,18,05,318,18,1*52
$GPGSV,3,1,09,196,72,049,42,195,63,152,43,199,60,167,46,11,48,115,44,8*53
$GPGSV,3,2,09,30,19,060,38,194,12,162,23,24,11,189,22,06,09,131,18,8*5B
$GPGSV,3,3,09,18,05,318,16,8*55
$GLGSV,2,1,06,84,65,154,30,70,53,310,23,85,48,331,40,71,24,253,23,1*72
$GLGSV,2,2,06,69,23,027,21,83,04,154,,1*79
$GAGSV,2,1,06,13,69,349,40,08,68,019,41,07,52,236,23,15,49,123,42,7*73
$GAGSV,2,2,06,26,17,322,20,34,01,135,,7*77
$GAGSV,2,1,05,13,69,349,40,08,68,019,43,07,52,236,26,15,49,123,44,1*77
$GAGSV,2,2,05,26,17,322,18,1*48
$GBGSV,5,1,20,28,70,258,27,38,57,014,44,39,51,178,46,33,49,017,38,1*79
$GBGSV,5,2,20,08,49,353,36,41,48,290,28,13,44,335,37,16,43,181,40,1*71
$GBGSV,5,3,20,06,37,186,41,43,32,164,46,27,30,315,25,10,23,220,17,1*7D
$GBGSV,5,4,20,09,23,193,36,07,20,204,27,40,17,197,,25,14,146,20,1*7B
$GBGSV,5,5,20,24,13,091,19,11,09,154,,42,08,054,,57,02,036,,1*73
$GBGSV,2,1,08,28,70,258,36,38,57,014,45,39,51,178,45,33,49,017,43,4*7F
$GBGSV,2,2,08,41,48,290,36,43,32,164,43,27,30,315,31,25,14,146,24,4*7A
$GNACCURACY,3.3*16
$PAIRSAT,1,35,1,0,200,2,0,200,3,0,200,4,0,200,5,0,201,6,0,221,7,0,200,8,0,200,9,0,200,10,0,200,11,0,221,12,0,200,13,0,201,14,0,200,15,0,201,16,0,200,17,0,200,18,0,221,19,0,200,20,0,201,21,0,200,23,0,200,24,0,200,25,0,200,26,0,200,27,0,200,28,0,200,29,0,201,30,0,221,31,0,200,32,0,200,194,0,621,195,0,621,196,0,620,199,0,621*6A
$PAIRSAT,2,16,69,0,1,70,0,201,71,0,201,73,0,200,74,0,200,75,0,200,76,0,200,77,0,200,79,0,200,80,0,200,81,0,200,82,0,200,83,0,200,84,0,201,85,0,201,87,0,200*70
$PAIRSAT,3,22,2,0,200,4,0,1200,5,0,200,7,0,1221,8,0,1221,9,0,1200,10,0,1200,11,0,1200,12,0,1200,13,0,1221,15,0,1221,19,0,1200,21,0,1200,24,0,1200,25,0,1200,26,0,1221,27,0,1200,30,0,1200,31,0,1200,33,0,1200,34,0,1221,36,0,1200*76
$PAIRSAT,4,46,1,0,201,2,0,201,3,0,201,4,0,201,5,0,200,6,0,1,7,0,201,8,0,201,9,0,201,10,0,201,11,0,201,12,0,200,13,0,201,15,0,200,16,0,201,19,0,600,20,0,600,21,0,600,22,0,600,23,0,600,24,0,621,25,0,621,26,0,600,27,0,621,28,0,621,29,0,600,30,0,600,32,0,600,33,0,621,34,0,600,35,0,600,36,0,600,37,0,600,38,0,621,39,0,621,40,0,621,41,0,621,42,0,621,43,0,621,44,0,600,45,0,600,46,0,600,57,0,200,59,0,601,60,0,601,61,0,600*4F
$PAIRDGP,8,5,6,11,13,15,20,29,30*42
$GNGGA,113030.000,2500.8048116,N,12132.4797513,E,4,52,0.52,17.193,M,15.25,M,32,3335*72
$GNRMC,113030.000,A,2500.8048116,N,12132.4797513,E,0.02,87.98,100523,,,R,V*2C
$PAIR010,0,1,2261,300648*34
$GNACCURACY,3.3*16
$GNGGA,113030.100,2500.8048117,N,12132.4797585,E,4,52,0.52,17.228,M,15.25,M,32,3335*7E
$GNRMC,113030.100,A,2500.8048117,N,12132.4797585,E,0.02,87.98,100523,,,R,V*23
$GNACCURACY,3.3*16
$GNGGA,113030.200,2500.8048105,N,12132.4797575,E,4,52,0.52,17.197,M,15.25,M,32,3335*76
$GNRMC,113030.200,A,2500.8048105,N,12132.4797575,E,0.02,87.98,100523,,,R,V*2C
$GNACCURACY,3.3*16
$GNGGA,113030.300,2500.8048100,N,12132.4797686,E,4,52,0.52,17.213,M,15.25,M,32,3335*72
$GNRMC,113030.300,A,2500.8048100,N,12132.4797686,E,0.02,87.98,100523,,,R,V*27
$GNACCURACY,3.3*16
$GNGGA,113030.400,2500.8048104,N,12132.4797670,E,4,52,0.52,17.204,M,15.25,M,32,3335*7E
$GNRMC,113030.400,A,2500.8048104,N,12132.4797670,E,0.02,87.98,100523,,,R,V*2D
$GNACCURACY,3.3*16
$GNGGA,113030.500,2500.8048116,N,12132.4797605,E,4,54,0.49,17.196,M,15.25,M,32,3335*7A
$GNRMC,113030.500,A,2500.8048116,N,12132.4797605,E,0.02,87.98,100523,,,R,V*2D
$GNACCURACY,3.3*16
$GNGGA,113030.600,2500.8048114,N,12132.4797706,E,4,52,0.52,17.206,M,15.25,M,32,3335*7F
$GNRMC,113030.600,A,2500.8048114,N,12132.4797706,E,0.02,87.98,100523,,,R,V*2E
$GNACCURACY,3.3*16
$GNGGA,113030.700,2500.8048127,N,12132.4797668,E,4,52,0.52,17.214,M,15.25,M,32,3335*74
$GNRMC,113030.700,A,2500.8048127,N,12132.4797668,E,0.02,87.98,100523,,,R,V*26
$GNACCURACY,3.3*16
$GNGGA,113030.800,2500.8048132,N,12132.4797722,E,4,52,0.52,17.209,M,15.25,M,32,3335*7C
$GNRMC,113030.800,A,2500.8048132,N,12132.4797722,E,0.02,87.98,100523,,,R,V*22
$GNACCURACY,3.3*16
$GNGGA,113030.900,2500.8048106,N,12132.4797597,E,4,52,0.52,17.197,M,15.25,M,32,3335*72
$GNRMC,113030.900,A,2500.8048106,N,12132.4797597,E,0.02,87.98,100523,,,R,V*28
$GNGSA,A,3,13,196,195,199,15,05,11,20,29,30,194,,0.97,0.52,0.82,1*05
$GNGSA,A,3,84,70,85,71,69,,,,,,,,0.97,0.52,0.82,2*0E
$GNGSA,A,3,13,08,07,15,26,,,,,,,,0.97,0.52,0.82,3*0D
$GNGSA,A,3,28,38,39,08,33,41,13,16,06,43,27,09,0.97,0.52,0.82,4*09
$GNGSA,A,3,07,,,,,,,,,,,,0.97,0.52,0.82,4*00
$GPGSV,4,1,15,13,84,033,43,196,72,049,40,195,63,152,45,50,60,167,37,1*66
$GPGSV,4,2,15,199,60,167,34,15,58,250,18,05,50,011,44,11,48,115,36,1*5D
$GPGSV,4,3,15,20,43,049,35,29,43,279,30,30,19,060,39,194,12,162,20,1*55
$GPGSV,4,4,15,24,11,189,25,06,09,131,14,18,05,318,17,1*58
$GPGSV,3,1,09,196,72,049,42,195,63,152,43,199,60,167,47,11,48,115,44,8*52
$GPGSV,3,2,09,30,19,060,37,194,12,162,20,24,11,189,20,06,09,131,16,8*5B
$GPGSV,3,3,09,18,05,318,19,8*5A
$GLGSV,2,1,05,84,65,154,30,70,53,310,22,85,48,331,40,71,24,253,22,1*71
$GLGSV,2,2,05,69,23,027,18,1*4F
$GAGSV,2,1,06,13,69,349,40,08,68,019,40,07,52,236,21,15,49,123,42,7*70
$GAGSV,2,2,06,26,17,322,19,34,01,135,,7*7D
$GAGSV,2,1,05,13,69,349,40,08,68,019,43,07,52,236,25,15,49,123,45,1*75
$GAGSV,2,2,05,26,17,322,19,1*49
$GBGSV,5,1,19,28,70,258,29,38,57,014,43,39,51,178,46,08,49,353,36,1*7F
$GBGSV,5,2,19,33,49,017,38,41,48,290,31,13,44,335,37,16,43,181,40,1*76
$GBGSV,5,3,19,06,37,186,41,43,32,164,46,27,30,315,28,09,23,193,36,1*7A
$GBGSV,5,4,19,10,23,220,17,07,20,204,29,40,17,197,,25,14,146,17,1*7B
$GBGSV,5,5,19,24,13,091,23,11,09,154,,42,08,054,,1*45
$GBGSV,2,1,08,28,70,258,37,38,57,014,46,39,51,178,45,33,49,017,43,4*7D
$GBGSV,2,2,08,41,48,290,37,43,32,164,43,27,30,315,29,25,14,146,25,4*73
$GNACCURACY,3.3*16
$PAIRSAT,1,35,1,0,200,2,0,200,3,0,200,4,0,200,5,0,201,6,0,221,7,0,200,8,0,200,9,0,200,10,0,200,11,0,221,12,0,200,13,0,201,14,0,200,15,0,201,16,0,200,17,0,200,18,0,221,19,0,200,20,0,201,21,0,200,23,0,200,24,0,200,25,0,200,26,0,200,27,0,200,28,0,200,29,0,201,30,0,221,31,0,200,32,0,200,194,0,621,195,0,621,196,0,620,199,0,621*6A
$PAIRSAT,2,16,69,0,1,70,0,201,71,0,201,73,0,200,74,0,200,75,0,200,76,0,200,77,0,200,79,0,200,80,0,200,81,0,200,82,0,200,83,0,200,84,0,201,85,0,201,87,0,200*70
$PAIRSAT,3,22,2,0,200,4,0,1200,5,0,200,7,0,1221,8,0,1221,9,0,1200,10,0,1200,11,0,1200,12,0,1200,13,0,1221,15,0,1221,19,0,1200,21,0,1200,24,0,1200,25,0,1200,26,0,1221,27,0,1200,30,0,1200,31,0,1200,33,0,1200,34,0,1221,36,0,1200*76
$PAIRSAT,4,46,1,0,201,2,0,201,3,0,201,4,0,201,5,0,200,6,0,1,7,0,201,8,0,201,9,0,201,10,0,201,11,0,201,12,0,200,13,0,201,15,0,200,16,0,201,19,0,600,20,0,600,21,0,600,22,0,600,23,0,600,24,0,621,25,0,621,26,0,600,27,0,621,28,0,621,29,0,600,30,0,600,32,0,600,33,0,621,34,0,600,35,0,600,36,0,600,37,0,600,38,0,621,39,0,621,40,0,621,41,0,621,42,0,621,43,0,621,44,0,600,45,0,600,46,0,600,57,0,200,59,0,601,60,0,601,61,0,600*4F
$PAIRDGP,8,5,6,11,13,15,20,29,30*42
$GNGGA,113031.000,2500.8048130,N,12132.4797712,E,4,52,0.52,17.211,M,15.25,M,33,3335*7C
$GNRMC,113031.000,A,2500.8048130,N,12132.4797712,E,0.02,87.98,100523,,,R,V*2A
$GNACCURACY,3.3*16
$GNGGA,113031.100,2500.8048110,N,12132.4797687,E,4,54,0.49,17.193,M,15.25,M,33,3335*77
$GNRMC,113031.100,A,2500.8048110,N,12132.4797687,E,0.02,87.98,100523,,,R,V*24
$GNACCURACY,3.3*16
$GNGGA,113031.200,2500.8048118,N,12132.4797688,E,4,54,0.49,17.199,M,15.25,M,33,3335*79
$GNRMC,113031.200,A,2500.8048118,N,12132.4797688,E,0.02,87.98,100523,,,R,V*20
$GNACCURACY,3.3*16
$GNGGA,113031.300,2500.8048088,N,12132.4797681,E,4,52,0.52,17.206,M,15.25,M,33,3335*70
$GNRMC,113031.300,A,2500.8048088,N,12132.4797681,E,0.02,87.98,100523,,,R,V*20
$GNACCURACY,3.3*16
$GNGGA,113031.400,2500.8048106,N,12132.4797697,E,4,52,0.52,17.215,M,15.25,M,33,3335*75
$GNRMC,113031.400,A,2500.8048106,N,12132.4797697,E,0.02,87.98,100523,,,R,V*27
$GNACCURACY,3.3*16
$GNGGA,113031.500,2500.8048037,N,12132.4797536,E,4,52,0.52,17.196,M,15.25,M,33,3335*77
$GNRMC,113031.500,A,2500.8048037,N,12132.4797536,E,0.03,87.98,100523,,,R,V*2C
$GNACCURACY,3.3*16
$GNGGA,113031.600,2500.8048061,N,12132.4797609,E,4,52,0.52,17.189,M,15.25,M,33,3335*76
$GNRMC,113031.600,A,2500.8048061,N,12132.4797609,E,0.03,87.98,100523,,,R,V*23
$GNACCURACY,3.3*16
$GNGGA,113031.700,2500.8048027,N,12132.4797620,E,4,52,0.52,17.197,M,15.25,M,33,3335*71
$GNRMC,113031.700,A,2500.8048027,N,12132.4797620,E,0.03,87.98,100523,,,R,V*2B
$GNACCURACY,3.3*16
$GNGGA,113031.800,2500.8048037,N,12132.4797627,E,4,52,0.52,17.203,M,15.25,M,33,3335*76
$GNRMC,113031.800,A,2500.8048037,N,12132.4797627,E,0.03,87.98,100523,,,R,V*22
$GNACCURACY,3.3*16
$GNGGA,113031.900,2500.8048030,N,12132.4797621,E,4,52,0.52,17.191,M,15.25,M,33,3335*7E
$GNRMC,113031.900,A,2500.8048030,N,12132.4797621,E,0.03,87.98,100523,,,R,V*22
$GNGSA,A,3,13,196,195,199,15,05,11,20,29,30,194,,0.97,0.52,0.82,1*05
$GNGSA,A,3,84,70,85,71,69,,,,,,,,0.97,0.52,0.82,2*0E
$GNGSA,A,3,13,08,07,15,26,,,,,,,,0.97,0.52,0.82,3*0D
$GNGSA,A,3,28,38,39,08,33,41,13,16,06,43,27,09,0.97,0.52,0.82,4*09
$GNGSA,A,3,07,,,,,,,,,,,,0.97,0.52,0.82,4*00
$GPGSV,4,1,15,13,84,033,43,196,72,049,40,195,63,152,45,50,60,167,37,1*66
