$FW : RTK35X,V1.0X0825AS,Lib20210517,15,0*75
$Tool : LOCOSYS , GNSS Firebird , v1.0.0.19*39
$---------------------------------------------------*2D
$GNACCURACY,3.2*17
$GNGGA,113034.400,2500.8051192,N,12132.4794522,E,4,52,0.50,17.365,M,15.25,M,36,3335*7A
$GNRMC,113034.400,A,2500.8051192,N,12132.4794522,E,0.01,49.85,100523,,,R,V*24
$GNACCURACY,3.2*17
$GNGGA,113034.500,2500.8051203,N,12132.4794526,E,4,53,0.50,17.367,M,15.25,M,36,3335*77
$GNRMC,113034.500,A,2500.8051203,N,12132.4794526,E,0.01,49.85,100523,,,R,V*2A
$GNACCURACY,3.2*17
$GNGGA,113034.600,2500.8051186,N,12132.4794468,E,4,52,0.50,17.360,M,15.25,M,36,3335*77
$GNRMC,113034.600,A,2500.8051186,N,12132.4794468,E,0.01,49.85,100523,,,R,V*2C
$GNACCURACY,3.2*17
$GNGGA,113034.700,2500.8051185,N,12132.4794525,E,4,52,0.50,17.378,M,15.25,M,36,3335*74
$GNRMC,113034.700,A,2500.8051185,N,12132.4794525,E,0.01,49.85,100523,,,R,V*26
$GNACCURACY,3.2*17
$GNGGA,113034.800,2500.8051209,N,12132.4794528,E,4,52,0.50,17.355,M,15.25,M,36,3335*7E
$GNRMC,113034.800,A,2500.8051209,N,12132.4794528,E,0.01,49.85,100523,,,R,V*23
$GNACCURACY,3.2*17
$GNGGA,113034.900,2500.8051198,N,12132.4794513,E,4,53,0.50,17.376,M,15.25,M,36,3335*7C
$GNRMC,113034.900,A,2500.8051198,N,12132.4794513,E,0.01,49.85,100523,,,R,V*21
$GNGSA,A,3,13,196,195,199,15,05,11,29,20,30,194,,0.91,0.50,0.76,1*0A
$GNGSA,A,3,84,70,85,71,69,,,,,,,,0.91,0.50,0.76,2*01
$GNGSA,A,3,13,08,07,15,26,,,,,,,,0.91,0.50,0.76,3*02
$GNGSA,A,3,28,38,39,08,33,41,13,16,06,43,27,09,0.91,0.50,0.76,4*06
$GNGSA,A,3,40,24,,,,,,,,,,,0.91,0.50,0.76,4*0A
$GPGSV,4,1,15,13,84,034,45,196,72,049,42,195,63,152,43,199,60,167,38,1*58
$GPGSV,4,2,15,50,60,167,41,15,58,250,31,05,50,011,43,11,48,115,42,1*64
$GPGSV,4,3,15,29,43,279,21,20,43,049,31,30,19,060,33,194,12,162,17,1*5F
$GPGSV,4,4,15,24,11,189,26,06,09,131,19,18,05,318,23,1*51
$GPGSV,3,1,09,196,72,049,46,195,63,152,46,199,60,167,48,11,48,115,46,8*5E
$GPGSV,3,2,09,30,19,060,38,194,12,162,27,24,11,189,33,06,09,131,17,8*50
$GPGSV,3,3,09,18,05,318,30,8*51
$GLGSV,2,1,06,84,65,154,30,70,53,310,19,85,48,331,42,71,24,253,20,1*7A
$GLGSV,2,2,06,69,23,028,21,83,04,154,,1*76
$GAGSV,2,1,06,13,69,349,43,08,68,019,44,07,52,236,25,15,49,123,44,7*75
$GAGSV,2,2,06,26,17,322,23,34,01,135,,7*74
$GAGSV,2,1,05,13,69,349,47,08,68,019,46,07,52,236,26,15,49,123,42,1*73
$GAGSV,2,2,05,26,17,322,32,1*40
$GBGSV,5,1,19,28,70,258,38,38,57,014,46,39,51,178,42,08,49,353,39,1*71
$GBGSV,5,2,19,33,49,017,42,41,48,290,40,13,44,335,40,16,43,181,42,1*7F
$GBGSV,5,3,19,06,37,186,39,43,32,164,46,27,30,315,33,09,23,193,30,1*79
$GBGSV,5,4,19,10,23,220,16,07,20,204,15,40,17,197,27,25,14,146,,1*76
$GBGSV,5,5,19,24,13,091,16,11,09,154,,42,08,054,,1*43
$GBGSV,2,1,07,28,70,258,30,38,57,014,42,39,51,178,45,33,49,017,46,4*74
$GBGSV,2,2,07,41,48,290,44,43,32,164,45,27,30,315,35,4*45
$GNACCURACY,3.2*17
$PAIRSAT,1,35,1,0,200,2,0,200,3,0,200,4,0,200,5,0,201,6,0,221,7,0,200,8,0,200,9,0,200,10,0,200,11,0,221,12,0,200,13,0,201,14,0,200,15,0,201,16,0,200,17,0,200,18,0,221,19,0,200,20,0,201,21,0,200,23,0,200,24,0,200,25,0,200,26,0,200,27,0,200,28,0,200,29,0,201,30,0,221,31,0,200,32,0,200,194,0,621,195,0,621,196,0,620,199,0,621*6A
$PAIRSAT,2,24,65,0,200,66,0,200,67,0,200,68,0,200,69,0,201,70,0,201,71,0,201,72,0,200,73,0,200,74,0,200,75,0,200,76,0,200,77,0,200,78,0,200,79,0,200,80,0,200,81,0,200,82,0,200,83,0,200,84,0,201,85,0,201,86,0,200,87,0,200,88,0,200*7B
$PAIRSAT,3,22,2,0,200,4,0,1200,5,0,200,7,0,1221,8,0,1221,9,0,1200,10,0,1200,11,0,1200,12,0,1200,13,0,1221,15,0,1221,19,0,1200,21,0,1200,24,0,1200,25,0,1200,26,0,1221,27,0,1200,30,0,1200,31,0,1200,33,0,1200,34,0,1221,36,0,1200*76
$PAIRSAT,4,46,1,0,201,2,0,201,3,0,201,4,0,201,5,0,200,6,0,1,7,0,201,8,0,201,9,0,201,10,0,201,11,0,201,12,0,200,13,0,201,15,0,200,16,0,201,19,0,600,20,0,600,21,0,600,22,0,600,23,0,600,24,0,621,25,0,621,26,0,600,27,0,621,28,0,621,29,0,600,30,0,600,32,0,600,33,0,621,34,0,600,35,0,600,36,0,600,37,0,600,38,0,621,39,0,621,40,0,621,41,0,621,42,0,621,43,0,621,44,0,600,45,0,600,46,0,600,57,0,200,59,0,601,60,0,401,61,0,600*4D
$PAIRDGP,8,5,6,11,13,15,20,29,30*42
$GNGGA,113035.000,2500.8051203,N,12132.4794543,E,4,53,0.50,17.381,M,15.25,M,37,3335*79
$GNRMC,113035.000,A,2500.8051203,N,12132.4794543,E,0.01,49.85,100523,,,R,V*2D
$GNACCURACY,3.2*17
$GNGGA,113035.100,2500.8051210,N,12132.4794546,E,4,53,0.50,17.385,M,15.25,M,37,3335*7B
$GNRMC,113035.100,A,2500.8051210,N,12132.4794546,E,0.01,49.85,100523,,,R,V*2B
$GNACCURACY,3.2*17
$GNGGA,113035.200,2500.8051204,N,12132.4794517,E,4,54,0.48,17.372,M,15.25,M,37,3335*7F
$GNRMC,113035.200,A,2500.8051204,N,12132.4794517,E,0.01,49.85,100523,,,R,V*29
$GNACCURACY,3.2*17
$GNGGA,113035.300,2500.8051205,N,12132.4794573,E,4,53,0.50,17.397,M,15.25,M,37,3335*78
$GNRMC,113035.300,A,2500.8051205,N,12132.4794573,E,0.01,49.85,100523,,,R,V*2B
$GNACCURACY,3.2*17
$GNGGA,113035.400,2500.8051220,N,12132.4794653,E,4,53,0.50,17.394,M,15.25,M,37,3335*7A
$GNRMC,113035.400,A,2500.8051220,N,12132.4794653,E,0.02,49.85,100523,,,R,V*29
$GNACCURACY,3.2*17
$GNGGA,113035.500,2500.8051185,N,12132.4794093,E,4,54,0.48,17.324,M,15.25,M,0,3335*4C
$GNRMC,113035.500,A,2500.8051185,N,12132.4794093,E,0.02,49.85,100523,,,R,V*2E
$GNACCURACY,3.2*17
$GNGGA,113035.600,2500.8051148,N,12132.4794086,E,4,53,0.50,17.385,M,15.25,M,0,3335*4F
$GNRMC,113035.600,A,2500.8051148,N,12132.4794086,E,0.02,49.85,100523,,,R,V*28
$GNACCURACY,3.2*17
$GNGGA,113035.700,2500.8051166,N,12132.4794083,E,4,54,0.48,17.379,M,15.25,M,0,3335*4A
$GNRMC,113035.700,A,2500.8051166,N,12132.4794083,E,0.02,49.85,100523,,,R,V*20
$GNACCURACY,3.2*17
$GNGGA,113035.800,2500.8051152,N,12132.4794126,E,4,54,0.48,17.391,M,15.25,M,0,3335*4A
$GNRMC,113035.800,A,2500.8051152,N,12132.4794126,E,0.02,49.85,100523,,,R,V*26
$GNACCURACY,3.2*17
$GNGGA,113035.900,2500.8051156,N,12132.4794122,E,4,54,0.48,17.393,M,15.25,M,0,3335*49
$GNRMC,113035.900,A,2500.8051156,N,12132.4794122,E,0.02,49.85,100523,,,R,V*27
$GNGSA,A,3,13,196,195,199,15,05,11,29,20,30,194,,0.89,0.48,0.75,1*09
$GNGSA,A,3,84,70,85,71,69,,,,,,,,0.89,0.48,0.75,2*02
$GNGSA,A,3,13,08,07,15,26,,,,,,,,0.89,0.48,0.75,3*01
$GNGSA,A,3,28,38,39,08,33,41,13,16,06,43,27,09,0.89,0.48,0.75,4*05
$GNGSA,A,3,07,40,24,,,,,,,,,,0.89,0.48,0.75,4*0E
$GPGSV,4,1,15,13,84,034,45,196,72,049,41,195,63,152,44,199,60,167,38,1*5C
$GPGSV,4,2,15,50,60,167,41,15,58,250,34,05,50,011,43,11,48,115,42,1*61
$GPGSV,4,3,15,29,43,279,19,20,43,049,27,30,19,060,36,194,12,162,18,1*59
$GPGSV,4,4,15,24,11,189,20,06,09,131,19,18,05,318,22,1*56
$GPGSV,3,1,09,196,72,049,46,195,63,152,46,199,60,167,48,11,48,115,46,8*5E
$GPGSV,3,2,09,30,19,060,39,194,12,162,31,24,11,189,31,06,09,131,17,8*54
$GPGSV,3,3,09,18,05,318,30,8*51
$GLGSV,2,1,06,84,65,154,32,70,53,310,19,85,48,331,42,71,24,253,18,1*73
$GLGSV,2,2,06,69,23,028,18,83,04,154,,1*7C
$GAGSV,2,1,06,13,69,349,43,08,68,019,44,07,52,236,21,15,49,123,44,7*71
$GAGSV,2,2,06,26,17,322,23,34,01,135,,7*74
$GAGSV,2,1,05,13,69,349,47,08,68,019,46,07,52,236,29,15,49,123,42,1*7C
$GAGSV,2,2,05,26,17,322,32,1*40
$GBGSV,5,1,19,28,70,258,39,38,57,014,46,39,51,178,42,08,49,353,38,1*71
$GBGSV,5,2,19,33,49,017,42,41,48,290,39,13,44,335,40,16,43,181,42,1*71
$GBGSV,5,3,19,06,37,186,39,43,32,164,46,27,30,315,32,09,23,193,30,1*78
$GBGSV,5,4,19,10,23,220,18,07,20,204,19,40,17,197,29,25,14,146,,1*7A
$GBGSV,5,5,19,24,13,091,16,11,09,154,,42,08,054,,1*43
$GBGSV,2,1,07,28,70,258,27,38,57,014,42,39,51,178,45,33,49,017,46,4*72
$GBGSV,2,2,07,41,48,290,44,43,32,164,45,27,30,315,34,4*44
$GNACCURACY,3.2*17
$PAIRSAT,1,35,1,0,200,2,0,200,3,0,200,4,0,200,5,0,201,6,0,221,7,0,200,8,0,200,9,0,200,10,0,200,11,0,221,12,0,200,13,0,201,14,0,200,15,0,201,16,0,200,17,0,200,18,0,221,19,0,200,20,0,201,21,0,200,23,0,200,24,0,200,25,0,200,26,0,200,27,0,200,28,0,200,29,0,201,30,0,221,31,0,200,32,0,200,194,0,621,195,0,621,196,0,620,199,0,621*6A
$PAIRSAT,2,24,65,0,200,66,0,200,67,0,200,68,0,200,69,0,201,70,0,201,71,0,201,72,0,200,73,0,200,74,0,200,75,0,200,76,0,200,77,0,200,78,0,200,79,0,200,80,0,200,81,0,200,82,0,200,83,0,200,84,0,201,85,0,201,86,0,200,87,0,200,88,0,200*7B
$PAIRSAT,3,22,2,0,200,4,0,1200,5,0,200,7,0,1221,8,0,1221,9,0,1200,10,0,1200,11,0,1200,12,0,1200,13,0,1221,15,0,1221,19,0,1200,21,0,1200,24,0,1200,25,0,1200,26,0,1221,27,0,1200,30,0,1200,31,0,1200,33,0,1200,34,0,1221,36,0,1200*76
$PAIRSAT,4,46,1,0,201,2,0,201,3,0,201,4,0,201,5,0,200,6,0,1,7,0,201,8,0,201,9,0,201,10,0,201,11,0,201,12,0,200,13,0,201,15,0,200,16,0,201,19,0,600,20,0,600,21,0,600,22,0,600,23,0,600,24,0,621,25,0,621,26,0,600,27,0,621,28,0,621,29,0,600,30,0,600,32,0,600,33,0,621,34,0,600,35,0,600,36,0,600,37,0,600,38,0,621,39,0,621,40,0,621,41,0,621,42,0,621,43,0,621,44,0,600,45,0,600,46,0,600,57,0,200,59,0,601,60,0,401,61,0,600*4D
$PAIRDGP,8,5,6,11,13,15,20,29,30*42
$GNGGA,113036.000,2500.8051161,N,12132.4794078,E,4,54,0.48,17.441,M,15.25,M,1,3335*40
$GNRMC,113036.000,A,2500.8051161,N,12132.4794078,E,0.02,49.85,100523,,,R,V*27
$GNACCURACY,3.2*17
$GNGGA,113036.100,2500.8051147,N,12132.4794089,E,4,54,0.48,17.435,M,15.25,M,1,3335*48
$GNRMC,113036.100,A,2500.8051147,N,12132.4794089,E,0.01,49.85,100523,,,R,V*2F
$GNACCURACY,3.2*17
$GNGGA,113036.200,2500.8051169,N,12132.4794091,E,4,54,0.48,17.436,M,15.25,M,1,3335*4D
$GNRMC,113036.200,A,2500.8051169,N,12132.4794091,E,0.02,49.85,100523,,,R,V*2A
$GNACCURACY,3.2*17
$GNGGA,113036.300,2500.8051157,N,12132.4794099,E,4,54,0.48,17.440,M,15.25,M,1,3335*48
$GNRMC,113036.300,A,2500.8051157,N,12132.4794099,E,0.02,49.85,100523,,,R,V*2E
$GNACCURACY,3.2*17
$GNGGA,113036.400,2500.8051145,N,12132.4794136,E,4,53,0.48,17.448,M,15.25,M,1,3335*47
$GNRMC,113036.400,A,2500.8051145,N,12132.4794136,E,0.02,49.85,100523,,,R,V*2E
$GNACCURACY,3.2*17
$GNGGA,113036.500,2500.8051170,N,12132.4794134,E,4,53,0.48,17.441,M,15.25,M,1,3335*4B
$GNRMC,113036.500,A,2500.8051170,N,12132.4794134,E,0.02,49.85,100523,,,R,V*2B
$GNACCURACY,3.2*17
$GNGGA,113036.600,2500.8051185,N,12132.4794124,E,4,53,0.48,17.430,M,15.25,M,0,3335*44
$GNRMC,113036.600,A,2500.8051185,N,12132.4794124,E,0.02,49.85,100523,,,R,V*23
$GNACCURACY,3.2*17
$GNGGA,113036.700,2500.8051156,N,12132.4794102,E,4,53,0.48,17.420,M,15.25,M,0,3335*4E
$GNRMC,113036.700,A,2500.8051156,N,12132.4794102,E,0.01,49.85,100523,,,R,V*2B
$GNACCURACY,3.2*17
$GNGGA,113036.800,2500.8051155,N,12132.4794100,E,4,53,0.48,17.417,M,15.25,M,0,3335*44
$GNRMC,113036.800,A,2500.8051155,N,12132.4794100,E,0.01,49.85,100523,,,R,V*25
$GNACCURACY,3.2*17
$GNGGA,113036.900,2500.8051126,N,12132.4794134,E,4,52,0.52,17.436,M,15.25,M,0,3335*4F
$GNRMC,113036.900,A,2500.8051126,N,12132.4794134,E,0.01,49.85,100523,,,R,V*27
$GNGSA,A,3,13,196,195,199,15,05,11,20,29,30,194,,0.95,0.52,0.79,1*03
$GNGSA,A,3,84,70,85,71,69,,,,,,,,0.95,0.52,0.79,2*08
$GNGSA,A,3,13,08,07,15,26,,,,,,,,0.95,0.52,0.79,3*0B
$GNGSA,A,3,28,38,39,08,33,41,13,16,06,43,27,09,0.95,0.52,0.79,4*0F
$GNGSA,A,3,07,40,,,,,,,,,,,0.95,0.52,0.79,4*02
$GPGSV,4,1,15,13,84,034,44,196,72,049,40,195,63,152,44,50,60,167,41,1*66
$GPGSV,4,2,15,199,60,167,38,15,58,250,30,05,50,011,43,11,48,115,42,1*5F
$GPGSV,4,3,15,20,43,049,29,29,43,279,24,30,19,060,37,194,12,162,17,1*57
$GPGSV,4,4,15,24,11,189,21,06,09,131,19,18,05,318,23,1*56
$GPGSV,3,1,09,196,72,049,46,195,63,152,46,199,60,167,48,11,48,115,46,8*5E
$GPGSV,3,2,09,30,19,060,40,194,12,162,31,24,11,189,31,06,09,131,19,8*54
$GPGSV,3,3,09,18,05,318,30,8*51
$GLGSV,2,1,05,84,65,154,31,70,53,310,19,85,48,331,42,71,24,253,20,1*78
$GLGSV,2,2,05,69,23,028,17,1*4F
$GAGSV,2,1,06,13,69,349,43,08,68,019,44,07,52,236,25,15,49,123,44,7*75
$GAGSV,2,2,06,26,17,322,21,34,01,135,,7*76
$GAGSV,2,1,05,13,69,349,47,08,68,019,47,07,52,236,29,15,49,123,42,1*7D
$GAGSV,2,2,05,26,17,322,34,1*46
$GBGSV,5,1,19,28,70,258,39,38,57,014,46,39,51,178,42,08,49,353,37,1*7E
$GBGSV,5,2,19,33,49,017,42,41,48,290,40,13,44,335,40,16,43,181,42,1*7F
$GBGSV,5,3,19,06,37,186,40,43,32,164,46,27,30,315,31,09,23,193,31,1*74
$GBGSV,5,4,19,10,23,220,19,07,20,204,18,40,17,197,30,25,14,146,,1*72
$GBGSV,5,5,19,24,13,091,20,11,09,154,,42,08,054,,1*46
$GBGSV,2,1,07,28,70,258,26,38,57,014,43,39,51,178,45,33,49,017,46,4*72
$GBGSV,2,2,07,41,48,290,44,43,32,164,46,27,30,315,35,4*46
$GNACCURACY,3.2*17
$PAIRSAT,1,35,1,0,200,2,0,200,3,0,200,4,0,200,5,0,201,6,0,221,7,0,200,8,0,200,9,0,200,10,0,200,11,0,221,12,0,200,13,0,201,14,0,200,15,0,201,16,0,200,17,0,200,18,0,221,19,0,200,20,0,201,21,0,200,23,0,200,24,0,200,25,0,200,26,0,200,27,0,200,28,0,200,29,0,201,30,0,221,31,0,200,32,0,200,194,0,621,195,0,621,196,0,620,199,0,621*6A
$PAIRSAT,2,24,65,0,200,66,0,200,67,0,200,68,0,200,69,0,201,70,0,201,71,0,201,72,0,200,73,0,200,74,0,200,75,0,200,76,0,200,77,0,200,78,0,200,79,0,200,80,0,200,81,0,200,82,0,200,83,0,200,84,0,201,85,0,201,86,0,200,87,0,200,88,0,200*7B
$PAIRSAT,3,22,2,0,200,4,0,1200,5,0,200,7,0,1221,8,0,1221,9,0,1200,10,0,1200,11,0,1200,12,0,1200,13,0,1221,15,0,1221,19,0,1200,21,0,1200,24,0,1200,25,0,1200,26,0,1221,27,0,1200,30,0,1200,31,0,1200,33,0,1200,34,0,1221,36,0,1200*76
$PAIRSAT,4,46,1,0,201,2,0,201,3,0,201,4,0,201,5,0,200,6,0,1,7,0,201,8,0,201,9,0,201,10,0,201,11,0,201,12,0,200,13,0,201,15,0,200,16,0,201,19,0,600,20,0,600,21,0,600,22,0,600,23,0,600,24,0,621,25,0,621,26,0,600,27,0,621,28,0,621,29,0,600,30,0,600,32,0,600,33,0,621,34,0,600,35,0,600,36,0,600,37,0,600,38,0,621,39,0,621,40,0,621,41,0,621,42,0,621,43,0,621,44,0,600,45,0,600,46,0,600,57,0,200,59,0,601,60,0,401,61,0,600*4D
$PAIRDGP,8,5,6,11,13,15,20,29,30*42
$GNGGA,113037.000,2500.8051122,N,12132.4794172,E,4,52,0.52,17.443,M,15.25,M,1,3335*42
$GNRMC,113037.000,A,2500.8051122,N,12132.4794172,E,0.01,49.85,100523,,,R,V*29
$GNACCURACY,3.2*17
$GNGGA,113037.100,2500.8051110,N,12132.4794133,E,4,52,0.52,17.433,M,15.25,M,1,3335*40
$GNRMC,113037.100,A,2500.8051110,N,12132.4794133,E,0.01,49.85,100523,,,R,V*2C
$GNACCURACY,3.2*17
$GNGGA,113037.200,2500.8051081,N,12132.4794131,E,4,52,0.52,17.447,M,15.25,M,1,3335*4B
$GNRMC,113037.200,A,2500.8051081,N,12132.4794131,E,0.01,49.85,100523,,,R,V*24
$GNACCURACY,3.2*17
$GNGGA,113037.300,2500.8051069,N,12132.4794126,E,4,52,0.52,17.445,M,15.25,M,1,3335*48
$GNRMC,113037.300,A,2500.8051069,N,12132.4794126,E,0.01,49.85,100523,,,R,V*25
$GNACCURACY,3.2*17
$GNGGA,113037.400,2500.8051081,N,12132.4794114,E,4,52,0.52,17.439,M,15.25,M,1,3335*43
$GNRMC,113037.400,A,2500.8051081,N,12132.4794114,E,0.01,49.85,100523,,,R,V*25
$GNACCURACY,3.2*17
$GNGGA,113037.500,2500.8051063,N,12132.4794151,E,4,51,0.52,17.455,M,15.25,M,0,3335*47
$GNRMC,113037.500,A,2500.8051063,N,12132.4794151,E,0.01,49.85,100523,,,R,V*29
$GNACCURACY,3.2*17
$GNGGA,113037.600,2500.8051055,N,12132.4794083,E,4,53,0.50,17.433,M,15.25,M,0,3335*4F
$GNRMC,113037.600,A,2500.8051055,N,12132.4794083,E,0.01,49.85,100523,,,R,V*21
$GNACCURACY,3.2*17
$GNGGA,113037.700,2500.8051051,N,12132.4794130,E,4,51,0.52,17.444,M,15.25,M,0,3335*43
$GNRMC,113037.700,A,2500.8051051,N,12132.4794130,E,0.00,49.85,100523,,,R,V*2C
$GNACCURACY,3.2*17
$GNGGA,113037.800,2500.8051046,N,12132.4794081,E,4,53,0.50,17.431,M,15.25,M,0,3335*43
$GNRMC,113037.800,A,2500.8051046,N,12132.4794081,E,0.00,49.85,100523,,,R,V*2E
$GNACCURACY,3.2*17
$GNGGA,113037.900,2500.8051050,N,12132.4794042,E,4,51,0.52,17.429,M,15.25,M,0,3335*43
$GNRMC,113037.900,A,2500.8051050,N,12132.4794042,E,0.00,49.85,100523,,,R,V*27
$GNGSA,A,3,13,196,195,199,15,05,11,20,29,30,194,,0.97,0.52,0.82,1*05
$GNGSA,A,3,84,70,85,71,69,,,,,,,,0.97,0.52,0.82,2*0E
$GNGSA,A,3,13,08,07,15,26,,,,,,,,0.97,0.52,0.82,3*0D
$GNGSA,A,3,28,38,39,08,33,41,13,16,06,43,27,09,0.97,0.52,0.82,4*09
$GNGSA,A,3,07,,,,,,,,,,,,0.97,0.52,0.82,4*00
$GPGSV,4,1,15,13,84,034,44,196,72,049,40,195,63,152,44,50,60,167,42,1*65
$GPGSV,4,2,15,199,60,167,38,15,58,250,33,05,50,011,43,11,48,115,43,1*5D
$GPGSV,4,3,15,20,43,049,29,29,43,279,21,30,19,060,38,194,12,162,17,1*5D
$GPGSV,4,4,15,24,11,189,23,06,09,131,19,18,05,318,24,1*53
$GPGSV,3,1,09,196,72,049,46,195,63,152,46,199,60,167,49,11,48,115,46,8*5F
$GPGSV,3,2,09,30,19,060,40,194,12,162,30,24,11,189,32,06,09,131,20,8*5C
$GPGSV,3,3,09,18,05,318,28,8*58
$GLGSV,2,1,05,84,65,154,31,70,53,310,19,85,48,331,42,71,24,253,22,1*7A
$GLGSV,2,2,05,69,23,028,16,1*4E
$GAGSV,2,1,06,13,69,349,43,08,68,019,44,07,52,236,26,15,49,123,44,7*76
$GAGSV,2,2,06,26,17,322,23,34,01,135,,7*74
$GAGSV,2,1,05,13,69,349,47,08,68,019,47,07,52,236,29,15,49,123,42,1*7D
$GAGSV,2,2,05,26,17,322,34,1*46
$GBGSV,5,1,19,28,70,258,37,38,57,014,46,39,51,178,42,08,49,353,35,1*72
$GBGSV,5,2,19,33,49,017,42,41,48,290,40,13,44,335,40,16,43,181,42,1*7F
$GBGSV,5,3,19,06,37,186,40,43,32,164,46,27,30,315,32,09,23,193,31,1*77
$GBGSV,5,4,19,10,23,220,17,07,20,204,18,40,17,197,29,25,14,146,24,1*72
$GBGSV,5,5,19,24,13,091,19,11,09,154,,42,08,054,,1*4C
$GBGSV,2,1,07,28,70,258,31,38,57,014,43,39,51,178,45,33,49,017,47,4*75
$GBGSV,2,2,07,41,48,290,44,43,32,164,46,27,30,315,35,4*46
$GNACCURACY,3.2*17
$PAIRSAT,1,35,1,0,200,2,0,200,3,0,200,4,0,200,5,0,201,6,0,221,7,0,200,8,0,200,9,0,200,10,0,200,11,0,221,12,0,200,13,0,201,14,0,200,15,0,201,16,0,200,17,0,200,18,0,221,19,0,200,20,0,201,21,0,200,23,0,200,24,0,200,25,0,200,26,0,200,27,0,200,28,0,200,29,0,201,30,0,221,31,0,200,32,0,200,194,0,621,195,0,621,196,0,620,199,0,621*6A
$PAIRSAT,2,24,65,0,200,66,0,200,67,0,200,68,0,200,69,0,201,70,0,201,71,0,201,72,0,200,73,0,200,74,0,200,75,0,200,76,0,200,77,0,200,78,0,200,79,0,200,80,0,200,81,0,200,82,0,200,83,0,200,84,0,201,85,0,201,86,0,200,87,0,200,88,0,200*7B
$PAIRSAT,3,22,2,0,200,4,0,1200,5,0,200,7,0,1221,8,0,1221,9,0,1200,10,0,1200,11,0,1200,12,0,1200,13,0,1221,15,0,1221,19,0,1200,21,0,1200,24,0,1200,25,0,1200,26,0,1221,27,0,1200,30,0,1200,31,0,1200,33,0,1200,34,0,1221,36,0,1200*76
$PAIRSAT,4,46,1,0,201,2,0,201,3,0,201,4,0,201,5,0,200,6,0,1,7,0,201,8,0,201,9,0,201,10,0,201,11,0,201,12,0,200,13,0,201,15,0,200,16,0,201,19,0,600,20,0,600,21,0,600,22,0,600,23,0,600,24,0,621,25,0,621,26,0,600,27,0,621,28,0,621,29,0,600,30,0,600,32,0,600,33,0,621,34,0,600,35,0,600,36,0,600,37,0,600,38,0,621,39,0,621,40,0,621,41,0,621,42,0,621,43,0,621,44,0,600,45,0,600,46,0,600,57,0,200,59,0,601,60,0,401,61,0,600*4D
$PAIRDGP,8,5,6,11,13,15,20,29,30*42
$GNGGA,113038.000,2500.8051061,N,12132.4794079,E,4,51,0.52,17.429,M,15.25,M,1,3335*4E
$GNRMC,113038.000,A,2500.8051061,N,12132.4794079,E,0.00,49.85,100523,,,R,V*2B
$GNACCURACY,3.2*17
$GNGGA,113038.100,2500.8051029,N,12132.4793992,E,4,51,0.52,17.421,M,15.25,M,1,3335*40
$GNRMC,113038.100,A,2500.8051029,N,12132.4793992,E,0.00,49.85,100523,,,R,V*2D
$GNACCURACY,3.2*17
$GNGGA,113038.200,2500.8051013,N,12132.4793966,E,4,51,0.52,17.417,M,15.25,M,1,3335*44
$GNRMC,113038.200,A,2500.8051013,N,12132.4793966,E,0.00,49.85,100523,,,R,V*2C
$GNACCURACY,3.2*17
$GNGGA,113038.300,2500.8051010,N,12132.4793970,E,4,51,0.52,17.418,M,15.25,M,1,3335*4E
$GNRMC,113038.300,A,2500.8051010,N,12132.4793970,E,0.00,49.85,100523,,,R,V*29
$GNACCURACY,3.2*17
$GNGGA,113038.400,2500.8051019,N,12132.4794150,E,4,51,0.52,17.463,M,15.25,M,1,3335*41
$GNRMC,113038.400,A,2500.8051019,N,12132.4794150,E,0.00,49.85,100523,,,R,V*2A
$GNACCURACY,3.2*17
$GNGGA,113038.500,2500.8050998,N,12132.4794133,E,4,51,0.52,17.461,M,15.25,M,1,3335*46
$GNRMC,113038.500,A,2500.8050998,N,12132.4794133,E,0.00,49.85,100523,,,R,V*2F
$GNACCURACY,3.2*17
$GNGGA,113038.600,2500.8050987,N,12132.4793961,E,4,51,0.52,17.434,M,15.25,M,1,3335*43
$GNRMC,113038.600,A,2500.8050987,N,12132.4793961,E,0.00,49.85,100523,,,R,V*2A
$GNACCURACY,3.2*17
$GNGGA,113038.700,2500.8050972,N,12132.4793944,E,4,51,0.52,17.433,M,15.25,M,0,3335*49
$GNRMC,113038.700,A,2500.8050972,N,12132.4793944,E,0.01,49.85,100523,,,R,V*27
$GNACCURACY,3.2*17
$GNGGA,113038.800,2500.8051000,N,12132.4793968,E,4,51,0.52,17.430,M,15.25,M,0,3335*46
$GNRMC,113038.800,A,2500.8051000,N,12132.4793968,E,0.00,49.85,100523,,,R,V*2A
$GNACCURACY,3.2*17
$GNGGA,113038.900,2500.8051040,N,12132.4793988,E,4,51,0.52,17.426,M,15.25,M,0,3335*4A
$GNRMC,113038.900,A,2500.8051040,N,12132.4793988,E,0.01,49.85,100523,,,R,V*20
$GNGSA,A,3,13,196,195,199,15,05,11,29,20,30,194,,0.97,0.52,0.82,1*05
$GNGSA,A,3,84,70,85,71,69,,,,,,,,0.97,0.52,0.82,2*0E
$GNGSA,A,3,13,08,07,15,26,,,,,,,,0.97,0.52,0.82,3*0D
$GNGSA,A,3,28,38,39,08,33,41,13,16,06,43,27,09,0.97,0.52,0.82,4*09
$GNGSA,A,3,07,,,,,,,,,,,,0.97,0.52,0.82,4*00
$GPGSV,4,1,15,13,84,034,44,196,72,049,41,195,63,152,43,199,60,167,39,1*5B
$GPGSV,4,2,15,50,60,167,42,15,58,250,32,05,50,011,43,11,48,115,43,1*65
$GPGSV,4,3,15,29,43,279,23,20,43,049,23,30,19,060,36,194,12,162,17,1*5B
$GPGSV,4,4,15,24,11,189,28,06,09,131,19,18,05,318,25,1*59
$GPGSV,3,1,09,196,72,049,46,195,63,152,46,199,60,167,49,11,48,115,47,8*5E
$GPGSV,3,2,09,30,19,060,40,194,12,162,26,24,11,189,32,06,09,131,17,8*5F
$GPGSV,3,3,09,18,05,318,26,8*56
$GLGSV,2,1,05,84,65,154,31,70,53,310,18,85,48,331,42,71,24,253,18,1*72
$GLGSV,2,2,05,69,23,028,17,1*4F
$GAGSV,2,1,06,13,69,349,43,08,68,019,44,07,52,236,25,15,49,123,43,7*72
$GAGSV,2,2,06,26,17,322,21,34,01,135,,7*76
$GAGSV,2,1,05,13,69,349,47,08,68,019,47,07,52,236,33,15,49,123,42,1*76
$GAGSV,2,2,05,26,17,322,34,1*46
$GBGSV,5,1,20,28,70,258,35,38,57,014,47,39,51,178,42,08,49,353,36,1*78
$GBGSV,5,2,20,33,49,017,39,41,48,290,40,13,44,335,40,16,43,181,42,1*79
$GBGSV,5,3,20,06,37,186,40,43,32,164,46,27,30,315,35,10,23,220,14,1*7E
$GBGSV,5,4,20,09,23,193,34,07,20,204,18,40,17,197,26,25,14,146,,1*73
$GBGSV,5,5,20,24,13,091,16,11,09,154,,42,08,054,,32,06,254,,1*7D
$GBGSV,2,1,07,28,70,258,31,38,57,014,43,39,51,178,46,33,49,017,45,4*74
$GBGSV,2,2,07,41,48,290,44,43,32,164,46,27,30,315,35,4*46
$GNACCURACY,3.2*17
$PAIRSAT,1,35,1,0,200,2,0,200,3,0,200,4,0,200,5,0,201,6,0,221,7,0,200,8,0,200,9,0,200,10,0,200,11,0,221,12,0,200,13,0,201,14,0,200,15,0,201,16,0,200,17,0,200,18,0,221,19,0,200,20,0,201,21,0,200,23,0,200,24,0,200,25,0,200,26,0,200,27,0,200,28,0,200,29,0,201,30,0,221,31,0,200,32,0,200,194,0,621,195,0,621,196,0,620,199,0,621*6A
$PAIRSAT,2,24,65,0,200,66,0,200,67,0,200,68,0,200,69,0,201,70,0,201,71,0,201,72,0,200,73,0,200,74,0,200,75,0,200,76,0,200,77,0,200,78,0,200,79,0,200,80,0,200,81,0,200,82,0,200,83,0,200,84,0,201,85,0,201,86,0,200,87,0,200,88,0,200*7B
$PAIRSAT,3,22,2,0,200,4,0,1200,5,0,200,7,0,1221,8,0,1221,9,0,1200,10,0,1200,11,0,1200,12,0,1200,13,0,1221,15,0,1221,19,0,1200,21,0,1200,24,0,1200,25,0,1200,26,0,1221,27,0,1200,30,0,1200,31,0,1200,33,0,1200,34,0,1221,36,0,1200*76
$PAIRSAT,4,46,1,0,201,2,0,201,3,0,201,4,0,201,5,0,200,6,0,1,7,0,201,8,0,201,9,0,201,10,0,201,11,0,201,12,0,200,13,0,201,15,0,200,16,0,201,19,0,600,20,0,600,21,0,600,22,0,600,23,0,600,24,0,621,25,0,621,26,0,600,27,0,621,28,0,621,29,0,600,30,0,600,32,0,600,33,0,621,34,0,600,35,0,600,36,0,600,37,0,600,38,0,621,39,0,621,40,0,621,41,0,621,42,0,621,43,0,621,44,0,600,45,0,600,46,0,600,57,0,200,59,0,601,60,0,401,61,0,600*4D
$PAIRDGP,8,5,6,11,13,15,20,29,30*42
$GNGGA,113039.000,2500.8051039,N,12132.4794120,E,4,51,0.52,17.459,M,15.25,M,1,3335*48
$GNRMC,113039.000,A,2500.8051039,N,12132.4794120,E,0.01,49.85,100523,,,R,V*2B
$GNACCURACY,3.2*17
$GNGGA,113039.100,2500.8051036,N,12132.4794100,E,4,51,0.52,17.453,M,15.25,M,1,3335*4E
$GNRMC,113039.100,A,2500.8051036,N,12132.4794100,E,0.01,49.85,100523,,,R,V*27
$GNACCURACY,3.2*17
$GNGGA,113039.200,2500.8051008,N,12132.4794068,E,4,51,0.52,17.453,M,15.25,M,1,3335*4F
$GNRMC,113039.200,A,2500.8051008,N,12132.4794068,E,0.01,49.85,100523,,,R,V*26
$GNACCURACY,3.2*17
$GNGGA,113039.300,2500.8050948,N,12132.4793977,E,4,52,0.52,17.451,M,15.25,M,1,3335*43
$GNRMC,113039.300,A,2500.8050948,N,12132.4793977,E,0.01,49.85,100523,,,R,V*2B
$GNACCURACY,3.2*17
$GNGGA,113039.400,2500.8050916,N,12132.4793944,E,4,52,0.52,17.465,M,15.25,M,1,3335*48
$GNRMC,113039.400,A,2500.8050916,N,12132.4793944,E,0.01,49.85,100523,,,R,V*27
$GNACCURACY,3.2*17
$GNGGA,113039.500,2500.8050921,N,12132.4793938,E,4,52,0.52,17.473,M,15.25,M,1,3335*41
$GNRMC,113039.500,A,2500.8050921,N,12132.4793938,E,0.01,49.85,100523,,,R,V*29
$GNACCURACY,3.2*17
$GNGGA,113039.600,2500.8050872,N,12132.4793878,E,4,53,0.52,17.472,M,15.25,M,0,3335*41
$GNRMC,113039.600,A,2500.8050872,N,12132.4793878,E,0.01,49.85,100523,,,R,V*28
$GNACCURACY,3.2*17
$GNGGA,113039.700,2500.8050890,N,12132.4793882,E,4,53,0.52,17.462,M,15.25,M,0,3335*48
$GNRMC,113039.700,A,2500.8050890,N,12132.4793882,E,0.01,49.85,100523,,,R,V*20
$GNACCURACY,3.2*17
$GNGGA,113039.800,2500.8050898,N,12132.4793894,E,4,53,0.52,17.475,M,15.25,M,0,3335*4E
$GNRMC,113039.800,A,2500.8050898,N,12132.4793894,E,0.01,49.85,100523,,,R,V*20
$GNACCURACY,3.2*17
$GNGGA,113039.900,2500.8050931,N,12132.4793855,E,4,53,0.52,17.458,M,15.25,M,0,3335*4F
$GNRMC,113039.900,A,2500.8050931,N,12132.4793855,E,0.02,49.85,100523,,,R,V*2D
$GNGSA,A,3,13,196,195,199,15,05,11,20,29,30,194,,0.81,0.52,0.62,1*0C
$GNGSA,A,3,84,70,85,71,69,,,,,,,,0.81,0.52,0.62,2*07
$GNGSA,A,3,13,08,07,15,26,,,,,,,,0.81,0.52,0.62,3*04
$GNGSA,A,3,28,38,39,08,33,41,13,16,06,43,27,09,0.81,0.52,0.62,4*00
$GNGSA,A,3,07,40,,,,,,,,,,,0.81,0.52,0.62,4*0D
$GPGSV,4,1,15,13,84,034,44,196,72,049,41,195,63,152,43,50,60,167,42,1*63
$GPGSV,4,2,15,199,60,167,39,15,58,250,34,05,50,011,42,11,48,115,43,1*5A
$GPGSV,4,3,15,20,43,049,30,29,43,279,25,30,19,060,35,194,12,162,24,1*5C
$GPGSV,4,4,15,24,11,189,26,06,09,131,19,18,05,318,26,1*54
$GPGSV,3,1,09,196,72,049,46,195,63,152,46,199,60,167,48,11,48,115,47,8*5F
$GPGSV,3,2,09,30,19,060,40,194,12,162,24,24,11,189,24,06,09,131,17,8*5A
$GPGSV,3,3,09,18,05,318,28,8*58
$GLGSV,2,1,05,84,65,154,31,70,53,310,18,85,48,331,43,71,24,253,19,1*72
$GLGSV,2,2,05,69,23,028,18,1*40
$GAGSV,2,1,06,13,69,349,43,08,68,019,44,07,52,236,26,15,49,123,43,7*71
$GAGSV,2,2,06,26,17,322,18,34,01,135,,7*7C
$GAGSV,2,1,05,13,69,349,47,08,68,019,46,07,52,236,34,15,49,123,42,1*70
$GAGSV,2,2,05,26,17,322,36,1*44
$GBGSV,5,1,19,28,70,258,35,38,57,014,47,39,51,178,43,08,49,353,38,1*7D
$GBGSV,5,2,19,33,49,017,39,41,48,290,41,13,44,335,41,16,43,181,43,1*72
$GBGSV,5,3,19,06,37,186,39,43,32,164,46,27,30,315,36,09,23,193,33,1*7F
$GBGSV,5,4,19,10,23,220,14,07,20,204,18,40,17,197,31,25,14,146,,1*7E
$GBGSV,5,5,19,24,13,091,14,11,09,154,,42,08,054,,1*41
$GBGSV,2,1,07,28,70,258,31,38,57,014,45,39,51,178,46,33,49,017,45,4*72
$GBGSV,2,2,07,41,48,290,44,43,32,164,46,27,30,315,37,4*44
$GNACCURACY,3.2*17
$PAIRSAT,1,35,1,0,200,2,0,200,3,0,200,4,0,200,5,0,201,6,0,221,7,0,200,8,0,200,9,0,200,10,0,200,11,0,221,12,0,200,13,0,201,14,0,200,15,0,201,16,0,200,17,0,200,18,0,221,19,0,200,20,0,201,21,0,200,23,0,200,24,0,200,25,0,200,26,0,200,27,0,200,28,0,200,29,0,201,30,0,221,31,0,200,32,0,200,194,0,621,195,0,621,196,0,620,199,0,621*6A
$PAIRSAT,2,24,65,0,200,66,0,200,67,0,200,68,0,200,69,0,201,70,0,201,71,0,201,72,0,200,73,0,200,74,0,200,75,0,200,76,0,200,77,0,200,78,0,200,79,0,200,80,0,200,81,0,200,82,0,200,83,0,200,84,0,201,85,0,201,86,0,200,87,0,200,88,0,200*7B
$PAIRSAT,3,22,2,0,200,4,0,1200,5,0,200,7,0,1221,8,0,1221,9,0,1200,10,0,1200,11,0,1200,12,0,1200,13,0,1221,15,0,1221,19,0,1200,21,0,1200,24,0,1200,25,0,1200,26,0,1221,27,0,1200,30,0,1200,31,0,1200,33,0,1200,34,0,1221,36,0,1200*76
$PAIRSAT,4,46,1,0,201,2,0,201,3,0,201,4,0,201,5,0,200,6,0,1,7,0,201,8,0,201,9,0,201,10,0,201,11,0,201,12,0,200,13,0,201,15,0,200,16,0,201,19,0,600,20,0,600,21,0,600,22,0,600,23,0,600,24,0,621,25,0,621,26,0,600,27,0,621,28,0,621,29,0,600,30,0,600,32,0,600,33,0,621,34,0,600,35,0,600,36,0,600,37,0,600,38,0,621,39,0,621,40,0,621,41,0,621,42,0,621,43,0,621,44,0,600,45,0,600,46,0,600,57,0,200,59,0,601,60,0,401,61,0,600*4D
$PAIRDGP,8,5,6,11,13,15,20,29,30*42
$GNGGA,113040.000,2500.8050926,N,12132.4793882,E,4,53,0.52,17.463,M,15.25,M,1,3335*4D
$GNRMC,113040.000,A,2500.8050926,N,12132.4793882,E,0.02,49.85,100523,,,R,V*26
$GNACCURACY,3.2*17
$GNGGA,113040.100,2500.8050955,N,12132.4793932,E,4,53,0.52,17.484,M,15.25,M,1,3335*4B
$GNRMC,113040.100,A,2500.8050955,N,12132.4793932,E,0.01,49.85,100523,,,R,V*2A
$GNACCURACY,3.2*17
$GNGGA,113040.200,2500.8050946,N,12132.4793891,E,4,53,0.52,17.485,M,15.25,M,1,3335*43
$GNRMC,113040.200,A,2500.8050946,N,12132.4793891,E,0.02,49.85,100523,,,R,V*20
$GNACCURACY,3.2*17
$GNGGA,113040.300,2500.8051014,N,12132.4793834,E,4,53,0.52,17.416,M,15.25,M,1,3335*48
$GNRMC,113040.300,A,2500.8051014,N,12132.4793834,E,0.03,49.85,100523,,,R,V*20
$GNACCURACY,3.2*17
$GNGGA,113040.400,2500.8051031,N,12132.4793841,E,4,53,0.52,17.420,M,15.25,M,1,3335*4F
$GNRMC,113040.400,A,2500.8051031,N,12132.4793841,E,0.04,49.85,100523,,,R,V*25
$GNACCURACY,3.2*17
$GNGGA,113040.500,2500.8051007,N,12132.4793959,E,4,53,0.52,17.463,M,15.25,M,1,3335*44
$GNRMC,113040.500,A,2500.8051007,N,12132.4793959,E,0.04,49.85,100523,,,R,V*29
$GNACCURACY,3.2*17
$GNGGA,113040.600,2500.8051003,N,12132.4793968,E,4,54,0.48,17.452,M,15.25,M,1,3335*4F
$GNRMC,113040.600,A,2500.8051003,N,12132.4793968,E,0.03,49.85,100523,,,R,V*2B
$GNACCURACY,3.2*17
$GNGGA,113040.700,2500.8051014,N,12132.4793873,E,4,55,0.48,17.428,M,15.25,M,1,3335*4F
$GNRMC,113040.700,A,2500.8051014,N,12132.4793873,E,0.03,49.85,100523,,,R,V*27
$GNACCURACY,3.2*17
$GNGGA,113040.800,2500.8051029,N,12132.4793849,E,4,55,0.48,17.417,M,15.25,M,0,3335*4A
$GNRMC,113040.800,A,2500.8051029,N,12132.4793849,E,0.03,49.85,100523,,,R,V*2F
$GNACCURACY,3.2*17
$GNGGA,113040.900,2500.8051029,N,12132.4793867,E,4,55,0.48,17.416,M,15.25,M,0,3335*46
$GNRMC,113040.900,A,2500.8051029,N,12132.4793867,E,0.04,49.85,100523,,,R,V*25
$GNGSA,A,3,13,196,195,199,15,05,11,20,29,30,194,,0.78,0.49,0.61,1*03
$GNGSA,A,3,84,70,85,71,69,,,,,,,,0.78,0.49,0.61,2*08
$GNGSA,A,3,13,08,07,15,26,,,,,,,,0.78,0.49,0.61,3*0B
$GNGSA,A,3,28,38,39,08,33,41,13,16,06,43,27,09,0.78,0.49,0.61,4*0F
$GNGSA,A,3,07,24,,,,,,,,,,,0.78,0.49,0.61,4*00
$GPGSV,4,1,15,13,84,034,45,196,72,049,41,195,63,152,43,50,60,167,42,1*62
$GPGSV,4,2,15,199,60,167,39,15,58,250,35,05,50,011,42,11,48,115,43,1*5B
$GPGSV,4,3,15,20,43,049,26,29,43,279,20,30,19,060,35,194,12,162,17,1*5E
$GPGSV,4,4,15,24,11,189,26,06,09,131,19,18,05,318,27,1*55
$GPGSV,3,1,09,196,72,049,46,195,63,152,46,199,60,167,48,11,48,115,47,8*5F
$GPGSV,3,2,09,30,19,060,40,194,12,162,27,24,11,189,29,06,09,131,15,8*56
$GPGSV,3,3,09,18,05,318,28,8*58
$GLGSV,2,1,05,84,65,154,28,70,53,310,16,85,48,331,42,71,24,253,19,1*75
$GLGSV,2,2,05,69,23,028,21,1*4A
$GAGSV,2,1,06,13,69,349,43,08,68,019,42,07,52,236,28,15,49,123,43,7*79
$GAGSV,2,2,06,26,17,322,21,34,01,135,,7*76
$GAGSV,2,1,05,13,69,349,47,08,68,019,46,07,52,236,29,15,49,123,42,1*7C
$GAGSV,2,2,05,26,17,322,36,1*44
$GBGSV,5,1,19,28,70,258,35,38,57,014,47,39,51,178,43,08,49,353,38,1*7D
$GBGSV,5,2,19,33,49,017,39,41,48,290,41,13,44,335,41,16,43,181,43,1*72
$GBGSV,5,3,19,06,37,186,39,43,32,164,46,27,30,315,35,09,23,193,32,1*7D
$GBGSV,5,4,19,10,23,220,13,07,20,204,18,40,17,197,28,25,14,146,25,1*76
$GBGSV,5,5,19,24,13,091,11,11,09,154,,42,08,054,,1*44
$GBGSV,2,1,08,28,70,258,30,38,57,014,45,39,51,178,46,33,49,017,45,4*7C
$GBGSV,2,2,08,41,48,290,44,43,32,164,46,27,30,315,37,24,13,091,21,4*74
$GNACCURACY,3.2*17
$PAIRSAT,1,35,1,0,200,2,0,200,3,0,200,4,0,200,5,0,201,6,0,221,7,0,200,8,0,200,9,0,200,10,0,200,11,0,221,12,0,200,13,0,201,14,0,200,15,0,201,16,0,200,17,0,200,18,0,221,19,0,200,20,0,201,21,0,200,23,0,200,24,0,200,25,0,200,26,0,200,27,0,200,28,0,200,29,0,201,30,0,221,31,0,200,32,0,200,194,0,621,195,0,621,196,0,620,199,0,621*6A
$PAIRSAT,2,24,65,0,200,66,0,200,67,0,200,68,0,200,69,0,201,70,0,201,71,0,201,72,0,200,73,0,200,74,0,200,75,0,200,76,0,200,77,0,200,78,0,200,79,0,200,80,0,200,81,0,200,82,0,200,83,0,200,84,0,201,85,0,201,86,0,200,87,0,200,88,0,200*7B
$PAIRSAT,3,22,2,0,200,4,0,1200,5,0,200,7,0,1221,8,0,1221,9,0,1200,10,0,1200,11,0,1200,12,0,1200,13,0,1221,15,0,1221,19,0,1200,21,0,1200,24,0,1200,25,0,1200,26,0,1221,27,0,1200,30,0,1200,31,0,1200,33,0,1200,34,0,1221,36,0,1200*76
$PAIRSAT,4,46,1,0,201,2,0,201,3,0,201,4,0,201,5,0,200,6,0,1,7,0,201,8,0,201,9,0,201,10,0,201,11,0,201,12,0,200,13,0,201,15,0,200,16,0,201,19,0,600,20,0,600,21,0,600,22,0,600,23,0,600,24,0,621,25,0,621,26,0,600,27,0,621,28,0,621,29,0,600,30,0,600,32,0,600,33,0,621,34,0,600,35,0,600,36,0,600,37,0,600,38,0,621,39,0,621,40,0,621,41,0,621,42,0,621,43,0,621,44,0,600,45,0,600,46,0,600,57,0,200,59,0,601,60,0,401,61,0,600*4D
$PAIRDGP,8,5,6,11,13,15,20,29,30*42
$GNGGA,113041.000,2500.8051030,N,12132.4793888,E,4,53,0.49,17.430,M,15.25,M,1,3335*45
$GNRMC,113041.000,A,2500.8051030,N,12132.4793888,E,0.04,49.85,100523,,,R,V*24
$GNACCURACY,3.2*17
$GNGGA,113041.100,2500.8051087,N,12132.4793900,E,4,53,0.49,17.413,M,15.25,M,1,3335*48
$GNRMC,113041.100,A,2500.8051087,N,12132.4793900,E,0.07,49.85,100523,,,R,V*2B
$GNACCURACY,3.2*17
$GNGGA,113041.200,2500.8051147,N,12132.4793930,E,4,53,0.49,17.405,M,15.25,M,1,3335*42
$GNRMC,113041.200,A,2500.8051147,N,12132.4793930,E,0.10,49.85,100523,,,R,V*20
$GNACCURACY,3.2*17
$GNGGA,113041.300,2500.8051198,N,12132.4793978,E,4,54,0.48,17.413,M,15.25,M,1,3335*4C
$GNRMC,113041.300,A,2500.8051198,N,12132.4793978,E,0.10,49.85,100523,,,R,V*2F
$GNACCURACY,3.2*17
$GNGGA,113041.400,2500.8051174,N,12132.4794076,E,4,55,0.48,17.479,M,15.25,M,1,3335*44
$GNRMC,113041.400,A,2500.8051174,N,12132.4794076,E,0.10,49.85,100523,,,R,V*2A
$GNACCURACY,3.2*17
$GNGGA,113041.500,2500.8051199,N,12132.4794104,E,4,54,0.48,17.468,M,15.25,M,1,3335*43
$GNRMC,113041.500,A,2500.8051199,N,12132.4794104,E,0.09,49.85,100523,,,R,V*24
$GNACCURACY,3.2*17
$GNGGA,113041.600,2500.8051252,N,12132.4794163,E,4,54,0.48,17.466,M,15.25,M,0,3335*4A
$GNRMC,113041.600,A,2500.8051252,N,12132.4794163,E,0.11,49.85,100523,,,R,V*2B
$GNACCURACY,3.2*17
$GNGGA,113041.700,2500.8051296,N,12132.4794197,E,4,54,0.48,17.469,M,15.25,M,0,3335*47
$GNRMC,113041.700,A,2500.8051296,N,12132.4794197,E,0.13,49.85,100523,,,R,V*2B
$GNACCURACY,3.2*17
$GNGGA,113041.800,2500.8051311,N,12132.4794199,E,4,54,0.48,17.468,M,15.25,M,0,3335*49
$GNRMC,113041.800,A,2500.8051311,N,12132.4794199,E,0.11,49.85,100523,,,R,V*26
$GNACCURACY,3.2*17
$GNGGA,113041.900,2500.8051314,N,12132.4794205,E,4,54,0.48,17.468,M,15.25,M,0,3335*4B
$GNRMC,113041.900,A,2500.8051314,N,12132.4794205,E,0.10,49.85,100523,,,R,V*25
$GNGSA,A,3,13,196,195,199,15,05,11,20,29,30,194,,0.76,0.48,0.59,1*07
$GNGSA,A,3,84,70,85,71,69,,,,,,,,0.76,0.48,0.59,2*0C
$GNGSA,A,3,13,08,07,15,26,,,,,,,,0.76,0.48,0.59,3*0F
$GNGSA,A,3,28,38,39,08,33,41,13,16,06,43,27,09,0.76,0.48,0.59,4*0B
$GNGSA,A,3,40,25,24,,,,,,,,,,0.76,0.48,0.59,4*00
$GPGSV,4,1,15,13,84,034,44,196,72,049,38,195,63,152,44,50,60,167,42,1*6A
$GPGSV,4,2,15,199,60,167,39,15,58,250,31,05,50,011,42,11,48,115,43,1*5F
$GPGSV,4,3,15,20,43,049,31,29,43,279,19,30,19,060,33,194,12,162,17,1*54
$GPGSV,4,4,15,24,11,189,23,06,09,131,17,18,05,318,25,1*5C
$GPGSV,3,1,09,196,72,049,46,195,63,152,46,199,60,167,48,11,48,115,46,8*5E
$GPGSV,3,2,09,30,19,060,40,194,12,162,29,24,11,189,31,06,09,131,13,8*57
$GPGSV,3,3,09,18,05,318,29,8*59
$GLGSV,2,1,08,84,65,154,30,70,53,310,16,85,48,331,41,71,24,253,19,1*72
$GLGSV,2,2,08,69,23,028,21,79,04,076,,86,04,332,,80,03,124,,1*78
$GAGSV,2,1,06,13,69,349,43,08,68,019,41,07,52,236,29,15,49,123,43,7*7B
$GAGSV,2,2,06,26,17,322,26,34,01,135,,7*71
$GAGSV,2,1,05,13,69,349,47,08,68,019,46,07,52,236,22,15,49,123,42,1*77
$GAGSV,2,2,05,26,17,322,34,1*46
$GBGSV,5,1,19,28,70,258,39,38,57,014,46,39,51,178,43,08,49,353,38,1*70
$GBGSV,5,2,19,33,49,017,41,41,48,290,40,13,44,335,38,16,43,181,44,1*75
$GBGSV,5,3,19,06,37,186,39,43,32,164,46,27,30,315,38,09,23,193,31,1*73
$GBGSV,5,4,19,10,23,220,16,07,20,204,15,40,17,197,31,25,14,146,24,1*77
$GBGSV,5,5,19,24,13,091,13,11,09,154,,42,08,054,,1*46
$GBGSV,2,1,08,28,70,258,27,38,57,014,44,39,51,178,44,33,49,017,45,4*79
$GBGSV,2,2,08,41,48,290,44,43,32,164,46,27,30,315,34,24,13,091,21,4*77
$GNACCURACY,3.2*17
$PAIRSAT,1,35,1,0,200,2,0,200,3,0,200,4,0,200,5,0,201,6,0,221,7,0,200,8,0,200,9,0,200,10,0,200,11,0,221,12,0,200,13,0,201,14,0,200,15,0,201,16,0,200,17,0,200,18,0,221,19,0,200,20,0,201,21,0,200,23,0,200,24,0,200,25,0,200,26,0,200,27,0,200,28,0,200,29,0,201,30,0,221,31,0,200,32,0,200,194,0,621,195,0,621,196,0,620,199,0,621*6A
$PAIRSAT,2,24,65,0,200,66,0,200,67,0,200,68,0,200,69,0,201,70,0,201,71,0,201,72,0,200,73,0,200,74,0,200,75,0,200,76,0,200,77,0,200,78,0,200,79,0,200,80,0,200,81,0,200,82,0,200,83,0,200,84,0,201,85,0,201,86,0,200,87,0,200,88,0,200*7B
$PAIRSAT,3,22,2,0,200,4,0,1200,5,0,200,7,0,1221,8,0,1221,9,0,1200,10,0,1200,11,0,1200,12,0,1200,13,0,1221,15,0,1221,19,0,1200,21,0,1200,24,0,1200,25,0,1200,26,0,1221,27,0,1200,30,0,1200,31,0,1200,33,0,1200,34,0,1221,36,0,1200*76
$PAIRSAT,4,46,1,0,201,2,0,201,3,0,201,4,0,201,5,0,200,6,0,1,7,0,201,8,0,201,9,0,201,10,0,201,11,0,201,12,0,200,13,0,201,15,0,200,16,0,201,19,0,600,20,0,600,21,0,600,22,0,600,23,0,600,24,0,621,25,0,621,26,0,600,27,0,621,28,0,621,29,0,600,30,0,600,32,0,600,33,0,621,34,0,600,35,0,600,36,0,600,37,0,600,38,0,621,39,0,621,40,0,621,41,0,621,42,0,621,43,0,621,44,0,600,45,0,600,46,0,600,57,0,200,59,0,601,60,0,401,61,0,600*4D
$PAIRDGP,8,5,6,11,13,15,20,29,30*42
$GNGGA,113042.000,2500.8051297,N,12132.4794177,E,4,54,0.48,17.471,M,15.25,M,1,3335*44
$GNRMC,113042.000,A,2500.8051297,N,12132.4794177,E,0.09,49.85,100523,,,R,V*2B
$GNACCURACY,3.2*17
$GNGGA,113042.100,2500.8051308,N,12132.4794164,E,4,54,0.48,17.469,M,15.25,M,1,3335*49
$GNRMC,113042.100,A,2500.8051308,N,12132.4794164,E,0.08,49.85,100523,,,R,V*2E
$GNACCURACY,3.2*17
$GNGGA,113042.200,2500.8051341,N,12132.4794156,E,4,54,0.48,17.472,M,15.25,M,1,3335*4C
$GNRMC,113042.200,A,2500.8051341,N,12132.4794156,E,0.08,49.85,100523,,,R,V*21
$GNACCURACY,3.2*17
$GNGGA,113042.300,2500.8051392,N,12132.4794182,E,4,54,0.48,17.476,M,15.25,M,1,3335*4E
$GNRMC,113042.300,A,2500.8051392,N,12132.4794182,E,0.10,49.85,100523,,,R,V*2E
$GNACCURACY,3.2*17
$GNGGA,113042.400,2500.8051425,N,12132.4794186,E,4,54,0.48,17.494,M,15.25,M,1,3335*4A
$GNRMC,113042.400,A,2500.8051425,N,12132.4794186,E,0.11,49.85,100523,,,R,V*27
$GNACCURACY,3.2*17
$GNGGA,113042.500,2500.8051498,N,12132.4794147,E,4,54,0.48,17.489,M,15.25,M,1,3335*4C
$GNRMC,113042.500,A,2500.8051498,N,12132.4794147,E,0.13,49.85,100523,,,R,V*2F
$GNACCURACY,3.2*17
$GNGGA,113042.600,2500.8051632,N,12132.4794109,E,4,54,0.48,17.477,M,15.25,M,1,3335*46
$GNRMC,113042.600,A,2500.8051632,N,12132.4794109,E,0.18,49.85,100523,,,R,V*2F
$GNACCURACY,3.2*17
$GNGGA,113042.700,2500.8051746,N,12132.4794042,E,4,54,0.48,17.506,M,15.25,M,0,3335*4D
$GNRMC,113042.700,A,2500.8051746,N,12132.4794042,E,0.23,49.85,100523,,,R,V*2A
$GNACCURACY,3.2*17
$GNGGA,113042.800,2500.8051852,N,12132.4793879,E,4,54,0.48,17.528,M,15.25,M,0,3335*43
$GNRMC,113042.800,A,2500.8051852,N,12132.4793879,E,0.28,49.85,100523,,,R,V*23
$GNACCURACY,3.2*17
$GNGGA,113042.900,2500.8051942,N,12132.4793715,E,4,55,0.48,17.535,M,15.25,M,0,3335*4A
$GNRMC,113042.900,A,2500.8051942,N,12132.4793715,E,0.31,49.85,100523,,,R,V*2F
$GNGSA,A,3,13,196,195,199,15,05,11,20,29,30,194,,0.76,0.48,0.59,1*07
$GNGSA,A,3,84,70,85,71,69,,,,,,,,0.76,0.48,0.59,2*0C
$GNGSA,A,3,13,08,07,15,26,,,,,,,,0.76,0.48,0.59,3*0F
$GNGSA,A,3,28,38,39,08,33,41,13,16,06,43,27,09,0.76,0.48,0.59,4*0B
$GNGSA,A,3,07,40,25,24,,,,,,,,,0.76,0.48,0.59,4*07
$GPGSV,4,1,15,13,84,034,39,196,72,049,40,195,63,152,45,50,60,167,43,1*6F
$GPGSV,4,2,15,199,60,167,40,15,58,250,30,05,50,011,42,11,48,115,43,1*50
$GPGSV,4,3,15,20,43,049,38,29,43,279,36,30,19,060,32,194,12,162,20,1*55
$GPGSV,4,4,15,24,11,189,21,06,09,131,18,18,05,318,25,1*51
$GPGSV,3,1,09,196,72,049,46,195,63,152,46,199,60,167,48,11,48,115,45,8*5D
$GPGSV,3,2,09,30,19,060,41,194,12,162,32,24,11,189,24,06,09,131,13,8*58
$GPGSV,3,3,09,18,05,318,30,8*51
$GLGSV,2,1,05,84,65,154,31,70,53,310,22,85,48,331,43,71,24,253,18,1*7A
$GLGSV,2,2,05,69,23,028,28,1*43
$GAGSV,2,1,06,13,69,349,42,08,68,019,41,07,52,236,32,15,49,123,40,7*73
$GAGSV,2,2,06,26,17,322,20,34,01,135,,7*77
$GAGSV,2,1,05,13,69,349,46,08,68,019,46,07,52,236,24,15,49,123,38,1*7D
$GAGSV,2,2,05,26,17,322,31,1*43
$GBGSV,5,1,19,28,70,258,41,38,57,014,44,39,51,178,42,08,49,353,40,1*73
$GBGSV,5,2,19,33,49,017,40,41,48,290,38,13,44,335,41,16,43,181,44,1*75
$GBGSV,5,3,19,06,37,186,39,43,32,164,44,27,30,315,39,09,23,193,27,1*77
$GBGSV,5,4,19,10,23,220,15,07,20,204,14,40,17,197,30,25,14,146,27,1*77
$GBGSV,5,5,19,24,13,091,14,11,09,154,,42,08,054,,1*41
$GBGSV,2,1,08,28,70,258,31,38,57,014,44,39,51,178,43,33,49,017,45,4*79
$GBGSV,2,2,08,41,48,290,41,43,32,164,45,27,30,315,28,24,13,091,17,4*79
$GNACCURACY,3.2*17
$PAIRSAT,1,35,1,0,200,2,0,200,3,0,200,4,0,200,5,0,201,6,0,221,7,0,200,8,0,200,9,0,200,10,0,200,11,0,221,12,0,200,13,0,201,14,0,200,15,0,201,16,0,200,17,0,200,18,0,221,19,0,200,20,0,201,21,0,200,23,0,200,24,0,200,25,0,200,26,0,200,27,0,200,28,0,200,29,0,201,30,0,221,31,0,200,32,0,200,194,0,621,195,0,621,196,0,620,199,0,621*6A
$PAIRSAT,2,24,65,0,200,66,0,200,67,0,200,68,0,200,69,0,201,70,0,201,71,0,201,72,0,200,73,0,200,74,0,200,75,0,200,76,0,200,77,0,200,78,0,200,79,0,200,80,0,200,81,0,200,82,0,200,83,0,200,84,0,201,85,0,201,86,0,200,87,0,200,88,0,200*7B
$PAIRSAT,3,22,2,0,200,4,0,1200,5,0,200,7,0,1221,8,0,1221,9,0,1200,10,0,1200,11,0,1200,12,0,1200,13,0,1221,15,0,1221,19,0,1200,21,0,1200,24,0,1200,25,0,1200,26,0,1221,27,0,1200,30,0,1200,31,0,1200,33,0,1200,34,0,1221,36,0,1200*76
$PAIRSAT,4,46,1,0,201,2,0,201,3,0,201,4,0,201,5,0,200,6,0,1,7,0,201,8,0,201,9,0,201,10,0,201,11,0,201,12,0,200,13,0,201,15,0,200,16,0,201,19,0,600,20,0,600,21,0,600,22,0,600,23,0,600,24,0,621,25,0,621,26,0,600,27,0,621,28,0,621,29,0,600,30,0,600,32,0,600,33,0,621,34,0,600,35,0,600,36,0,600,37,0,600,38,0,621,39,0,621,40,0,621,41,0,621,42,0,621,43,0,621,44,0,600,45,0,600,46,0,600,57,0,200,59,0,601,60,0,401,61,0,600*4D
$PAIRDGP,8,5,6,11,13,15,20,29,30*42
$GNGGA,113043.000,2500.8052040,N,12132.4793532,E,4,55,0.48,17.546,M,15.25,M,1,3335*48
$GNRMC,113043.000,A,2500.8052040,N,12132.4793532,E,0.34,49.85,100523,,,R,V*2D
$GNACCURACY,3.2*17
$GNGGA,113043.100,2500.8052171,N,12132.4793330,E,4,54,0.48,17.526,M,15.25,M,1,3335*49
$GNRMC,113043.100,A,2500.8052171,N,12132.4793330,E,0.35,49.85,100523,,,R,V*2A
$GNACCURACY,3.2*17
$GNGGA,113043.200,2500.8052266,N,12132.4793194,E,4,54,0.48,17.518,M,15.25,M,1,3335*4E
$GNRMC,113043.200,A,2500.8052266,N,12132.4793194,E,0.38,49.85,100523,,,R,V*2D
$GNACCURACY,3.2*17
$GNGGA,113043.300,2500.8052352,N,12132.4792932,E,4,52,0.50,17.549,M,15.25,M,1,3335*47
$GNRMC,113043.300,A,2500.8052352,N,12132.4792932,E,0.41,49.85,100523,,,R,V*21
$GNACCURACY,3.2*17
$GNGGA,113043.400,2500.8052409,N,12132.4792594,E,4,52,0.50,17.560,M,15.25,M,1,3335*42
$GNRMC,113043.400,A,2500.8052409,N,12132.4792594,E,0.45,49.85,100523,,,R,V*2B
$GNACCURACY,3.2*17
$GNGGA,113043.500,2500.8052571,N,12132.4792593,E,4,55,0.48,17.549,M,15.25,M,0,3335*4E
$GNRMC,113043.500,A,2500.8052571,N,12132.4792593,E,0.48,49.85,100523,,,R,V*2E
$GNACCURACY,3.2*17
$GNGGA,113043.600,2500.8052787,N,12132.4792407,E,4,55,0.48,17.496,M,15.25,M,0,3335*49
$GNRMC,113043.600,A,2500.8052787,N,12132.4792407,E,0.51,49.85,100523,,,R,V*22
$GNACCURACY,3.2*17
$GNGGA,113043.700,2500.8052965,N,12132.4792391,E,4,55,0.48,17.505,M,15.25,M,0,3335*49
$GNRMC,113043.700,A,2500.8052965,N,12132.4792391,E,0.54,325.85,100523,,,R,V*15
$GNACCURACY,3.2*17
$GNGGA,113043.800,2500.8053151,N,12132.4792317,E,4,53,0.49,17.514,M,15.25,M,0,3335*41
$GNRMC,113043.800,A,2500.8053151,N,12132.4792317,E,0.56,328.02,100523,,,R,V*1A
$GNACCURACY,3.2*17
$GNGGA,113043.900,2500.8053353,N,12132.4792206,E,4,53,0.49,17.528,M,15.25,M,0,3335*4E
$GNRMC,113043.900,A,2500.8053353,N,12132.4792206,E,0.59,328.94,100523,,,R,V*1A
$GNGSA,A,3,13,196,195,199,15,05,11,20,29,30,194,,0.78,0.49,0.61,1*03
$GNGSA,A,3,84,70,85,71,69,,,,,,,,0.78,0.49,0.61,2*08
$GNGSA,A,3,13,08,07,15,26,,,,,,,,0.78,0.49,0.61,3*0B
$GNGSA,A,3,28,38,39,08,33,41,13,16,06,43,27,09,0.78,0.49,0.61,4*0F
$GNGSA,A,3,07,24,,,,,,,,,,,0.78,0.49,0.61,4*00
$GPGSV,4,1,15,13,84,034,37,196,72,049,41,195,63,152,43,50,60,167,42,1*67
$GPGSV,4,2,15,199,60,167,40,15,58,250,32,05,50,011,42,11,48,115,42,1*53
$GPGSV,4,3,15,20,43,049,41,29,43,279,30,30,19,060,38,194,12,162,24,1*53
$GPGSV,4,4,15,24,11,189,20,06,08,131,18,18,05,318,22,1*56
$GPGSV,3,1,09,196,72,049,47,195,63,152,47,199,60,167,48,11,48,115,43,8*5B
$GPGSV,3,2,09,30,19,060,39,194,12,162,28,24,11,189,25,06,08,131,13,8*5C
$GPGSV,3,3,09,18,05,318,28,8*58
$GLGSV,2,1,05,84,65,154,29,70,53,310,24,85,48,331,45,71,24,253,24,1*7C
$GLGSV,2,2,05,69,23,028,25,1*4E
$GAGSV,2,1,06,13,69,349,40,08,68,019,40,07,52,236,32,15,49,123,38,7*7F
$GAGSV,2,2,06,26,17,322,19,34,01,135,,7*7D
$GAGSV,2,1,05,13,69,349,46,08,68,019,46,07,52,236,23,15,49,123,40,1*75
$GAGSV,2,2,05,26,17,322,24,1*47
$GBGSV,5,1,19,28,70,258,38,38,57,014,43,39,51,178,42,08,49,353,41,1*7B
$GBGSV,5,2,19,33,49,017,41,41,48,290,43,13,44,335,41,16,43,181,45,1*79
$GBGSV,5,3,19,06,37,186,39,43,32,164,45,27,30,315,30,09,23,193,27,1*7F
$GBGSV,5,4,19,10,23,220,17,07,20,204,27,40,17,197,26,25,14,146,26,1*73
$GBGSV,5,5,19,24,13,091,,11,09,154,,42,08,054,,1*44
$GBGSV,2,1,08,28,70,258,29,38,57,014,46,39,51,178,43,33,49,017,46,4*71
$GBGSV,2,2,08,41,48,290,41,43,32,164,42,27,30,315,25,24,13,091,21,4*76
$GNACCURACY,3.2*17
$PAIRSAT,1,35,1,0,200,2,0,200,3,0,200,4,0,200,5,0,201,6,0,221,7,0,200,8,0,200,9,0,200,10,0,200,11,0,221,12,0,200,13,0,201,14,0,200,15,0,201,16,0,200,17,0,200,18,0,221,19,0,200,20,0,201,21,0,200,23,0,200,24,0,200,25,0,200,26,0,200,27,0,200,28,0,200,29,0,201,30,0,221,31,0,200,32,0,200,194,0,621,195,0,621,196,0,620,199,0,621*6A
$PAIRSAT,2,24,65,0,200,66,0,200,67,0,200,68,0,200,69,0,201,70,0,201,71,0,201,72,0,200,73,0,200,74,0,200,75,0,200,76,0,200,77,0,200,78,0,200,79,0,200,80,0,200,81,0,200,82,0,200,83,0,200,84,0,201,85,0,201,86,0,200,87,0,200,88,0,200*7B
$PAIRSAT,3,22,2,0,200,4,0,1200,5,0,200,7,0,1221,8,0,1221,9,0,1200,10,0,1200,11,0,1200,12,0,1200,13,0,1221,15,0,1221,19,0,1200,21,0,1200,24,0,1200,25,0,1200,26,0,1221,27,0,1200,30,0,1200,31,0,1200,33,0,1200,34,0,1221,36,0,1200*76
$PAIRSAT,4,46,1,0,201,2,0,201,3,0,201,4,0,201,5,0,200,6,0,1,7,0,201,8,0,201,9,0,201,10,0,201,11,0,201,12,0,200,13,0,201,15,0,200,16,0,201,19,0,600,20,0,600,21,0,600,22,0,600,23,0,600,24,0,621,25,0,621,26,0,600,27,0,621,28,0,621,29,0,600,30,0,600,32,0,600,33,0,621,34,0,600,35,0,600,36,0,600,37,0,600,38,0,621,39,0,621,40,0,621,41,0,621,42,0,621,43,0,621,44,0,600,45,0,600,46,0,600,57,0,200,59,0,601,60,0,401,61,0,600*4D
$PAIRDGP,8,5,6,11,13,15,20,29,30*42
$GNGGA,113044.000,2500.8053531,N,12132.4792082,E,4,53,0.49,17.527,M,15.25,M,1,3335*42
$GNRMC,113044.000,A,2500.8053531,N,12132.4792082,E,0.60,328.88,100523,,,R,V*1F
$GNACCURACY,3.2*17
$GNGGA,113044.100,2500.8053609,N,12132.4791957,E,4,52,0.49,17.542,M,15.25,M,1,3335*4B
$GNRMC,113044.100,A,2500.8053609,N,12132.4791957,E,0.57,326.26,100523,,,R,V*1A
$GNACCURACY,3.2*17
$GNGGA,113044.200,2500.8053742,N,12132.4791833,E,4,54,0.48,17.545,M,15.25,M,1,3335*45
$GNRMC,113044.200,A,2500.8053742,N,12132.4791833,E,0.57,324.10,100523,,,R,V*13
$GNACCURACY,3.2*17
$GNGGA,113044.300,2500.8053955,N,12132.4791627,E,4,54,0.48,17.526,M,15.25,M,1,3335*42
$GNRMC,113044.300,A,2500.8053955,N,12132.4791627,E,0.62,323.60,100523,,,R,V*17
$GNACCURACY,3.2*17
$GNGGA,113044.400,2500.8054127,N,12132.4791486,E,4,54,0.48,17.503,M,15.25,M,1,3335*41
$GNRMC,113044.400,A,2500.8054127,N,12132.4791486,E,0.63,322.67,100523,,,R,V*14
$GNACCURACY,3.2*17
$GNGGA,113044.500,2500.8054298,N,12132.4791271,E,4,54,0.48,17.480,M,15.25,M,1,3335*43
$GNRMC,113044.500,A,2500.8054298,N,12132.4791271,E,0.63,321.62,100523,,,R,V*1A
$GNACCURACY,3.2*17
$GNGGA,113044.600,2500.8054429,N,12132.4790910,E,4,54,0.47,17.442,M,15.25,M,1,3335*40
$GNRMC,113044.600,A,2500.8054429,N,12132.4790910,E,0.67,321.52,100523,,,R,V*1F
$GNACCURACY,3.2*17
$GNGGA,113044.700,2500.8054609,N,12132.4790682,E,4,52,0.49,17.448,M,15.25,M,1,3335*47
$GNRMC,113044.700,A,2500.8054609,N,12132.4790682,E,0.69,321.29,100523,,,R,V*18
$GNACCURACY,3.2*17
$GNGGA,113044.800,2500.8054834,N,12132.4790459,E,4,53,0.49,17.448,M,15.25,M,1,3335*4D
$GNRMC,113044.800,A,2500.8054834,N,12132.4790459,E,0.70,320.97,100523,,,R,V*1F
$GNACCURACY,3.2*17
$GNGGA,113044.900,2500.8054987,N,12132.4790277,E,4,55,0.47,17.443,M,15.25,M,1,3335*4C
$GNRMC,113044.900,A,2500.8054987,N,12132.4790277,E,0.73,321.20,100523,,,R,V*13
$GNGSA,A,3,13,196,195,199,15,05,11,29,20,30,194,,0.77,0.49,0.60,1*0D
$GNGSA,A,3,84,70,85,71,69,,,,,,,,0.77,0.49,0.60,2*06
$GNGSA,A,3,13,08,07,15,26,,,,,,,,0.77,0.49,0.60,3*05
$GNGSA,A,3,28,38,39,08,33,41,13,16,06,43,27,09,0.77,0.49,0.60,4*01
$GNGSA,A,3,10,07,24,,,,,,,,,,0.77,0.49,0.60,4*0F
$GPGSV,4,1,15,13,84,033,38,196,72,049,41,195,63,152,45,199,60,167,38,1*50
$GPGSV,4,2,15,50,60,167,42,15,58,251,35,05,50,011,43,11,48,115,41,1*61
$GPGSV,4,3,15,29,43,279,38,20,43,049,29,30,19,060,38,194,12,162,28,1*59
$GPGSV,4,4,15,24,11,189,18,06,08,131,18,18,05,318,23,1*5C
$GPGSV,2,1,08,196,72,049,47,195,63,152,48,199,60,167,48,11,48,115,41,8*56
$GPGSV,2,2,08,30,19,060,38,194,12,162,24,24,11,189,26,18,05,318,29,8*50
$GLGSV,2,1,06,84,65,154,29,70,53,310,25,85,48,331,41,71,24,253,23,1*7D
$GLGSV,2,2,06,69,23,028,27,83,04,154,,1*70
$GAGSV,2,1,06,13,69,349,41,08,68,019,42,07,52,236,24,15,49,123,37,7*74
$GAGSV,2,2,06,26,17,322,20,34,01,135,,7*77
$GAGSV,2,1,05,13,69,349,46,08,68,019,47,07,52,236,35,15,49,123,41,1*72
$GAGSV,2,2,05,26,17,322,23,1*40
$GBGSV,5,1,19,28,70,258,28,38,57,014,42,39,51,178,41,08,49,353,36,1*78
$GBGSV,5,2,19,33,49,017,44,41,48,290,39,13,44,335,41,16,43,181,39,1*7A
$GBGSV,5,3,19,06,37,186,37,43,32,164,45,27,30,315,29,09,23,193,25,1*7B
$GBGSV,5,4,19,10,23,220,22,07,20,204,20,40,17,197,27,25,14,146,25,1*70
$GBGSV,5,5,19,24,13,091,,11,09,154,,42,08,054,,1*44
$GBGSV,2,1,08,28,70,258,37,38,57,014,45,39,51,178,43,33,49,017,45,4*7E
$GBGSV,2,2,08,41,48,290,40,43,32,164,43,27,30,315,23,24,13,091,24,4*75
$GNACCURACY,3.1*14
$PAIRSAT,1,35,1,0,200,2,0,200,3,0,200,4,0,200,5,0,201,6,0,221,7,0,200,8,0,200,9,0,200,10,0,200,11,0,221,12,0,200,13,0,201,14,0,200,15,0,201,16,0,200,17,0,200,18,0,221,19,0,200,20,0,201,21,0,200,23,0,200,24,0,200,25,0,200,26,0,200,27,0,200,28,0,200,29,0,201,30,0,221,31,0,200,32,0,200,194,0,621,195,0,621,196,0,620,199,0,621*6A
$PAIRSAT,2,24,65,0,200,66,0,200,67,0,200,68,0,200,69,0,201,70,0,201,71,0,201,72,0,200,73,0,200,74,0,200,75,0,200,76,0,200,77,0,200,78,0,200,79,0,200,80,0,200,81,0,200,82,0,200,83,0,200,84,0,201,85,0,201,86,0,200,87,0,200,88,0,200*7B
$PAIRSAT,3,22,2,0,200,4,0,1200,5,0,200,7,0,1221,8,0,1221,9,0,1200,10,0,1200,11,0,1200,12,0,1200,13,0,1221,15,0,1221,19,0,1200,21,0,1200,24,0,1200,25,0,1200,26,0,1221,27,0,1200,30,0,1200,31,0,1200,33,0,1200,34,0,1221,36,0,1200*76
$PAIRSAT,4,46,1,0,201,2,0,201,3,0,201,4,0,201,5,0,200,6,0,1,7,0,201,8,0,201,9,0,201,10,0,201,11,0,201,12,0,200,13,0,201,15,0,200,16,0,201,19,0,600,20,0,600,21,0,600,22,0,600,23,0,600,24,0,621,25,0,621,26,0,600,27,0,621,28,0,621,29,0,600,30,0,600,32,0,600,33,0,621,34,0,600,35,0,600,36,0,600,37,0,600,38,0,621,39,0,621,40,0,621,41,0,621,42,0,621,43,0,621,44,0,600,45,0,600,46,0,600,57,0,200,59,0,601,60,0,401,61,0,600*4D
$PAIRDGP,8,5,6,11,13,15,20,29,30*42
$GNGGA,113045.000,2500.8055191,N,12132.4790176,E,4,53,0.49,17.478,M,15.25,M,2,3335*4B
$GNRMC,113045.000,A,2500.8055191,N,12132.4790176,E,0.73,321.41,100523,,,R,V*10
$GNACCURACY,3.2*17
$GNGGA,113045.100,2500.8055458,N,12132.4790007,E,4,53,0.49,17.454,M,15.25,M,2,3335*43
$GNRMC,113045.100,A,2500.8055458,N,12132.4790007,E,0.75,321.85,100523,,,R,V*18
$GNACCURACY,3.2*17
$GNGGA,113045.200,2500.8055650,N,12132.4789926,E,4,53,0.49,17.455,M,15.25,M,2,3335*49
$GNRMC,113045.200,A,2500.8055650,N,12132.4789926,E,0.77,323.48,100523,,,R,V*12
$GNACCURACY,3.2*17
$GNGGA,113045.300,2500.8055840,N,12132.4789798,E,4,52,0.49,17.476,M,15.25,M,2,3335*4C
$GNRMC,113045.300,A,2500.8055840,N,12132.4789798,E,0.78,323.50,100523,,,R,V*11
$GNACCURACY,3.2*17
$GNGGA,113045.400,2500.8056010,N,12132.4789665,E,4,54,0.48,17.505,M,15.25,M,2,3335*44
$GNRMC,113045.400,A,2500.8056010,N,12132.4789665,E,0.78,322.96,100523,,,R,V*10
$GNACCURACY,3.2*17
$GNGGA,113045.500,2500.8056163,N,12132.4789638,E,4,54,0.48,17.529,M,15.25,M,2,3335*46
$GNRMC,113045.500,A,2500.8056163,N,12132.4789638,E,0.78,322.67,100523,,,R,V*12
$GNACCURACY,3.2*17
$GNGGA,113045.600,2500.8056328,N,12132.4789519,E,4,52,0.50,17.510,M,15.25,M,2,3335*4D
$GNRMC,113045.600,A,2500.8056328,N,12132.4789519,E,0.79,323.02,100523,,,R,V*1F
$GNACCURACY,3.2*17
$GNGGA,113045.700,2500.8056463,N,12132.4789477,E,4,52,0.50,17.517,M,15.25,M,2,3335*4A
$GNRMC,113045.700,A,2500.8056463,N,12132.4789477,E,0.78,322.79,100523,,,R,V*13
$GNACCURACY,3.2*17
$GNGGA,113045.800,2500.8056629,N,12132.4789101,E,4,53,0.49,17.476,M,15.25,M,2,3335*42
$GNRMC,113045.800,A,2500.8056629,N,12132.4789101,E,0.78,322.28,100523,,,R,V*10
$GNACCURACY,3.2*17
$GNGGA,113045.900,2500.8056817,N,12132.4788681,E,4,52,0.50,17.454,M,15.25,M,2,3335*47
$GNRMC,113045.900,A,2500.8056817,N,12132.4788681,E,0.79,322.03,100523,,,R,V*14
$GNGSA,A,3,13,196,195,199,15,05,11,29,20,30,194,,0.92,0.50,0.77,1*08
$GNGSA,A,3,84,70,85,71,69,,,,,,,,0.92,0.50,0.77,2*03
$GNGSA,A,3,13,08,07,15,26,,,,,,,,0.92,0.50,0.77,3*00
$GNGSA,A,3,28,38,39,08,33,41,13,16,06,43,27,09,0.92,0.50,0.77,4*04
$GNGSA,A,3,10,24,,,,,,,,,,,0.92,0.50,0.77,4*0D
$GPGSV,4,1,15,13,84,033,42,196,72,049,40,195,63,152,44,199,60,167,37,1*52
$GPGSV,4,2,15,50,60,167,41,15,58,251,33,05,50,011,44,11,48,115,37,1*62
$GPGSV,4,3,15,29,43,279,40,20,43,049,29,30,19,060,37,194,12,162,22,1*53
$GPGSV,4,4,15,24,11,189,21,06,08,131,18,18,05,318,24,1*51
$GPGSV,2,1,08,196,72,049,45,195,63,152,43,199,60,167,48,11,48,115,42,8*5C
$GPGSV,2,2,08,30,19,060,37,194,12,162,28,24,11,189,23,18,05,318,24,8*5B
$GLGSV,2,1,06,84,65,154,31,70,53,310,25,85,48,331,40,71,24,253,20,1*76
$GLGSV,2,2,06,69,23,028,22,83,04,154,,1*75
$GAGSV,2,1,06,13,69,349,40,08,68,019,41,07,52,236,23,15,49,123,26,7*71
$GAGSV,2,2,06,26,17,322,19,34,01,135,,7*7D
$GAGSV,2,1,05,13,69,349,44,08,68,019,47,07,52,236,34,15,49,123,38,1*7F
$GAGSV,2,2,05,26,17,322,22,1*41
$GBGSV,5,1,19,28,70,258,38,38,57,014,42,39,51,178,40,08,49,353,38,1*76
$GBGSV,5,2,19,33,49,017,46,41,48,290,32,13,44,335,39,16,43,181,37,1*72
$GBGSV,5,3,19,06,37,186,36,43,32,164,45,27,30,315,30,09,23,193,21,1*76
$GBGSV,5,4,19,10,23,220,23,07,20,204,17,40,17,197,26,25,14,146,25,1*74
$GBGSV,5,5,19,24,13,091,,11,09,154,,42,08,054,,1*44
$GBGSV,2,1,08,28,70,258,40,38,57,014,41,39,51,178,40,33,49,017,46,4*7A
$GBGSV,2,2,08,41,48,290,40,43,32,164,43,27,30,315,26,24,13,091,18,4*7F
$GNACCURACY,3.2*17
$PAIRSAT,1,35,1,0,200,2,0,200,3,0,200,4,0,200,5,0,201,6,0,221,7,0,200,8,0,200,9,0,200,10,0,200,11,0,221,12,0,200,13,0,201,14,0,200,15,0,201,16,0,200,17,0,200,18,0,221,19,0,200,20,0,201,21,0,200,23,0,200,24,0,200,25,0,200,26,0,200,27,0,200,28,0,200,29,0,201,30,0,221,31,0,200,32,0,200,194,0,621,195,0,621,196,0,620,199,0,621*6A
$PAIRSAT,2,24,65,0,200,66,0,200,67,0,200,68,0,200,69,0,201,70,0,201,71,0,201,72,0,200,73,0,200,74,0,200,75,0,200,76,0,200,77,0,200,78,0,200,79,0,200,80,0,200,81,0,200,82,0,200,83,0,200,84,0,201,85,0,201,86,0,200,87,0,200,88,0,200*7B
$PAIRSAT,3,22,2,0,200,4,0,1200,5,0,200,7,0,1221,8,0,1221,9,0,1200,10,0,1200,11,0,1200,12,0,1200,13,0,1221,15,0,1221,19,0,1200,21,0,1200,24,0,1200,25,0,1200,26,0,1221,27,0,1200,30,0,1200,31,0,1200,33,0,1200,34,0,1221,36,0,1200*76
$PAIRSAT,4,46,1,0,201,2,0,201,3,0,201,4,0,201,5,0,200,6,0,1,7,0,201,8,0,201,9,0,201,10,0,201,11,0,201,12,0,200,13,0,201,15,0,200,16,0,201,19,0,600,20,0,600,21,0,600,22,0,600,23,0,600,24,0,621,25,0,621,26,0,600,27,0,621,28,0,621,29,0,600,30,0,600,32,0,600,33,0,621,34,0,600,35,0,600,36,0,600,37,0,600,38,0,621,39,0,621,40,0,621,41,0,621,42,0,621,43,0,621,44,0,600,45,0,600,46,0,600,57,0,200,59,0,601,60,0,401,61,0,600*4D
$PAIRDGP,8,5,6,11,13,15,20,29,30*42
$GNGGA,113046.000,2500.8056975,N,12132.4788855,E,4,52,0.50,17.516,M,15.25,M,3,3335*49
$GNRMC,113046.000,A,2500.8056975,N,12132.4788855,E,0.79,321.10,100523,,,R,V*1D
$GNACCURACY,3.2*17
$GNGGA,113046.100,2500.8057104,N,12132.4788583,E,4,55,0.48,17.574,M,15.25,M,3,3335*4B
$GNRMC,113046.100,A,2500.8057104,N,12132.4788583,E,0.79,319.90,100523,,,R,V*16
$GNACCURACY,3.2*17
$GNGGA,113046.200,2500.8057245,N,12132.4788427,E,4,52,0.49,17.528,M,15.25,M,3,3335*4E
$GNRMC,113046.200,A,2500.8057245,N,12132.4788427,E,0.79,319.61,100523,,,R,V*12
$GNACCURACY,3.2*17
$GNGGA,113046.300,2500.8057449,N,12132.4788001,E,4,52,0.49,17.482,M,15.25,M,3,3335*44
$GNRMC,113046.300,A,2500.8057449,N,12132.4788001,E,0.79,319.58,100523,,,R,V*13
$GNACCURACY,3.2*17
$GNGGA,113046.400,2500.8057630,N,12132.4787878,E,4,54,0.48,17.504,M,15.25,M,3,3335*4E
$GNRMC,113046.400,A,2500.8057630,N,12132.4787878,E,0.80,319.14,100523,,,R,V*1F
$GNACCURACY,3.2*17
$GNGGA,113046.500,2500.8057791,N,12132.4787590,E,4,52,0.49,17.520,M,15.25,M,3,3335*4F
$GNRMC,113046.500,A,2500.8057791,N,12132.4787590,E,0.80,319.02,100523,,,R,V*18
$GNACCURACY,3.2*17
$GNGGA,113046.600,2500.8057958,N,12132.4787548,E,4,52,0.49,17.506,M,15.25,M,3,3335*46
$GNRMC,113046.600,A,2500.8057958,N,12132.4787548,E,0.80,318.45,100523,,,R,V*17
$GNACCURACY,3.2*17
$GNGGA,113046.700,2500.8058066,N,12132.4787192,E,4,52,0.49,17.540,M,15.25,M,3,3335*4D
$GNRMC,113046.700,A,2500.8058066,N,12132.4787192,E,0.80,318.34,100523,,,R,V*18
$GNACCURACY,3.2*17
$GNGGA,113046.800,2500.8058233,N,12132.4787135,E,4,52,0.49,17.578,M,15.25,M,3,3335*46
$GNRMC,113046.800,A,2500.8058233,N,12132.4787135,E,0.80,318.54,100523,,,R,V*1E
$GNACCURACY,3.2*17
$GNGGA,113046.900,2500.8058471,N,12132.4786957,E,4,54,0.48,17.523,M,15.25,M,3,3335*43
$GNRMC,113046.900,A,2500.8058471,N,12132.4786957,E,0.80,319.11,100523,,,R,V*12
$GNGSA,A,3,13,196,195,199,15,05,11,29,20,30,194,,0.86,0.48,0.72,1*01
$GNGSA,A,3,84,70,85,71,69,,,,,,,,0.86,0.48,0.72,2*0A
$GNGSA,A,3,13,08,07,15,26,,,,,,,,0.86,0.48,0.72,3*09
$GNGSA,A,3,28,38,39,08,33,41,13,16,06,43,27,09,0.86,0.48,0.72,4*0D
$GNGSA,A,3,10,07,40,25,24,,,,,,,,0.86,0.48,0.72,4*00
$GPGSV,4,1,15,13,84,033,41,196,72,049,39,195,63,152,44,199,60,167,38,1*50
$GPGSV,4,2,15,50,60,167,41,15,58,251,32,05,50,011,41,11,48,115,37,1*66
$GPGSV,4,3,15,29,43,279,37,20,43,049,33,30,19,060,32,194,12,162,22,1*5D
$GPGSV,4,4,15,24,11,189,19,06,08,131,17,18,05,318,24,1*55
$GPGSV,2,1,08,196,72,049,46,195,63,152,43,199,60,167,47,11,48,115,29,8*5D
$GPGSV,2,2,08,30,19,060,40,194,12,162,26,24,11,189,21,18,05,318,24,8*57
$GLGSV,2,1,06,84,65,154,31,70,53,310,24,85,48,331,40,71,24,253,18,1*7C
$GLGSV,2,2,06,69,23,028,26,83,04,154,,1*71
$GAGSV,2,1,06,13,69,349,38,08,68,019,43,07,52,236,25,15,49,123,37,7*7A
$GAGSV,2,2,06,26,17,322,21,34,01,135,,7*76
$GAGSV,1,1,04,13,69,349,42,08,68,019,46,15,49,123,37,26,17,322,28,1*7E
$GBGSV,5,1,19,28,70,258,42,38,57,014,42,39,51,178,37,08,49,353,38,1*7B
$GBGSV,5,2,19,33,49,017,45,41,48,290,40,13,44,335,40,16,43,181,36,1*7B
$GBGSV,5,3,19,06,37,186,34,43,32,164,44,27,30,315,26,09,23,193,23,1*70
$GBGSV,5,4,19,10,23,220,20,07,20,204,20,40,17,197,27,25,14,146,25,1*72
$GBGSV,5,5,19,24,13,091,,11,09,154,,42,08,054,,1*44
$GBGSV,2,1,08,28,70,258,39,38,57,014,45,39,51,178,40,33,49,017,43,4*75
$GBGSV,2,2,08,41,48,290,33,43,32,164,45,27,30,315,33,24,13,091,19,4*78
$GNACCURACY,3.2*17
$PAIRSAT,1,35,1,0,200,2,0,200,3,0,200,4,0,200,5,0,201,6,0,221,7,0,200,8,0,200,9,0,200,10,0,200,11,0,221,12,0,200,13,0,201,14,0,200,15,0,201,16,0,200,17,0,200,18,0,221,19,0,200,20,0,201,21,0,200,23,0,200,24,0,200,25,0,200,26,0,200,27,0,200,28,0,200,29,0,201,30,0,221,31,0,200,32,0,200,194,0,621,195,0,621,196,0,620,199,0,621*6A
$PAIRSAT,2,24,65,0,200,66,0,200,67,0,200,68,0,200,69,0,201,70,0,201,71,0,201,72,0,200,73,0,200,74,0,200,75,0,200,76,0,200,77,0,200,78,0,200,79,0,200,80,0,200,81,0,200,82,0,200,83,0,200,84,0,201,85,0,201,86,0,200,87,0,200,88,0,200*7B
$PAIRSAT,3,22,2,0,200,4,0,1200,5,0,200,7,0,1221,8,0,1221,9,0,1200,10,0,1200,11,0,1200,12,0,1200,13,0,1221,15,0,1221,19,0,1200,21,0,1200,24,0,1200,25,0,1200,26,0,1221,27,0,1200,30,0,1200,31,0,1200,33,0,1200,34,0,1221,36,0,1200*76
$PAIRSAT,4,46,1,0,201,2,0,201,3,0,201,4,0,201,5,0,200,6,0,1,7,0,201,8,0,201,9,0,201,10,0,201,11,0,201,12,0,200,13,0,201,15,0,200,16,0,201,19,0,600,20,0,600,21,0,600,22,0,600,23,0,600,24,0,621,25,0,621,26,0,600,27,0,621,28,0,621,29,0,600,30,0,600,32,0,600,33,0,621,34,0,600,35,0,600,36,0,600,37,0,600,38,0,621,39,0,621,40,0,621,41,0,621,42,0,621,43,0,621,44,0,600,45,0,600,46,0,600,57,0,200,59,0,601,60,0,401,61,0,600*4D
$PAIRDGP,8,5,6,11,13,15,20,29,30*42
$GNGGA,113047.000,2500.8058776,N,12132.4786870,E,4,54,0.48,17.433,M,15.25,M,4,3335*4C
$GNRMC,113047.000,A,2500.8058776,N,12132.4786870,E,0.81,319.47,100523,,,R,V*18
$GNACCURACY,3.2*17
$GNGGA,113047.100,2500.8059007,N,12132.4786643,E,4,52,0.49,17.466,M,15.25,M,4,3335*44
$GNRMC,113047.100,A,2500.8059007,N,12132.4786643,E,0.81,319.97,100523,,,R,V*1A
$GNACCURACY,3.2*17
$GNGGA,113047.200,2500.8059192,N,12132.4786625,E,4,52,0.49,17.525,M,15.25,M,4,3335*4C
$GNRMC,113047.200,A,2500.8059192,N,12132.4786625,E,0.81,320.78,100523,,,R,V*1F
$GNACCURACY,3.2*17
