$FW : RTK35X,V1.0X0825AS,Lib20210517,8,0*49
$Tool : LOCOSYS , GNSS Firebird , v1.0.0.19*39
$---------------------------------------------------*2D
$GNGLL,2500.8052508,N,12132.4794491,E,100404.000,A,R*51
$GNGGA,100404.000,2500.8052508,N,12132.4794491,E,4,62,0.47,17.411,M,15.25,M,2,3335*40
$GNRMC,100404.000,A,2500.8052508,N,12132.4794491,E,0.03,91.49,120523,,,R,V*2D
$GNGSA,A,3,196,195,11,199,20,13,05,06,29,30,194,12,0.78,0.48,0.62,1*00
$GNGSA,A,3,71,86,85,72,,,,,,,,,0.78,0.48,0.62,2*05
$GNGSA,A,3,19,33,12,04,10,,,,,,,,0.78,0.48,0.62,3*0A
$GNGSA,A,3,44,12,21,03,59,38,08,22,13,04,10,60,0.78,0.48,0.62,4*0E
$GNGSA,A,3,34,07,40,39,35,42,11,,,,,,0.78,0.48,0.62,4*0D
$GPGSV,5,1,17,196,74,060,38,195,71,117,38,11,60,045,42,199,60,167,39,1*5D
$GPGSV,5,2,17,20,53,357,44,13,52,184,39,05,51,312,42,41,38,241,30,1*6F
$GPGSV,5,3,17,06,32,100,30,15,27,216,24,29,24,317,32,30,18,097,23,1*6F
$GPGSV,5,4,17,19,15,156,17,194,15,170,32,12,12,236,16,07,09,065,16,1*5E
$GPGSV,5,5,17,25,05,267,13,1*51
$GPGSV,2,1,07,196,74,060,46,195,71,117,45,11,60,045,40,199,60,167,46,8*5B
$GPGSV,2,2,07,06,32,100,43,30,18,097,26,194,15,170,32,8*64
$GLGSV,2,1,05,71,65,351,40,86,63,007,44,85,53,118,33,72,50,241,21,1*73
$GLGSV,2,2,05,87,12,332,19,1*4B
$GAGSV,2,1,07,19,78,080,34,33,54,082,37,12,50,342,39,04,36,208,23,7*73
$GAGSV,2,2,07,10,28,323,23,31,07,216,,24,06,262,,7*4A
$GAGSV,2,1,05,19,78,080,37,33,54,082,36,12,50,342,42,04,36,208,28,1*72
$GAGSV,2,2,05,10,28,323,25,1*4E
$GBGSV,6,1,23,44,86,170,45,12,68,326,41,21,65,280,38,03,60,206,25,1*71
$GBGSV,6,2,23,59,55,141,44,38,53,357,42,08,45,337,37,22,45,028,36,1*75
$GBGSV,6,3,23,13,41,320,37,02,40,242,,04,39,117,25,10,39,227,21,1*73
$GBGSV,6,4,23,60,37,247,24,34,36,320,35,07,36,208,21,40,34,197,33,1*72
$GBGSV,6,5,23,39,33,170,44,35,32,143,46,16,26,174,40,06,21,180,33,1*72
$GBGSV,6,6,23,42,20,240,23,11,16,322,29,09,10,190,22,1*4B
$GBGSV,3,1,09,44,86,170,47,21,65,280,38,38,53,357,42,22,45,028,37,4*77
$GBGSV,3,2,09,34,36,320,37,40,34,197,34,39,33,170,44,35,32,143,44,4*7A
$GBGSV,3,3,09,42,20,240,29,4*43
$GNGLL,2500.8052546,N,12132.4794662,E,100405.000,A,R*54
$GNGGA,100405.000,2500.8052546,N,12132.4794662,E,4,61,0.48,17.449,M,15.25,M,3,3335*45
$GNRMC,100405.000,A,2500.8052546,N,12132.4794662,E,0.05,91.49,120523,,,R,V*2E
$GNGLL,2500.8052688,N,12132.4794512,E,100406.000,A,R*52
$GNGGA,100406.000,2500.8052688,N,12132.4794512,E,4,59,0.50,17.429,M,15.25,M,4,3335*40
$GNRMC,100406.000,A,2500.8052688,N,12132.4794512,E,0.05,91.49,120523,,,R,V*28
$GNGLL,2500.8052697,N,12132.4794583,E,100407.000,A,R*55
$GNGGA,100407.000,2500.8052697,N,12132.4794583,E,4,59,0.50,17.440,M,15.25,M,5,3335*49
$GNRMC,100407.000,A,2500.8052697,N,12132.4794583,E,0.02,91.49,120523,,,R,V*28
$GNGLL,2500.8052854,N,12132.4794503,E,100408.000,A,R*53
$GNGGA,100408.000,2500.8052854,N,12132.4794503,E,4,60,0.49,17.439,M,15.25,M,6,3335*40
$GNRMC,100408.000,A,2500.8052854,N,12132.4794503,E,0.04,91.49,120523,,,R,V*28
$GNGLL,2500.8052799,N,12132.4794502,E,100409.000,A,R*5D
$GNGGA,100409.000,2500.8052799,N,12132.4794502,E,4,62,0.48,17.427,M,15.25,M,6,3335*42
$GNRMC,100409.000,A,2500.8052799,N,12132.4794502,E,0.01,91.49,120523,,,R,V*23
$GNGSA,A,3,196,195,11,199,20,13,05,06,29,30,194,12,0.77,0.48,0.61,1*0C
$GNGSA,A,3,71,86,85,72,,,,,,,,,0.77,0.48,0.61,2*09
$GNGSA,A,3,19,33,12,04,10,,,,,,,,0.77,0.48,0.61,3*06
$GNGSA,A,3,44,12,21,03,59,38,08,22,13,04,10,34,0.77,0.48,0.61,4*03
$GNGSA,A,3,07,40,39,35,16,06,42,11,,,,,0.77,0.48,0.61,4*07
$GPGSV,5,1,17,196,74,060,37,195,71,117,38,11,60,045,42,199,60,167,39,1*52
$GPGSV,5,2,17,20,53,357,44,13,52,184,39,05,51,312,41,41,38,241,31,1*6D
$GPGSV,5,3,17,06,32,100,30,15,27,216,27,29,24,317,32,30,18,097,21,1*6E
$GPGSV,5,4,17,19,15,156,16,194,15,170,32,12,12,236,16,07,09,065,,1*58
$GPGSV,5,5,17,25,05,267,11,1*53
$GPGSV,2,1,07,196,74,060,46,195,71,117,45,11,60,045,40,199,60,167,46,8*5B
$GPGSV,2,2,07,06,32,100,43,30,18,097,29,194,15,170,34,8*6D
$GLGSV,2,1,05,71,65,351,41,86,63,007,44,85,53,118,30,72,50,241,26,1*76
$GLGSV,2,2,05,87,12,332,18,1*4A
$GAGSV,2,1,06,19,78,080,35,33,54,082,35,12,50,342,39,04,36,208,21,7*73
$GAGSV,2,2,06,10,28,323,22,31,07,216,,7*7C
$GAGSV,1,1,04,19,78,080,37,33,54,082,38,12,50,342,42,10,28,323,22,1*76
$GBGSV,6,1,24,44,86,170,45,12,68,326,41,21,65,280,39,03,60,206,28,1*7A
$GBGSV,6,2,24,61,58,205,,59,55,141,44,38,53,357,42,08,45,337,38,1*7E
$GBGSV,6,3,24,22,45,028,38,13,41,320,38,02,40,242,,04,39,117,29,1*78
$GBGSV,6,4,24,10,39,227,25,60,37,247,,34,36,320,36,07,36,208,24,1*72
$GBGSV,6,5,24,40,34,197,33,39,33,170,44,35,32,143,44,16,26,174,40,1*77
$GBGSV,6,6,24,06,21,180,34,42,20,240,24,11,16,322,29,09,10,190,25,1*77
$GBGSV,3,1,09,44,86,170,47,21,65,280,38,38,53,357,42,22,45,028,36,4*76
$GBGSV,3,2,09,34,36,320,37,40,34,197,34,39,33,170,44,35,32,143,44,4*7A
$GBGSV,3,3,09,42,20,240,24,4*4E
$GNGLL,2500.8052753,N,12132.4794558,E,100410.000,A,R*5C
$GNGGA,100410.000,2500.8052753,N,12132.4794558,E,4,61,0.48,17.455,M,15.25,M,7,3335*44
$GNRMC,100410.000,A,2500.8052753,N,12132.4794558,E,0.07,91.49,120523,,,R,V*24
$GNGLL,2500.8053398,N,12132.4793984,E,100411.000,A,R*55
$GNGGA,100411.000,2500.8053398,N,12132.4793984,E,4,63,0.47,17.450,M,15.25,M,8,3335*4A
$GNRMC,100411.000,A,2500.8053398,N,12132.4793984,E,0.66,324.95,120523,,,R,V*16
$GNGLL,2500.8056438,N,12132.4790716,E,100412.000,A,R*58
$GNGGA,100412.000,2500.8056438,N,12132.4790716,E,4,61,0.47,17.434,M,15.25,M,9,3335*46
$GNRMC,100412.000,A,2500.8056438,N,12132.4790716,E,1.48,314.89,120523,,,R,V*18
$GNGLL,2500.8060636,N,12132.4786541,E,100413.000,A,R*57
$GNGGA,100413.000,2500.8060636,N,12132.4786541,E,4,62,0.47,17.417,M,15.25,M,10,3335*73
$GNRMC,100413.000,A,2500.8060636,N,12132.4786541,E,1.92,317.34,120523,,,R,V*15
$GNGLL,2500.8064759,N,12132.4783987,E,100414.000,A,R*5F
$GNGGA,100414.000,2500.8064759,N,12132.4783987,E,4,63,0.46,17.646,M,15.25,M,11,3335*7C
$GNRMC,100414.000,A,2500.8064759,N,12132.4783987,E,1.94,321.70,120523,,,R,V*1E
$GNGSA,A,3,196,195,199,11,20,13,05,06,29,30,194,19,0.76,0.46,0.60,1*09
$GNGSA,A,3,12,,,,,,,,,,,,0.76,0.46,0.60,1*07
$GNGSA,A,3,71,86,85,72,,,,,,,,,0.76,0.46,0.60,2*07
$GNGSA,A,3,19,33,12,04,10,,,,,,,,0.76,0.46,0.60,3*08
$GNGSA,A,3,44,12,21,03,59,38,08,22,13,04,10,60,0.76,0.46,0.60,4*0C
$GNGSA,A,3,34,07,40,39,35,16,06,42,11,,,,0.76,0.46,0.60,4*0E
$GPGSV,5,1,17,196,74,060,41,195,71,117,40,199,60,167,39,11,60,045,41,1*5F
$GPGSV,5,2,17,20,53,357,44,13,52,184,37,05,51,312,33,41,38,241,28,1*6E
$GPGSV,5,3,17,06,32,100,27,15,27,216,26,29,24,317,31,30,18,097,23,1*68
$GPGSV,5,4,17,194,15,170,35,19,15,156,19,12,12,236,15,07,09,065,,1*53
$GPGSV,5,5,17,25,05,267,,1*53
$GPGSV,2,1,07,196,74,060,46,195,71,117,45,11,60,045,46,199,60,167,46,8*5D
$GPGSV,2,2,07,06,32,100,41,30,18,097,28,194,15,170,38,8*62
$GLGSV,2,1,05,71,65,351,43,86,63,007,44,85,53,118,40,72,50,241,28,1*7D
$GLGSV,2,2,05,87,12,332,18,1*4A
$GAGSV,2,1,05,19,78,080,36,33,54,082,35,12,50,342,37,04,36,208,22,7*7E
$GAGSV,2,2,05,10,28,323,25,7*48
$GAGSV,2,1,05,19,78,080,37,33,54,082,29,12,50,342,42,04,36,208,25,1*71
$GAGSV,2,2,05,10,28,323,29,1*42
$GBGSV,6,1,23,44,86,170,43,12,68,326,40,21,65,280,40,03,60,206,28,1*74
$GBGSV,6,2,23,59,55,141,42,38,53,357,42,08,45,337,29,22,45,028,42,1*7F
$GBGSV,6,3,23,13,41,320,35,02,40,242,,04,39,117,30,10,39,227,24,1*70
$GBGSV,6,4,23,60,37,247,31,34,36,320,36,07,36,208,21,40,34,197,23,1*74
$GBGSV,6,5,23,39,33,170,43,35,32,143,44,16,26,174,40,06,21,180,35,1*71
$GBGSV,6,6,23,42,20,240,23,11,16,322,21,09,10,190,20,1*41
$GBGSV,2,1,08,44,86,170,45,21,65,280,35,38,53,357,43,22,45,028,38,4*76
$GBGSV,2,2,08,34,36,320,32,40,34,197,23,39,33,170,43,35,32,143,42,4*78
$GNGLL,2500.8068462,N,12132.4779645,E,100415.000,A,R*5D
$GNGGA,100415.000,2500.8068462,N,12132.4779645,E,4,63,0.46,17.545,M,15.25,M,12,3335*7D
$GNRMC,100415.000,A,2500.8068462,N,12132.4779645,E,1.87,315.46,120523,,,R,V*1C
$GNGLL,2500.8072452,N,12132.4776013,E,100416.000,A,R*5C
$GNGGA,100416.000,2500.8072452,N,12132.4776013,E,4,62,0.46,17.519,M,15.25,M,13,3335*75
$GNRMC,100416.000,A,2500.8072452,N,12132.4776013,E,1.72,331.15,120523,,,R,V*17
$GNGLL,2500.8076320,N,12132.4771719,E,100417.000,A,R*51
$GNGGA,100417.000,2500.8076320,N,12132.4771719,E,4,63,0.46,17.544,M,15.25,M,14,3335*76
$GNRMC,100417.000,A,2500.8076320,N,12132.4771719,E,2.05,315.73,120523,,,R,V*1F
$GNGLL,2500.8080478,N,12132.4767703,E,100418.000,A,R*51
$GNGGA,100418.000,2500.8080478,N,12132.4767703,E,4,63,0.46,17.553,M,15.25,M,15,3335*71
$GNRMC,100418.000,A,2500.8080478,N,12132.4767703,E,2.10,315.49,120523,,,R,V*12
$GNGLL,2500.8084558,N,12132.4764103,E,100419.000,A,D*44
$GNGGA,100419.000,2500.8084558,N,12132.4764103,E,2,63,0.46,17.567,M,15.25,M,1,0035*46
$GNRMC,100419.000,A,2500.8084558,N,12132.4764103,E,1.84,317.10,120523,,,D,V*07
$GNGSA,A,3,196,195,199,11,20,13,05,06,29,30,194,19,0.76,0.46,0.60,1*09
$GNGSA,A,3,12,,,,,,,,,,,,0.76,0.46,0.60,1*07
$GNGSA,A,3,71,86,85,72,,,,,,,,,0.76,0.46,0.60,2*07
$GNGSA,A,3,19,33,12,04,10,,,,,,,,0.76,0.46,0.60,3*08
$GNGSA,A,3,44,12,21,03,59,38,08,22,13,04,10,60,0.76,0.46,0.60,4*0C
$GNGSA,A,3,34,07,40,39,35,16,06,42,11,,,,0.76,0.46,0.60,4*0E
$GPGSV,5,1,17,196,74,060,42,195,71,117,40,199,60,167,27,11,60,045,43,1*51
$GPGSV,5,2,17,20,53,357,44,13,52,184,28,05,51,312,40,41,38,241,32,1*6F
$GPGSV,5,3,17,06,32,100,31,15,27,216,30,29,24,317,38,30,18,097,25,1*67
$GPGSV,5,4,17,194,15,170,24,19,15,156,21,12,12,236,12,07,09,065,,1*5F
$GPGSV,5,5,17,25,05,267,,1*53
$GPGSV,2,1,07,196,74,060,46,195,71,117,44,11,60,045,48,199,60,167,33,8*50
$GPGSV,2,2,07,06,32,100,38,30,18,097,27,194,15,170,25,8*6F
$GLGSV,2,1,05,71,65,351,43,86,63,007,43,85,53,118,40,72,50,241,30,1*73
$GLGSV,2,2,05,87,12,332,18,1*4A
$GAGSV,2,1,05,19,78,080,37,33,54,082,40,12,50,342,27,04,36,208,27,7*79
$GAGSV,2,2,05,10,28,323,24,7*49
$GAGSV,2,1,05,19,78,080,38,33,54,082,46,12,50,342,30,04,36,208,32,1*74
$GAGSV,2,2,05,10,28,323,27,1*4C
$GBGSV,6,1,24,44,86,170,43,12,68,326,37,21,65,280,39,03,60,206,27,1*72
$GBGSV,6,2,24,59,55,141,41,38,53,357,40,08,45,337,22,22,45,028,45,1*75
$GBGSV,6,3,24,13,41,320,35,02,40,242,,04,39,117,33,10,39,227,24,1*74
$GBGSV,6,4,24,60,37,247,29,34,36,320,43,07,36,208,21,40,34,197,24,1*7F
$GBGSV,6,5,24,39,33,170,27,35,32,143,43,16,26,174,21,06,21,180,22,1*72
$GBGSV,6,6,24,42,20,240,22,11,16,322,25,09,10,190,17,45,01,135,,1*70
$GBGSV,2,1,08,44,86,170,42,21,65,280,38,38,53,357,41,22,45,028,46,4*77
$GBGSV,2,2,08,34,36,320,44,39,33,170,27,35,32,143,42,42,20,240,28,4*7E
$GNGLL,2500.8088758,N,12132.4760563,E,100420.000,A,D*46
$GNGGA,100420.000,2500.8088758,N,12132.4760563,E,2,63,0.46,17.603,M,15.25,M,2,0035*46
$GNRMC,100420.000,A,2500.8088758,N,12132.4760563,E,2.14,315.63,120523,,,D,V*09
$GNGLL,2500.8092958,N,12132.4756243,E,100421.000,A,D*42
$GNGGA,100421.000,2500.8092958,N,12132.4756243,E,2,62,0.46,17.583,M,15.25,M,3,0035*49
$GNRMC,100421.000,A,2500.8092958,N,12132.4756243,E,1.92,318.16,120523,,,D,V*0F
$GNGLL,2500.8097218,N,12132.4751863,E,100422.000,A,D*44
$GNGGA,100422.000,2500.8097218,N,12132.4751863,E,2,62,0.46,17.437,M,15.25,M,4,0035*46
$GNRMC,100422.000,A,2500.8097218,N,12132.4751863,E,2.08,308.85,120523,,,D,V*02
$GNGLL,2500.8101238,N,12132.4747303,E,100423.000,A,D*43
$GNGGA,100423.000,2500.8101238,N,12132.4747303,E,2,61,0.46,17.359,M,15.25,M,5,0035*4C
$GNRMC,100423.000,A,2500.8101238,N,12132.4747303,E,1.91,326.10,120523,,,D,V*06
$GNGLL,2500.8105798,N,12132.4743283,E,100424.000,A,D*42
$GNGGA,100424.000,2500.8105798,N,12132.4743283,E,2,61,0.46,17.312,M,15.25,M,6,0035*41
$GNRMC,100424.000,A,2500.8105798,N,12132.4743283,E,2.15,315.51,120523,,,D,V*0D
$GNGSA,A,3,196,195,11,199,20,13,05,06,29,19,194,12,0.76,0.46,0.60,1*09
$GNGSA,A,3,30,,,,,,,,,,,,0.76,0.46,0.60,1*07
$GNGSA,A,3,71,86,85,72,,,,,,,,,0.76,0.46,0.60,2*07
$GNGSA,A,3,19,33,12,04,10,,,,,,,,0.76,0.46,0.60,3*08
$GNGSA,A,3,44,12,21,03,59,38,08,22,13,04,10,60,0.76,0.46,0.60,4*0C
$GNGSA,A,3,34,07,40,39,35,16,06,42,11,,,,0.76,0.46,0.60,4*0E
$GPGSV,5,1,17,196,74,060,42,195,71,117,40,11,60,045,44,199,60,167,25,1*54
$GPGSV,5,2,17,20,53,357,26,13,52,184,29,05,51,314,45,41,38,241,29,1*63
$GPGSV,5,3,17,06,31,101,28,15,27,216,26,29,24,317,38,30,18,097,,1*6D
$GPGSV,5,4,17,19,15,156,23,194,15,170,24,12,12,236,17,07,09,064,20,1*5B
$GPGSV,5,5,17,25,05,267,,1*53
$GPGSV,2,1,07,196,74,060,46,195,71,117,44,11,60,045,49,199,60,167,37,8*55
$GPGSV,2,2,07,06,31,101,35,30,18,097,36,194,15,170,23,8*66
$GLGSV,2,1,06,71,65,351,32,86,63,007,40,85,53,118,40,72,50,241,28,1*7C
$GLGSV,2,2,06,70,19,028,,87,12,332,19,1*7D
$GAGSV,2,1,06,19,78,080,32,33,54,082,42,12,50,342,24,04,36,208,33,7*7B
$GAGSV,2,2,06,10,28,323,25,26,12,115,,7*79
$GAGSV,1,1,04,19,78,080,38,33,54,082,46,12,50,342,25,10,28,323,28,1*7B
$GBGSV,6,1,23,44,86,170,29,12,68,326,40,21,65,280,39,03,60,206,28,1*76
$GBGSV,6,2,23,59,55,141,31,38,53,357,25,08,45,337,24,22,45,028,42,1*77
$GBGSV,6,3,23,13,41,320,39,02,40,242,,04,39,117,30,10,39,227,25,1*7D
$GBGSV,6,4,23,60,37,247,34,34,36,320,42,07,36,208,26,40,34,197,25,1*73
$GBGSV,6,5,23,39,33,170,25,35,32,143,41,16,26,174,21,06,21,180,20,1*77
$GBGSV,6,6,23,42,20,240,22,11,16,322,26,09,10,190,16,1*42
$GBGSV,3,1,09,44,86,170,37,21,65,280,33,38,53,357,36,22,45,028,29,4*77
$GBGSV,3,2,09,34,36,320,44,40,34,197,23,39,33,170,20,35,32,143,38,4*71
$GBGSV,3,3,09,42,20,240,25,4*4F
$GNGLL,2500.8110538,N,12132.4739743,E,100425.000,A,D*4B
$GNGGA,100425.000,2500.8110538,N,12132.4739743,E,2,62,0.46,17.222,M,15.25,M,7,0035*48
$GNRMC,100425.000,A,2500.8110538,N,12132.4739743,E,1.94,318.25,120523,,,D,V*00
$GNGLL,2500.8114858,N,12132.4735723,E,100426.000,A,D*4D
$GNGGA,100426.000,2500.8114858,N,12132.4735723,E,2,61,0.45,17.172,M,15.25,M,8,0035*47
$GNRMC,100426.000,A,2500.8114858,N,12132.4735723,E,1.93,310.46,120523,,,D,V*0C
$GNGLL,2500.8118038,N,12132.4731823,E,100427.000,A,D*45
$GNGGA,100427.000,2500.8118038,N,12132.4731823,E,2,60,0.46,17.066,M,15.25,M,9,0035*48
$GNRMC,100427.000,A,2500.8118038,N,12132.4731823,E,1.68,301.52,120523,,,D,V*05
$GNGLL,2500.8123798,N,12132.4729063,E,100428.000,A,D*4A
$GNGGA,100428.000,2500.8123798,N,12132.4729063,E,2,61,0.46,17.115,M,15.25,M,10,0035*7B
$GNRMC,100428.000,A,2500.8123798,N,12132.4729063,E,1.96,320.67,120523,,,D,V*0E
$GNGLL,2500.8128538,N,12132.4725763,E,100429.000,A,D*43
$GNGGA,100429.000,2500.8128538,N,12132.4725763,E,2,62,0.45,17.135,M,15.25,M,11,0035*71
$GNRMC,100429.000,A,2500.8128538,N,12132.4725763,E,1.79,316.23,120523,,,D,V*03
$GNGSA,A,3,196,195,199,11,20,13,05,06,29,30,194,19,0.75,0.45,0.60,1*09
$GNGSA,A,3,12,,,,,,,,,,,,0.75,0.45,0.60,1*07
$GNGSA,A,3,71,86,85,72,,,,,,,,,0.75,0.45,0.60,2*07
$GNGSA,A,3,19,33,12,04,10,,,,,,,,0.75,0.45,0.60,3*08
$GNGSA,A,3,44,12,21,03,59,38,22,08,13,02,04,10,0.75,0.45,0.60,4*08
$GNGSA,A,3,60,07,34,40,39,35,16,42,11,,,,0.75,0.45,0.60,4*0E
$GPGSV,5,1,17,196,74,060,42,195,71,117,42,199,60,167,30,11,60,048,37,1*5B
$GPGSV,5,2,17,20,53,357,29,13,52,184,29,05,51,314,44,41,38,241,42,1*60
$GPGSV,5,3,17,06,31,101,39,15,27,216,33,29,24,317,40,30,18,097,30,1*65
$GPGSV,5,4,17,194,15,170,18,19,15,156,19,12,11,235,15,07,09,064,21,1*5E
$GPGSV,5,5,17,25,05,267,20,1*51
$GPGSV,2,1,07,196,74,060,45,195,71,117,45,199,60,167,39,11,60,048,48,8*55
$GPGSV,2,2,07,06,31,101,43,30,18,097,34,25,05,267,22,8*5B
$GLGSV,1,1,04,71,65,351,28,86,63,007,27,85,53,118,43,72,50,241,42,1*78
$GAGSV,2,1,07,19,78,080,37,33,54,082,42,12,50,342,22,04,36,208,31,7*7B
$GAGSV,2,2,07,10,28,323,28,26,12,115,,11,05,312,,7*40
$GAGSV,2,1,05,19,78,080,40,33,54,082,45,12,50,342,26,04,36,208,36,1*7B
$GAGSV,2,2,05,10,28,323,28,1*43
$GBGSV,6,1,23,44,86,170,46,12,68,326,41,21,65,280,49,03,60,206,28,1*79
$GBGSV,6,2,23,59,55,141,31,38,53,357,29,22,45,028,25,08,45,337,25,1*7B
$GBGSV,6,3,23,13,41,320,38,02,40,242,35,04,39,117,30,10,39,227,28,1*77
$GBGSV,6,4,23,60,37,247,42,07,36,208,29,34,36,320,42,40,34,197,26,1*7E
$GBGSV,6,5,23,39,33,170,25,35,32,143,34,16,26,174,21,06,21,180,17,1*71
$GBGSV,6,6,23,42,20,240,30,11,16,322,26,09,10,190,17,1*40
$GBGSV,3,1,09,44,86,170,45,21,65,280,46,38,53,357,25,22,45,028,34,4*7E
$GBGSV,3,2,09,34,36,320,43,40,34,197,23,39,33,170,20,35,32,143,34,4*7A
$GBGSV,3,3,09,42,20,240,26,4*4C
$GNGLL,2500.8132858,N,12132.4722223,E,100430.000,A,D*4D
$GNGGA,100430.000,2500.8132858,N,12132.4722223,E,2,63,0.45,17.186,M,15.25,M,12,0035*75
$GNRMC,100430.000,A,2500.8132858,N,12132.4722223,E,1.90,307.41,120523,,,D,V*0E
$GNGLL,2500.8137838,N,12132.4718863,E,100431.000,A,D*48
$GNGGA,100431.000,2500.8137838,N,12132.4718863,E,2,65,0.45,17.225,M,15.25,M,13,0035*7D
$GNRMC,100431.000,A,2500.8137838,N,12132.4718863,E,1.90,315.12,120523,,,D,V*0E
$GNGLL,2500.8142338,N,12132.4714843,E,100432.000,A,D*4C
$GNGGA,100432.000,2500.8142338,N,12132.4714843,E,2,65,0.45,17.390,M,15.25,M,14,0035*71
$GNRMC,100432.000,A,2500.8142338,N,12132.4714843,E,1.80,307.32,120523,,,D,V*0A
$GNGLL,2500.8146538,N,12132.4710643,E,100433.000,A,D*45
$GNGGA,100433.000,2500.8146538,N,12132.4710643,E,2,64,0.45,17.475,M,15.25,M,15,0035*74
$GNRMC,100433.000,A,2500.8146538,N,12132.4710643,E,1.87,308.47,120523,,,D,V*09
$GNGLL,2500.8150738,N,12132.4706323,E,100434.000,A,D*43
$GNGGA,100434.000,2500.8150738,N,12132.4706323,E,2,63,0.45,17.430,M,15.25,M,16,0035*77
$GNRMC,100434.000,A,2500.8150738,N,12132.4706323,E,2.10,317.59,120523,,,D,V*03
$GNGSA,A,3,196,195,199,11,13,20,05,06,29,30,194,19,0.75,0.45,0.60,1*09
$GNGSA,A,3,12,,,,,,,,,,,,0.75,0.45,0.60,1*07
$GNGSA,A,3,71,86,85,72,,,,,,,,,0.75,0.45,0.60,2*07
$GNGSA,A,3,19,33,12,04,10,,,,,,,,0.75,0.45,0.60,3*08
$GNGSA,A,3,44,12,21,03,59,38,22,08,13,02,04,10,0.75,0.45,0.60,4*08
$GNGSA,A,3,60,07,34,40,39,35,16,06,11,42,,,0.75,0.45,0.60,4*08
$GPGSV,5,1,17,196,74,060,26,195,71,117,44,199,60,167,34,11,60,048,27,1*5A
$GPGSV,5,2,17,13,54,184,45,20,53,357,33,05,51,314,43,41,38,241,40,1*62
$GPGSV,5,3,17,06,31,101,39,15,28,217,43,29,24,317,39,30,18,097,29,1*6A
$GPGSV,5,4,17,194,15,170,18,19,15,156,18,12,11,235,17,07,09,064,21,1*5D
$GPGSV,5,5,17,25,05,267,18,1*5A
$GPGSV,2,1,08,196,74,060,32,195,71,117,46,11,60,048,39,199,60,167,43,8*52
$GPGSV,2,2,08,06,31,101,39,30,18,097,39,194,15,170,20,25,05,267,23,8*59
$GLGSV,1,1,04,71,65,351,26,86,63,007,27,85,53,118,44,72,50,241,43,1*70
$GAGSV,2,1,07,19,78,080,25,33,54,082,41,12,50,342,24,04,36,208,36,7*7A
$GAGSV,2,2,07,10,28,323,22,24,06,262,,11,05,312,,7*4E
$GAGSV,2,1,05,19,78,080,38,33,54,082,45,12,50,342,24,04,36,208,41,1*76
$GAGSV,2,2,05,10,28,323,28,1*43
$GBGSV,6,1,23,44,86,170,45,12,68,326,40,21,65,280,48,03,60,206,39,1*7A
$GBGSV,6,2,23,59,55,141,42,38,53,357,37,22,45,028,32,08,45,337,26,1*75
$GBGSV,6,3,23,13,41,320,40,02,40,242,37,04,39,117,34,10,39,227,38,1*7F
$GBGSV,6,4,23,60,37,247,42,07,36,208,33,34,36,320,42,40,34,197,25,1*76
$GBGSV,6,5,23,39,33,170,25,35,32,143,31,16,26,174,20,06,21,180,19,1*7B
$GBGSV,6,6,23,42,20,240,21,11,16,322,27,09,10,190,17,1*41
$GBGSV,3,1,09,44,86,170,45,21,65,280,45,38,53,357,32,22,45,028,27,4*79
$GBGSV,3,2,09,34,36,320,34,40,34,197,31,39,33,170,28,35,32,143,31,4*74
$GBGSV,3,3,09,42,20,240,19,4*40
$GNGLL,2500.8155718,N,12132.4702363,E,100435.000,A,D*45
$GNGGA,100435.000,2500.8155718,N,12132.4702363,E,2,64,0.45,17.339,M,15.25,M,17,0035*79
$GNRMC,100435.000,A,2500.8155718,N,12132.4702363,E,1.99,320.46,120523,,,D,V*0D
$GNGLL,2500.8159798,N,12132.4698283,E,100436.000,A,D*4F
$GNGGA,100436.000,2500.8159798,N,12132.4698283,E,2,65,0.45,17.259,M,15.25,M,18,0035*7A
$GNRMC,100436.000,A,2500.8159798,N,12132.4698283,E,1.84,313.46,120523,,,D,V*0B
$GNGLL,2500.8164478,N,12132.4693963,E,100437.000,A,D*43
$GNGGA,100437.000,2500.8164478,N,12132.4693963,E,2,65,0.45,17.191,M,15.25,M,19,0035*70
$GNRMC,100437.000,A,2500.8164478,N,12132.4693963,E,2.05,315.88,120523,,,D,V*09
$GNGLL,2500.8169098,N,12132.4689763,E,100438.000,A,D*4E
$GNGGA,100438.000,2500.8169098,N,12132.4689763,E,2,64,0.45,17.087,M,15.25,M,20,0035*70
$GNRMC,100438.000,A,2500.8169098,N,12132.4689763,E,1.91,316.98,120523,,,D,V*08
$GNGLL,2500.8172878,N,12132.4685443,E,100439.000,A,D*4E
$GNGGA,100439.000,2500.8172878,N,12132.4685443,E,2,64,0.45,17.107,M,15.25,M,21,0035*78
$GNRMC,100439.000,A,2500.8172878,N,12132.4685443,E,1.78,318.18,120523,,,D,V*09
$GNGSA,A,3,196,195,199,11,13,20,05,06,29,30,194,19,0.76,0.46,0.60,1*09
$GNGSA,A,3,12,,,,,,,,,,,,0.76,0.46,0.60,1*07
$GNGSA,A,3,71,86,85,72,,,,,,,,,0.76,0.46,0.60,2*07
$GNGSA,A,3,19,33,12,04,10,,,,,,,,0.76,0.46,0.60,3*08
$GNGSA,A,3,44,12,21,03,59,38,22,08,13,02,04,10,0.76,0.46,0.60,4*08
$GNGSA,A,3,60,07,34,40,39,35,16,06,11,,,,0.76,0.46,0.60,4*0E
$GPGSV,5,1,17,196,74,060,28,195,71,117,41,199,60,167,37,11,60,048,26,1*53
$GPGSV,5,2,17,13,54,184,45,20,53,359,30,05,51,314,46,41,38,241,41,1*6B
$GPGSV,5,3,17,06,31,101,31,15,28,217,42,29,24,317,39,30,18,097,21,1*6B
$GPGSV,5,4,17,194,15,170,23,19,13,157,17,12,11,235,18,07,09,064,19,1*59
$GPGSV,5,5,17,25,05,267,18,1*5A
$GPGSV,2,1,07,196,74,060,26,195,71,117,43,11,60,048,32,199,60,167,46,8*53
$GPGSV,2,2,07,06,31,101,41,30,18,097,27,194,15,170,22,8*64
$GLGSV,1,1,04,71,65,351,34,86,63,007,28,85,53,118,43,72,50,241,43,1*7B
$GAGSV,2,1,07,19,78,080,26,33,54,082,27,12,50,342,24,04,36,208,42,7*7A
$GAGSV,2,2,07,10,28,323,24,31,07,216,,24,06,262,,7*4D
$GAGSV,2,1,05,19,78,080,32,33,54,082,32,12,50,342,42,04,36,208,46,1*7B
$GAGSV,2,2,05,10,28,323,27,1*4C
$GBGSV,6,1,23,44,86,170,45,12,68,326,39,21,65,280,48,03,60,206,39,1*74
$GBGSV,6,2,23,59,55,141,44,38,53,357,32,22,45,028,33,08,45,337,25,1*74
$GBGSV,6,3,23,13,41,320,39,02,40,242,37,04,39,117,30,10,39,227,37,1*7A
$GBGSV,6,4,23,60,37,247,40,07,36,208,41,34,36,320,42,40,34,197,38,1*7D
$GBGSV,6,5,23,39,33,170,28,35,32,143,35,16,26,174,22,06,21,180,20,1*7A
$GBGSV,6,6,23,42,20,240,19,11,16,322,29,09,10,190,,1*42
$GBGSV,2,1,08,44,86,170,46,21,65,280,46,38,53,357,30,22,45,028,28,4*74
$GBGSV,2,2,08,34,36,320,43,40,34,197,39,39,33,170,28,35,32,143,37,4*7A
$GNGLL,2500.8176238,N,12132.4681543,E,100440.000,A,D*4F
$GNGGA,100440.000,2500.8176238,N,12132.4681543,E,2,63,0.46,17.054,M,15.25,M,22,0035*79
$GNRMC,100440.000,A,2500.8176238,N,12132.4681543,E,1.73,316.59,120523,,,D,V*08
$GNGLL,2500.8179538,N,12132.4677223,E,100441.000,A,D*4E
$GNGGA,100441.000,2500.8179538,N,12132.4677223,E,2,62,0.46,17.022,M,15.25,M,23,0035*79
$GNRMC,100441.000,A,2500.8179538,N,12132.4677223,E,1.76,310.29,120523,,,D,V*0D
$PAIR010,0,0,2261,468299*34
$PAIR010,0,1,2261,468299*35
$GNGLL,2500.8182958,N,12132.4672963,E,100442.000,A,D*49
$GNGGA,100442.000,2500.8182958,N,12132.4672963,E,2,63,0.46,17.041,M,15.25,M,24,0035*7D
$GNRMC,100442.000,A,2500.8182958,N,12132.4672963,E,1.98,312.13,120523,,,D,V*01
$GNGLL,2500.8186198,N,12132.4668283,E,100443.000,A,D*46
$GNGGA,100443.000,2500.8186198,N,12132.4668283,E,2,61,0.46,17.013,M,15.25,M,25,0035*76
$GNRMC,100443.000,A,2500.8186198,N,12132.4668283,E,1.90,313.26,120523,,,D,V*01
$GNGLL,2500.8189798,N,12132.4663483,E,100444.000,A,D*45
$GNGGA,100444.000,2500.8189798,N,12132.4663483,E,2,61,0.46,16.924,M,15.25,M,26,0035*7A
$GNRMC,100444.000,A,2500.8189798,N,12132.4663483,E,1.96,321.15,120523,,,D,V*05
$GNGSA,A,3,196,195,199,11,13,20,05,06,29,30,194,19,0.76,0.46,0.60,1*09
$GNGSA,A,3,12,,,,,,,,,,,,0.76,0.46,0.60,1*07
$GNGSA,A,3,71,86,85,72,,,,,,,,,0.76,0.46,0.60,2*07
$GNGSA,A,3,19,33,12,04,10,,,,,,,,0.76,0.46,0.60,3*08
$GNGSA,A,3,44,12,21,03,59,38,22,08,13,02,10,04,0.76,0.46,0.60,4*08
$GNGSA,A,3,60,07,34,40,39,35,16,06,11,,,,0.76,0.46,0.60,4*0E
$GPGSV,5,1,17,196,74,060,28,195,71,117,41,199,60,167,37,11,60,048,38,1*5C
$GPGSV,5,2,17,13,54,184,45,20,53,359,37,05,51,314,46,41,38,241,40,1*6D
$GPGSV,5,3,17,06,31,101,24,15,28,217,30,29,24,317,39,30,18,097,21,1*6A
$GPGSV,5,4,17,194,15,170,30,19,13,157,22,12,11,235,18,07,09,064,22,1*55
$GPGSV,5,5,17,25,05,266,18,1*5B
$GPGSV,2,1,07,196,74,060,30,195,71,117,41,11,60,048,38,199,60,167,48,8*52
$GPGSV,2,2,07,06,31,101,26,30,18,097,24,194,15,170,23,8*67
$GLGSV,1,1,04,71,65,351,42,86,63,007,31,85,53,118,30,72,50,241,43,1*76
$GAGSV,2,1,06,19,78,080,28,33,54,082,33,12,50,342,33,04,36,208,33,7*70
$GAGSV,2,2,06,10,28,323,28,26,12,115,,7*74
$GAGSV,2,1,05,19,78,080,38,33,54,082,37,12,50,342,36,04,36,208,42,1*73
$GAGSV,2,2,05,10,28,323,23,1*48
$GBGSV,6,1,23,44,86,170,46,12,68,326,40,21,65,280,48,03,60,206,40,1*77
$GBGSV,6,2,23,59,55,141,45,38,53,357,37,22,45,028,27,08,45,337,26,1*76
$GBGSV,6,3,23,13,41,320,40,02,40,242,36,10,39,227,29,04,39,117,32,1*78
$GBGSV,6,4,23,60,37,247,38,07,36,208,33,34,36,320,43,40,34,197,42,1*7B
$GBGSV,6,5,23,39,33,170,31,35,32,143,43,16,26,174,23,06,21,180,23,1*71
$GBGSV,6,6,23,42,20,240,18,11,16,322,32,09,10,190,,1*49
$GBGSV,2,1,08,44,86,170,47,21,65,280,46,38,53,357,31,22,45,028,33,4*7E
$GBGSV,2,2,08,34,36,320,44,40,34,197,42,39,33,170,37,35,32,143,40,4*7F
$GNGLL,2500.8193998,N,12132.4659523,E,100445.000,A,D*43
$GNGGA,100445.000,2500.8193998,N,12132.4659523,E,2,63,0.46,16.839,M,15.25,M,27,0035*72
$GNRMC,100445.000,A,2500.8193998,N,12132.4659523,E,1.92,315.08,120523,,,D,V*0C
$GNGLL,2500.8197778,N,12132.4654903,E,100446.000,A,D*47
$GNGGA,100446.000,2500.8197778,N,12132.4654903,E,2,62,0.46,16.743,M,15.25,M,28,0035*7A
$GNRMC,100446.000,A,2500.8197778,N,12132.4654903,E,2.15,310.78,120523,,,D,V*06
$GNGLL,2500.8201738,N,12132.4650163,E,100447.000,A,D*44
$GNGGA,100447.000,2500.8201738,N,12132.4650163,E,2,61,0.46,16.719,M,15.25,M,29,0035*74
$GNRMC,100447.000,A,2500.8201738,N,12132.4650163,E,2.01,316.13,120523,,,D,V*0B
$GNGLL,2500.8205938,N,12132.4646023,E,100448.000,A,D*43
$GNGGA,100448.000,2500.8205938,N,12132.4646023,E,2,64,0.45,16.629,M,15.25,M,30,0035*7F
$GNRMC,100448.000,A,2500.8205938,N,12132.4646023,E,2.10,318.72,120523,,,D,V*05
$GNGLL,2500.8210198,N,12132.4641823,E,100449.000,A,D*4B
$GNGGA,100449.000,2500.8210198,N,12132.4641823,E,2,65,0.45,16.554,M,15.25,M,31,0035*7E
$GNRMC,100449.000,A,2500.8210198,N,12132.4641823,E,2.12,314.81,120523,,,D,V*0F
$GNGSA,A,3,196,195,11,199,13,20,05,06,29,30,194,19,0.75,0.45,0.60,1*09
$GNGSA,A,3,12,,,,,,,,,,,,0.75,0.45,0.60,1*07
$GNGSA,A,3,71,86,85,72,,,,,,,,,0.75,0.45,0.60,2*07
$GNGSA,A,3,19,33,12,04,10,,,,,,,,0.75,0.45,0.60,3*08
$GNGSA,A,3,44,12,21,03,59,38,22,08,13,02,04,10,0.75,0.45,0.60,4*08
$GNGSA,A,3,60,07,34,40,39,35,16,06,11,42,,,0.75,0.45,0.60,4*08
$GPGSV,5,1,17,196,74,060,34,195,71,117,38,11,60,048,33,199,60,167,37,1*54
$GPGSV,5,2,17,13,54,184,44,20,53,359,41,05,51,314,44,41,38,241,40,1*6F
$GPGSV,5,3,17,06,31,101,24,15,28,217,32,29,25,316,31,30,18,096,19,1*6A
$GPGSV,5,4,17,194,15,170,23,19,13,157,20,12,11,235,18,07,09,064,20,1*57
$GPGSV,5,5,17,25,05,266,18,1*5B
$GPGSV,2,1,08,196,74,060,37,195,71,117,42,11,60,048,43,199,60,167,48,8*55
$GPGSV,2,2,08,06,31,101,26,30,18,096,20,194,15,170,21,25,05,266,23,8*5E
$GLGSV,1,1,04,71,65,351,40,86,63,007,39,85,53,118,28,72,50,241,43,1*75
$GAGSV,2,1,06,19,78,080,29,33,54,082,26,12,50,342,25,04,36,208,37,7*76
$GAGSV,2,2,06,10,28,323,31,26,12,115,,7*7C
$GAGSV,2,1,05,19,78,080,40,33,54,082,37,12,50,342,28,04,36,208,41,1*70
$GAGSV,2,2,05,10,28,323,29,1*42
$GBGSV,6,1,24,44,86,170,45,12,68,326,42,21,65,280,48,03,60,206,40,1*71
$GBGSV,6,2,24,59,55,141,42,38,53,357,39,22,45,028,30,08,45,337,23,1*7B
$GBGSV,6,3,24,13,41,320,40,02,40,242,36,04,39,117,25,10,39,227,37,1*76
$GBGSV,6,4,24,60,37,247,40,07,36,208,35,34,36,320,44,40,34,197,37,1*70
$GBGSV,6,5,24,39,33,170,38,35,32,143,44,16,26,174,29,06,21,180,30,1*70
$GBGSV,6,6,24,42,20,240,21,05,16,258,,11,16,322,30,45,01,135,,1*7C
$GBGSV,3,1,09,44,86,170,47,21,65,280,46,38,53,357,42,22,45,028,39,4*70
$GBGSV,3,2,09,34,36,320,43,40,34,197,40,39,33,170,41,35,32,143,43,4*78
$GBGSV,3,3,09,42,20,240,25,4*4F
$GNGLL,2500.8213978,N,12132.4636903,E,100450.000,A,D*45
$GNGGA,100450.000,2500.8213978,N,12132.4636903,E,2,64,0.45,16.530,M,15.25,M,32,0035*70
$GNRMC,100450.000,A,2500.8213978,N,12132.4636903,E,2.06,315.73,120523,,,D,V*08
$GNGLL,2500.8218178,N,12132.4632883,E,100451.000,A,D*4A
$GNGGA,100451.000,2500.8218178,N,12132.4632883,E,2,64,0.45,16.523,M,15.25,M,33,0035*7C
$GNRMC,100451.000,A,2500.8218178,N,12132.4632883,E,2.00,324.73,120523,,,D,V*03
$GNGLL,2500.8222498,N,12132.4628443,E,100452.000,A,D*40
$GNGGA,100452.000,2500.8222498,N,12132.4628443,E,2,64,0.46,16.360,M,15.25,M,34,0035*73
$GNRMC,100452.000,A,2500.8222498,N,12132.4628443,E,1.92,313.94,120523,,,D,V*0C
$GNGLL,2500.8226398,N,12132.4623763,E,100453.000,A,D*48
$GNGGA,100453.000,2500.8226398,N,12132.4623763,E,2,63,0.46,16.235,M,15.25,M,35,0035*7C
$GNRMC,100453.000,A,2500.8226398,N,12132.4623763,E,2.18,313.91,120523,,,D,V*00
$GNGLL,2500.8230718,N,12132.4619203,E,100454.000,A,D*4E
$GNGGA,100454.000,2500.8230718,N,12132.4619203,E,2,63,0.46,16.103,M,15.25,M,36,0035*7F
$GNRMC,100454.000,A,2500.8230718,N,12132.4619203,E,2.08,321.93,120523,,,D,V*04
$GNGSA,A,3,196,195,199,11,13,20,05,29,194,19,06,30,0.77,0.48,0.61,1*07
$GNGSA,A,3,71,86,85,72,,,,,,,,,0.77,0.48,0.61,2*09
$GNGSA,A,3,19,33,12,04,10,,,,,,,,0.77,0.48,0.61,3*06
$GNGSA,A,3,44,12,21,03,59,38,22,08,13,02,10,60,0.77,0.48,0.61,4*04
$GNGSA,A,3,07,34,40,39,35,16,06,42,11,,,,0.77,0.48,0.61,4*00
$GPGSV,5,1,17,196,74,060,42,195,71,118,42,199,60,167,37,11,60,048,36,1*52
$GPGSV,5,2,17,13,54,184,44,20,53,359,25,05,51,314,45,41,38,241,40,1*6C
$GPGSV,5,3,17,06,31,101,23,15,28,217,32,29,25,316,34,30,18,096,,1*60
$GPGSV,5,4,17,194,15,170,23,19,13,157,24,12,11,235,,07,09,064,21,1*5B
$GPGSV,5,5,17,25,05,266,17,1*54
$GPGSV,2,1,08,196,74,060,45,195,71,118,45,11,60,048,47,199,60,167,48,8*5C
$GPGSV,2,2,08,06,31,101,25,30,18,096,17,194,15,170,25,25,05,266,21,8*5F
$GLGSV,2,1,05,71,65,351,27,86,63,007,30,85,53,118,28,72,50,241,44,1*78
$GLGSV,2,2,05,70,19,028,,1*48
$GAGSV,2,1,06,19,78,080,35,33,54,082,38,12,50,342,24,04,36,208,40,7*75
$GAGSV,2,2,06,10,28,323,32,11,05,312,,7*78
$GAGSV,2,1,05,19,78,080,39,33,54,082,45,12,50,342,29,04,36,208,43,1*78
$GAGSV,2,2,05,10,28,323,30,1*4A
$GBGSV,6,1,23,44,86,170,46,12,68,326,42,21,65,280,47,03,60,206,40,1*7A
$GBGSV,6,2,23,59,55,141,43,38,53,357,27,22,45,028,34,08,45,337,25,1*70
$GBGSV,6,3,23,13,41,320,40,02,40,242,37,04,39,117,,10,39,227,37,1*77
$GBGSV,6,4,23,60,37,247,42,07,36,208,36,34,36,320,34,40,34,197,38,1*7E
$GBGSV,6,5,23,39,33,170,42,35,32,143,45,16,26,174,33,06,21,180,24,1*75
$GBGSV,6,6,23,42,20,240,25,11,16,322,36,05,16,258,35,1*48
$GBGSV,2,1,08,44,86,170,45,21,65,280,46,38,53,357,27,22,45,028,31,4*79
$GBGSV,2,2,08,34,36,320,41,40,34,197,41,39,33,170,42,35,32,143,42,4*79
$GNGLL,2500.8235038,N,12132.4614943,E,100455.000,A,D*4D
$GNGGA,100455.000,2500.8235038,N,12132.4614943,E,2,60,0.48,15.963,M,15.25,M,37,0035*7D
$GNRMC,100455.000,A,2500.8235038,N,12132.4614943,E,2.06,317.33,120523,,,D,V*06
$GNGLL,2500.8239238,N,12132.4610623,E,100456.000,A,D*4D
$GNGGA,100456.000,2500.8239238,N,12132.4610623,E,2,61,0.48,15.801,M,15.25,M,38,0035*76
$GNRMC,100456.000,A,2500.8239238,N,12132.4610623,E,2.07,315.53,120523,,,D,V*03
$GNGLL,2500.8243618,N,12132.4606723,E,100457.000,A,D*41
$GNGGA,100457.000,2500.8243618,N,12132.4606723,E,2,61,0.50,15.600,M,15.25,M,39,0035*7D
$GNRMC,100457.000,A,2500.8243618,N,12132.4606723,E,2.02,315.47,120523,,,D,V*0F
$GNGLL,2500.8247818,N,12132.4602703,E,100458.000,A,D*42
$GNGGA,100458.000,2500.8247818,N,12132.4602703,E,2,61,0.50,15.600,M,15.25,M,40,0035*70
$GNRMC,100458.000,A,2500.8247818,N,12132.4602703,E,2.08,318.34,120523,,,D,V*0F
$GNGLL,2500.8252198,N,12132.4599103,E,100459.000,A,D*41
$GNGGA,100459.000,2500.8252198,N,12132.4599103,E,2,57,0.53,15.649,M,15.25,M,41,0035*79
$GNRMC,100459.000,A,2500.8252198,N,12132.4599103,E,2.11,319.83,120523,,,D,V*09
$GNGSA,A,3,195,11,199,13,20,05,06,29,194,19,196,,0.81,0.50,0.64,1*01
$GNGSA,A,3,71,86,85,72,,,,,,,,,0.81,0.50,0.64,2*0C
$GNGSA,A,3,19,33,12,04,10,,,,,,,,0.81,0.50,0.64,3*03
$GNGSA,A,3,44,12,21,03,59,38,08,22,13,02,10,60,0.81,0.50,0.64,4*01
$GNGSA,A,3,34,07,40,39,35,16,06,42,11,,,,0.81,0.50,0.64,4*05
$GPGSV,5,1,17,196,74,060,24,195,71,118,42,11,60,048,36,199,60,167,36,1*53
$GPGSV,5,2,17,13,54,184,45,20,53,359,35,05,51,314,36,41,38,241,40,1*68
$GPGSV,5,3,17,06,31,101,25,15,28,217,41,29,25,316,39,30,18,096,,1*6F
$GPGSV,5,4,17,194,15,170,24,19,13,157,22,12,11,235,,07,09,064,20,1*5B
$GPGSV,5,5,17,25,05,266,18,1*5B
$GPGSV,2,1,07,196,74,060,29,195,71,118,45,199,60,167,48,11,60,048,42,8*5C
$GPGSV,2,2,07,06,31,101,28,194,15,170,25,25,05,266,20,8*6F
$GLGSV,2,1,05,71,65,351,24,86,63,007,35,85,53,118,37,72,50,241,42,1*76
$GLGSV,2,2,05,87,12,332,,1*43
$GAGSV,2,1,07,19,78,080,26,33,54,082,39,12,50,342,22,04,36,208,40,7*71
$GAGSV,2,2,07,10,28,323,35,26,12,115,,11,05,312,,7*4C
$GAGSV,2,1,05,19,78,080,34,33,54,082,33,12,50,342,26,04,36,208,43,1*7B
$GAGSV,2,2,05,10,28,323,36,1*4C
$GBGSV,6,1,23,44,86,170,46,12,68,326,40,21,65,280,47,03,60,206,40,1*78
$GBGSV,6,2,23,59,55,141,42,38,53,357,36,08,45,337,24,22,45,028,31,1*75
$GBGSV,6,3,23,13,41,320,39,02,40,242,36,10,39,227,37,04,39,117,,1*78
$GBGSV,6,4,23,60,37,247,43,34,36,320,43,07,36,208,39,40,34,197,40,1*7F
$GBGSV,6,5,23,39,33,170,41,35,32,143,45,16,26,174,37,06,21,180,26,1*70
$GBGSV,6,6,23,42,20,240,44,11,16,322,35,05,16,258,34,1*4D
$GBGSV,3,1,09,44,86,170,47,21,65,280,45,38,53,357,29,22,45,028,33,4*74
$GBGSV,3,2,09,34,36,320,42,40,34,197,43,39,33,170,42,35,32,143,41,4*7B
$GBGSV,3,3,09,42,20,240,43,4*4F
$GNGLL,2500.8256698,N,12132.4595323,E,100500.000,A,D*43
$GNGGA,100500.000,2500.8256698,N,12132.4595323,E,2,60,0.50,15.616,M,15.25,M,42,0035*75
$GNRMC,100500.000,A,2500.8256698,N,12132.4595323,E,2.05,321.88,120523,,,D,V*0E
$GNGLL,2500.8261438,N,12132.4591183,E,100501.000,A,D*42
$GNGGA,100501.000,2500.8261438,N,12132.4591183,E,2,61,0.49,15.594,M,15.25,M,43,0035*75
$GNRMC,100501.000,A,2500.8261438,N,12132.4591183,E,2.15,313.79,120523,,,D,V*01
$GNGLL,2500.8265698,N,12132.4587043,E,100502.000,A,D*47
$GNGGA,100502.000,2500.8265698,N,12132.4587043,E,2,60,0.49,15.541,M,15.25,M,44,0035*7E
$GNRMC,100502.000,A,2500.8265698,N,12132.4587043,E,1.95,317.14,120523,,,D,V*00
$GNGLL,2500.8270138,N,12132.4582423,E,100503.000,A,D*48
$GNGGA,100503.000,2500.8270138,N,12132.4582423,E,2,61,0.49,15.434,M,15.25,M,45,0035*72
$GNRMC,100503.000,A,2500.8270138,N,12132.4582423,E,2.20,311.81,120523,,,D,V*08
$GNGLL,2500.8274698,N,12132.4577743,E,100504.000,A,D*49
$GNGGA,100504.000,2500.8274698,N,12132.4577743,E,2,61,0.49,15.409,M,15.25,M,46,0035*7E
$GNRMC,100504.000,A,2500.8274698,N,12132.4577743,E,2.23,311.07,120523,,,D,V*04
$GNGSA,A,3,196,195,199,11,13,20,05,06,29,194,19,12,0.79,0.49,0.62,1*0B
$GNGSA,A,3,71,86,85,72,,,,,,,,,0.79,0.49,0.62,2*05
$GNGSA,A,3,19,33,12,04,10,,,,,,,,0.79,0.49,0.62,3*0A
$GNGSA,A,3,44,12,21,03,59,38,22,08,13,02,10,60,0.79,0.49,0.62,4*08
$GNGSA,A,3,07,34,40,39,35,16,06,42,11,,,,0.79,0.49,0.62,4*0C
$GPGSV,5,1,17,196,74,060,27,195,71,118,40,199,60,167,37,11,60,048,29,1*5D
$GPGSV,5,2,17,13,54,184,44,20,53,359,30,05,51,314,45,41,38,241,40,1*68
$GPGSV,5,3,17,06,31,101,27,15,28,217,44,29,25,316,41,30,18,096,,1*67
$GPGSV,5,4,17,194,15,170,26,19,13,157,26,12,11,235,35,07,09,064,23,1*58
$GPGSV,5,5,17,25,05,266,19,1*5A
$GPGSV,2,1,07,196,74,060,38,195,71,118,43,199,60,167,48,11,60,048,39,8*56
$GPGSV,2,2,07,06,31,101,30,194,15,170,25,25,05,266,20,8*66
$GLGSV,1,1,04,71,65,351,30,86,63,007,30,85,53,118,39,72,50,241,43,1*7B
$GAGSV,2,1,06,19,78,080,27,33,54,082,28,12,50,342,25,04,37,209,40,7*76
$GAGSV,2,2,06,10,28,323,37,26,12,115,,7*7A
$GAGSV,2,1,05,19,78,080,36,33,54,082,38,12,50,342,22,04,37,209,44,1*71
$GAGSV,2,2,05,10,28,323,40,1*4D
$GBGSV,6,1,24,44,86,170,46,12,68,326,41,21,65,280,45,03,60,206,40,1*7C
$GBGSV,6,2,24,59,55,141,43,38,53,357,28,22,45,028,30,08,45,337,32,1*7A
$GBGSV,6,3,24,13,41,320,31,02,40,242,36,10,39,227,37,04,39,117,,1*77
$GBGSV,6,4,24,60,37,247,43,07,36,208,39,34,36,320,37,40,34,197,40,1*7B
$GBGSV,6,5,24,39,33,170,41,35,32,143,45,16,26,174,37,06,21,180,32,1*72
$GBGSV,6,6,24,42,20,240,42,11,16,322,26,05,16,258,36,09,10,190,,1*7C
$GBGSV,3,1,09,44,86,170,46,21,65,280,46,38,53,357,32,22,45,028,27,4*79
$GBGSV,3,2,09,34,36,320,39,40,34,197,43,39,33,170,43,35,32,143,43,4*74
$GBGSV,3,3,09,42,20,240,43,4*4F
$GNGLL,2500.8279138,N,12132.4573303,E,100505.000,A,D*4C
$GNGGA,100505.000,2500.8279138,N,12132.4573303,E,2,62,0.49,15.392,M,15.25,M,47,0035*7C
$GNRMC,100505.000,A,2500.8279138,N,12132.4573303,E,2.22,315.99,120523,,,D,V*03
$GNGLL,2500.8284118,N,12132.4569883,E,100506.000,A,D*47
$GNGGA,100506.000,2500.8284118,N,12132.4569883,E,2,63,0.45,15.449,M,15.25,M,48,0035*74
$GNRMC,100506.000,A,2500.8284118,N,12132.4569883,E,1.93,319.65,120523,,,D,V*0E
$GNGLL,2500.8288258,N,12132.4566403,E,100507.000,A,D*46
$GNGGA,100507.000,2500.8288258,N,12132.4566403,E,2,62,0.49,15.564,M,15.25,M,49,0035*77
$GNRMC,100507.000,A,2500.8288258,N,12132.4566403,E,1.96,316.81,120523,,,D,V*0F
$GNGLL,2500.8291918,N,12132.4563103,E,100508.000,A,D*4E
$GNGGA,100508.000,2500.8291918,N,12132.4563103,E,2,63,0.45,15.643,M,15.25,M,50,0035*7C
$GNRMC,100508.000,A,2500.8291918,N,12132.4563103,E,1.38,308.02,120523,,,D,V*07
$GNGLL,2500.8290118,N,12132.4560463,E,100509.000,A,D*46
$GNGGA,100509.000,2500.8290118,N,12132.4560463,E,2,62,0.45,15.783,M,15.25,M,51,0035*79
$GNRMC,100509.000,A,2500.8290118,N,12132.4560463,E,1.70,206.74,120523,,,D,V*0D
$GNGSA,A,3,196,195,199,11,13,20,05,06,29,194,19,12,0.75,0.45,0.60,1*09
$GNGSA,A,3,30,,,,,,,,,,,,0.75,0.45,0.60,1*07
$GNGSA,A,3,71,86,85,72,,,,,,,,,0.75,0.45,0.60,2*07
$GNGSA,A,3,19,33,12,04,10,,,,,,,,0.75,0.45,0.60,3*08
$GNGSA,A,3,44,12,21,03,59,38,22,08,13,02,10,04,0.75,0.45,0.60,4*08
$GNGSA,A,3,60,07,34,40,39,35,16,06,42,11,,,0.75,0.45,0.60,4*08
$GPGSV,5,1,17,196,74,060,29,195,71,118,42,199,60,167,38,11,60,048,26,1*51
$GPGSV,5,2,17,13,54,184,44,20,53,359,32,05,51,314,43,41,38,241,40,1*6C
$GPGSV,5,3,17,06,31,101,24,15,28,217,40,29,25,316,25,30,18,096,,1*62
$GPGSV,5,4,17,194,15,170,25,19,13,157,27,12,11,235,38,07,09,064,24,1*50
$GPGSV,5,5,17,25,05,266,19,1*5A
$GPGSV,2,1,08,196,74,060,38,195,71,118,45,11,60,048,27,199,60,167,47,8*5F
$GPGSV,2,2,08,06,31,101,31,30,18,096,23,194,15,170,29,25,05,266,20,8*50
$GLGSV,1,1,04,71,65,351,26,86,63,007,29,85,53,118,42,72,50,241,43,1*78
$GAGSV,2,1,06,19,78,080,36,33,54,082,27,12,51,343,33,04,37,209,40,7*7E
$GAGSV,2,2,06,10,29,324,38,24,06,262,,7*77
$GAGSV,2,1,05,19,78,080,34,33,54,082,31,12,51,343,38,04,37,209,42,1*77
$GAGSV,2,2,05,10,29,324,35,1*49
$GBGSV,6,1,23,44,86,170,46,12,68,326,41,21,65,280,46,03,60,206,41,1*79
$GBGSV,6,2,23,59,55,141,43,38,53,357,28,22,45,028,37,08,45,337,35,1*7D
$GBGSV,6,3,23,13,41,320,43,02,40,242,35,10,39,227,39,04,39,117,29,1*73
$GBGSV,6,4,23,60,37,247,42,07,36,208,37,34,36,320,46,40,34,197,42,1*77
$GBGSV,6,5,23,39,33,170,43,35,32,143,44,16,26,174,38,06,21,180,35,1*7E
$GBGSV,6,6,23,42,20,240,42,11,16,322,27,05,16,258,36,1*4A
$GBGSV,3,1,09,44,86,170,45,21,65,280,46,38,53,357,23,22,45,028,25,4*78
$GBGSV,3,2,09,34,36,320,41,40,34,197,43,39,33,170,43,35,32,143,43,4*7B
$GBGSV,3,3,09,42,20,240,40,4*4C
$GNGLL,2500.8286998,N,12132.4557403,E,100510.000,A,D*4B
$GNGGA,100510.000,2500.8286998,N,12132.4557403,E,2,63,0.45,15.865,M,15.25,M,52,0035*71
$GNRMC,100510.000,A,2500.8286998,N,12132.4557403,E,1.45,237.20,120523,,,D,V*05
$GNGLL,2500.8283818,N,12132.4553323,E,100511.000,A,D*47
$GNGGA,100511.000,2500.8283818,N,12132.4553323,E,2,63,0.45,15.994,M,15.25,M,53,0035*73
$GNRMC,100511.000,A,2500.8283818,N,12132.4553323,E,1.92,225.65,120523,,,D,V*01
$GNGLL,2500.8279798,N,12132.4548583,E,100512.000,A,D*40
$GNGGA,100512.000,2500.8279798,N,12132.4548583,E,2,63,0.45,16.063,M,15.25,M,54,0035*71
$GNRMC,100512.000,A,2500.8279798,N,12132.4548583,E,2.13,223.96,120523,,,D,V*06
$GNGLL,2500.8275238,N,12132.4543423,E,100513.000,A,D*42
$GNGGA,100513.000,2500.8275238,N,12132.4543423,E,2,62,0.45,16.120,M,15.25,M,55,0035*75
$GNRMC,100513.000,A,2500.8275238,N,12132.4543423,E,2.23,227.58,120523,,,D,V*01
$GNGLL,2500.8270798,N,12132.4538023,E,100514.000,A,D*47
$GNGGA,100514.000,2500.8270798,N,12132.4538023,E,2,63,0.45,16.187,M,15.25,M,56,0035*7F
$GNRMC,100514.000,A,2500.8270798,N,12132.4538023,E,2.19,231.17,120523,,,D,V*01
$GNGSA,A,3,196,195,199,11,13,20,05,06,29,194,19,12,0.75,0.45,0.60,1*09
$GNGSA,A,3,30,,,,,,,,,,,,0.75,0.45,0.60,1*07
$GNGSA,A,3,71,86,85,72,,,,,,,,,0.75,0.45,0.60,2*07
$GNGSA,A,3,19,33,12,04,10,,,,,,,,0.75,0.45,0.60,3*08
$GNGSA,A,3,44,12,21,03,59,38,08,22,13,02,04,10,0.75,0.45,0.60,4*08
$GNGSA,A,3,60,07,34,40,39,35,16,06,42,11,,,0.75,0.45,0.60,4*08
$GPGSV,5,1,17,196,74,060,42,195,71,118,44,199,60,167,38,11,60,048,28,1*54
$GPGSV,5,2,17,13,54,184,43,20,53,359,42,05,51,314,44,41,38,241,42,1*69
$GPGSV,5,3,17,06,31,101,35,15,28,217,36,29,25,316,40,30,18,096,,1*60
$GPGSV,5,4,17,194,15,170,27,19,13,157,27,12,11,235,37,07,09,064,22,1*5B
$GPGSV,5,5,17,25,05,266,18,1*5B
$GPGSV,2,1,06,196,74,060,45,195,71,118,47,11,60,048,45,199,60,167,47,8*5D
$GPGSV,2,2,06,06,31,101,43,30,18,096,25,8*6A
$GLGSV,1,1,04,71,65,351,44,86,63,007,44,85,53,118,43,72,50,241,44,1*71
$GAGSV,2,1,07,19,78,080,36,33,54,082,26,12,51,343,35,04,37,209,42,7*7A
$GAGSV,2,2,07,10,29,324,40,24,06,262,19,11,05,312,,7*44
$GAGSV,2,1,05,19,78,080,40,33,54,082,33,12,51,343,41,04,37,209,43,1*79
$GAGSV,2,2,05,10,29,324,41,1*4A
$GBGSV,6,1,23,44,86,170,45,12,68,326,42,21,65,280,47,03,60,206,41,1*78
$GBGSV,6,2,23,59,55,141,42,38,53,357,41,08,45,337,30,22,45,028,27,1*77
$GBGSV,6,3,23,13,41,320,39,02,40,242,36,04,39,117,36,10,39,227,35,1*7F
$GBGSV,6,4,23,60,37,247,43,07,36,208,36,34,36,320,43,40,34,197,42,1*72
$GBGSV,6,5,23,39,33,170,43,35,32,143,43,16,26,174,38,06,21,180,33,1*7F
$GBGSV,6,6,23,42,20,240,42,05,16,258,38,11,16,322,23,1*40
$GBGSV,3,1,09,44,86,170,46,21,65,280,47,38,53,357,42,22,45,028,32,4*7B
$GBGSV,3,2,09,34,36,320,43,40,34,197,42,39,33,170,44,35,32,143,43,4*7F
$GBGSV,3,3,09,42,20,240,41,4*4D
$GNGLL,2500.8266538,N,12132.4532803,E,100515.000,A,D*49
$GNGGA,100515.000,2500.8266538,N,12132.4532803,E,2,63,0.45,16.245,M,15.25,M,57,0035*7D
$GNRMC,100515.000,A,2500.8266538,N,12132.4532803,E,2.23,229.80,120523,,,D,V*01
$GNGLL,2500.8261798,N,12132.4528003,E,100516.000,A,D*46
$GNGGA,100516.000,2500.8261798,N,12132.4528003,E,2,63,0.45,16.198,M,15.25,M,58,0035*7E
$GNRMC,100516.000,A,2500.8261798,N,12132.4528003,E,2.33,223.31,120523,,,D,V*0F
$GNGLL,2500.8257118,N,12132.4523383,E,100517.000,A,D*4C
$GNGGA,100517.000,2500.8257118,N,12132.4523383,E,2,63,0.45,16.188,M,15.25,M,59,0035*74
$GNRMC,100517.000,A,2500.8257118,N,12132.4523383,E,2.19,229.35,120523,,,D,V*03
$GNGLL,2500.8252438,N,12132.4518703,E,100518.000,A,D*45
$GNGGA,100518.000,2500.8252438,N,12132.4518703,E,2,64,0.45,16.129,M,15.25,M,60,0035*7B
$GNRMC,100518.000,A,2500.8252438,N,12132.4518703,E,2.31,224.01,120523,,,D,V*0A
$GNGLL,2500.8247878,N,12132.4514143,E,100519.000,A,D*46
$GNGGA,100519.000,2500.8247878,N,12132.4514143,E,2,63,0.48,16.030,M,15.25,M,61,0035*7A
$GNRMC,100519.000,A,2500.8247878,N,12132.4514143,E,2.14,227.18,120523,,,D,V*05
$GNGSA,A,3,196,195,11,199,13,20,05,29,30,194,19,12,0.75,0.45,0.60,1*0C
$GNGSA,A,3,06,,,,,,,,,,,,0.75,0.45,0.60,1*02
$GNGSA,A,3,71,86,85,72,,,,,,,,,0.75,0.45,0.60,2*07
$GNGSA,A,3,19,33,12,04,10,,,,,,,,0.75,0.45,0.60,3*08
$GNGSA,A,3,44,12,21,03,59,38,08,22,13,02,10,04,0.75,0.45,0.60,4*08
$GNGSA,A,3,60,07,34,40,39,35,16,06,42,11,,,0.75,0.45,0.60,4*08
$GPGSV,5,1,17,196,74,060,42,195,71,118,44,11,60,048,41,199,60,167,36,1*55
$GPGSV,5,2,17,13,54,184,43,20,53,359,45,05,51,314,45,41,38,241,41,1*6C
$GPGSV,5,3,17,06,31,101,24,15,28,217,31,29,25,316,38,30,18,096,20,1*6A
$GPGSV,5,4,17,194,15,170,30,19,13,157,26,12,11,235,33,07,09,064,,1*58
$GPGSV,5,5,17,25,05,266,17,1*54
$GPGSV,2,1,05,196,74,060,45,195,71,118,47,11,60,048,47,199,60,167,47,8*5C
$GPGSV,2,2,05,06,31,101,33,8*5C
$GLGSV,2,1,06,71,65,351,44,86,63,007,44,85,53,118,44,72,50,241,43,1*70
$GLGSV,2,2,06,70,19,028,,65,01,222,,1*7B
$GAGSV,2,1,07,19,77,075,36,33,54,082,42,12,51,343,38,04,37,209,40,7*72
$GAGSV,2,2,07,10,29,324,28,31,07,216,,24,06,262,19,7*4F
$GAGSV,2,1,06,19,77,075,41,33,54,082,44,12,51,343,44,04,37,209,42,1*7A
$GAGSV,2,2,06,10,29,324,23,24,06,262,24,1*7D
$GBGSV,6,1,24,44,86,170,45,12,68,326,41,21,65,280,46,03,60,206,40,1*7C
$GBGSV,6,2,24,61,58,205,,59,55,141,42,38,53,357,44,08,45,337,35,1*73
$GBGSV,6,3,24,22,45,028,35,13,41,320,39,02,40,242,36,10,39,227,27,1*7A
$GBGSV,6,4,24,04,39,117,37,60,37,247,42,07,36,208,38,34,36,320,40,1*7E
$GBGSV,6,5,24,40,34,197,43,39,33,170,41,35,32,143,44,16,26,174,35,1*77
$GBGSV,6,6,24,06,21,180,32,42,20,240,42,05,16,258,36,11,16,322,25,1*72
$GBGSV,3,1,09,44,86,170,46,21,65,280,47,38,53,357,45,22,45,028,36,4*78
$GBGSV,3,2,09,34,36,320,40,40,34,197,42,39,33,170,41,35,32,143,43,4*79
$GBGSV,3,3,09,42,20,240,41,4*4D
$GNGLL,2500.8244038,N,12132.4509643,E,100520.000,A,D*48
$GNGGA,100520.000,2500.8244038,N,12132.4509643,E,2,62,0.45,16.167,M,15.25,M,62,0035*78
$GNRMC,100520.000,A,2500.8244038,N,12132.4509643,E,1.93,230.79,120523,,,D,V*06
$GNGLL,2500.8239958,N,12132.4504903,E,100521.000,A,D*4A
$GNGGA,100521.000,2500.8239958,N,12132.4504903,E,2,62,0.46,16.178,M,15.25,M,63,0035*76
$GNRMC,100521.000,A,2500.8239958,N,12132.4504903,E,2.20,223.28,120523,,,D,V*09
$GNGLL,2500.8236298,N,12132.4499683,E,100522.000,A,D*43
$GNGGA,100522.000,2500.8236298,N,12132.4499683,E,2,63,0.45,16.397,M,15.25,M,64,0035*79
$GNRMC,100522.000,A,2500.8236298,N,12132.4499683,E,1.97,231.97,120523,,,D,V*08
$GNGLL,2500.8232218,N,12132.4494403,E,100523.000,A,D*49
$GNGGA,100523.000,2500.8232218,N,12132.4494403,E,2,63,0.45,16.512,M,15.25,M,65,0035*79
$GNRMC,100523.000,A,2500.8232218,N,12132.4494403,E,2.26,224.90,120523,,,D,V*08
$GNGLL,2500.8228018,N,12132.4488823,E,100524.000,A,D*44
$GNGGA,100524.000,2500.8228018,N,12132.4488823,E,2,64,0.45,16.702,M,15.25,M,66,0035*73
$GNRMC,100524.000,A,2500.8228018,N,12132.4488823,E,2.16,229.57,120523,,,D,V*00
$GNGSA,A,3,196,195,11,199,13,20,05,06,29,30,194,19,0.75,0.45,0.60,1*09
$GNGSA,A,3,12,,,,,,,,,,,,0.75,0.45,0.60,1*07
$GNGSA,A,3,71,86,85,72,,,,,,,,,0.75,0.45,0.60,2*07
$GNGSA,A,3,19,33,12,04,10,,,,,,,,0.75,0.45,0.60,3*08
$GNGSA,A,3,44,12,21,03,59,38,08,22,13,02,10,04,0.75,0.45,0.60,4*08
$GNGSA,A,3,60,07,34,40,39,35,16,06,42,11,,,0.75,0.45,0.60,4*08
$GPGSV,5,1,17,196,74,060,42,195,71,118,44,11,60,048,44,199,60,167,36,1*50
$GPGSV,5,2,17,13,54,184,44,20,53,359,45,05,51,314,43,41,38,241,42,1*6E
$GPGSV,5,3,17,06,31,101,37,15,28,217,22,29,25,316,42,30,18,096,28,1*6F
$GPGSV,5,4,17,194,15,170,28,19,13,157,28,12,11,235,24,07,09,064,,1*59
$GPGSV,5,5,17,25,05,266,17,1*54
$GPGSV,2,1,06,196,74,060,46,195,71,118,47,11,60,048,49,199,60,167,47,8*52
$GPGSV,2,2,06,06,31,101,43,194,15,170,32,8*57
$GLGSV,2,1,05,71,65,351,43,86,63,007,44,85,53,118,45,72,50,241,41,1*77
$GLGSV,2,2,05,65,01,222,,1*4D
$GAGSV,2,1,07,19,77,075,36,33,54,082,42,12,51,343,38,04,37,209,39,7*7C
$GAGSV,2,2,07,10,29,324,36,31,07,216,,24,06,261,17,7*4D
$GAGSV,2,1,05,19,77,075,41,33,54,082,46,12,51,343,43,04,37,209,43,1*7D
$GAGSV,2,2,05,10,29,324,41,1*4A
$GBGSV,6,1,24,44,86,170,45,12,68,326,43,21,65,280,44,03,60,206,39,1*72
$GBGSV,6,2,24,59,55,141,43,38,53,357,44,08,45,337,38,22,45,028,44,1*79
$GBGSV,6,3,24,13,41,320,41,02,40,242,36,10,39,227,21,04,39,117,38,1*7C
$GBGSV,6,4,24,60,37,247,40,07,36,208,39,34,36,320,43,40,34,197,40,1*7B
$GBGSV,6,5,24,39,33,170,40,35,32,143,42,16,26,174,37,06,21,180,35,1*73
$GBGSV,6,6,24,42,20,240,40,05,16,258,35,11,16,322,30,45,01,135,,1*7D
$GBGSV,3,1,09,44,86,170,46,21,65,280,47,38,53,357,46,22,45,028,42,4*78
$GBGSV,3,2,09,34,36,320,44,40,34,197,42,39,33,170,42,35,32,143,41,4*7C
$GBGSV,3,3,09,42,20,240,44,4*48
$GNGLL,2500.8223938,N,12132.4483423,E,100525.000,A,D*42
$GNGGA,100525.000,2500.8223938,N,12132.4483423,E,2,63,0.45,16.806,M,15.25,M,67,0035*78
$GNRMC,100525.000,A,2500.8223938,N,12132.4483423,E,2.19,228.35,120523,,,D,V*0C
$GNGLL,2500.8219438,N,12132.4477903,E,100526.000,A,D*41
$GNGGA,100526.000,2500.8219438,N,12132.4477903,E,2,64,0.45,16.920,M,15.25,M,68,0035*76
$GNRMC,100526.000,A,2500.8219438,N,12132.4477903,E,2.26,224.72,120523,,,D,V*0C
$GNGLL,2500.8214998,N,12132.4472683,E,100527.000,A,D*48
$GNGGA,100527.000,2500.8214998,N,12132.4472683,E,2,65,0.45,17.061,M,15.25,M,69,0035*72
$GNRMC,100527.000,A,2500.8214998,N,12132.4472683,E,2.18,226.52,120523,,,D,V*08
$GNGLL,2500.8210438,N,12132.4467583,E,100528.000,A,D*43
$GNGGA,100528.000,2500.8210438,N,12132.4467583,E,2,64,0.45,17.135,M,15.25,M,70,0035*70
$GNRMC,100528.000,A,2500.8210438,N,12132.4467583,E,2.27,226.18,120523,,,D,V*01
$GNGLL,2500.8205878,N,12132.4462303,E,100529.000,A,D*45
$GNGGA,100529.000,2500.8205878,N,12132.4462303,E,2,65,0.45,17.197,M,15.25,M,71,0035*7E
$GNRMC,100529.000,A,2500.8205878,N,12132.4462303,E,2.25,226.26,120523,,,D,V*08
$GNGSA,A,3,196,195,11,199,13,20,05,06,29,30,19,12,0.75,0.45,0.60,1*36
$GNGSA,A,3,194,,,,,,,,,,,,0.75,0.45,0.60,1*38
$GNGSA,A,3,71,86,85,72,,,,,,,,,0.75,0.45,0.60,2*07
$GNGSA,A,3,19,33,12,04,10,,,,,,,,0.75,0.45,0.60,3*08
$GNGSA,A,3,44,12,21,03,59,38,08,22,13,02,04,10,0.75,0.45,0.60,4*08
$GNGSA,A,3,60,34,07,40,39,35,16,06,42,11,,,0.75,0.45,0.60,4*08
$GPGSV,5,1,17,196,74,060,42,195,71,118,44,11,60,048,44,199,60,167,37,1*51
$GPGSV,5,2,17,13,54,184,44,20,53,359,45,05,51,314,42,41,38,241,42,1*6F
$GPGSV,5,3,17,06,31,101,37,15,28,217,23,29,25,316,42,30,18,096,28,1*6E
$GPGSV,5,4,17,194,15,170,21,19,13,157,28,12,11,235,20,07,09,064,24,1*52
$GPGSV,5,5,17,25,05,266,17,1*54
$GPGSV,2,1,07,196,74,060,46,195,71,118,47,11,60,048,49,199,60,167,47,8*53
$GPGSV,2,2,07,06,31,101,46,30,18,096,26,194,15,170,23,8*62
$GLGSV,2,1,07,71,65,351,43,86,63,007,44,85,53,118,45,72,50,241,41,1*75
$GLGSV,2,2,07,70,19,028,,87,12,332,,65,01,222,,1*44
$GAGSV,3,1,09,19,77,075,36,33,53,084,42,12,51,343,38,04,37,209,37,7*7C
$GAGSV,3,2,09,10,29,324,39,26,12,116,,24,06,261,15,31,06,216,,7*7F
$GAGSV,3,3,09,11,05,312,,7*4F
$GAGSV,2,1,05,19,77,075,41,33,53,084,46,12,51,343,43,04,37,209,43,1*7C
$GAGSV,2,2,05,10,29,324,42,1*49
$GBGSV,7,1,26,44,86,170,45,12,68,326,43,21,65,280,44,03,60,206,39,1*71
$GBGSV,7,2,26,61,58,205,,59,55,141,43,38,53,357,44,08,45,337,39,1*7D
$GBGSV,7,3,26,22,45,028,46,13,41,320,41,02,40,242,38,04,39,117,38,1*77
$GBGSV,7,4,26,10,39,227,19,60,37,247,40,34,36,320,43,07,36,208,40,1*7A
$GBGSV,7,5,26,40,34,197,41,39,33,170,41,35,32,143,45,16,26,174,39,1*7B
$GBGSV,7,6,26,06,21,180,35,42,20,240,41,05,16,258,24,11,16,322,25,1*76
$GBGSV,7,7,26,09,10,190,,45,01,135,,1*75
$GBGSV,3,1,09,44,86,170,46,21,65,280,47,38,53,357,45,22,45,028,44,4*7D
$GBGSV,3,2,09,34,36,320,45,40,34,197,42,39,33,170,42,35,32,143,42,4*7E
$GBGSV,3,3,09,42,20,240,43,4*4F
$GNGLL,2500.8201558,N,12132.4457263,E,100530.000,A,D*47
$GNGGA,100530.000,2500.8201558,N,12132.4457263,E,2,64,0.45,17.222,M,15.25,M,72,0035*73
$GNRMC,100530.000,A,2500.8201558,N,12132.4457263,E,2.16,225.11,120523,,,D,V*0D
$GNGLL,2500.8196938,N,12132.4452403,E,100531.000,A,D*44
$GNGGA,100531.000,2500.8196938,N,12132.4452403,E,2,64,0.45,17.190,M,15.25,M,73,0035*7B
$GNRMC,100531.000,A,2500.8196938,N,12132.4452403,E,2.32,221.46,120523,,,D,V*0E
$GNGLL,2500.8192198,N,12132.4447363,E,100532.000,A,D*44
$GNGGA,100532.000,2500.8192198,N,12132.4447363,E,2,64,0.46,17.141,M,15.25,M,74,0035*73
$GNRMC,100532.000,A,2500.8192198,N,12132.4447363,E,2.28,227.41,120523,,,D,V*04
$GNGLL,2500.8187818,N,12132.4442203,E,100533.000,A,D*42
$GNGGA,100533.000,2500.8187818,N,12132.4442203,E,2,62,0.46,16.984,M,15.25,M,75,0035*72
$GNRMC,100533.000,A,2500.8187818,N,12132.4442203,E,2.32,225.37,120523,,,D,V*0A
$GNGLL,2500.8183378,N,12132.4436923,E,100534.000,A,D*46
$GNGGA,100534.000,2500.8183378,N,12132.4436923,E,2,64,0.45,16.899,M,15.25,M,76,0035*7D
$GNRMC,100534.000,A,2500.8183378,N,12132.4436923,E,2.28,226.69,120523,,,D,V*0D
$GNGSA,A,3,196,195,11,199,13,20,05,06,29,30,194,12,0.76,0.46,0.61,1*03
$GNGSA,A,3,71,86,85,72,,,,,,,,,0.76,0.46,0.61,2*06
$GNGSA,A,3,19,33,12,04,10,,,,,,,,0.76,0.46,0.61,3*09
$GNGSA,A,3,44,12,21,03,59,38,08,22,13,02,04,10,0.76,0.46,0.61,4*09
$GNGSA,A,3,60,34,07,40,39,35,16,06,42,11,,,0.76,0.46,0.61,4*09
$GPGSV,5,1,17,196,74,060,42,195,71,118,43,11,60,048,44,199,60,167,37,1*56
$GPGSV,5,2,17,13,54,184,44,20,53,359,45,05,51,314,44,41,38,241,42,1*69
$GPGSV,5,3,17,06,31,101,41,15,28,217,22,29,25,316,39,30,18,096,32,1*69
$GPGSV,5,4,17,194,15,170,27,19,13,157,22,12,11,235,18,07,09,064,24,1*55
$GPGSV,5,5,17,25,05,266,17,1*54
$GPGSV,2,1,07,196,74,060,46,195,71,118,47,11,60,048,49,199,60,167,47,8*53
$GPGSV,2,2,07,06,31,101,47,30,18,096,33,194,15,170,26,8*62
$GLGSV,2,1,07,71,65,351,43,86,63,007,44,85,53,118,46,72,50,241,42,1*75
$GLGSV,2,2,07,70,19,028,,87,12,332,,65,02,223,,1*46
$GAGSV,3,1,09,19,77,075,36,33,53,084,42,12,51,343,38,04,37,209,38,7*73
$GAGSV,3,2,09,10,29,324,38,26,12,116,,24,06,261,14,31,06,216,,7*7F
$GAGSV,3,3,09,11,05,312,,7*4F
$GAGSV,2,1,05,19,77,075,41,33,53,084,46,12,51,343,44,04,37,209,45,1*7D
$GAGSV,2,2,05,10,29,324,42,1*49
$GBGSV,7,1,26,44,86,170,45,12,68,326,43,21,65,280,44,03,60,206,39,1*71
$GBGSV,7,2,26,61,58,205,,59,55,141,43,38,53,357,44,08,45,337,40,1*73
$GBGSV,7,3,26,22,45,028,45,13,41,320,42,02,40,242,38,04,39,117,40,1*78
$GBGSV,7,4,26,10,39,227,18,60,37,247,39,34,36,320,44,07,36,208,40,1*72
$GBGSV,7,5,26,40,34,197,41,39,33,170,41,35,32,143,45,16,26,174,38,1*7A
$GBGSV,7,6,26,06,21,180,34,42,20,240,41,05,16,258,26,11,16,322,25,1*75
$GBGSV,7,7,26,09,10,190,,45,01,135,,1*75
$GBGSV,3,1,09,44,86,170,46,21,65,280,47,38,53,357,45,22,45,028,44,4*7D
$GBGSV,3,2,09,34,36,320,44,40,34,197,43,39,33,170,43,35,32,143,44,4*79
$GBGSV,3,3,09,42,20,240,45,4*49
$GNGLL,2500.8173684,N,12132.4427685,E,100535.000,A,R*5B
$GNGGA,100535.000,2500.8173684,N,12132.4427685,E,4,63,0.46,17.588,M,15.25,M,2,3335*4B
$GNRMC,100535.000,A,2500.8173684,N,12132.4427685,E,2.38,224.11,120523,,,R,V*1C
$GNGLL,2500.8169313,N,12132.4422266,E,100536.000,A,R*54
$GNGGA,100536.000,2500.8169313,N,12132.4422266,E,4,64,0.45,17.609,M,15.25,M,3,3335*4B
$GNRMC,100536.000,A,2500.8169313,N,12132.4422266,E,2.32,228.77,120523,,,R,V*15
$GNGLL,2500.8165082,N,12132.4416896,E,100537.000,A,R*50
$GNGGA,100537.000,2500.8165082,N,12132.4416896,E,4,63,0.45,17.619,M,15.25,M,4,3335*4E
$GNRMC,100537.000,A,2500.8165082,N,12132.4416896,E,2.35,227.85,120523,,,R,V*14
$GNGLL,2500.8160711,N,12132.4411803,E,100538.000,A,R*5C
$GNGGA,100538.000,2500.8160711,N,12132.4411803,E,4,63,0.45,17.644,M,15.25,M,5,3335*4B
$GNRMC,100538.000,A,2500.8160711,N,12132.4411803,E,2.37,229.80,120523,,,R,V*11
$GNGLL,2500.8156287,N,12132.4406830,E,100539.000,A,R*54
$GNGGA,100539.000,2500.8156287,N,12132.4406830,E,4,64,0.45,17.605,M,15.25,M,6,3335*42
$GNRMC,100539.000,A,2500.8156287,N,12132.4406830,E,2.28,224.00,120523,,,R,V*12
$GNGSA,A,3,196,195,11,199,13,20,05,06,29,30,12,194,0.76,0.46,0.61,1*03
$GNGSA,A,3,86,71,85,72,,,,,,,,,0.76,0.46,0.61,2*06
$GNGSA,A,3,19,33,12,04,10,,,,,,,,0.76,0.46,0.61,3*09
$GNGSA,A,3,44,12,21,03,59,38,22,08,13,02,04,10,0.76,0.46,0.61,4*09
$GNGSA,A,3,60,07,34,40,39,35,16,06,42,11,,,0.76,0.46,0.61,4*09
$GPGSV,5,1,17,196,74,060,42,195,71,118,43,11,60,048,44,199,60,167,37,1*56
$GPGSV,5,2,17,13,54,184,44,20,53,359,45,05,51,314,44,41,38,241,43,1*68
$GPGSV,5,3,17,06,31,101,41,15,28,217,19,29,25,316,40,30,18,096,40,1*6A
$GPGSV,5,4,17,194,15,170,23,19,13,157,28,12,11,235,16,07,09,064,,1*53
$GPGSV,5,5,17,25,05,266,17,1*54
$GPGSV,2,1,07,196,74,060,46,195,71,118,47,11,60,048,49,199,60,167,47,8*53
$GPGSV,2,2,07,06,31,101,48,30,18,096,44,194,15,170,24,8*6F
$GLGSV,2,1,06,86,63,007,44,71,63,353,43,85,53,118,44,72,50,241,42,1*72
$GLGSV,2,2,06,70,18,029,22,87,12,332,,1*75
$GAGSV,2,1,07,19,77,075,36,33,53,084,42,12,51,343,37,04,37,209,32,7*79
$GAGSV,2,2,07,10,29,324,40,24,06,261,14,11,05,312,,7*4A
$GAGSV,2,1,05,19,77,075,41,33,53,084,46,12,51,343,43,04,37,209,32,1*7A
$GAGSV,2,2,05,10,29,324,42,1*49
$GBGSV,6,1,24,44,86,170,45,12,68,326,42,21,65,280,45,03,60,206,39,1*72
$GBGSV,6,2,24,59,55,141,44,38,53,357,44,22,45,028,45,08,45,337,39,1*7E
$GBGSV,6,3,24,13,41,320,41,02,40,242,39,04,39,117,38,10,39,227,17,1*76
$GBGSV,6,4,24,60,37,247,39,07,36,208,36,34,36,320,44,40,34,197,40,1*7D
$GBGSV,6,5,24,39,33,170,41,35,32,143,45,16,26,174,38,06,21,180,35,1*7A
$GBGSV,6,6,24,42,20,240,42,05,16,258,,11,16,322,25,45,01,135,,1*7D
$GBGSV,3,1,09,44,86,170,46,21,65,280,47,38,53,357,46,22,45,028,45,4*7F
$GBGSV,3,2,09,34,36,320,45,40,34,197,41,39,33,170,43,35,32,143,44,4*7A
$GBGSV,3,3,09,42,20,240,44,4*48
$GNGLL,2500.8151822,N,12132.4401719,E,100540.000,A,R*5B
$GNGGA,100540.000,2500.8151822,N,12132.4401719,E,4,63,0.46,17.623,M,15.25,M,1,3335*4A
$GNRMC,100540.000,A,2500.8151822,N,12132.4401719,E,2.35,220.95,120523,,,R,V*19
$GNGLL,2500.8147443,N,12132.4396522,E,100541.000,A,R*55
$GNGGA,100541.000,2500.8147443,N,12132.4396522,E,4,64,0.45,17.623,M,15.25,M,2,3335*43
$GNRMC,100541.000,A,2500.8147443,N,12132.4396522,E,2.25,224.58,120523,,,R,V*13
$PAIR010,0,0,2261,468359*39
$PAIR010,0,1,2261,468359*38
$GNGLL,2500.8142973,N,12132.4391305,E,100542.000,A,R*59
$GNGGA,100542.000,2500.8142973,N,12132.4391305,E,4,63,0.46,17.640,M,15.25,M,2,3335*4E
$GNRMC,100542.000,A,2500.8142973,N,12132.4391305,E,2.41,219.80,120523,,,R,V*16
$GNGLL,2500.8138214,N,12132.4386409,E,100543.000,A,R*52
$GNGGA,100543.000,2500.8138214,N,12132.4386409,E,4,63,0.46,17.619,M,15.25,M,1,3335*4A
$GNRMC,100543.000,A,2500.8138214,N,12132.4386409,E,2.27,224.58,120523,,,R,V*16
$GNGLL,2500.8133766,N,12132.4381311,E,100544.000,A,R*57
$GNGGA,100544.000,2500.8133766,N,12132.4381311,E,4,63,0.46,17.605,M,15.25,M,2,3335*41
$GNRMC,100544.000,A,2500.8133766,N,12132.4381311,E,2.36,229.11,120523,,,R,V*13
$GNGSA,A,3,196,195,199,11,13,20,05,06,29,30,12,194,0.76,0.46,0.61,1*03
$GNGSA,A,3,86,71,85,72,,,,,,,,,0.76,0.46,0.61,2*06
$GNGSA,A,3,19,33,12,04,10,,,,,,,,0.76,0.46,0.61,3*09
$GNGSA,A,3,44,12,21,03,59,38,08,22,13,02,04,10,0.76,0.46,0.61,4*09
$GNGSA,A,3,60,34,07,40,39,35,16,06,42,11,,,0.76,0.46,0.61,4*09
$GPGSV,5,1,17,196,74,060,42,195,71,118,44,199,60,167,37,11,60,048,44,1*51
$GPGSV,5,2,17,13,54,184,44,20,53,359,45,05,51,314,44,41,38,241,40,1*6B
$GPGSV,5,3,17,06,31,101,42,15,28,217,18,29,25,316,34,30,18,096,41,1*6A
$GPGSV,5,4,17,194,15,170,18,19,13,157,20,12,11,235,17,07,09,064,,1*52
$GPGSV,5,5,17,25,05,266,14,1*57
$GPGSV,2,1,07,196,74,060,46,195,71,118,47,11,60,048,49,199,60,167,48,8*5C
$GPGSV,2,2,07,06,31,101,48,30,18,096,44,194,15,170,20,8*6B
$GLGSV,2,1,05,86,63,007,44,71,63,353,44,85,53,118,44,72,50,243,42,1*74
$GLGSV,2,2,05,70,18,029,26,1*4C
$GAGSV,2,1,08,19,77,075,36,33,53,084,41,12,51,343,38,04,37,209,25,7*7C
$GAGSV,2,2,08,10,29,324,38,24,06,261,,31,06,216,,11,05,312,,7*7E
$GAGSV,2,1,05,19,77,075,41,33,53,084,46,12,51,343,43,04,37,209,23,1*7A
$GAGSV,2,2,05,10,29,324,42,1*49
$GBGSV,6,1,22,44,86,170,45,12,68,326,43,21,65,280,45,03,60,206,40,1*7B
$GBGSV,6,2,22,59,55,141,43,38,53,357,44,08,45,337,39,22,45,028,46,1*7C
$GBGSV,6,3,22,13,41,320,42,02,40,242,35,04,39,117,39,10,39,227,17,1*7E
$GBGSV,6,4,22,60,37,247,40,34,36,320,43,07,36,208,26,40,34,197,42,1*71
$GBGSV,6,5,22,39,33,170,41,35,32,143,44,16,26,174,29,06,21,180,28,1*71
$GBGSV,6,6,22,42,20,240,36,11,16,322,25,1*72
$GBGSV,3,1,09,44,86,170,46,21,65,280,47,38,53,357,46,22,45,028,45,4*7F
$GBGSV,3,2,09,34,36,320,45,40,34,197,42,39,33,170,43,35,32,143,44,4*79
$GBGSV,3,3,09,42,20,240,37,4*4C
$GNGLL,2500.8129513,N,12132.4376257,E,100545.000,A,R*56
$GNGGA,100545.000,2500.8129513,N,12132.4376257,E,4,62,0.46,17.615,M,15.25,M,3,3335*41
$GNRMC,100545.000,A,2500.8129513,N,12132.4376257,E,2.42,223.40,120523,,,R,V*1F
$GNGLL,2500.8125140,N,12132.4371174,E,100546.000,A,R*5E
$GNGGA,100546.000,2500.8125140,N,12132.4371174,E,4,62,0.46,17.604,M,15.25,M,4,3335*4E
$GNRMC,100546.000,A,2500.8125140,N,12132.4371174,E,2.27,222.96,120523,,,R,V*1E
$GNGLL,2500.8121019,N,12132.4365931,E,100547.000,A,R*5A
$GNGGA,100547.000,2500.8121019,N,12132.4365931,E,4,62,0.46,17.551,M,15.25,M,5,3335*48
$GNRMC,100547.000,A,2500.8121019,N,12132.4365931,E,2.39,229.39,120523,,,R,V*1B
$GNGLL,2500.8116607,N,12132.4361115,E,100548.000,A,R*52
$GNGGA,100548.000,2500.8116607,N,12132.4361115,E,4,61,0.46,17.649,M,15.25,M,6,3335*4A
$GNRMC,100548.000,A,2500.8116607,N,12132.4361115,E,2.23,225.39,120523,,,R,V*14
$GNGLL,2500.8112302,N,12132.4355984,E,100549.000,A,R*50
$GNGGA,100549.000,2500.8112302,N,12132.4355984,E,4,60,0.46,17.589,M,15.25,M,3,3335*43
$GNRMC,100549.000,A,2500.8112302,N,12132.4355984,E,2.29,226.62,120523,,,R,V*11
$GNGSA,A,3,196,195,199,11,13,20,05,06,29,30,12,194,0.76,0.46,0.61,1*03
$GNGSA,A,3,86,71,85,72,,,,,,,,,0.76,0.46,0.61,2*06
$GNGSA,A,3,19,33,12,04,10,,,,,,,,0.76,0.46,0.61,3*09
$GNGSA,A,3,44,12,21,03,59,38,08,22,13,02,04,60,0.76,0.46,0.61,4*0E
$GNGSA,A,3,34,07,40,39,35,16,06,11,42,,,,0.76,0.46,0.61,4*0F
$GPGSV,5,1,17,196,74,060,42,195,71,118,44,199,60,167,38,11,60,048,44,1*5E
$GPGSV,5,2,17,13,54,184,45,20,53,359,44,05,51,314,44,41,38,241,34,1*68
$GPGSV,5,3,17,06,31,101,42,15,28,217,18,29,25,316,39,30,18,096,41,1*67
$GPGSV,5,4,17,194,15,170,21,19,13,157,19,12,11,235,17,07,09,064,25,1*55
$GPGSV,5,5,17,25,05,266,13,1*50
$GPGSV,2,1,07,196,74,060,46,195,71,118,47,11,60,048,49,199,60,167,47,8*53
$GPGSV,2,2,07,06,31,101,48,30,18,096,44,194,15,170,25,8*6E
