$FW : RTK35X,V1.1X0314AS,Lib20210517,1*54
$Tool : LOCOSYS , GNSS Firebird , v1.0.0.19*39
$---------------------------------------------------*2D
$GPHDT,,T*1B
$GNGGA,104206.400,2500.7941002,N,12132.4797671,E,4,49,0.55,15.893,M,15.25,M,1,3335*4D
$GNRMC,104206.400,A,2500.7941002,N,12132.4797671,E,0.07,65.49,260623,,,R,V*26
$GPHDT,,T*1B
$GNGGA,104206.600,2500.7940991,N,12132.4797714,E,4,49,0.55,15.903,M,15.25,M,0,3335*46
$GNRMC,104206.600,A,2500.7940991,N,12132.4797714,E,0.04,65.49,260623,,,R,V*27
$GPHDT,,T*1B
$GNGGA,104206.800,2500.7940981,N,12132.4797687,E,4,49,0.55,15.889,M,15.25,M,0,3335*41
$GNRMC,104206.800,A,2500.7940981,N,12132.4797687,E,0.03,65.49,260623,,,R,V*24
$GPHDT,,T*1B
$GNGSA,A,3,24,196,199,18,15,195,05,194,13,,,,0.88,0.55,0.69,1*0C
$GNGSA,A,3,85,80,84,79,69,73,,,,,,,0.88,0.55,0.69,2*01
$GNGSA,A,3,13,08,15,07,03,,,,,,,,0.88,0.55,0.69,3*06
$GNGSA,A,3,38,39,08,16,06,13,20,46,09,37,29,19,0.88,0.55,0.69,4*0F
$GPGSV,4,1,15,24,78,154,41,196,73,054,41,199,60,167,31,18,59,291,34,1*6A
$GPGSV,4,2,15,15,48,024,40,45,47,231,31,195,42,178,38,23,34,325,16,1*57
$GPGSV,4,3,15,05,31,100,39,194,24,143,26,13,21,044,38,29,11,211,19,1*58
$GPGSV,4,4,15,20,10,117,,12,08,156,,10,04,308,,1*53
$GPGSV,2,1,07,24,78,154,47,196,73,054,44,199,60,167,43,18,59,291,37,8*63
$GPGSV,2,2,07,195,42,178,37,23,34,325,13,194,24,143,15,8*53
$GLGSV,2,1,07,85,46,278,18,80,40,112,37,84,30,198,21,79,23,050,34,1*7C
$GLGSV,2,2,07,69,20,051,21,86,17,323,,73,16,168,16,1*44
$GAGSV,3,1,09,13,66,268,40,08,54,004,43,15,40,173,30,07,40,281,19,7*7E
$GAGSV,3,2,09,26,22,319,,03,19,051,23,02,19,103,20,30,13,154,23,7*70
$GAGSV,3,3,09,25,05,057,,7*4A
$GAGSV,2,1,05,13,66,268,42,08,54,004,44,07,40,281,25,15,40,173,30,1*7F
$GAGSV,2,2,05,03,19,051,15,1*4B
$GBGSV,3,1,12,38,78,047,42,39,73,247,43,08,69,007,40,16,65,230,42,1*79
$GBGSV,3,2,12,06,63,228,38,13,60,342,31,20,47,037,45,46,47,139,41,1*7C
$GBGSV,3,3,12,09,46,222,37,19,41,323,20,37,32,064,46,29,32,226,39,1*76
$GBGSV,2,1,07,38,78,047,44,39,73,247,45,20,47,037,46,46,47,139,44,4*73
$GBGSV,2,2,07,19,41,323,24,29,32,226,40,37,32,064,45,4*43
$GNGGA,104207.000,2500.7940994,N,12132.4797667,E,4,49,0.55,15.889,M,15.25,M,1,3335*43
$GNRMC,104207.000,A,2500.7940994,N,12132.4797667,E,0.02,65.49,260623,,,R,V*26
$GPHDT,,T*1B
$GNGGA,104207.200,2500.7941008,N,12132.4797674,E,4,49,0.55,15.892,M,15.25,M,1,3335*44
$GNRMC,104207.200,A,2500.7941008,N,12132.4797674,E,0.01,65.49,260623,,,R,V*28
$GPHDT,,T*1B
$GNGGA,104207.400,2500.7940996,N,12132.4797708,E,4,49,0.55,15.895,M,15.25,M,1,3335*40
$GNRMC,104207.400,A,2500.7940996,N,12132.4797708,E,0.01,65.49,260623,,,R,V*2B
$GPHDT,,T*1B
$GNGGA,104207.600,2500.7941011,N,12132.4797682,E,4,49,0.55,15.897,M,15.25,M,1,3335*44
$GNRMC,104207.600,A,2500.7941011,N,12132.4797682,E,0.01,65.49,260623,,,R,V*2D
$GPHDT,,T*1B
$GNGGA,104207.800,2500.7941027,N,12132.4797680,E,4,49,0.55,15.889,M,15.25,M,1,3335*42
$GNRMC,104207.800,A,2500.7941027,N,12132.4797680,E,0.05,65.49,260623,,,R,V*20
$GPHDT,,T*1B
$GNGSA,A,3,24,196,199,18,15,195,05,194,13,,,,0.88,0.55,0.69,1*0C
$GNGSA,A,3,85,80,84,79,69,73,,,,,,,0.88,0.55,0.69,2*01
$GNGSA,A,3,13,08,07,15,03,,,,,,,,0.88,0.55,0.69,3*06
$GNGSA,A,3,38,39,08,16,06,13,20,46,09,37,29,19,0.88,0.55,0.69,4*0F
$GPGSV,4,1,15,24,78,154,41,196,73,054,41,199,60,167,31,18,59,291,34,1*6A
$GPGSV,4,2,15,15,48,024,40,45,47,231,31,195,42,178,38,23,34,325,16,1*57
$GPGSV,4,3,15,05,31,100,39,194,24,143,26,13,21,044,38,29,11,211,19,1*58
$GPGSV,4,4,15,20,10,117,,12,08,156,,10,04,308,,1*53
$GPGSV,2,1,07,24,78,154,47,196,73,054,44,199,60,167,43,18,59,291,38,8*6C
$GPGSV,2,2,07,195,42,178,37,23,34,325,13,194,24,143,15,8*53
$GLGSV,2,1,06,85,46,278,19,80,40,112,38,84,30,198,22,79,23,050,34,1*70
$GLGSV,2,2,06,69,20,051,22,73,16,168,17,1*7D
$GAGSV,2,1,08,13,66,268,40,08,54,004,43,07,40,281,22,15,40,173,30,7*76
$GAGSV,2,2,08,03,19,051,24,02,19,103,20,30,13,154,23,25,05,057,,7*78
$GAGSV,2,1,05,13,66,268,42,08,54,004,44,07,40,281,25,15,40,173,31,1*7E
$GAGSV,2,2,05,03,19,051,16,1*48
$GBGSV,3,1,12,38,78,047,42,39,73,247,42,08,69,007,40,16,65,230,42,1*78
$GBGSV,3,2,12,06,63,228,38,13,60,342,31,20,47,037,45,46,47,139,41,1*7C
$GBGSV,3,3,12,09,46,222,37,19,41,323,19,37,32,064,46,29,32,226,39,1*7C
$GBGSV,2,1,07,38,78,047,44,39,73,247,45,20,47,037,46,46,47,139,44,4*73
$GBGSV,2,2,07,19,41,323,25,29,32,226,40,37,32,064,45,4*42
$GNGGA,104208.000,2500.7941008,N,12132.4797681,E,4,49,0.55,15.888,M,15.25,M,2,3335*4B
$GNRMC,104208.000,A,2500.7941008,N,12132.4797681,E,0.01,65.49,260623,,,R,V*2F
$GPHDT,,T*1B
$GNGGA,104208.200,2500.7941000,N,12132.4797704,E,4,49,0.55,15.896,M,15.25,M,2,3335*42
$GNRMC,104208.200,A,2500.7941000,N,12132.4797704,E,0.00,65.49,260623,,,R,V*28
$GPHDT,273.115,T*36
$GNGGA,104208.400,2500.7941026,N,12132.4797684,E,4,49,0.55,15.881,M,15.25,M,2,3335*4F
$GNRMC,104208.400,A,2500.7941026,N,12132.4797684,E,0.01,65.49,260623,,,R,V*22
$GPHDT,272.986,T*35
$GNGGA,104208.600,2500.7941021,N,12132.4797708,E,4,49,0.55,15.894,M,15.25,M,2,3335*4B
$GNRMC,104208.600,A,2500.7941021,N,12132.4797708,E,0.01,65.49,260623,,,R,V*22
$GPHDT,273.039,T*39
$GNGGA,104208.800,2500.7941016,N,12132.4797690,E,4,49,0.55,15.885,M,15.25,M,2,3335*41
$GNRMC,104208.800,A,2500.7941016,N,12132.4797690,E,0.08,65.49,260623,,,R,V*21
$GPHDT,273.264,T*33
$GNGSA,A,3,24,196,199,18,15,195,05,194,13,,,,0.88,0.55,0.69,1*0C
$GNGSA,A,3,85,80,84,79,69,73,,,,,,,0.88,0.55,0.69,2*01
$GNGSA,A,3,13,08,07,15,03,,,,,,,,0.88,0.55,0.69,3*06
$GNGSA,A,3,38,39,08,16,06,13,20,46,09,37,29,19,0.88,0.55,0.69,4*0F
$GPGSV,4,1,15,24,78,154,40,196,73,054,41,199,60,167,32,18,59,291,34,1*68
$GPGSV,4,2,15,15,48,024,39,45,47,231,31,195,42,178,38,23,34,325,16,1*59
$GPGSV,4,3,15,05,31,100,39,194,24,143,26,13,21,044,38,29,11,211,19,1*58
$GPGSV,4,4,15,20,10,117,,12,08,156,,10,04,308,,1*53
$GPGSV,2,1,07,24,78,154,47,196,73,054,44,199,60,167,43,18,59,291,37,8*63
$GPGSV,2,2,07,195,42,178,38,23,34,325,15,194,24,143,15,8*5A
$GLGSV,2,1,06,85,46,278,22,80,40,112,38,84,30,198,25,79,23,050,34,1*7F
$GLGSV,2,2,06,69,20,051,23,73,16,168,20,1*78
$GAGSV,2,1,08,13,66,268,40,08,54,004,43,07,40,281,23,15,40,173,26,7*70
$GAGSV,2,2,08,03,19,051,24,02,19,103,20,30,13,154,23,25,05,057,,7*78
$GAGSV,2,1,05,13,66,268,42,08,54,004,43,07,40,281,25,15,40,173,31,1*79
$GAGSV,2,2,05,03,19,051,16,1*48
$GBGSV,3,1,12,38,78,047,42,39,73,247,42,08,69,007,40,16,65,230,42,1*78
$GBGSV,3,2,12,06,63,228,38,13,60,342,32,20,47,037,45,46,47,139,41,1*7F
$GBGSV,3,3,12,09,46,222,37,19,41,323,19,37,32,064,46,29,32,226,39,1*7C
$GBGSV,2,1,07,38,78,047,44,39,73,247,45,20,47,037,46,46,47,139,44,4*73
$GBGSV,2,2,07,19,41,323,26,29,32,226,40,37,32,064,45,4*41
$GNGGA,104209.000,2500.7941016,N,12132.4797709,E,4,49,0.55,15.892,M,15.25,M,3,3335*4E
$GNRMC,104209.000,A,2500.7941016,N,12132.4797709,E,0.07,65.49,260623,,,R,V*26
$GPHDT,273.073,T*37
$GNGGA,104209.200,2500.7941028,N,12132.4797702,E,4,49,0.55,15.888,M,15.25,M,3,3335*41
$GNRMC,104209.200,A,2500.7941028,N,12132.4797702,E,0.03,65.49,260623,,,R,V*26
$GPHDT,272.461,T*31
$GNGGA,104209.400,2500.7941036,N,12132.4797690,E,4,49,0.55,15.885,M,15.25,M,3,3335*4F
$GNRMC,104209.400,A,2500.7941036,N,12132.4797690,E,0.02,65.49,260623,,,R,V*24
$GPHDT,272.940,T*3F
$GNGGA,104209.600,2500.7941035,N,12132.4797722,E,4,49,0.55,15.900,M,15.25,M,3,3335*4A
$GNRMC,104209.600,A,2500.7941035,N,12132.4797722,E,0.01,65.49,260623,,,R,V*2E
$GPHDT,272.631,T*36
$GNGGA,104209.800,2500.7941018,N,12132.4797715,E,4,49,0.55,15.884,M,15.25,M,3,3335*42
$GNRMC,104209.800,A,2500.7941018,N,12132.4797715,E,0.14,65.49,260623,,,R,V*2F
$GPHDT,272.908,T*33
$GNGSA,A,3,24,196,199,18,15,195,05,194,13,,,,0.88,0.55,0.69,1*0C
$GNGSA,A,3,85,80,84,79,69,73,,,,,,,0.88,0.55,0.69,2*01
$GNGSA,A,3,13,08,07,15,03,,,,,,,,0.88,0.55,0.69,3*06
$GNGSA,A,3,38,39,08,16,06,13,20,46,09,19,37,29,0.88,0.55,0.69,4*0F
$GPGSV,4,1,15,24,78,154,41,196,73,054,41,199,60,167,31,18,59,291,33,1*6D
$GPGSV,4,2,15,15,48,024,39,45,47,231,31,195,42,178,38,23,34,325,16,1*59
$GPGSV,4,3,15,05,31,100,39,194,24,143,21,13,21,044,38,29,11,211,19,1*5F
$GPGSV,4,4,15,20,10,117,,12,08,156,,10,04,308,,1*53
$GPGSV,2,1,06,24,78,154,47,196,73,054,44,199,60,167,43,18,59,291,36,8*63
$GPGSV,2,2,06,195,42,178,38,194,24,143,15,8*6D
$GLGSV,2,1,06,85,46,278,22,80,40,112,38,84,30,198,30,79,23,050,34,1*7B
$GLGSV,2,2,06,69,20,051,23,73,16,168,20,1*78
$GAGSV,2,1,08,13,66,268,40,08,54,004,42,07,40,281,24,15,40,173,23,7*73
$GAGSV,2,2,08,03,19,051,24,02,19,103,22,30,13,154,23,25,05,057,,7*7A
$GAGSV,2,1,05,13,66,268,42,08,54,004,43,15,40,173,33,07,40,281,25,1*7B
$GAGSV,2,2,05,03,19,051,16,1*48
$GBGSV,3,1,12,38,78,047,42,39,73,247,42,08,69,007,40,16,65,230,42,1*78
$GBGSV,3,2,12,06,63,228,39,13,60,342,32,20,47,037,45,46,47,139,41,1*7E
$GBGSV,3,3,12,09,46,222,37,19,41,323,20,37,32,064,46,29,32,226,39,1*76
$GBGSV,2,1,07,38,78,047,45,39,73,247,45,20,47,037,46,46,47,139,46,4*70
$GBGSV,2,2,07,19,41,323,25,29,32,226,38,37,32,064,45,4*4D
$GNGGA,104210.000,2500.7941028,N,12132.4797717,E,4,50,0.55,15.885,M,15.25,M,4,3335*4D
$GNRMC,104210.000,A,2500.7941028,N,12132.4797717,E,0.09,65.49,260623,,,R,V*22
$GPHDT,272.902,T*39
$GNGGA,104210.200,2500.7941041,N,12132.4797651,E,4,49,0.55,15.887,M,15.25,M,4,3335*49
$GNRMC,104210.200,A,2500.7941041,N,12132.4797651,E,0.06,65.49,260623,,,R,V*23
$GPHDT,272.619,T*3C
$GNGGA,104210.400,2500.7941001,N,12132.4797711,E,4,49,0.55,15.888,M,15.25,M,4,3335*41
$GNRMC,104210.400,A,2500.7941001,N,12132.4797711,E,0.04,65.49,260623,,,R,V*26
$GPHDT,273.170,T*35
$GNGGA,104210.600,2500.7941006,N,12132.4797718,E,4,49,0.55,15.881,M,15.25,M,4,3335*44
$GNRMC,104210.600,A,2500.7941006,N,12132.4797718,E,0.04,65.49,260623,,,R,V*2A
$GPHDT,272.827,T*3F
$GNGGA,104210.800,2500.7941003,N,12132.4797684,E,4,49,0.55,15.878,M,15.25,M,4,3335*4D
$GNRMC,104210.800,A,2500.7941003,N,12132.4797684,E,0.02,65.49,260623,,,R,V*23
$GPHDT,272.521,T*34
$GNGSA,A,3,24,196,199,18,15,195,05,194,13,,,,0.88,0.55,0.69,1*0C
$GNGSA,A,3,85,80,84,79,69,73,,,,,,,0.88,0.55,0.69,2*01
$GNGSA,A,3,13,08,07,15,03,,,,,,,,0.88,0.55,0.69,3*06
$GNGSA,A,3,38,39,08,16,06,13,20,46,09,37,29,19,0.88,0.55,0.69,4*0F
$GPGSV,4,1,15,24,78,154,41,196,73,054,41,199,60,167,34,18,59,291,33,1*68
$GPGSV,4,2,15,15,48,024,39,45,47,231,31,195,42,178,40,23,34,325,15,1*55
$GPGSV,4,3,15,05,31,100,40,194,24,143,20,13,21,044,38,29,11,211,21,1*5B
$GPGSV,4,4,15,20,10,117,,12,08,156,,10,04,308,,1*53
$GPGSV,2,1,06,24,78,154,47,196,73,054,44,199,60,167,45,18,59,291,36,8*65
$GPGSV,2,2,06,195,42,178,39,194,24,143,14,8*6D
$GLGSV,2,1,06,85,46,278,23,80,40,112,39,84,30,198,30,79,23,050,34,1*7B
$GLGSV,2,2,06,69,20,051,23,73,16,168,22,1*7A
$GAGSV,2,1,08,13,66,268,40,08,54,004,42,07,40,281,23,15,40,173,30,7*76
$GAGSV,2,2,08,03,19,051,24,02,19,103,22,30,13,154,22,25,05,057,,7*7B
$GAGSV,2,1,05,13,66,268,42,08,54,004,43,15,40,173,36,07,40,281,25,1*7E
$GAGSV,2,2,05,03,19,051,16,1*48
$GBGSV,3,1,12,38,78,047,42,39,73,247,42,08,69,007,40,16,65,230,42,1*78
$GBGSV,3,2,12,06,63,228,39,13,60,342,32,20,47,037,45,46,47,139,41,1*7E
$GBGSV,3,3,12,09,46,222,37,19,41,323,20,37,32,064,46,29,32,226,38,1*77
$GBGSV,2,1,07,38,78,047,45,39,73,247,45,20,47,037,46,46,47,139,46,4*70
$GBGSV,2,2,07,19,41,323,24,29,32,226,38,37,32,064,45,4*4C
$GNGGA,104211.000,2500.7940994,N,12132.4797679,E,4,49,0.55,15.878,M,15.25,M,5,3335*41
$GNRMC,104211.000,A,2500.7940994,N,12132.4797679,E,0.03,65.49,260623,,,R,V*2F
$GPHDT,273.040,T*37
$GNGGA,104211.200,2500.7940992,N,12132.4797733,E,4,50,0.55,15.881,M,15.25,M,5,3335*44
$GNRMC,104211.200,A,2500.7940992,N,12132.4797733,E,0.01,65.49,260623,,,R,V*26
$GPHDT,273.331,T*32
$GNGGA,104211.400,2500.7941006,N,12132.4797709,E,4,50,0.55,15.878,M,15.25,M,5,3335*48
$GNRMC,104211.400,A,2500.7941006,N,12132.4797709,E,0.03,65.49,260623,,,R,V*2E
$GPHDT,272.901,T*3A
$GNGGA,104211.600,2500.7941013,N,12132.4797702,E,4,48,0.55,15.875,M,15.25,M,5,3335*41
$GNRMC,104211.600,A,2500.7941013,N,12132.4797702,E,0.02,65.49,260623,,,R,V*22
$GPHDT,273.045,T*32
$GNGGA,104211.800,2500.7940980,N,12132.4797721,E,4,48,0.55,15.877,M,15.25,M,5,3335*4E
$GNRMC,104211.800,A,2500.7940980,N,12132.4797721,E,0.04,65.49,260623,,,R,V*29
$GPHDT,273.650,T*30
$GNGSA,A,3,24,196,199,18,15,195,05,194,13,,,,0.88,0.55,0.69,1*0C
$GNGSA,A,3,85,80,84,79,69,73,,,,,,,0.88,0.55,0.69,2*01
$GNGSA,A,3,13,08,07,15,03,,,,,,,,0.88,0.55,0.69,3*06
$GNGSA,A,3,38,39,08,16,06,13,20,46,09,37,29,19,0.88,0.55,0.69,4*0F
$GPGSV,4,1,15,24,78,154,41,196,73,054,41,199,60,167,34,18,59,291,33,1*68
$GPGSV,4,2,15,15,48,024,39,45,47,231,32,195,42,178,42,23,34,325,16,1*57
$GPGSV,4,3,15,05,31,100,40,194,24,143,18,13,21,044,37,29,11,211,21,1*5F
$GPGSV,4,4,15,20,10,117,,12,08,156,,10,04,308,,1*53
$GPGSV,2,1,05,24,78,154,47,196,73,054,44,199,60,167,45,18,59,291,36,8*66
$GPGSV,2,2,05,195,42,178,41,8*68
$GLGSV,2,1,06,85,46,278,23,80,40,112,39,84,30,198,30,79,23,050,34,1*7B
$GLGSV,2,2,06,69,20,051,24,73,16,168,23,1*7C
$GAGSV,2,1,08,13,66,268,40,08,54,004,42,07,40,281,22,15,40,173,33,7*74
$GAGSV,2,2,08,03,19,051,24,02,19,103,22,30,13,154,22,25,05,057,,7*7B
$GAGSV,2,1,05,13,66,268,42,08,54,004,43,15,40,173,39,07,40,281,23,1*77
$GAGSV,2,2,05,03,19,051,16,1*48
$GBGSV,3,1,12,38,78,047,42,39,73,247,42,08,69,007,40,16,65,230,42,1*78
$GBGSV,3,2,12,06,63,228,39,13,60,342,32,20,47,037,45,46,47,139,40,1*7F
$GBGSV,3,3,12,09,46,222,37,19,41,323,21,37,32,064,46,29,32,226,38,1*76
$GBGSV,2,1,07,38,78,047,45,39,73,247,45,20,47,037,46,46,47,139,45,4*73
$GBGSV,2,2,07,19,41,323,23,29,32,226,38,37,32,064,45,4*4B
$GNGGA,104212.000,2500.7940994,N,12132.4797715,E,4,48,0.55,15.876,M,15.25,M,6,3335*45
$GNRMC,104212.000,A,2500.7940994,N,12132.4797715,E,0.04,65.49,260623,,,R,V*20
$GPHDT,273.361,T*37
$GNGGA,104212.200,2500.7940993,N,12132.4797701,E,4,48,0.55,15.885,M,15.25,M,6,3335*49
$GNRMC,104212.200,A,2500.7940993,N,12132.4797701,E,0.04,65.49,260623,,,R,V*20
$GPHDT,273.373,T*34
$GNGGA,104212.400,2500.7941013,N,12132.4797654,E,4,49,0.55,15.876,M,15.25,M,6,3335*43
$GNRMC,104212.400,A,2500.7941013,N,12132.4797654,E,0.04,65.49,260623,,,R,V*27
$GPHDT,273.329,T*3B
$GNGGA,104212.600,2500.7941025,N,12132.4797644,E,4,49,0.55,15.871,M,15.25,M,6,3335*42
$GNRMC,104212.600,A,2500.7941025,N,12132.4797644,E,0.03,65.49,260623,,,R,V*26
$GPHDT,273.255,T*31
$GNGGA,104212.800,2500.7941019,N,12132.4797701,E,4,49,0.55,15.870,M,15.25,M,6,3335*42
$GNRMC,104212.800,A,2500.7941019,N,12132.4797701,E,0.07,65.49,260623,,,R,V*23
$GPHDT,273.152,T*35
$GNGSA,A,3,24,196,199,18,15,195,05,194,13,,,,0.88,0.55,0.69,1*0C
$GNGSA,A,3,85,80,84,79,69,73,,,,,,,0.88,0.55,0.69,2*01
$GNGSA,A,3,13,08,07,15,03,,,,,,,,0.88,0.55,0.69,3*06
$GNGSA,A,3,38,39,08,16,06,13,20,46,09,37,29,19,0.88,0.55,0.69,4*0F
$GPGSV,4,1,15,24,78,154,41,196,73,054,41,199,60,167,33,18,59,291,33,1*6F
$GPGSV,4,2,15,15,48,024,39,45,47,231,32,195,42,178,42,23,34,325,16,1*57
$GPGSV,4,3,15,05,31,100,40,194,24,143,18,13,21,044,37,29,11,211,21,1*5F
$GPGSV,4,4,15,20,10,117,,12,08,156,,10,04,308,,1*53
$GPGSV,2,1,06,24,78,154,47,196,73,054,44,199,60,167,45,18,59,291,36,8*65
$GPGSV,2,2,06,195,42,178,42,194,24,143,24,8*62
$GLGSV,2,1,06,85,46,278,23,80,40,112,40,84,30,198,30,79,23,050,33,1*72
$GLGSV,2,2,06,69,20,051,25,73,16,168,23,1*7D
$GAGSV,2,1,08,13,66,268,40,08,54,004,42,07,40,281,21,15,40,173,36,7*72
$GAGSV,2,2,08,03,19,051,24,02,19,103,21,30,13,154,21,25,05,057,,7*7B
$GAGSV,2,1,05,13,66,268,42,08,54,004,43,15,40,173,41,07,40,281,24,1*7F
$GAGSV,2,2,05,03,19,051,16,1*48
$GBGSV,3,1,12,38,78,047,42,39,73,247,42,08,69,007,40,16,65,230,42,1*78
$GBGSV,3,2,12,06,63,228,39,13,60,342,32,20,47,037,45,46,47,139,40,1*7F
$GBGSV,3,3,12,09,46,222,37,19,41,323,21,37,32,064,46,29,32,226,38,1*76
$GBGSV,2,1,07,38,78,047,45,39,73,247,45,20,47,037,46,46,47,139,45,4*73
$GBGSV,2,2,07,19,41,323,24,29,32,226,38,37,32,064,45,4*4C
$GNGGA,104213.000,2500.7941023,N,12132.4797655,E,4,49,0.55,15.864,M,15.25,M,7,3335*46
$GNRMC,104213.000,A,2500.7941023,N,12132.4797655,E,0.04,65.49,260623,,,R,V*20
$GPHDT,273.166,T*32
$GNGGA,104213.200,2500.7941022,N,12132.4797681,E,4,49,0.55,15.873,M,15.25,M,7,3335*4A
$GNRMC,104213.200,A,2500.7941022,N,12132.4797681,E,0.07,65.49,260623,,,R,V*29
$GPHDT,273.419,T*3F
$GNGGA,104213.400,2500.7941004,N,12132.4797687,E,4,49,0.55,15.865,M,15.25,M,7,3335*49
$GNRMC,104213.400,A,2500.7941004,N,12132.4797687,E,0.07,65.49,260623,,,R,V*2D
$GPHDT,273.495,T*3B
$GNGGA,104213.600,2500.7940996,N,12132.4797701,E,4,50,0.55,15.874,M,15.25,M,7,3335*4F
$GNRMC,104213.600,A,2500.7940996,N,12132.4797701,E,0.03,65.49,260623,,,R,V*27
$GPHDT,273.426,T*33
$GNGGA,104213.800,2500.7941018,N,12132.4797681,E,4,50,0.55,15.860,M,15.25,M,7,3335*43
$GNRMC,104213.800,A,2500.7941018,N,12132.4797681,E,0.11,65.49,260623,,,R,V*2D
$GPHDT,273.183,T*39
$GNGSA,A,3,24,196,199,18,15,195,05,194,13,,,,0.88,0.55,0.69,1*0C
$GNGSA,A,3,85,80,84,79,69,73,,,,,,,0.88,0.55,0.69,2*01
$GNGSA,A,3,13,08,07,15,03,,,,,,,,0.88,0.55,0.69,3*06
$GNGSA,A,3,38,39,08,16,06,13,20,46,09,19,37,29,0.88,0.55,0.69,4*0F
$GPGSV,4,1,15,24,78,154,41,196,73,054,41,199,60,167,34,18,59,291,33,1*68
$GPGSV,4,2,15,15,48,024,39,45,47,231,32,195,42,178,42,23,34,325,19,1*58
$GPGSV,4,3,15,05,31,100,40,194,24,143,20,13,21,044,37,29,11,211,21,1*54
$GPGSV,4,4,15,20,10,117,,12,08,156,,10,04,308,,1*53
$GPGSV,2,1,06,24,78,154,47,196,73,054,44,199,60,167,45,18,59,291,36,8*65
$GPGSV,2,2,06,195,42,178,42,194,24,143,22,8*64
$GLGSV,2,1,06,85,46,278,23,80,40,112,40,84,30,198,30,79,23,050,33,1*72
$GLGSV,2,2,06,69,20,051,25,73,16,168,20,1*7E
$GAGSV,2,1,08,13,66,268,40,08,54,004,42,07,40,281,21,15,40,173,36,7*72
$GAGSV,2,2,08,03,19,051,22,02,19,103,20,30,13,154,21,25,05,057,,7*7C
$GAGSV,2,1,05,13,66,268,42,08,54,004,43,15,40,173,41,07,40,281,24,1*7F
$GAGSV,2,2,05,03,19,051,16,1*48
$GBGSV,3,1,12,38,78,048,42,39,73,248,42,08,69,007,40,16,65,230,42,1*78
$GBGSV,3,2,12,06,63,228,39,13,60,342,31,20,47,037,45,46,47,139,40,1*7C
$GBGSV,3,3,12,09,46,222,37,19,41,323,22,37,32,064,46,29,32,226,38,1*75
$GBGSV,2,1,07,38,78,048,45,39,73,248,45,20,47,037,46,46,47,139,45,4*73
$GBGSV,2,2,07,19,41,323,24,29,32,226,38,37,32,064,45,4*4C
$GNGGA,104214.000,2500.7941024,N,12132.4797670,E,4,50,0.55,15.863,M,15.25,M,8,3335*41
$GNRMC,104214.000,A,2500.7941024,N,12132.4797670,E,0.03,65.49,260623,,,R,V*20
$GPHDT,273.060,T*35
$GNGGA,104214.200,2500.7941014,N,12132.4797681,E,4,50,0.55,15.857,M,15.25,M,8,3335*49
$GNRMC,104214.200,A,2500.7941014,N,12132.4797681,E,0.03,65.49,260623,,,R,V*2F
$GPHDT,273.052,T*34
$GNGGA,104214.400,2500.7941007,N,12132.4797697,E,4,50,0.55,15.869,M,15.25,M,8,3335*47
$GNRMC,104214.400,A,2500.7941007,N,12132.4797697,E,0.06,65.49,260623,,,R,V*29
$GPHDT,273.058,T*3E
$GNGGA,104214.600,2500.7941023,N,12132.4797675,E,4,50,0.55,15.853,M,15.25,M,8,3335*46
$GNRMC,104214.600,A,2500.7941023,N,12132.4797675,E,0.00,65.49,260623,,,R,V*27
$GPHDT,273.182,T*38
$GNGGA,104214.800,2500.7941017,N,12132.4797708,E,4,50,0.55,15.867,M,15.25,M,8,3335*43
$GNRMC,104214.800,A,2500.7941017,N,12132.4797708,E,0.07,65.49,260623,,,R,V*22
$GPHDT,273.216,T*36
$GNGSA,A,3,24,196,199,18,15,195,05,194,13,,,,0.88,0.55,0.69,1*0C
$GNGSA,A,3,85,80,84,79,69,73,,,,,,,0.88,0.55,0.69,2*01
$GNGSA,A,3,13,08,15,07,03,,,,,,,,0.88,0.55,0.69,3*06
$GNGSA,A,3,38,39,08,16,06,13,46,20,09,19,37,29,0.88,0.55,0.69,4*0F
$GPGSV,4,1,15,24,78,154,41,196,73,054,41,199,60,167,34,18,59,291,33,1*68
$GPGSV,4,2,15,15,48,024,38,45,47,231,32,195,42,178,42,23,34,325,21,1*52
$GPGSV,4,3,15,05,31,100,40,194,24,143,20,13,21,044,37,29,11,211,23,1*56
$GPGSV,4,4,15,20,10,117,,12,08,156,,10,04,308,,1*53
$GPGSV,2,1,06,24,78,154,47,196,73,054,44,199,60,167,45,18,59,291,36,8*65
$GPGSV,2,2,06,195,42,178,42,194,24,143,23,8*65
$GLGSV,2,1,06,85,46,278,23,80,40,112,40,84,30,198,30,79,23,050,33,1*72
$GLGSV,2,2,06,69,20,051,26,73,16,168,18,1*76
$GAGSV,2,1,07,13,66,268,40,08,54,004,42,15,40,173,36,07,40,281,21,7*7D
$GAGSV,2,2,07,02,19,103,20,03,19,051,21,30,13,154,21,7*40
$GAGSV,2,1,06,13,66,268,42,08,54,004,43,07,40,281,25,15,40,173,41,1*7D
$GAGSV,2,2,06,03,19,051,16,30,13,154,22,1*7A
$GBGSV,3,1,12,38,78,048,42,39,73,248,42,08,69,007,40,16,65,230,42,1*78
$GBGSV,3,2,12,06,63,228,39,13,60,342,31,46,47,139,40,20,47,037,45,1*7C
$GBGSV,3,3,12,09,46,222,37,19,41,323,23,37,32,064,46,29,32,226,38,1*74
$GBGSV,2,1,07,38,78,048,45,39,73,248,45,46,47,139,45,20,47,037,46,4*73
$GBGSV,2,2,07,19,41,323,24,29,32,226,38,37,32,064,45,4*4C
$GNGGA,104215.000,2500.7941013,N,12132.4797677,E,4,50,0.55,15.862,M,15.25,M,9,3335*43
$GNRMC,104215.000,A,2500.7941013,N,12132.4797677,E,0.07,65.49,260623,,,R,V*26
$GPHDT,273.174,T*31
$GNGGA,104215.200,2500.7941009,N,12132.4797685,E,4,50,0.55,15.863,M,15.25,M,9,3335*46
$GNRMC,104215.200,A,2500.7941009,N,12132.4797685,E,0.04,65.49,260623,,,R,V*21
$GPHDT,273.228,T*3B
$GNGGA,104215.400,2500.7941023,N,12132.4797692,E,4,50,0.55,15.863,M,15.25,M,9,3335*4E
$GNRMC,104215.400,A,2500.7941023,N,12132.4797692,E,0.05,65.49,260623,,,R,V*28
$GPHDT,273.220,T*33
$GNGGA,104215.600,2500.7941028,N,12132.4797676,E,4,49,0.55,15.864,M,15.25,M,9,3335*42
$GNRMC,104215.600,A,2500.7941028,N,12132.4797676,E,0.06,65.49,260623,,,R,V*28
$GPHDT,273.279,T*3F
$GNGGA,104215.800,2500.7941029,N,12132.4797707,E,4,49,0.55,15.859,M,15.25,M,9,3335*44
$GNRMC,104215.800,A,2500.7941029,N,12132.4797707,E,0.09,65.49,260623,,,R,V*2F
$GPHDT,273.204,T*35
$GNGSA,A,3,24,196,199,18,15,195,05,194,13,,,,0.88,0.55,0.69,1*0C
$GNGSA,A,3,85,80,84,79,69,73,,,,,,,0.88,0.55,0.69,2*01
$GNGSA,A,3,13,08,07,15,03,,,,,,,,0.88,0.55,0.69,3*06
$GNGSA,A,3,38,39,08,16,06,13,46,20,09,37,29,19,0.88,0.55,0.69,4*0F
$GPGSV,4,1,15,24,78,154,41,196,73,054,41,199,60,167,34,18,59,291,33,1*68
$GPGSV,4,2,15,15,48,024,38,45,47,231,32,195,42,178,42,23,34,325,20,1*53
$GPGSV,4,3,15,05,31,100,40,194,24,143,19,13,21,044,37,29,11,211,23,1*5C
$GPGSV,4,4,15,20,10,117,,12,08,156,,10,04,308,,1*53
$GPGSV,2,1,06,24,78,154,47,196,73,054,44,199,60,167,45,18,59,291,36,8*65
$GPGSV,2,2,06,195,42,178,42,194,24,143,23,8*65
$GLGSV,2,1,07,85,46,278,22,80,40,112,40,70,38,341,,84,30,198,30,1*72
$GLGSV,2,2,07,79,23,050,33,69,20,051,26,73,16,168,16,1*43
$GAGSV,2,1,08,13,66,268,40,08,54,004,42,07,40,281,22,15,40,173,36,7*71
$GAGSV,2,2,08,26,22,319,,02,19,103,20,03,19,051,23,30,13,154,21,7*72
$GAGSV,2,1,06,13,66,268,42,08,54,004,43,07,40,281,25,15,40,173,41,1*7D
$GAGSV,2,2,06,03,19,051,13,30,13,154,21,1*7C
$GBGSV,3,1,12,38,78,048,42,39,73,248,42,08,69,007,40,16,65,230,42,1*78
$GBGSV,3,2,12,06,63,228,39,13,60,342,31,46,47,139,40,20,47,037,45,1*7C
$GBGSV,3,3,12,09,46,222,37,19,41,323,21,37,32,064,46,29,32,226,38,1*76
$GBGSV,2,1,07,38,78,048,45,39,73,248,45,46,47,139,45,20,47,037,46,4*73
$GBGSV,2,2,07,19,41,323,24,29,32,226,38,37,32,064,45,4*4C
$GNGGA,104216.000,2500.7941018,N,12132.4797676,E,4,49,0.55,15.853,M,15.25,M,10,3335*78
$GNRMC,104216.000,A,2500.7941018,N,12132.4797676,E,0.08,65.49,260623,,,R,V*20
$GPHDT,273.371,T*36
$GNGGA,104216.200,2500.7941033,N,12132.4797666,E,4,49,0.55,15.857,M,15.25,M,10,3335*76
$GNRMC,104216.200,A,2500.7941033,N,12132.4797666,E,0.10,65.49,260623,,,R,V*23
$GPHDT,273.237,T*35
$GNGGA,104216.400,2500.7941023,N,12132.4797714,E,4,49,0.55,15.865,M,15.25,M,10,3335*74
$GNRMC,104216.400,A,2500.7941023,N,12132.4797714,E,0.11,65.49,260623,,,R,V*21
$GPHDT,272.806,T*3C
$GNGGA,104216.600,2500.7941012,N,12132.4797683,E,4,49,0.55,15.855,M,15.25,M,10,3335*78
$GNRMC,104216.600,A,2500.7941012,N,12132.4797683,E,0.03,65.49,260623,,,R,V*2D
$GPHDT,273.373,T*34
$GNGGA,104216.800,2500.7941008,N,12132.4797686,E,4,49,0.55,15.851,M,15.25,M,10,3335*7C
$GNRMC,104216.800,A,2500.7941008,N,12132.4797686,E,0.06,65.49,260623,,,R,V*28
$GPHDT,273.353,T*36
$GNGSA,A,3,24,196,199,18,15,195,05,194,13,,,,0.88,0.55,0.69,1*0C
$GNGSA,A,3,85,80,84,79,69,73,,,,,,,0.88,0.55,0.69,2*01
$GNGSA,A,3,13,08,07,15,03,,,,,,,,0.88,0.55,0.69,3*06
$GNGSA,A,3,38,39,08,16,06,13,46,20,09,37,29,19,0.88,0.55,0.69,4*0F
$GPGSV,4,1,15,24,78,154,41,196,73,054,41,199,60,167,34,18,59,291,33,1*68
$GPGSV,4,2,15,15,48,024,38,45,47,231,32,195,42,178,42,23,34,325,19,1*59
$GPGSV,4,3,15,05,31,100,40,194,24,143,21,13,21,044,37,29,11,211,23,1*57
$GPGSV,4,4,15,20,10,117,,12,08,156,,10,04,308,,1*53
$GPGSV,2,1,06,24,78,154,47,196,73,054,44,199,60,167,45,18,59,291,36,8*65
$GPGSV,2,2,06,195,42,178,42,194,24,143,21,8*67
$GLGSV,2,1,07,85,46,278,22,80,40,112,40,70,38,341,,84,30,198,31,1*73
$GLGSV,2,2,07,79,23,050,33,69,20,051,28,73,16,168,16,1*4D
$GAGSV,2,1,08,13,66,268,40,08,54,004,42,07,40,281,22,15,40,173,36,7*71
$GAGSV,2,2,08,26,22,319,,02,19,103,20,03,19,051,23,30,13,154,20,7*73
$GAGSV,2,1,06,13,66,268,42,08,54,004,43,07,40,281,25,15,40,173,41,1*7D
$GAGSV,2,2,06,03,19,051,12,30,13,154,21,1*7D
$GBGSV,3,1,12,38,78,048,42,39,73,248,42,08,69,007,40,16,65,230,42,1*78
$GBGSV,3,2,12,06,63,228,39,13,60,342,31,46,47,139,40,20,47,037,45,1*7C
$GBGSV,3,3,12,09,46,222,37,19,41,323,21,37,32,064,46,29,32,226,38,1*76
$GBGSV,2,1,07,38,78,048,45,39,73,248,45,46,47,139,45,20,47,037,46,4*73
$GBGSV,2,2,07,19,41,323,24,29,32,226,38,37,32,064,45,4*4C
$GNGGA,104217.000,2500.7941001,N,12132.4797697,E,4,49,0.55,15.846,M,15.25,M,11,3335*7B
$GNRMC,104217.000,A,2500.7941001,N,12132.4797697,E,0.05,65.49,260623,,,R,V*2B
$GPHDT,273.354,T*31
$GNGGA,104217.200,2500.7940991,N,12132.4797727,E,4,50,0.55,15.859,M,15.25,M,11,3335*74
$GNRMC,104217.200,A,2500.7940991,N,12132.4797727,E,0.04,65.49,260623,,,R,V*23
$GPHDT,273.247,T*32
$GNGGA,104217.400,2500.7940977,N,12132.4797708,E,4,50,0.55,15.848,M,15.25,M,11,3335*77
$GNRMC,104217.400,A,2500.7940977,N,12132.4797708,E,0.04,65.49,260623,,,R,V*20
$GPHDT,273.552,T*31
$GNGGA,104217.600,2500.7940992,N,12132.4797656,E,4,50,0.55,15.841,M,15.25,M,11,3335*7D
$GNRMC,104217.600,A,2500.7940992,N,12132.4797656,E,0.05,65.49,260623,,,R,V*22
$GPHDT,273.610,T*34
