$FW : RTK35X,V1.1X0314AS,Lib20210517,1*54
$Tool : LOCOSYS , GNSS Firebird , v1.0.0.19*39
$---------------------------------------------------*2D
623,,,R,V*1C
$GPHDT,,T*1B
$GNGGA,104236.600,2500.7940998,N,12132.4797605,E,4,47,0.57,15.872,M,15.25,M,1,3335*47
$GNRMC,104236.600,A,2500.7940998,N,12132.4797605,E,0.04,301.88,260623,,,R,V*10
$GPHDT,,T*1B
$GNGGA,104236.800,2500.7941009,N,12132.4797638,E,4,48,0.57,15.881,M,15.25,M,1,3335*44
$GNRMC,104236.800,A,2500.7941009,N,12132.4797638,E,0.02,301.88,260623,,,R,V*16
$GPHDT,,T*1B
$GNGSA,A,3,24,196,199,18,15,195,05,194,13,,,,0.90,0.57,0.69,1*07
$GNGSA,A,3,80,84,79,69,73,,,,,,,,0.90,0.57,0.69,2*07
$GNGSA,A,3,13,08,15,07,03,,,,,,,,0.90,0.57,0.69,3*0D
$GNGSA,A,3,38,39,08,16,06,13,46,20,09,19,37,29,0.90,0.57,0.69,4*04
$GPGSV,4,1,15,24,78,153,44,196,73,054,41,199,60,167,36,18,59,291,34,1*6F
$GPGSV,4,2,15,15,48,025,42,45,47,231,33,195,42,178,42,23,34,325,18,1*55
$GPGSV,4,3,15,05,31,100,38,194,24,143,25,13,21,044,38,29,11,211,15,1*56
$GPGSV,4,4,15,20,10,118,,12,08,156,,10,04,308,,1*5C
$GPGSV,2,1,07,24,78,153,47,196,73,054,44,199,60,167,45,18,59,291,38,8*6D
$GPGSV,2,2,07,195,42,178,44,23,34,325,24,194,24,143,20,8*55
$GLGSV,2,1,07,85,46,278,12,80,41,111,40,84,30,198,29,79,23,050,32,1*7A
$GLGSV,2,2,07,69,20,052,32,73,16,168,26,71,14,292,,1*46
$GAGSV,2,1,08,13,66,267,39,08,54,005,43,15,40,173,38,07,40,281,23,7*7F
$GAGSV,2,2,08,26,22,319,,02,19,102,16,03,18,052,21,30,14,154,19,7*7A
$GAGSV,2,1,05,13,66,267,42,08,54,005,44,07,40,281,23,15,40,173,43,1*73
$GAGSV,2,2,05,03,18,052,23,1*4C
$GBGSV,3,1,12,38,78,048,42,39,73,248,43,08,69,007,40,16,65,230,42,1*79
$GBGSV,3,2,12,06,63,228,40,13,60,342,34,46,47,139,37,20,47,037,45,1*77
$GBGSV,3,3,12,09,46,222,37,19,41,323,30,37,32,064,46,29,32,226,43,1*7A
$GBGSV,2,1,06,38,78,048,45,39,73,248,45,20,47,037,45,46,47,139,44,4*70
$GBGSV,2,2,06,29,32,226,40,37,32,064,44,4*7A
$GNGGA,104237.000,2500.7941015,N,12132.4797624,E,4,48,0.57,15.869,M,15.25,M,2,3335*48
$GNRMC,104237.000,A,2500.7941015,N,12132.4797624,E,0.02,301.88,260623,,,R,V*1F
$GPHDT,,T*1B
$GNGGA,104237.200,2500.7941009,N,12132.4797649,E,4,48,0.57,15.884,M,15.25,M,2,3335*4F
$GNRMC,104237.200,A,2500.7941009,N,12132.4797649,E,0.02,301.88,260623,,,R,V*1B
$GPHDT,,T*1B
$GNGGA,104237.400,2500.7941018,N,12132.4797617,E,4,48,0.57,15.872,M,15.25,M,2,3335*4B
$GNRMC,104237.400,A,2500.7941018,N,12132.4797617,E,0.01,301.88,260623,,,R,V*15
$GPHDT,,T*1B
$GNGGA,104237.600,2500.7941034,N,12132.4797621,E,4,48,0.57,15.875,M,15.25,M,2,3335*45
$GNRMC,104237.600,A,2500.7941034,N,12132.4797621,E,0.00,301.88,260623,,,R,V*1D
$GPHDT,,T*1B
$GNGGA,104237.800,2500.7941017,N,12132.4797636,E,4,48,0.57,15.874,M,15.25,M,2,3335*4D
$GNRMC,104237.800,A,2500.7941017,N,12132.4797636,E,0.01,301.88,260623,,,R,V*15
$GPHDT,,T*1B
$GNGSA,A,3,24,196,199,18,15,195,05,194,13,,,,0.90,0.57,0.69,1*07
$GNGSA,A,3,80,84,79,69,73,,,,,,,,0.90,0.57,0.69,2*07
$GNGSA,A,3,13,08,15,07,03,,,,,,,,0.90,0.57,0.69,3*0D
$GNGSA,A,3,38,39,08,16,06,13,46,20,09,19,37,29,0.90,0.57,0.69,4*04
$GPGSV,4,1,15,24,78,153,44,196,73,054,41,199,60,167,36,18,59,291,34,1*6F
$GPGSV,4,2,15,15,48,025,42,45,47,231,33,195,42,178,42,23,34,325,18,1*55
$GPGSV,4,3,15,05,31,100,37,194,24,143,25,13,21,044,38,29,11,211,16,1*5A
$GPGSV,4,4,15,20,10,118,,12,08,156,,10,04,308,,1*5C
$GPGSV,2,1,07,24,78,153,47,196,73,054,44,199,60,167,45,18,59,291,38,8*6D
$GPGSV,2,2,07,195,42,178,44,23,34,325,24,194,24,143,21,8*54
$GLGSV,2,1,06,85,46,277,16,80,41,111,41,84,29,198,29,79,23,050,33,1*78
$GLGSV,2,2,06,69,20,052,31,73,16,168,24,1*7C
$GAGSV,2,1,07,13,66,267,39,08,54,005,43,15,40,173,38,07,40,281,23,7*70
$GAGSV,2,2,07,26,22,319,,02,19,102,16,03,18,052,22,7*48
$GAGSV,2,1,05,13,66,267,42,08,54,005,44,07,40,281,23,15,40,173,44,1*74
$GAGSV,2,2,05,03,18,052,23,1*4C
$GBGSV,3,1,12,38,78,048,42,39,73,248,43,08,69,007,40,16,65,230,42,1*79
$GBGSV,3,2,12,06,63,228,40,13,60,342,34,46,47,139,38,20,47,037,45,1*78
$GBGSV,3,3,12,09,46,222,37,19,41,323,31,37,32,064,46,29,32,226,43,1*7B
$GBGSV,2,1,06,38,78,048,45,39,73,248,45,20,47,037,45,46,47,139,45,4*71
$GBGSV,2,2,06,29,32,226,40,37,32,064,44,4*7A
$GNGGA,104238.000,2500.7941013,N,12132.4797635,E,4,48,0.57,15.876,M,15.25,M,3,3335*4E
$GNRMC,104238.000,A,2500.7941013,N,12132.4797635,E,0.01,301.88,260623,,,R,V*15
$GPHDT,,T*1B
$GNGGA,104238.200,2500.7941036,N,12132.4797601,E,4,48,0.57,15.869,M,15.25,M,3,3335*42
$GNRMC,104238.200,A,2500.7941036,N,12132.4797601,E,0.01,301.88,260623,,,R,V*17
$GPHDT,,T*1B
$GNGGA,104238.400,2500.7941012,N,12132.4797620,E,4,48,0.57,15.874,M,15.25,M,3,3335*4D
$GNRMC,104238.400,A,2500.7941012,N,12132.4797620,E,0.01,301.88,260623,,,R,V*14
$GPHDT,,T*1B
$GNGGA,104238.600,2500.7941023,N,12132.4797638,E,4,48,0.57,15.898,M,15.25,M,1,3335*44
$GNRMC,104238.600,A,2500.7941023,N,12132.4797638,E,0.02,301.88,260623,,,R,V*1E
$GPHDT,,T*1B
$GNGGA,104238.800,2500.7941014,N,12132.4797600,E,4,49,0.55,15.880,M,15.25,M,0,3335*4E
$GNRMC,104238.800,A,2500.7941014,N,12132.4797600,E,0.04,301.88,260623,,,R,V*19
$GPHDT,,T*1B
$GNGSA,A,3,24,196,199,18,15,195,05,194,13,,,,0.88,0.55,0.69,1*0C
$GNGSA,A,3,85,80,84,79,69,73,,,,,,,0.88,0.55,0.69,2*01
$GNGSA,A,3,13,08,15,07,03,,,,,,,,0.88,0.55,0.69,3*06
$GNGSA,A,3,38,39,08,16,06,13,46,20,09,19,37,29,0.88,0.55,0.69,4*0F
$GPGSV,4,1,15,24,78,153,44,196,73,054,41,199,60,167,36,18,59,291,34,1*6F
$GPGSV,4,2,15,15,48,025,42,45,47,231,33,195,42,178,42,23,34,325,15,1*58
$GPGSV,4,3,15,05,31,100,36,194,24,143,24,13,21,044,38,29,11,211,16,1*5A
$GPGSV,4,4,15,20,10,118,,12,08,156,,10,04,308,,1*5C
$GPGSV,2,1,07,24,78,153,47,196,73,054,44,199,60,167,45,18,59,291,38,8*6D
$GPGSV,2,2,07,195,42,178,44,23,34,325,24,194,24,143,23,8*56
$GLGSV,2,1,06,85,46,277,19,80,41,111,41,84,29,198,30,79,23,050,34,1*78
$GLGSV,2,2,06,69,20,052,31,73,16,168,24,1*7C
$GAGSV,2,1,07,13,66,267,39,08,54,005,43,15,40,173,38,07,40,281,22,7*71
$GAGSV,2,2,07,26,22,319,,02,19,102,17,03,18,052,22,7*49
$GAGSV,2,1,05,13,66,267,42,08,54,005,44,07,40,281,23,15,40,173,44,1*74
$GAGSV,2,2,05,03,18,052,23,1*4C
$GBGSV,3,1,12,38,78,048,42,39,73,248,43,08,69,007,41,16,65,230,42,1*78
$GBGSV,3,2,12,06,63,228,40,13,60,342,33,46,47,139,39,20,47,037,45,1*7E
$GBGSV,3,3,12,09,46,222,37,19,41,323,31,37,32,064,46,29,32,226,43,1*7B
$GBGSV,2,1,06,38,78,048,45,39,73,248,45,20,47,037,45,46,47,139,45,4*71
$GBGSV,2,2,06,29,32,226,40,37,32,064,44,4*7A
$GNGGA,104239.000,2500.7941033,N,12132.4797614,E,4,49,0.55,15.890,M,15.25,M,1,3335*47
$GNRMC,104239.000,A,2500.7941033,N,12132.4797614,E,0.02,301.88,260623,,,R,V*16
$GPHDT,,T*1B
$GNGGA,104239.200,2500.7941035,N,12132.4797605,E,4,49,0.55,15.887,M,15.25,M,1,3335*45
$GNRMC,104239.200,A,2500.7941035,N,12132.4797605,E,0.00,301.88,260623,,,R,V*10
$GPHDT,,T*1B
$GNGGA,104239.400,2500.7941033,N,12132.4797621,E,4,49,0.55,15.886,M,15.25,M,1,3335*42
$GNRMC,104239.400,A,2500.7941033,N,12132.4797621,E,0.02,301.88,260623,,,R,V*14
$GPHDT,,T*1B
$GNGGA,104239.600,2500.7941037,N,12132.4797601,E,4,49,0.55,15.888,M,15.25,M,1,3335*48
$GNRMC,104239.600,A,2500.7941037,N,12132.4797601,E,0.03,301.88,260623,,,R,V*11
$GPHDT,,T*1B
$GNGGA,104239.800,2500.7941029,N,12132.4797615,E,4,49,0.55,15.883,M,15.25,M,1,3335*47
$GNRMC,104239.800,A,2500.7941029,N,12132.4797615,E,0.05,301.88,260623,,,R,V*13
$GPHDT,,T*1B
$GNGSA,A,3,24,196,199,18,15,195,05,194,13,,,,0.88,0.55,0.69,1*0C
$GNGSA,A,3,85,80,84,79,69,73,,,,,,,0.88,0.55,0.69,2*01
$GNGSA,A,3,13,08,07,15,03,,,,,,,,0.88,0.55,0.69,3*06
$GNGSA,A,3,38,39,08,16,06,13,20,46,09,19,37,29,0.88,0.55,0.69,4*0F
$GPGSV,4,1,15,24,78,153,44,196,73,054,41,199,60,167,37,18,59,291,34,1*6E
$GPGSV,4,2,15,15,48,025,42,45,47,231,33,195,42,178,42,23,34,325,14,1*59
$GPGSV,4,3,15,05,31,100,36,194,24,143,24,13,21,044,38,29,11,211,16,1*5A
$GPGSV,4,4,15,20,10,118,,12,08,156,,10,04,308,,1*5C
$GPGSV,2,1,07,24,78,153,47,196,73,054,44,199,60,167,45,18,59,291,38,8*6D
$GPGSV,2,2,07,195,42,178,44,23,34,325,23,194,24,143,23,8*51
$GLGSV,2,1,06,85,46,277,19,80,41,111,41,84,29,198,30,79,23,050,34,1*78
$GLGSV,2,2,06,69,20,052,31,73,16,168,24,1*7C
$GAGSV,2,1,08,13,66,267,39,08,54,005,43,07,40,281,22,15,40,173,39,7*7F
$GAGSV,2,2,08,26,22,319,,02,19,102,16,03,18,052,22,30,14,154,,7*71
$GAGSV,2,1,05,13,66,267,42,08,54,005,43,07,40,281,23,15,40,173,44,1*73
$GAGSV,2,2,05,03,18,052,22,1*4D
$GBGSV,3,1,12,38,78,048,42,39,73,248,43,08,69,007,41,16,65,230,42,1*78
$GBGSV,3,2,12,06,63,228,40,13,60,342,33,20,47,037,45,46,47,139,39,1*7E
$GBGSV,3,3,12,09,46,222,37,19,41,323,31,37,32,064,46,29,32,226,43,1*7B
$GBGSV,2,1,06,38,78,048,45,39,73,248,45,20,47,037,45,46,47,139,44,4*70
$GBGSV,2,2,06,29,32,226,40,37,32,064,43,4*7D
$GNGGA,104240.000,2500.7941027,N,12132.4797618,E,4,49,0.55,15.875,M,15.25,M,2,3335*48
$GNRMC,104240.000,A,2500.7941027,N,12132.4797618,E,0.03,301.88,260623,,,R,V*10
$GPHDT,,T*1B
$GNGGA,104240.200,2500.7941002,N,12132.4797636,E,4,49,0.55,15.905,M,15.25,M,2,3335*47
$GNRMC,104240.200,A,2500.7941002,N,12132.4797636,E,0.04,301.88,260623,,,R,V*1E
$GPHDT,226.061,T*34
$GNGGA,104240.400,2500.7941026,N,12132.4797616,E,4,48,0.55,15.881,M,15.25,M,2,3335*49
$GNRMC,104240.400,A,2500.7941026,N,12132.4797616,E,0.03,301.88,260623,,,R,V*1B
$GPHDT,226.007,T*34
$GNGGA,104240.600,2500.7941030,N,12132.4797634,E,4,48,0.55,15.872,M,15.25,M,2,3335*40
$GNRMC,104240.600,A,2500.7941030,N,12132.4797634,E,0.01,301.88,260623,,,R,V*1C
$GPHDT,226.047,T*30
$GNGGA,104240.800,2500.7941056,N,12132.4797582,E,4,49,0.55,15.873,M,15.25,M,2,3335*40
$GNRMC,104240.800,A,2500.7941056,N,12132.4797582,E,0.05,301.88,260623,,,R,V*18
$GPHDT,225.996,T*36
$GNGSA,A,3,24,196,199,18,15,195,05,194,13,,,,0.88,0.55,0.69,1*0C
$GNGSA,A,3,85,80,84,79,69,73,,,,,,,0.88,0.55,0.69,2*01
$GNGSA,A,3,13,08,07,15,03,,,,,,,,0.88,0.55,0.69,3*06
$GNGSA,A,3,38,39,08,16,06,13,20,46,09,19,37,29,0.88,0.55,0.69,4*0F
$GPGSV,4,1,15,24,78,153,44,196,73,054,41,199,60,167,37,18,59,291,35,1*6F
$GPGSV,4,2,15,15,48,025,42,45,47,231,33,195,42,178,42,23,34,325,14,1*59
$GPGSV,4,3,15,05,31,100,36,194,24,143,22,13,21,044,38,29,11,211,16,1*5C
$GPGSV,4,4,15,20,10,118,,12,08,156,,10,04,308,,1*5C
$GPGSV,2,1,07,24,78,153,47,196,73,054,44,199,60,167,45,18,59,291,38,8*6D
$GPGSV,2,2,07,195,42,178,44,23,34,325,24,194,24,143,23,8*56
$GLGSV,2,1,06,85,46,277,19,80,41,111,41,84,29,198,30,79,23,050,34,1*78
$GLGSV,2,2,06,69,20,052,31,73,16,168,25,1*7D
$GAGSV,2,1,08,13,66,267,39,08,54,005,43,07,40,281,22,15,40,173,39,7*7F
$GAGSV,2,2,08,26,22,319,,02,19,102,16,03,18,052,23,30,14,154,,7*70
$GAGSV,2,1,05,13,66,267,42,08,54,005,43,07,40,281,23,15,40,173,44,1*73
$GAGSV,2,2,05,03,18,052,21,1*4E
$GBGSV,3,1,12,38,78,048,42,39,73,248,43,08,69,007,41,16,65,230,42,1*78
$GBGSV,3,2,12,06,63,228,40,13,60,342,33,20,47,037,45,46,47,139,39,1*7E
$GBGSV,3,3,12,09,46,222,37,19,41,323,31,37,32,064,46,29,32,226,43,1*7B
$GBGSV,2,1,06,38,78,048,45,39,73,248,45,20,47,037,45,46,47,139,44,4*70
$GBGSV,2,2,06,29,32,226,40,37,32,064,43,4*7D
$GNGGA,104241.000,2500.7941032,N,12132.4797617,E,4,49,0.55,15.873,M,15.25,M,3,3335*45
$GNRMC,104241.000,A,2500.7941032,N,12132.4797617,E,0.02,301.88,260623,,,R,V*1B
$GPHDT,225.858,T*35
$GNGGA,104241.200,2500.7941003,N,12132.4797623,E,4,49,0.55,15.886,M,15.25,M,3,3335*48
$GNRMC,104241.200,A,2500.7941003,N,12132.4797623,E,0.01,301.88,260623,,,R,V*1F
$GPHDT,225.973,T*3D
$GNGGA,104241.400,2500.7941028,N,12132.4797620,E,4,49,0.55,15.876,M,15.25,M,3,3335*4B
$GNRMC,104241.400,A,2500.7941028,N,12132.4797620,E,0.01,301.88,260623,,,R,V*13
$GPHDT,226.168,T*3C
$GNGGA,104241.600,2500.7941024,N,12132.4797646,E,4,49,0.55,15.874,M,15.25,M,3,3335*47
$GNRMC,104241.600,A,2500.7941024,N,12132.4797646,E,0.01,301.88,260623,,,R,V*1D
$GPHDT,226.117,T*34
$GNGGA,104241.800,2500.7941036,N,12132.4797642,E,4,49,0.55,15.872,M,15.25,M,3,3335*48
$GNRMC,104241.800,A,2500.7941036,N,12132.4797642,E,0.04,301.88,260623,,,R,V*11
$GPHDT,226.104,T*36
$GNGSA,A,3,24,196,199,18,15,195,05,194,13,,,,0.88,0.55,0.69,1*0C
$GNGSA,A,3,85,80,84,79,69,73,,,,,,,0.88,0.55,0.69,2*01
$GNGSA,A,3,13,08,15,07,03,,,,,,,,0.88,0.55,0.69,3*06
$GNGSA,A,3,38,39,08,16,06,13,20,46,09,19,29,37,0.88,0.55,0.69,4*0F
$GPGSV,4,1,15,24,78,153,44,196,73,054,41,199,60,167,37,18,59,291,35,1*6F
$GPGSV,4,2,15,15,48,025,42,45,47,231,33,195,42,178,42,23,34,325,16,1*5B
$GPGSV,4,3,15,05,31,100,35,194,24,143,19,13,21,044,38,29,11,211,17,1*56
$GPGSV,4,4,15,20,10,118,,12,08,156,,10,04,308,,1*5C
$GPGSV,2,1,07,24,78,153,47,196,73,054,44,199,60,167,45,18,59,291,38,8*6D
$GPGSV,2,2,07,195,42,178,45,23,34,325,24,194,24,143,25,8*51
$GLGSV,2,1,06,85,46,277,20,80,41,111,41,84,29,198,30,79,23,050,34,1*72
$GLGSV,2,2,06,69,20,052,31,73,16,168,26,1*7E
$GAGSV,3,1,09,13,66,267,39,08,54,005,43,15,40,173,39,07,40,281,22,7*7F
$GAGSV,3,2,09,26,22,319,,02,19,102,15,03,18,052,23,30,14,154,,7*73
$GAGSV,3,3,09,25,05,057,,7*4A
$GAGSV,2,1,05,13,66,267,42,08,54,005,43,07,40,281,23,15,40,173,44,1*73
$GAGSV,2,2,05,03,18,052,23,1*4C
$GBGSV,4,1,13,38,78,048,42,39,73,248,43,08,69,007,41,16,65,230,42,1*7E
$GBGSV,4,2,13,06,63,228,40,13,60,342,33,20,47,037,45,46,47,139,39,1*78
$GBGSV,4,3,13,09,46,222,37,19,41,323,31,29,32,226,43,37,32,064,46,1*7D
$GBGSV,4,4,13,07,06,196,,1*4B
$GBGSV,2,1,06,38,78,048,45,39,73,248,45,20,47,037,45,46,47,139,44,4*70
$GBGSV,2,2,06,29,32,226,40,37,32,064,43,4*7D
$GNGGA,104242.000,2500.7941031,N,12132.4797630,E,4,49,0.55,15.870,M,15.25,M,4,3335*44
$GNRMC,104242.000,A,2500.7941031,N,12132.4797630,E,0.00,301.88,260623,,,R,V*1C
$GPHDT,225.985,T*34
$GNGGA,104242.200,2500.7941027,N,12132.4797639,E,4,49,0.55,15.870,M,15.25,M,4,3335*48
$GNRMC,104242.200,A,2500.7941027,N,12132.4797639,E,0.01,301.88,260623,,,R,V*11
$GPHDT,226.178,T*3D
$GNGGA,104242.400,2500.7941039,N,12132.4797628,E,4,49,0.55,15.869,M,15.25,M,4,3335*49
$GNRMC,104242.400,A,2500.7941039,N,12132.4797628,E,0.02,301.88,260623,,,R,V*1B
$GPHDT,225.906,T*3F
$GNGGA,104242.600,2500.7941030,N,12132.4797643,E,4,49,0.55,15.874,M,15.25,M,1,3335*46
$GNRMC,104242.600,A,2500.7941030,N,12132.4797643,E,0.00,301.88,260623,,,R,V*1F
$GPHDT,226.087,T*3C
$GNGGA,104242.800,2500.7941013,N,12132.4797686,E,4,49,0.55,15.876,M,15.25,M,0,3335*43
$GNRMC,104242.800,A,2500.7941013,N,12132.4797686,E,0.06,301.88,260623,,,R,V*1F
$GPHDT,226.170,T*35
$GNGSA,A,3,24,196,199,18,15,195,05,194,13,,,,0.88,0.55,0.69,1*0C
$GNGSA,A,3,85,80,84,79,69,73,,,,,,,0.88,0.55,0.69,2*01
$GNGSA,A,3,13,08,15,07,03,,,,,,,,0.88,0.55,0.69,3*06
$GNGSA,A,3,38,39,08,16,06,13,20,46,09,19,37,29,0.88,0.55,0.69,4*0F
$GPGSV,4,1,15,24,78,153,44,196,73,054,41,199,60,167,37,18,59,291,35,1*6F
$GPGSV,4,2,15,15,48,025,42,45,47,231,33,195,42,178,42,23,34,325,13,1*5E
$GPGSV,4,3,15,05,31,100,34,194,24,143,17,13,21,044,38,29,11,211,17,1*59
$GPGSV,4,4,15,20,10,118,,12,08,156,,10,04,308,,1*5C
$GPGSV,2,1,07,24,78,153,47,196,73,054,44,199,60,167,45,18,59,291,38,8*6D
$GPGSV,2,2,07,195,42,178,45,23,34,325,24,194,24,143,25,8*51
$GLGSV,2,1,06,85,46,277,21,80,41,111,41,84,29,198,30,79,23,050,33,1*74
$GLGSV,2,2,06,69,20,052,31,73,16,168,26,1*7E
$GAGSV,3,1,09,13,66,267,39,08,54,005,43,15,40,173,39,07,40,281,22,7*7F
$GAGSV,3,2,09,26,22,319,,02,19,102,14,03,18,052,21,30,14,154,,7*70
$GAGSV,3,3,09,25,05,057,,7*4A
$GAGSV,2,1,05,13,66,267,42,08,54,005,43,07,40,281,22,15,40,173,44,1*72
$GAGSV,2,2,05,03,18,052,23,1*4C
$GBGSV,3,1,12,38,78,048,42,39,73,248,43,08,69,007,41,16,65,230,42,1*78
$GBGSV,3,2,12,06,63,228,40,13,60,342,33,20,47,038,45,46,47,139,39,1*71
$GBGSV,3,3,12,09,46,222,37,19,41,323,31,37,32,064,46,29,32,226,43,1*7B
$GBGSV,2,1,06,38,78,048,45,39,73,248,45,20,47,038,45,46,47,139,44,4*7F
$GBGSV,2,2,06,29,32,226,40,37,32,064,43,4*7D
$GNGGA,104243.000,2500.7941024,N,12132.4797647,E,4,49,0.55,15.878,M,15.25,M,1,3335*4C
$GNRMC,104243.000,A,2500.7941024,N,12132.4797647,E,0.02,301.88,260623,,,R,V*1B
$GPHDT,225.497,T*3A
$GNGGA,104243.200,2500.7941030,N,12132.4797636,E,4,49,0.55,15.875,M,15.25,M,1,3335*40
$GNRMC,104243.200,A,2500.7941030,N,12132.4797636,E,0.00,301.88,260623,,,R,V*18
$GPHDT,225.920,T*3B
$GNGGA,104243.400,2500.7941030,N,12132.4797656,E,4,49,0.55,15.885,M,15.25,M,1,3335*4F
$GNRMC,104243.400,A,2500.7941030,N,12132.4797656,E,0.01,301.88,260623,,,R,V*19
$GPHDT,225.941,T*3C
$GNGGA,104243.600,2500.7941033,N,12132.4797659,E,4,49,0.55,15.880,M,15.25,M,1,3335*44
$GNRMC,104243.600,A,2500.7941033,N,12132.4797659,E,0.01,301.88,260623,,,R,V*17
$GPHDT,225.679,T*38
$GNGGA,104243.800,2500.7941032,N,12132.4797668,E,4,49,0.55,15.882,M,15.25,M,1,3335*4B
$GNRMC,104243.800,A,2500.7941032,N,12132.4797668,E,0.03,301.88,260623,,,R,V*18
$GPHDT,226.111,T*32
$GNGSA,A,3,24,196,199,18,15,195,05,194,13,,,,0.88,0.55,0.69,1*0C
$GNGSA,A,3,85,80,84,79,69,73,,,,,,,0.88,0.55,0.69,2*01
$GNGSA,A,3,13,08,15,07,03,,,,,,,,0.88,0.55,0.69,3*06
$GNGSA,A,3,38,39,08,16,06,13,20,46,09,19,37,29,0.88,0.55,0.69,4*0F
$GPGSV,4,1,15,24,78,153,44,196,73,054,41,199,60,167,37,18,59,291,35,1*6F
$GPGSV,4,2,15,15,48,025,42,45,47,231,33,195,42,178,42,23,34,325,13,1*5E
$GPGSV,4,3,15,05,31,100,34,194,24,143,18,13,21,044,38,29,11,211,18,1*59
$GPGSV,4,4,15,20,10,118,,12,08,156,,10,04,308,,1*5C
$GPGSV,2,1,07,24,78,153,47,196,73,054,44,199,60,167,45,18,59,291,38,8*6D
$GPGSV,2,2,07,195,42,178,45,23,34,325,24,194,24,143,25,8*51
$GLGSV,2,1,06,85,46,277,21,80,41,111,41,84,29,198,30,79,23,050,33,1*74
$GLGSV,2,2,06,69,20,052,30,73,16,168,26,1*7F
$GAGSV,3,1,09,13,66,267,39,08,54,005,43,15,40,173,39,07,40,281,22,7*7F
$GAGSV,3,2,09,26,22,319,,02,19,102,13,03,18,052,22,30,14,154,,7*74
$GAGSV,3,3,09,25,05,057,,7*4A
$GAGSV,2,1,05,13,66,267,42,08,54,005,43,07,40,281,22,15,40,173,44,1*72
$GAGSV,2,2,05,03,18,052,23,1*4C
$GBGSV,3,1,12,38,78,048,42,39,73,248,43,08,69,007,41,16,65,230,42,1*78
$GBGSV,3,2,12,06,63,228,40,13,60,342,33,20,47,038,45,46,47,139,39,1*71
$GBGSV,3,3,12,09,46,222,37,19,41,323,31,37,32,064,46,29,32,226,43,1*7B
$GBGSV,2,1,06,38,78,048,45,39,73,248,45,20,47,038,45,46,47,139,44,4*7F
$GBGSV,2,2,06,29,32,226,40,37,32,064,43,4*7D
$GNGGA,104244.000,2500.7941031,N,12132.4797665,E,4,49,0.55,15.882,M,15.25,M,2,3335*49
$GNRMC,104244.000,A,2500.7941031,N,12132.4797665,E,0.01,301.88,260623,,,R,V*1B
$GPHDT,226.030,T*30
$GNGGA,104244.200,2500.7941043,N,12132.4797662,E,4,49,0.55,15.884,M,15.25,M,2,3335*4F
$GNRMC,104244.200,A,2500.7941043,N,12132.4797662,E,0.09,301.88,260623,,,R,V*13
$GPHDT,226.059,T*3F
$GNGGA,104244.400,2500.7941027,N,12132.4797655,E,4,49,0.55,15.881,M,15.25,M,2,3335*4A
$GNRMC,104244.400,A,2500.7941027,N,12132.4797655,E,0.06,301.88,260623,,,R,V*1C
$GPHDT,226.197,T*3C
$GNGGA,104244.600,2500.7941033,N,12132.4797638,E,4,49,0.55,15.876,M,15.25,M,2,3335*4E
$GNRMC,104244.600,A,2500.7941033,N,12132.4797638,E,0.05,301.88,260623,,,R,V*13
$GPHDT,225.823,T*39
$GNGGA,104244.800,2500.7941034,N,12132.4797636,E,4,49,0.55,15.869,M,15.25,M,2,3335*47
$GNRMC,104244.800,A,2500.7941034,N,12132.4797636,E,0.07,301.88,260623,,,R,V*16
$GPHDT,225.746,T*35
$GNGSA,A,3,24,196,199,18,15,195,05,194,13,,,,0.88,0.55,0.69,1*0C
$GNGSA,A,3,85,80,84,79,69,73,,,,,,,0.88,0.55,0.69,2*01
$GNGSA,A,3,13,08,07,15,03,,,,,,,,0.88,0.55,0.69,3*06
$GNGSA,A,3,38,39,08,16,06,13,46,20,09,19,37,29,0.88,0.55,0.69,4*0F
$GPGSV,4,1,15,24,78,153,44,196,73,054,41,199,60,167,37,18,59,291,35,1*6F
$GPGSV,4,2,15,15,48,025,42,45,47,231,33,195,42,178,42,23,34,325,15,1*58
$GPGSV,4,3,15,05,31,100,34,194,24,143,19,13,21,044,38,29,11,211,18,1*58
$GPGSV,4,4,15,20,10,118,,12,08,156,,10,04,308,,1*5C
$GPGSV,2,1,07,24,78,153,47,196,73,054,44,199,60,167,45,18,59,291,38,8*6D
$GPGSV,2,2,07,195,42,178,45,23,34,325,24,194,24,143,24,8*50
$GLGSV,2,1,08,85,46,277,21,80,41,111,40,84,29,198,30,79,23,050,33,1*7B
$GLGSV,2,2,08,69,20,052,30,86,17,323,,73,16,168,25,71,14,292,,1*72
$GAGSV,3,1,09,13,66,267,39,08,54,005,43,07,40,281,23,15,40,173,39,7*7E
$GAGSV,3,2,09,26,22,319,,02,19,102,14,03,18,052,22,30,14,154,,7*73
$GAGSV,3,3,09,25,05,057,,7*4A
$GAGSV,2,1,05,13,66,267,42,08,54,005,43,07,40,281,22,15,40,173,44,1*72
$GAGSV,2,2,05,03,18,052,22,1*4D
$GBGSV,4,1,15,38,78,048,42,39,73,248,43,08,69,007,41,16,65,230,42,1*78
$GBGSV,4,2,15,06,63,228,40,13,60,342,33,46,47,139,39,20,47,038,45,1*71
$GBGSV,4,3,15,09,46,222,37,19,41,323,31,37,32,064,46,29,32,226,43,1*7B
$GBGSV,4,4,15,30,07,177,,10,04,207,,22,03,287,,1*49
$GBGSV,2,1,06,38,78,048,45,39,73,248,45,20,47,038,45,46,47,139,44,4*7F
$GBGSV,2,2,06,29,32,226,40,37,32,064,43,4*7D
$GNGGA,104245.000,2500.7941036,N,12132.4797643,E,4,49,0.55,15.872,M,15.25,M,3,3335*45
$GNRMC,104245.000,A,2500.7941036,N,12132.4797643,E,0.03,301.88,260623,,,R,V*1B
$GPHDT,226.124,T*34
$GNGGA,104245.200,2500.7941034,N,12132.4797642,E,4,49,0.55,15.872,M,15.25,M,3,3335*44
$GNRMC,104245.200,A,2500.7941034,N,12132.4797642,E,0.01,301.88,260623,,,R,V*18
$GPHDT,226.036,T*36
$GNGGA,104245.400,2500.7941036,N,12132.4797655,E,4,49,0.55,15.876,M,15.25,M,3,3335*42
$GNRMC,104245.400,A,2500.7941036,N,12132.4797655,E,0.01,301.88,260623,,,R,V*1A
$GPHDT,226.005,T*36
$GNGGA,104245.600,2500.7941037,N,12132.4797645,E,4,49,0.55,15.870,M,15.25,M,3,3335*46
$GNRMC,104245.600,A,2500.7941037,N,12132.4797645,E,0.13,301.88,260623,,,R,V*1B
$GPHDT,226.005,T*36
$GNGGA,104245.800,2500.7941037,N,12132.4797637,E,4,49,0.55,15.861,M,15.25,M,3,3335*4D
$GNRMC,104245.800,A,2500.7941037,N,12132.4797637,E,0.06,301.88,260623,,,R,V*14
$GPHDT,225.612,T*35
$GNGSA,A,3,24,196,199,18,15,195,05,194,13,,,,0.88,0.55,0.69,1*0C
$GNGSA,A,3,85,80,84,79,69,73,,,,,,,0.88,0.55,0.69,2*01
$GNGSA,A,3,13,08,07,15,03,,,,,,,,0.88,0.55,0.69,3*06
$GNGSA,A,3,38,39,08,16,06,13,20,46,09,19,37,29,0.88,0.55,0.69,4*0F
$GPGSV,4,1,15,24,78,153,44,196,73,054,41,199,60,167,37,18,59,291,35,1*6F
$GPGSV,4,2,15,15,48,025,42,45,47,231,33,195,42,178,42,23,34,325,14,1*59
$GPGSV,4,3,15,05,31,100,34,194,24,143,19,13,21,044,38,29,11,211,18,1*58
$GPGSV,4,4,15,20,10,118,,12,08,156,,10,04,308,,1*5C
$GPGSV,2,1,07,24,78,153,47,196,73,054,44,199,60,167,45,18,59,291,38,8*6D
$GPGSV,2,2,07,195,42,178,45,23,34,325,24,194,24,143,24,8*50
$GLGSV,2,1,06,85,46,277,21,80,41,111,40,84,29,198,30,79,23,050,33,1*75
$GLGSV,2,2,06,69,20,052,30,73,16,168,25,1*7C
$GAGSV,2,1,08,13,66,267,39,08,54,005,43,07,40,281,23,15,40,173,39,7*7E
$GAGSV,2,2,08,02,19,102,16,03,18,052,22,30,14,154,16,25,05,057,,7*79
$GAGSV,2,1,05,13,66,267,42,08,54,005,43,07,40,281,22,15,40,173,44,1*72
$GAGSV,2,2,05,03,18,052,20,1*4F
$GBGSV,3,1,12,38,78,048,42,39,73,248,43,08,69,007,41,16,65,230,42,1*78
$GBGSV,3,2,12,06,63,228,40,13,60,342,33,20,47,038,45,46,47,139,39,1*71
$GBGSV,3,3,12,09,46,222,37,19,41,323,32,37,32,063,46,29,32,226,43,1*7F
$GBGSV,2,1,06,38,78,048,45,39,73,248,45,20,47,038,45,46,47,139,44,4*7F
$GBGSV,2,2,06,29,32,226,40,37,32,063,43,4*7A
$GNGGA,104246.000,2500.7941054,N,12132.4797620,E,4,49,0.55,15.876,M,15.25,M,4,3335*44
$GNRMC,104246.000,A,2500.7941054,N,12132.4797620,E,0.03,301.88,260623,,,R,V*19
$GPHDT,225.677,T*36
$GNGGA,104246.200,2500.7941032,N,12132.4797623,E,4,49,0.55,15.861,M,15.25,M,4,3335*43
$GNRMC,104246.200,A,2500.7941032,N,12132.4797623,E,0.02,301.88,260623,,,R,V*19
$GPHDT,225.985,T*34
$GNGGA,104246.400,2500.7941022,N,12132.4797658,E,4,49,0.55,15.874,M,15.25,M,2,3335*4A
$GNRMC,104246.400,A,2500.7941022,N,12132.4797658,E,0.01,301.88,260623,,,R,V*11
$GPHDT,226.181,T*3B
$GNGGA,104246.600,2500.7941026,N,12132.4797657,E,4,49,0.55,15.877,M,15.25,M,0,3335*42
$GNRMC,104246.600,A,2500.7941026,N,12132.4797657,E,0.02,301.88,260623,,,R,V*1B
$GPHDT,225.875,T*3A
$GNGGA,104246.800,2500.7941023,N,12132.4797665,E,4,49,0.55,15.880,M,15.25,M,0,3335*40
$GNRMC,104246.800,A,2500.7941023,N,12132.4797665,E,0.05,301.88,260623,,,R,V*16
$GPHDT,225.972,T*3C
$GNGSA,A,3,24,196,199,18,15,195,05,194,13,,,,1.11,0.57,0.95,1*0C
$GNGSA,A,3,85,80,84,79,69,73,,,,,,,1.11,0.57,0.95,2*01
$GNGSA,A,3,13,08,07,15,03,,,,,,,,1.11,0.57,0.95,3*06
$GNGSA,A,3,38,39,08,16,06,13,46,20,09,19,37,29,1.11,0.57,0.95,4*0F
$GPGSV,4,1,15,24,78,153,44,196,73,054,41,199,60,167,37,18,59,291,36,1*6C
$GPGSV,4,2,15,15,48,025,42,45,47,231,33,195,42,178,42,23,34,325,13,1*5E
$GPGSV,4,3,15,05,31,100,34,194,24,143,20,13,21,044,38,29,11,211,18,1*52
$GPGSV,4,4,15,20,10,118,,12,08,156,,10,04,308,,1*5C
$GPGSV,2,1,07,24,78,153,47,196,73,054,44,199,60,167,45,18,59,291,38,8*6D
$GPGSV,2,2,07,195,42,178,45,23,34,325,25,194,24,143,24,8*51
$GLGSV,2,1,06,85,46,277,21,80,41,111,40,84,29,198,30,79,23,050,33,1*75
$GLGSV,2,2,06,69,20,052,29,73,16,168,25,1*74
$GAGSV,2,1,08,13,66,267,39,08,54,005,43,07,40,281,24,15,40,173,39,7*79
$GAGSV,2,2,08,02,19,102,16,03,18,052,22,30,14,154,16,25,05,057,,7*79
$GAGSV,2,1,05,13,66,267,42,08,54,005,43,07,40,281,23,15,40,173,44,1*73
$GAGSV,2,2,05,03,18,052,22,1*4D
$GBGSV,4,1,13,38,78,048,42,39,73,248,43,08,69,007,41,16,65,230,42,1*7E
$GBGSV,4,2,13,06,63,228,40,13,60,342,34,46,47,139,39,20,47,038,45,1*70
$GBGSV,4,3,13,09,46,222,37,19,41,323,32,37,32,063,46,29,32,226,43,1*79
$GBGSV,4,4,13,07,06,196,,1*4B
$GBGSV,2,1,06,38,78,048,45,39,73,248,45,20,47,038,45,46,47,139,44,4*7F
$GBGSV,2,2,06,29,32,226,40,37,32,063,43,4*7A
$GNGGA,104247.000,2500.7941018,N,12132.4797655,E,4,49,0.57,15.879,M,15.25,M,1,3335*47
$GNRMC,104247.000,A,2500.7941018,N,12132.4797655,E,0.02,301.88,260623,,,R,V*13
$GPHDT,225.901,T*38
$GNGGA,104247.200,2500.7940962,N,12132.4797664,E,4,49,0.57,15.901,M,15.25,M,1,3335*4C
$GNRMC,104247.200,A,2500.7940962,N,12132.4797664,E,0.00,301.88,260623,,,R,V*14
$GPHDT,225.766,T*37
$GNGGA,104247.400,2500.7941021,N,12132.4797656,E,4,49,0.57,15.876,M,15.25,M,1,3335*45
$GNRMC,104247.400,A,2500.7941021,N,12132.4797656,E,0.01,301.88,260623,,,R,V*1D
$GPHDT,225.701,T*36
$GNGGA,104247.600,2500.7941013,N,12132.4797659,E,4,49,0.57,15.877,M,15.25,M,0,3335*49
$GNRMC,104247.600,A,2500.7941013,N,12132.4797659,E,0.04,301.88,260623,,,R,V*14
$GPHDT,225.782,T*3D
$GNGGA,104247.800,2500.7941005,N,12132.4797673,E,4,49,0.57,15.882,M,15.25,M,0,3335*42
$GNRMC,104247.800,A,2500.7941005,N,12132.4797673,E,0.06,301.88,260623,,,R,V*17
$GPHDT,226.067,T*32
$GNGSA,A,3,24,196,199,18,15,195,05,194,13,,,,1.11,0.57,0.95,1*0C
$GNGSA,A,3,85,80,84,79,69,73,,,,,,,1.11,0.57,0.95,2*01
$GNGSA,A,3,13,08,15,07,03,,,,,,,,1.11,0.57,0.95,3*06
$GNGSA,A,3,38,39,08,16,06,13,46,20,09,19,37,29,1.11,0.57,0.95,4*0F
$GPGSV,4,1,15,24,78,153,44,196,73,054,41,199,60,167,37,18,59,291,36,1*6C
$GPGSV,4,2,15,15,48,025,42,45,47,231,33,195,42,178,42,23,34,325,14,1*59
$GPGSV,4,3,15,05,31,100,34,194,24,143,21,13,21,044,38,29,11,211,17,1*5C
$GPGSV,4,4,15,20,10,118,,12,08,156,,10,04,308,,1*5C
$GPGSV,2,1,07,24,78,153,47,196,73,054,44,199,60,167,45,18,59,291,38,8*6D
$GPGSV,2,2,07,195,42,178,45,23,34,325,24,194,24,143,24,8*50
$GLGSV,2,1,06,85,46,277,21,80,41,111,40,84,29,198,30,79,23,050,32,1*74
$GLGSV,2,2,06,69,20,052,29,73,16,168,24,1*75
$GAGSV,2,1,08,13,66,267,39,08,54,005,43,15,40,173,39,07,40,281,24,7*79
$GAGSV,2,2,08,02,19,102,17,03,18,052,22,30,14,154,17,25,05,057,,7*79
$GAGSV,2,1,05,13,66,267,42,08,54,005,43,07,40,281,23,15,40,173,44,1*73
$GAGSV,2,2,05,03,18,052,21,1*4E
$GBGSV,4,1,13,38,78,048,42,39,73,248,43,08,69,007,41,16,65,230,42,1*7E
$GBGSV,4,2,13,06,63,228,41,13,60,342,34,46,47,139,39,20,47,038,45,1*71
$GBGSV,4,3,13,09,46,222,37,19,41,323,32,37,32,063,46,29,32,226,43,1*79
$GBGSV,4,4,13,22,03,287,,1*4A
$GBGSV,2,1,06,38,78,048,45,39,73,248,45,20,47,038,45,46,47,139,44,4*7F
$GBGSV,2,2,06,29,32,226,40,37,32,063,43,4*7A
$GNGGA,104248.000,2500.7941006,N,12132.4797653,E,4,49,0.57,15.878,M,15.25,M,1,3335*40
$GNRMC,104248.000,A,2500.7941006,N,12132.4797653,E,0.03,301.88,260623,,,R,V*14
$PAIR010,0,0,2268,124986*35
$PAIR010,0,1,2268,124986*34
$GPHDT,225.979,T*37
$GNGGA,104248.200,2500.7940985,N,12132.4797638,E,4,49,0.57,15.893,M,15.25,M,1,3335*49
$GNRMC,104248.200,A,2500.7940985,N,12132.4797638,E,0.01,301.88,260623,,,R,V*1A
$GPHDT,225.995,T*35
$GNGGA,104248.400,2500.7941019,N,12132.4797626,E,4,49,0.57,15.882,M,15.25,M,1,3335*4D
$GNRMC,104248.400,A,2500.7941019,N,12132.4797626,E,0.00,301.88,260623,,,R,V*1F
$GPHDT,225.961,T*3E
$GNGGA,104248.600,2500.7941051,N,12132.4797569,E,4,49,0.57,15.872,M,15.25,M,1,3335*44
$GNRMC,104248.600,A,2500.7941051,N,12132.4797569,E,0.00,301.88,260623,,,R,V*19
$GPHDT,225.465,T*37
$GNGGA,104248.800,2500.7941053,N,12132.4797616,E,4,50,0.55,15.891,M,15.25,M,0,3335*45
$GNRMC,104248.800,A,2500.7941053,N,12132.4797616,E,0.06,301.88,260623,,,R,V*18
$GPHDT,225.395,T*3F
