$FW : RTK35X,V1.1X0314AS,Lib20210517,1*54
$Tool : LOCOSYS , GNSS Firebird , v1.0.0.19*39
$---------------------------------------------------*2D
$GPHDT,135.634,T*33
$GNGSA,A,3,24,196,199,18,15,195,23,05,194,13,,,1.02,0.53,0.87,1*08
$GNGSA,A,3,85,80,84,79,69,73,,,,,,,1.02,0.53,0.87,2*04
$GNGSA,A,3,13,08,15,07,03,,,,,,,,1.02,0.53,0.87,3*03
$GNGSA,A,3,38,39,08,16,06,13,46,20,09,19,37,29,1.02,0.53,0.87,4*0A
$GNGSA,A,3,36,,,,,,,,,,,,1.02,0.53,0.87,4*0B
$GPGSV,4,1,15,24,78,152,45,196,73,055,40,199,60,167,37,18,59,290,35,1*6E
$GPGSV,4,2,15,15,47,025,40,45,47,231,31,195,42,178,40,23,34,326,21,1*51
$GPGSV,4,3,15,05,31,101,35,194,24,143,16,13,21,044,36,29,11,211,16,1*57
$GPGSV,4,4,15,20,10,118,,12,08,156,,10,05,308,,1*5D
$GPGSV,2,1,07,24,78,152,48,196,73,055,44,199,60,167,45,18,59,290,40,8*6C
$GPGSV,2,2,07,195,42,178,42,23,34,326,26,194,24,143,23,8*51
$GLGSV,2,1,08,85,46,277,24,80,41,111,40,70,38,341,,84,29,198,31,1*7F
$GLGSV,2,2,08,79,23,050,28,69,20,052,21,73,17,168,19,71,14,293,,1*77
$GAGSV,2,1,08,13,66,266,38,08,54,005,43,15,40,173,38,07,40,282,25,7*7A
$GAGSV,2,2,08,26,22,319,,02,19,102,,03,18,052,20,30,14,154,13,7*76
$GAGSV,2,1,05,13,66,266,42,08,54,005,43,15,40,173,42,07,40,282,16,1*71
$GAGSV,2,2,05,03,18,052,25,1*4A
$GBGSV,4,1,14,38,78,048,42,39,73,249,44,08,69,007,39,16,65,231,43,1*70
$GBGSV,4,2,14,06,63,229,42,13,61,342,36,46,47,139,45,20,47,038,41,1*78
$GBGSV,4,3,14,09,46,222,39,19,41,323,25,37,32,063,39,29,32,226,43,1*7E
$GBGSV,4,4,14,36,18,187,34,32,09,084,,1*72
$GBGSV,2,1,08,38,78,048,47,39,73,249,46,20,47,038,44,46,47,139,45,4*71
$GBGSV,2,2,08,19,41,323,26,29,32,226,42,37,32,063,40,36,18,187,24,4*7A
$GNGGA,104326.000,2500.7941490,N,12132.4797738,E,4,54,0.53,15.703,M,15.25,M,12,3335*77
$GNRMC,104326.000,A,2500.7941490,N,12132.4797738,E,0.00,301.88,260623,,,R,V*19
$GPHDT,135.745,T*34
$GNGGA,104326.200,2500.7941533,N,12132.4797750,E,4,54,0.53,15.687,M,15.25,M,12,3335*7E
$GNRMC,104326.200,A,2500.7941533,N,12132.4797750,E,0.00,301.88,260623,,,R,V*1D
$GPHDT,135.969,T*34
$GNGGA,104326.400,2500.7941417,N,12132.4797764,E,4,54,0.53,15.710,M,15.25,M,12,3335*77
$GNRMC,104326.400,A,2500.7941417,N,12132.4797764,E,0.00,301.88,260623,,,R,V*1B
$GPHDT,136.009,T*38
$GNGGA,104326.600,2500.7941436,N,12132.4797746,E,4,53,0.53,15.703,M,15.25,M,12,3335*73
$GNRMC,104326.600,A,2500.7941436,N,12132.4797746,E,0.00,301.88,260623,,,R,V*1A
$GPHDT,135.875,T*38
$GNGGA,104326.800,2500.7941470,N,12132.4797768,E,4,53,0.53,15.702,M,15.25,M,12,3335*72
$GNRMC,104326.800,A,2500.7941470,N,12132.4797768,E,0.00,301.88,260623,,,R,V*1A
$GPHDT,136.171,T*36
$GNGSA,A,3,24,196,199,18,15,195,23,05,194,13,,,1.02,0.53,0.87,1*08
$GNGSA,A,3,85,80,84,79,69,73,,,,,,,1.02,0.53,0.87,2*04
$GNGSA,A,3,13,08,15,07,03,,,,,,,,1.02,0.53,0.87,3*03
$GNGSA,A,3,38,39,08,16,06,13,20,46,09,19,37,29,1.02,0.53,0.87,4*0A
$GNGSA,A,3,36,,,,,,,,,,,,1.02,0.53,0.87,4*0B
$GPGSV,4,1,15,24,78,152,45,196,73,055,40,199,60,167,38,18,59,290,35,1*61
$GPGSV,4,2,15,15,47,025,40,45,47,231,32,195,42,178,40,23,34,326,20,1*53
$GPGSV,4,3,15,05,31,101,35,194,24,143,16,13,21,044,39,29,11,211,17,1*59
$GPGSV,4,4,15,20,10,118,,12,08,156,,10,05,308,,1*5D
$GPGSV,2,1,07,24,78,152,48,196,73,055,44,199,60,167,45,18,59,290,40,8*6C
$GPGSV,2,2,07,195,42,178,42,23,34,326,26,194,24,143,24,8*56
$GLGSV,2,1,06,85,46,277,23,80,41,111,39,84,29,198,31,79,23,050,27,1*7D
$GLGSV,2,2,06,69,20,052,23,73,17,168,19,1*70
$GAGSV,3,1,09,13,66,266,38,08,54,005,43,15,40,173,38,07,40,282,25,7*7A
$GAGSV,3,2,09,26,22,319,,02,19,102,,03,18,052,20,30,14,154,14,7*71
$GAGSV,3,3,09,25,05,056,,7*4B
$GAGSV,1,1,04,13,66,266,42,08,54,005,44,15,40,173,42,03,18,052,24,1*73
$GBGSV,4,1,13,38,78,048,42,39,73,249,44,08,69,007,39,16,65,231,43,1*77
$GBGSV,4,2,13,06,63,229,42,13,61,342,35,20,47,038,43,46,47,139,45,1*7E
$GBGSV,4,3,13,09,46,222,39,19,41,323,26,37,32,063,40,29,32,226,43,1*74
$GBGSV,4,4,13,36,18,187,34,1*41
$GBGSV,2,1,08,38,78,048,46,39,73,249,46,20,47,038,45,46,47,139,45,4*71
$GBGSV,2,2,08,19,41,323,26,29,32,226,42,37,32,063,43,36,18,187,24,4*79
$GNGGA,104327.000,2500.7941508,N,12132.4797757,E,4,53,0.53,15.686,M,15.25,M,13,3335*75
$GNRMC,104327.000,A,2500.7941508,N,12132.4797757,E,0.00,301.88,260623,,,R,V*11
$GPHDT,136.052,T*36
$GNGGA,104327.200,2500.7941417,N,12132.4797766,E,4,53,0.53,15.704,M,15.25,M,13,3335*71
$GNRMC,104327.200,A,2500.7941417,N,12132.4797766,E,0.00,301.88,260623,,,R,V*1E
$GPHDT,136.135,T*36
$GNGGA,104327.400,2500.7941366,N,12132.4797735,E,4,53,0.53,15.741,M,15.25,M,10,3335*72
$GNRMC,104327.400,A,2500.7941366,N,12132.4797735,E,0.00,301.88,260623,,,R,V*1F
$GPHDT,135.944,T*3B
$GNGGA,104327.600,2500.7941306,N,12132.4797795,E,2,53,0.53,15.718,M,15.25,M,9,3335*4E
$GNRMC,104327.600,A,2500.7941306,N,12132.4797795,E,0.00,301.88,260623,,,D,V*07
$GPHDT,136.447,T*36
$GNGGA,104327.800,2500.7941306,N,12132.4797795,E,2,53,0.53,15.686,M,15.25,M,9,3335*46
$GNRMC,104327.800,A,2500.7941306,N,12132.4797795,E,0.00,301.88,260623,,,D,V*09
$GPHDT,136.202,T*31
$GNGSA,A,3,24,196,199,18,15,195,23,05,194,13,,,1.02,0.53,0.87,1*08
$GNGSA,A,3,85,80,84,79,69,73,,,,,,,1.02,0.53,0.87,2*04
$GNGSA,A,3,13,08,15,07,03,,,,,,,,1.02,0.53,0.87,3*03
$GNGSA,A,3,38,39,08,16,06,13,20,46,09,19,37,29,1.02,0.53,0.87,4*0A
$GNGSA,A,3,36,,,,,,,,,,,,1.02,0.53,0.87,4*0B
$GPGSV,4,1,15,24,78,151,45,196,73,055,40,199,60,167,38,18,59,290,35,1*62
$GPGSV,4,2,15,15,47,025,40,45,47,231,32,195,42,178,40,23,34,326,21,1*52
$GPGSV,4,3,15,05,31,101,35,194,24,143,18,13,21,044,39,29,11,211,17,1*57
$GPGSV,4,4,15,20,10,118,,12,08,156,,10,05,308,,1*5D
$GPGSV,2,1,07,24,78,151,48,196,73,055,44,199,60,167,45,18,59,290,39,8*61
$GPGSV,2,2,07,195,42,178,42,23,34,326,26,194,24,143,25,8*57
$GLGSV,2,1,06,85,46,277,23,80,41,111,38,84,29,198,31,79,23,050,28,1*73
$GLGSV,2,2,06,69,20,052,21,73,17,168,21,1*79
$GAGSV,3,1,09,13,66,266,38,08,54,005,44,15,40,173,37,07,40,282,24,7*73
$GAGSV,3,2,09,26,22,319,,02,19,102,23,03,18,052,21,30,14,154,16,7*73
$GAGSV,3,3,09,25,05,056,,7*4B
$GAGSV,1,1,04,13,66,266,42,08,54,005,43,15,40,173,42,03,18,052,22,1*72
$GBGSV,4,1,13,38,78,048,42,39,73,249,44,08,69,007,39,16,65,231,43,1*77
$GBGSV,4,2,13,06,63,229,42,13,61,342,34,20,47,038,43,46,47,139,45,1*7F
$GBGSV,4,3,13,09,46,222,39,19,41,323,26,37,32,063,44,29,32,226,43,1*70
$GBGSV,4,4,13,36,18,187,33,1*46
$GBGSV,2,1,08,38,78,048,46,39,73,249,46,20,47,038,45,46,47,139,45,4*71
$GBGSV,2,2,08,19,41,323,26,29,32,226,42,37,32,063,43,36,18,187,23,4*7E
$GNGGA,104328.000,2500.7941306,N,12132.4797855,E,2,53,0.53,15.661,M,15.25,M,10,3335*73
$GNRMC,104328.000,A,2500.7941306,N,12132.4797855,E,0.00,301.88,260623,,,D,V*0D
$GPHDT,135.739,T*3F
$GNGGA,104328.200,2500.7941306,N,12132.4797855,E,2,53,0.53,15.614,M,15.25,M,10,3335*73
$GNRMC,104328.200,A,2500.7941306,N,12132.4797855,E,0.00,301.88,260623,,,D,V*0F
$GPHDT,136.173,T*34
$GNGGA,104328.400,2500.7941306,N,12132.4797915,E,2,53,0.53,15.591,M,15.25,M,10,3335*7E
$GNRMC,104328.400,A,2500.7941306,N,12132.4797915,E,0.00,301.88,260623,,,D,V*0C
$GPHDT,136.178,T*3F
$GNGGA,104328.600,2500.7941246,N,12132.4797915,E,2,53,0.53,15.581,M,15.25,M,0,3335*49
$GNRMC,104328.600,A,2500.7941246,N,12132.4797915,E,0.00,301.88,260623,,,D,V*0B
$GPHDT,135.821,T*39
$GNGGA,104328.800,2500.7941246,N,12132.4797975,E,2,53,0.53,15.571,M,15.25,M,0,3335*4E
$GNRMC,104328.800,A,2500.7941246,N,12132.4797975,E,0.00,301.88,260623,,,D,V*03
$GPHDT,136.063,T*34
$GNGSA,A,3,24,196,199,18,15,195,23,05,194,13,,,1.02,0.53,0.87,1*08
$GNGSA,A,3,85,80,84,79,69,73,,,,,,,1.02,0.53,0.87,2*04
$GNGSA,A,3,13,08,15,07,03,,,,,,,,1.02,0.53,0.87,3*03
$GNGSA,A,3,38,39,08,16,06,13,20,46,09,19,37,29,1.02,0.53,0.87,4*0A
$GNGSA,A,3,36,,,,,,,,,,,,1.02,0.53,0.87,4*0B
$GPGSV,4,1,15,24,78,151,45,196,73,055,40,199,60,167,38,18,59,290,35,1*62
$GPGSV,4,2,15,15,47,025,40,45,47,231,32,195,42,178,40,23,34,326,22,1*51
$GPGSV,4,3,15,05,31,101,35,194,24,143,19,13,21,044,39,29,10,211,17,1*57
$GPGSV,4,4,15,20,10,118,,12,08,156,,10,05,308,,1*5D
$GPGSV,2,1,07,24,78,151,48,196,73,055,44,199,60,167,45,18,59,290,39,8*61
$GPGSV,2,2,07,195,42,178,42,23,34,326,26,194,24,143,24,8*56
$GLGSV,2,1,06,85,46,277,21,80,41,111,39,84,29,198,30,79,23,050,28,1*71
$GLGSV,2,2,06,69,20,052,23,73,17,168,23,1*79
$GAGSV,3,1,09,13,66,266,39,08,54,005,43,15,40,173,37,07,40,282,24,7*75
$GAGSV,3,2,09,26,22,319,,02,19,102,22,03,18,052,23,30,14,154,16,7*70
$GAGSV,3,3,09,25,05,056,,7*4B
$GAGSV,1,1,04,13,66,266,42,08,54,005,43,15,40,173,42,03,18,052,22,1*72
$GBGSV,4,1,13,38,78,048,42,39,73,249,44,08,69,007,39,16,65,231,43,1*77
$GBGSV,4,2,13,06,63,229,42,13,61,342,33,20,47,038,44,46,47,139,44,1*7E
$GBGSV,4,3,13,09,46,222,39,19,41,323,26,37,32,063,44,29,32,226,43,1*70
$GBGSV,4,4,13,36,18,187,34,1*41
$GBGSV,2,1,08,38,78,048,46,39,73,249,46,20,47,038,45,46,47,139,45,4*71
$GBGSV,2,2,08,19,41,323,27,29,32,226,42,37,32,063,44,36,18,187,23,4*78
$GNGGA,104329.000,2500.7941306,N,12132.4798035,E,2,53,0.53,15.531,M,15.25,M,1,3335*45
$GNRMC,104329.000,A,2500.7941306,N,12132.4798035,E,0.00,301.88,260623,,,D,V*0D
$GPHDT,135.906,T*3D
$GNGGA,104329.200,2500.7941306,N,12132.4798155,E,2,53,0.53,15.488,M,15.25,M,1,3335*43
$GNRMC,104329.200,A,2500.7941306,N,12132.4798155,E,0.00,301.88,260623,,,D,V*08
$GPHDT,136.478,T*3A
$GNGGA,104329.400,2500.7941306,N,12132.4798215,E,2,53,0.53,15.452,M,15.25,M,1,3335*45
$GNRMC,104329.400,A,2500.7941306,N,12132.4798215,E,0.00,301.88,260623,,,D,V*09
$GPHDT,136.039,T*3B
$GNGGA,104329.600,2500.7941306,N,12132.4798275,E,2,53,0.53,15.423,M,15.25,M,0,3335*46
$GNRMC,104329.600,A,2500.7941306,N,12132.4798275,E,0.00,301.88,260623,,,D,V*0D
$GPHDT,135.897,T*34
$GNGGA,104329.800,2500.7941306,N,12132.4798335,E,2,53,0.53,15.378,M,15.25,M,0,3335*44
$GNRMC,104329.800,A,2500.7941306,N,12132.4798335,E,0.00,301.88,260623,,,D,V*06
$GPHDT,135.661,T*33
$GNGSA,A,3,24,196,199,18,15,195,23,05,194,13,,,1.02,0.53,0.87,1*08
$GNGSA,A,3,85,80,84,79,69,73,,,,,,,1.02,0.53,0.87,2*04
$GNGSA,A,3,13,08,15,07,03,,,,,,,,1.02,0.53,0.87,3*03
$GNGSA,A,3,38,39,08,16,06,13,20,46,09,19,37,29,1.02,0.53,0.87,4*0A
$GNGSA,A,3,36,,,,,,,,,,,,1.02,0.53,0.87,4*0B
$GPGSV,4,1,15,24,78,151,45,196,73,055,40,199,60,167,38,18,59,290,34,1*63
$GPGSV,4,2,15,15,47,025,39,45,47,231,32,195,42,178,41,23,34,326,20,1*5C
$GPGSV,4,3,15,05,31,101,36,194,24,143,19,13,21,044,39,29,10,211,17,1*54
$GPGSV,4,4,15,20,10,118,,12,08,156,,10,05,308,,1*5D
$GPGSV,2,1,07,24,78,151,48,196,73,055,44,199,60,167,45,18,59,290,38,8*60
$GPGSV,2,2,07,195,42,178,42,23,34,326,27,194,24,143,23,8*50
$GLGSV,2,1,06,85,46,277,20,80,41,111,39,84,29,198,30,79,23,050,27,1*7F
$GLGSV,2,2,06,69,20,052,26,73,17,168,23,1*7C
$GAGSV,3,1,09,13,66,266,38,08,54,005,43,15,40,173,37,07,40,282,24,7*74
$GAGSV,3,2,09,26,22,319,,02,19,102,21,03,18,052,24,30,14,154,15,7*77
$GAGSV,3,3,09,25,05,056,,7*4B
$GAGSV,1,1,04,13,66,266,42,08,54,005,43,15,40,173,42,03,18,052,21,1*71
$GBGSV,4,1,13,38,78,048,42,39,73,249,44,08,69,007,39,16,65,231,43,1*77
$GBGSV,4,2,13,06,63,229,42,13,61,342,35,20,47,038,44,46,47,139,44,1*78
$GBGSV,4,3,13,09,46,222,39,19,41,323,24,37,32,063,44,29,32,226,43,1*72
$GBGSV,4,4,13,36,18,187,34,1*41
$GBGSV,2,1,08,38,78,048,46,39,73,249,46,20,47,038,45,46,47,139,45,4*71
$GBGSV,2,2,08,19,41,323,28,29,32,226,42,37,32,063,44,36,18,187,24,4*70
$GNGGA,104330.000,2500.7941306,N,12132.4798455,E,2,53,0.53,15.350,M,15.25,M,1,3335*4E
$GNRMC,104330.000,A,2500.7941306,N,12132.4798455,E,0.01,301.88,260623,,,D,V*06
$GPHDT,136.377,T*32
$GNGGA,104330.200,2500.7941366,N,12132.4798515,E,2,53,0.53,15.325,M,15.25,M,1,3335*4D
$GNRMC,104330.200,A,2500.7941366,N,12132.4798515,E,0.00,301.88,260623,,,D,V*06
$GPHDT,136.187,T*3F
$GNGGA,104330.400,2500.7941366,N,12132.4798575,E,2,53,0.53,15.302,M,15.25,M,1,3335*48
$GNRMC,104330.400,A,2500.7941366,N,12132.4798575,E,0.00,301.88,260623,,,D,V*06
$GPHDT,136.434,T*32
$GNGGA,104330.600,2500.7941426,N,12132.4798635,E,2,52,0.53,15.280,M,15.25,M,0,3335*45
$GNRMC,104330.600,A,2500.7941426,N,12132.4798635,E,0.00,301.88,260623,,,D,V*00
$GPHDT,136.160,T*36
$GNGGA,104330.800,2500.7941426,N,12132.4798695,E,2,52,0.53,15.260,M,15.25,M,0,3335*4F
$GNRMC,104330.800,A,2500.7941426,N,12132.4798695,E,0.00,301.88,260623,,,D,V*04
$GPHDT,136.011,T*31
$GNGSA,A,3,24,196,199,18,15,195,23,05,194,13,,,1.02,0.53,0.87,1*08
$GNGSA,A,3,85,80,84,79,69,73,,,,,,,1.02,0.53,0.87,2*04
$GNGSA,A,3,13,08,07,15,03,,,,,,,,1.02,0.53,0.87,3*03
$GNGSA,A,3,38,39,08,16,06,13,46,20,09,19,29,37,1.02,0.53,0.87,4*0A
$GNGSA,A,3,36,,,,,,,,,,,,1.02,0.53,0.87,4*0B
$GPGSV,4,1,15,24,78,151,45,196,73,055,40,199,60,167,38,18,59,290,34,1*63
$GPGSV,4,2,15,15,47,025,39,45,47,231,32,195,42,178,41,23,34,326,17,1*58
$GPGSV,4,3,15,05,31,101,33,194,24,143,16,13,21,044,39,29,10,211,15,1*5C
$GPGSV,4,4,15,20,10,118,,12,08,156,,10,05,308,,1*5D
$GPGSV,2,1,07,24,78,151,48,196,73,055,44,199,60,167,45,18,59,290,39,8*61
$GPGSV,2,2,07,195,42,178,41,23,34,326,27,194,24,143,24,8*54
$GLGSV,2,1,07,85,46,277,19,80,41,111,39,84,29,198,30,79,23,050,26,1*75
$GLGSV,2,2,07,69,20,052,27,86,18,323,,73,17,168,23,1*49
$GAGSV,3,1,09,13,66,266,38,08,54,005,43,07,40,282,24,15,40,173,37,7*74
$GAGSV,3,2,09,26,22,319,,02,19,102,21,03,18,052,27,30,14,154,13,7*72
$GAGSV,3,3,09,25,05,056,,7*4B
$GAGSV,1,1,04,13,66,266,41,08,54,005,43,15,40,173,42,03,18,052,22,1*71
$GBGSV,4,1,15,38,78,048,42,39,73,249,44,08,69,007,39,16,65,231,43,1*71
$GBGSV,4,2,15,06,63,229,42,13,61,342,35,46,47,139,44,20,47,038,44,1*7E
$GBGSV,4,3,15,09,46,222,39,19,41,323,23,29,32,226,40,37,32,063,44,1*70
$GBGSV,4,4,15,36,18,187,34,30,07,177,,22,03,287,,1*4C
$GBGSV,2,1,08,38,78,048,46,39,73,249,46,20,47,038,45,46,47,139,44,4*70
$GBGSV,2,2,08,19,41,323,28,29,32,226,40,37,32,063,44,36,18,187,25,4*73
$GNGGA,104331.000,2500.7941366,N,12132.4798695,E,2,53,0.53,15.246,M,15.25,M,1,3335*41
$GNRMC,104331.000,A,2500.7941366,N,12132.4798695,E,0.00,301.88,260623,,,D,V*0E
$GPHDT,135.690,T*3D
$GNGGA,104331.200,2500.7941033,N,12132.4797779,E,4,52,0.53,15.875,M,15.25,M,1,3335*41
$GNRMC,104331.200,A,2500.7941033,N,12132.4797779,E,0.00,301.88,260623,,,R,V*15
$GPHDT,135.948,T*37
$GNGGA,104331.400,2500.7941028,N,12132.4797804,E,4,52,0.53,15.881,M,15.25,M,1,3335*43
$GNRMC,104331.400,A,2500.7941028,N,12132.4797804,E,0.00,301.88,260623,,,R,V*1C
$GPHDT,136.008,T*39
$GNGGA,104331.600,2500.7941017,N,12132.4797786,E,4,53,0.53,15.882,M,15.25,M,1,3335*4A
$GNRMC,104331.600,A,2500.7941017,N,12132.4797786,E,0.00,301.88,260623,,,R,V*17
$GPHDT,135.920,T*39
$GNGGA,104331.800,2500.7941053,N,12132.4797792,E,4,54,0.53,15.886,M,15.25,M,0,3335*43
$GNRMC,104331.800,A,2500.7941053,N,12132.4797792,E,0.00,301.88,260623,,,R,V*1C
$GPHDT,135.873,T*3E
$GNGSA,A,3,24,196,199,18,15,195,23,05,194,13,,,1.02,0.53,0.87,1*08
$GNGSA,A,3,85,80,84,79,69,73,,,,,,,1.02,0.53,0.87,2*04
$GNGSA,A,3,13,08,15,07,03,,,,,,,,1.02,0.53,0.87,3*03
$GNGSA,A,3,38,39,08,16,06,13,46,20,09,19,37,29,1.02,0.53,0.87,4*0A
$GNGSA,A,3,36,,,,,,,,,,,,1.02,0.53,0.87,4*0B
$GPGSV,4,1,15,24,78,151,45,196,73,055,40,199,60,167,38,18,59,290,34,1*63
$GPGSV,4,2,15,15,47,025,39,45,47,231,32,195,42,178,41,23,34,326,16,1*59
$GPGSV,4,3,15,05,31,101,32,194,24,143,16,13,21,044,39,29,10,211,15,1*5D
$GPGSV,4,4,15,20,10,118,,12,08,156,,10,05,308,,1*5D
$GPGSV,2,1,07,24,78,151,48,196,73,055,44,199,60,167,45,18,59,290,39,8*61
$GPGSV,2,2,07,195,42,178,41,23,34,326,27,194,24,143,24,8*54
$GLGSV,2,1,08,85,46,277,19,80,41,111,39,84,29,198,30,79,23,050,24,1*78
$GLGSV,2,2,08,69,20,052,28,86,18,323,,73,17,168,23,71,14,293,,1*72
$GAGSV,2,1,08,13,66,266,38,08,54,005,43,15,40,173,37,07,40,282,24,7*74
$GAGSV,2,2,08,26,22,319,,02,19,102,23,03,18,052,25,30,14,154,14,7*75
$GAGSV,2,1,05,13,66,266,41,08,54,005,43,15,40,173,42,07,40,282,22,1*75
$GAGSV,2,2,05,03,18,052,23,1*4C
$GBGSV,4,1,14,38,78,048,42,39,73,249,44,08,69,007,39,16,65,231,43,1*70
$GBGSV,4,2,14,06,63,229,42,13,61,342,35,46,47,139,44,20,47,038,44,1*7F
$GBGSV,4,3,14,09,46,222,39,19,41,323,23,37,32,063,44,29,32,226,41,1*70
$GBGSV,4,4,14,36,18,187,34,22,03,287,,1*78
$GBGSV,2,1,08,38,78,048,46,39,73,249,46,20,47,038,45,46,47,139,44,4*70
$GBGSV,2,2,08,19,41,323,28,29,32,226,40,37,32,063,44,36,18,187,21,4*77
$GNGGA,104332.000,2500.7941053,N,12132.4797807,E,4,54,0.53,15.887,M,15.25,M,1,3335*4B
$GNRMC,104332.000,A,2500.7941053,N,12132.4797807,E,0.00,301.88,260623,,,R,V*14
$GPHDT,136.163,T*35
$GNGGA,104332.200,2500.7941036,N,12132.4797829,E,4,53,0.53,15.890,M,15.25,M,1,3335*47
$GNRMC,104332.200,A,2500.7941036,N,12132.4797829,E,0.00,301.88,260623,,,R,V*19
$GPHDT,136.400,T*35
$GNGGA,104332.400,2500.7941025,N,12132.4797837,E,4,53,0.53,15.890,M,15.25,M,1,3335*4C
$GNRMC,104332.400,A,2500.7941025,N,12132.4797837,E,0.00,301.88,260623,,,R,V*12
$GPHDT,136.235,T*35
$GNGGA,104332.600,2500.7941042,N,12132.4797830,E,4,53,0.53,15.896,M,15.25,M,1,3335*4E
$GNRMC,104332.600,A,2500.7941042,N,12132.4797830,E,0.01,301.88,260623,,,R,V*17
$GPHDT,136.488,T*35
$GNGGA,104332.800,2500.7941043,N,12132.4797820,E,4,53,0.53,15.905,M,15.25,M,1,3335*4B
$GNRMC,104332.800,A,2500.7941043,N,12132.4797820,E,0.00,301.88,260623,,,R,V*18
$GPHDT,136.468,T*3B
$GNGSA,A,3,24,196,199,18,15,195,05,13,23,194,,,1.02,0.53,0.87,1*08
$GNGSA,A,3,85,80,84,79,69,73,,,,,,,1.02,0.53,0.87,2*04
$GNGSA,A,3,13,08,15,07,03,,,,,,,,1.02,0.53,0.87,3*03
$GNGSA,A,3,38,39,08,16,06,13,46,20,09,37,29,36,1.02,0.53,0.87,4*07
$GNGSA,A,3,19,,,,,,,,,,,,1.02,0.53,0.87,4*06
$GPGSV,4,1,15,24,78,151,45,196,73,055,40,199,60,167,38,18,59,290,34,1*63
$GPGSV,4,2,15,15,47,025,39,45,47,231,32,195,42,178,41,23,34,326,14,1*5B
$GPGSV,4,3,15,05,31,101,35,194,24,143,14,13,21,044,39,29,10,211,15,1*58
$GPGSV,4,4,15,20,10,118,,12,08,156,,10,05,308,,1*5D
$GPGSV,2,1,07,24,78,151,48,196,73,055,44,199,60,167,45,18,59,290,40,8*6F
$GPGSV,2,2,07,195,42,178,41,23,34,326,27,194,24,143,24,8*54
$GLGSV,2,1,07,85,46,277,18,80,41,111,38,84,29,198,30,79,23,050,22,1*71
$GLGSV,2,2,07,69,20,052,28,73,17,168,25,71,14,293,23,1*4F
$GAGSV,3,1,09,13,66,266,38,08,54,005,43,15,40,173,37,07,40,282,24,7*74
$GAGSV,3,2,09,26,22,319,,02,19,102,23,03,18,052,26,30,14,154,13,7*71
$GAGSV,3,3,09,25,05,056,,7*4B
$GAGSV,2,1,05,13,66,266,41,08,54,005,43,15,40,173,42,07,40,282,22,1*75
$GAGSV,2,2,05,03,18,052,23,1*4C
$GBGSV,4,1,13,38,78,048,42,39,73,249,44,08,69,007,39,16,65,231,43,1*77
$GBGSV,4,2,13,06,63,229,42,13,61,342,35,46,47,139,44,20,47,038,44,1*78
$GBGSV,4,3,13,09,46,222,39,19,41,323,21,37,32,063,44,29,32,226,42,1*76
$GBGSV,4,4,13,36,18,187,34,1*41
$GBGSV,2,1,08,38,78,048,46,39,73,249,46,20,47,038,45,46,47,139,44,4*70
$GBGSV,2,2,08,19,41,323,29,29,32,226,42,37,32,063,44,36,18,187,24,4*71
$GNGGA,104333.000,2500.7941048,N,12132.4797821,E,4,51,0.53,15.890,M,15.25,M,1,3335*47
$GNRMC,104333.000,A,2500.7941048,N,12132.4797821,E,0.00,301.88,260623,,,R,V*1B
$GPHDT,136.317,T*34
$GNGGA,104333.200,2500.7941025,N,12132.4797821,E,4,50,0.55,15.890,M,15.25,M,1,3335*49
$GNRMC,104333.200,A,2500.7941025,N,12132.4797821,E,0.00,301.88,260623,,,R,V*12
$GPHDT,136.403,T*36
$GNGGA,104333.400,2500.7941056,N,12132.4797765,E,4,51,0.55,15.874,M,15.25,M,1,3335*4F
$GNRMC,104333.400,A,2500.7941056,N,12132.4797765,E,0.00,301.88,260623,,,R,V*1F
$GPHDT,135.901,T*3A
$GNGGA,104333.600,2500.7941035,N,12132.4797827,E,4,50,0.55,15.882,M,15.25,M,1,3335*49
$GNRMC,104333.600,A,2500.7941035,N,12132.4797827,E,0.00,301.88,260623,,,R,V*11
$GPHDT,136.178,T*3F
$GNGGA,104333.800,2500.7941028,N,12132.4797826,E,4,50,0.55,15.897,M,15.25,M,0,3335*4F
$GNRMC,104333.800,A,2500.7941028,N,12132.4797826,E,0.00,301.88,260623,,,R,V*12
$GPHDT,136.078,T*3E
$GNGSA,A,3,24,196,199,18,15,195,05,13,23,,,,1.04,0.55,0.88,1*3B
$GNGSA,A,3,85,80,84,79,69,73,,,,,,,1.04,0.55,0.88,2*0B
$GNGSA,A,3,13,08,07,15,03,,,,,,,,1.04,0.55,0.88,3*0C
$GNGSA,A,3,38,39,08,16,06,13,20,46,09,37,29,36,1.04,0.55,0.88,4*08
$GNGSA,A,3,19,,,,,,,,,,,,1.04,0.55,0.88,4*09
$GPGSV,4,1,15,24,78,151,45,196,73,055,40,199,60,167,38,18,59,290,34,1*63
$GPGSV,4,2,15,15,47,025,39,45,47,231,32,195,42,178,41,23,34,326,15,1*5A
$GPGSV,4,3,15,05,31,101,35,194,24,143,16,13,21,044,39,29,10,211,17,1*58
$GPGSV,4,4,15,20,10,118,,12,08,156,,10,05,308,,1*5D
$GPGSV,2,1,06,24,78,151,48,196,73,055,44,199,60,167,45,18,59,290,40,8*6E
$GPGSV,2,2,06,195,42,178,41,23,34,326,27,8*5F
$GLGSV,2,1,08,85,46,277,18,80,41,111,38,70,38,341,,84,29,198,30,1*7E
$GLGSV,2,2,08,79,23,050,21,69,20,052,28,73,17,168,23,71,14,293,23,1*7F
$GAGSV,3,1,09,13,66,266,38,08,54,005,43,07,40,282,22,15,39,173,38,7*73
$GAGSV,3,2,09,26,22,319,,02,19,102,23,03,18,052,27,30,14,154,13,7*70
$GAGSV,3,3,09,25,05,056,,7*4B
$GAGSV,2,1,05,13,66,266,41,08,54,005,43,07,40,282,24,15,39,173,43,1*7C
$GAGSV,2,2,05,03,18,052,23,1*4C
$GBGSV,4,1,13,38,78,048,42,39,73,249,44,08,69,007,39,16,65,231,43,1*77
$GBGSV,4,2,13,06,63,229,42,13,61,342,35,20,47,038,44,46,47,139,43,1*7F
$GBGSV,4,3,13,09,46,222,39,19,41,323,21,37,32,063,44,29,32,226,42,1*76
$GBGSV,4,4,13,36,18,187,34,1*41
$GBGSV,2,1,08,38,78,048,46,39,73,249,46,20,47,038,45,46,47,139,44,4*70
$GBGSV,2,2,08,19,41,323,29,29,32,226,42,37,32,063,44,36,18,187,23,4*76
$GNGGA,104334.000,2500.7941027,N,12132.4797811,E,4,50,0.55,15.887,M,15.25,M,1,3335*4B
$GNRMC,104334.000,A,2500.7941027,N,12132.4797811,E,0.00,301.88,260623,,,R,V*16
$GPHDT,136.177,T*30
$GNGGA,104334.200,2500.7941012,N,12132.4797842,E,4,51,0.55,15.894,M,15.25,M,1,3335*4A
$GNRMC,104334.200,A,2500.7941012,N,12132.4797842,E,0.00,301.88,260623,,,R,V*14
$GPHDT,136.064,T*33
$GNGGA,104334.400,2500.7941047,N,12132.4797790,E,4,51,0.55,15.878,M,15.25,M,1,3335*4E
$GNRMC,104334.400,A,2500.7941047,N,12132.4797790,E,0.00,301.88,260623,,,R,V*12
$GPHDT,136.068,T*3F
$GNGGA,104334.600,2500.7941059,N,12132.4797757,E,4,51,0.55,15.880,M,15.25,M,1,3335*4F
$GNRMC,104334.600,A,2500.7941059,N,12132.4797757,E,0.00,301.88,260623,,,R,V*14
$GPHDT,136.164,T*32
$GNGGA,104334.800,2500.7941065,N,12132.4797760,E,4,50,0.55,15.876,M,15.25,M,0,3335*43
$GNRMC,104334.800,A,2500.7941065,N,12132.4797760,E,0.00,301.88,260623,,,R,V*11
$GPHDT,136.359,T*3E
$GNGSA,A,3,24,196,199,18,15,195,05,194,13,23,,,1.02,0.53,0.87,1*08
$GNGSA,A,3,85,80,84,79,69,73,,,,,,,1.02,0.53,0.87,2*04
$GNGSA,A,3,13,08,07,15,03,,,,,,,,1.02,0.53,0.87,3*03
$GNGSA,A,3,38,39,08,16,06,13,20,46,09,37,29,36,1.02,0.53,0.87,4*07
$GNGSA,A,3,19,,,,,,,,,,,,1.02,0.53,0.87,4*06
$GPGSV,4,1,15,24,78,151,45,196,73,055,40,199,60,167,38,18,59,290,35,1*62
$GPGSV,4,2,15,15,47,025,39,45,47,231,32,195,42,178,40,23,34,326,14,1*5A
$GPGSV,4,3,15,05,31,101,35,194,24,143,17,13,21,044,39,29,10,211,20,1*5D
$GPGSV,4,4,15,20,10,118,,12,08,156,,10,05,308,,1*5D
$GPGSV,2,1,07,24,78,151,48,196,73,055,44,199,60,167,45,18,59,290,40,8*6F
$GPGSV,2,2,07,195,42,178,41,23,34,326,27,194,24,143,25,8*55
$GLGSV,2,1,08,85,46,277,19,80,41,111,39,70,38,341,,84,29,198,30,1*7E
$GLGSV,2,2,08,79,23,050,23,69,20,052,29,73,17,168,22,71,14,293,23,1*7D
$GAGSV,3,1,09,13,66,266,38,08,54,005,43,07,40,282,21,15,39,173,36,7*7E
$GAGSV,3,2,09,26,22,319,,02,19,102,23,03,18,052,26,30,14,154,13,7*71
$GAGSV,3,3,09,25,05,056,,7*4B
$GAGSV,2,1,05,13,66,266,41,08,54,005,43,07,40,282,22,15,39,173,42,1*7B
$GAGSV,2,2,05,03,18,052,23,1*4C
$GBGSV,4,1,13,38,78,048,42,39,73,249,44,08,69,007,39,16,65,231,43,1*77
$GBGSV,4,2,13,06,63,229,42,13,61,342,35,20,47,038,44,46,47,139,44,1*78
$GBGSV,4,3,13,09,46,222,39,19,41,323,21,37,32,063,44,29,32,226,42,1*76
$GBGSV,4,4,13,36,18,187,33,1*46
$GBGSV,2,1,08,38,78,048,46,39,73,249,46,20,47,038,45,46,47,139,44,4*70
$GBGSV,2,2,08,19,41,323,29,29,32,226,42,37,32,063,44,36,18,187,24,4*71
$GNGGA,104335.000,2500.7941072,N,12132.4797779,E,4,52,0.53,15.893,M,15.25,M,1,3335*4A
$GNRMC,104335.000,A,2500.7941072,N,12132.4797779,E,0.00,301.88,260623,,,R,V*16
$GPHDT,136.357,T*30
$GNGGA,104335.200,2500.7941041,N,12132.4797811,E,4,52,0.53,15.896,M,15.25,M,1,3335*4C
$GNRMC,104335.200,A,2500.7941041,N,12132.4797811,E,0.00,301.88,260623,,,R,V*15
$GPHDT,136.369,T*3D
$GNGGA,104335.400,2500.7941021,N,12132.4797856,E,4,52,0.53,15.892,M,15.25,M,1,3335*4B
$GNRMC,104335.400,A,2500.7941021,N,12132.4797856,E,0.00,301.88,260623,,,R,V*16
$GPHDT,135.756,T*36
$GNGGA,104335.600,2500.7941058,N,12132.4797798,E,4,52,0.53,15.884,M,15.25,M,1,3335*4D
$GNRMC,104335.600,A,2500.7941058,N,12132.4797798,E,0.00,301.88,260623,,,R,V*17
$GPHDT,135.870,T*3D
$GNGGA,104335.800,2500.7941053,N,12132.4797787,E,4,52,0.53,15.874,M,15.25,M,0,3335*48
$GNRMC,104335.800,A,2500.7941053,N,12132.4797787,E,0.00,301.88,260623,,,R,V*1C
$GPHDT,135.987,T*34
$GNGSA,A,3,24,196,199,18,15,195,05,194,13,23,,,1.02,0.53,0.87,1*08
$GNGSA,A,3,85,80,84,79,69,73,,,,,,,1.02,0.53,0.87,2*04
$GNGSA,A,3,13,08,07,15,03,,,,,,,,1.02,0.53,0.87,3*03
$GNGSA,A,3,38,39,08,16,06,13,46,20,09,37,29,36,1.02,0.53,0.87,4*07
$GNGSA,A,3,19,,,,,,,,,,,,1.02,0.53,0.87,4*06
$GPGSV,4,1,15,24,78,151,45,196,73,055,40,199,60,167,38,18,59,290,35,1*62
$GPGSV,4,2,15,15,47,025,40,45,47,231,32,195,42,178,39,23,34,326,17,1*59
$GPGSV,4,3,15,05,31,101,36,194,24,143,17,13,21,044,39,29,10,211,20,1*5E
$GPGSV,4,4,15,20,10,118,,12,08,156,,10,05,308,,1*5D
$GPGSV,2,1,07,24,78,151,48,196,73,055,44,199,60,167,45,18,59,290,40,8*6F
$GPGSV,2,2,07,195,42,178,40,23,34,326,27,194,24,143,21,8*50
$GLGSV,2,1,07,85,46,277,19,80,41,111,39,84,29,198,27,79,23,050,23,1*76
$GLGSV,2,2,07,69,20,052,29,73,17,168,24,71,14,293,22,1*4E
$GAGSV,3,1,09,13,66,266,38,08,54,005,43,07,40,282,21,15,39,173,35,7*7D
$GAGSV,3,2,09,26,22,319,,02,19,102,24,03,18,052,26,30,14,154,,7*74
$GAGSV,3,3,09,25,05,056,,7*4B
$GAGSV,2,1,05,13,66,266,41,08,54,005,43,07,40,282,20,15,39,173,40,1*7B
$GAGSV,2,2,05,03,18,052,23,1*4C
$GBGSV,4,1,13,38,78,048,42,39,73,249,44,08,69,007,39,16,65,231,43,1*77
$GBGSV,4,2,13,06,63,229,42,13,61,342,35,46,47,139,44,20,47,038,44,1*78
$GBGSV,4,3,13,09,46,222,39,19,41,323,20,37,32,063,44,29,32,226,42,1*77
$GBGSV,4,4,13,36,18,187,29,1*4D
$GBGSV,2,1,08,38,78,048,46,39,73,249,46,20,47,038,45,46,47,139,44,4*70
$GBGSV,2,2,08,19,41,323,29,29,32,226,42,37,32,063,44,36,18,187,24,4*71
$GNGGA,104336.000,2500.7941036,N,12132.4797845,E,4,52,0.53,15.891,M,15.25,M,1,3335*4B
$GNRMC,104336.000,A,2500.7941036,N,12132.4797845,E,0.00,301.88,260623,,,R,V*15
$GPHDT,136.642,T*31
$GNGGA,104336.200,2500.7941047,N,12132.4797767,E,4,52,0.53,15.890,M,15.25,M,1,3335*41
$GNRMC,104336.200,A,2500.7941047,N,12132.4797767,E,0.00,301.88,260623,,,R,V*1E
$GPHDT,136.133,T*30
$GNGGA,104336.400,2500.7941048,N,12132.4797768,E,4,53,0.53,15.881,M,15.25,M,1,3335*46
$GNRMC,104336.400,A,2500.7941048,N,12132.4797768,E,0.00,301.88,260623,,,R,V*18
$GPHDT,135.740,T*31
$GNGGA,104336.600,2500.7941043,N,12132.4797805,E,4,53,0.53,15.885,M,15.25,M,1,3335*4F
$GNRMC,104336.600,A,2500.7941043,N,12132.4797805,E,0.00,301.88,260623,,,R,V*15
$GPHDT,136.223,T*32
$GNGGA,104336.800,2500.7941026,N,12132.4797815,E,4,53,0.53,15.884,M,15.25,M,1,3335*42
$GNRMC,104336.800,A,2500.7941026,N,12132.4797815,E,0.00,301.88,260623,,,R,V*19
$GPHDT,136.114,T*35
$GNGSA,A,3,24,196,199,18,15,195,05,194,13,23,,,1.02,0.53,0.87,1*08
$GNGSA,A,3,85,80,84,79,69,73,,,,,,,1.02,0.53,0.87,2*04
$GNGSA,A,3,13,08,07,15,03,,,,,,,,1.02,0.53,0.87,3*03
$GNGSA,A,3,38,39,08,16,06,13,46,20,09,37,29,36,1.02,0.53,0.87,4*07
$GNGSA,A,3,19,,,,,,,,,,,,1.02,0.53,0.87,4*06
$GPGSV,4,1,15,24,78,151,45,196,73,055,40,199,60,167,38,18,59,290,35,1*62
$GPGSV,4,2,15,15,47,025,40,45,47,231,31,195,42,178,41,23,34,326,14,1*56
$GPGSV,4,3,15,05,31,101,36,194,24,143,17,13,21,044,39,29,10,211,20,1*5E
$GPGSV,4,4,15,20,10,118,,12,08,156,,10,05,308,,1*5D
$GPGSV,2,1,07,24,78,151,48,196,73,055,43,199,60,167,45,18,59,290,40,8*68
$GPGSV,2,2,07,195,42,178,42,23,34,326,26,194,24,143,23,8*51
$GLGSV,2,1,07,85,46,277,19,80,41,111,39,84,29,198,23,79,23,050,21,1*70
$GLGSV,2,2,07,69,20,052,29,73,17,168,24,71,14,293,20,1*4C
$GAGSV,3,1,09,13,66,266,38,08,54,005,43,07,40,282,21,15,39,173,37,7*7F
$GAGSV,3,2,09,26,22,319,,02,19,102,23,03,18,052,26,30,14,154,,7*73
$GAGSV,3,3,09,25,05,056,,7*4B
$GAGSV,2,1,05,13,66,266,41,08,54,005,43,07,40,282,19,15,39,173,43,1*72
$GAGSV,2,2,05,03,18,052,21,1*4E
$GBGSV,4,1,13,38,78,048,42,39,73,249,44,08,69,007,39,16,65,231,43,1*77
$GBGSV,4,2,13,06,63,229,42,13,61,342,35,46,47,139,44,20,47,038,44,1*78
$GBGSV,4,3,13,09,46,222,37,19,41,323,20,37,32,063,44,29,32,226,40,1*7B
$GBGSV,4,4,13,36,18,187,32,1*47
$GBGSV,2,1,08,38,78,048,46,39,73,249,46,20,47,038,45,46,47,139,44,4*70
$GBGSV,2,2,08,19,41,323,29,29,32,226,39,37,32,063,44,36,18,187,25,4*7C
$GNGGA,104337.000,2500.7941041,N,12132.4797855,E,4,52,0.53,15.891,M,15.25,M,2,3335*48
$GNRMC,104337.000,A,2500.7941041,N,12132.4797855,E,0.00,301.88,260623,,,R,V*15
$GPHDT,136.374,T*31
$GNGGA,104337.200,2500.7941040,N,12132.4797828,E,4,52,0.53,15.889,M,15.25,M,2,3335*48
$GNRMC,104337.200,A,2500.7941040,N,12132.4797828,E,0.00,301.88,260623,,,R,V*1C
