$FW : RTK35X,V1.1X0314AS,Lib20210517,1*54
$Tool : LOCOSYS , GNSS Firebird , v1.0.0.19*39
$---------------------------------------------------*2D
$GNGGA,104348.200,2500.7941122,N,12132.4797714,E,4,51,0.55,15.844,M,15.25,M,9,3335*4A
$GNRMC,104348.200,A,2500.7941122,N,12132.4797714,E,0.00,301.88,260623,,,R,V*11
$GPHDT,91.127,T*09
$GNGGA,104348.400,2500.7941128,N,12132.4797737,E,4,51,0.55,15.856,M,15.25,M,9,3335*44
$GNRMC,104348.400,A,2500.7941128,N,12132.4797737,E,0.00,301.88,260623,,,R,V*1C
$GPHDT,91.313,T*0C
$GNGGA,104348.600,2500.7941113,N,12132.4797731,E,4,51,0.55,15.854,M,15.25,M,9,3335*4A
$GNRMC,104348.600,A,2500.7941113,N,12132.4797731,E,0.00,301.88,260623,,,R,V*10
$GPHDT,90.818,T*0D
$GNGGA,104348.800,2500.7941127,N,12132.4797736,E,4,52,0.53,15.850,M,15.25,M,9,3335*45
$GNRMC,104348.800,A,2500.7941127,N,12132.4797736,E,0.00,301.88,260623,,,R,V*1E
$GPHDT,91.341,T*0B
$GNGSA,A,3,24,196,199,18,15,195,23,05,194,13,,,1.02,0.53,0.87,1*08
$GNGSA,A,3,85,80,84,79,69,73,,,,,,,1.02,0.53,0.87,2*04
$GNGSA,A,3,13,08,07,15,03,,,,,,,,1.02,0.53,0.87,3*03
$GNGSA,A,3,38,39,08,16,06,13,46,20,09,19,29,37,1.02,0.53,0.87,4*0A
$GNGSA,A,3,36,,,,,,,,,,,,1.02,0.53,0.87,4*0B
$GPGSV,4,1,15,24,78,151,45,196,73,055,41,199,60,167,37,18,59,290,35,1*6C
$GPGSV,4,2,15,15,47,025,38,45,47,231,31,195,42,178,42,23,34,326,15,1*5B
$GPGSV,4,3,15,05,31,101,36,194,24,143,16,13,21,044,39,29,10,211,,1*5D
$GPGSV,4,4,15,20,10,118,,12,08,156,,10,05,308,,1*5D
$GPGSV,2,1,06,24,78,151,49,196,73,055,44,199,60,167,45,18,59,290,39,8*61
$GPGSV,2,2,06,195,42,178,43,23,34,326,23,8*59
$GLGSV,2,1,07,85,46,276,21,80,41,111,40,84,29,198,31,79,23,050,33,1*74
$GLGSV,2,2,07,69,20,052,24,73,17,168,28,71,14,293,17,1*49
$GAGSV,2,1,06,13,66,266,37,08,54,005,40,07,40,282,17,15,39,173,38,7*77
$GAGSV,2,2,06,02,19,102,24,03,18,052,28,7*7D
$GAGSV,1,1,04,13,66,266,41,08,54,005,40,07,40,282,17,15,39,173,44,1*7A
$GBGSV,4,1,13,38,78,048,43,39,73,249,44,08,69,007,40,16,65,231,43,1*78
$GBGSV,4,2,13,06,63,229,41,13,61,342,35,46,47,139,45,20,47,038,39,1*70
$GBGSV,4,3,13,09,46,223,38,19,41,324,24,29,32,225,41,37,32,063,44,1*74
$GBGSV,4,4,13,36,18,187,32,1*47
$GBGSV,2,1,08,38,78,048,46,39,73,249,46,20,47,038,43,46,47,139,43,4*71
$GBGSV,2,2,08,19,41,324,28,29,32,225,44,37,32,063,47,36,18,187,24,4*71
$GNGGA,104349.000,2500.7941114,N,12132.4797725,E,4,52,0.53,15.851,M,15.25,M,10,3335*77
$GNRMC,104349.000,A,2500.7941114,N,12132.4797725,E,0.00,301.88,260623,,,R,V*15
$GPHDT,90.736,T*0E
$GNGGA,104349.200,2500.7941148,N,12132.4797713,E,4,51,0.53,15.850,M,15.25,M,10,3335*7B
$GNRMC,104349.200,A,2500.7941148,N,12132.4797713,E,0.00,301.88,260623,,,R,V*1B
$GPHDT,91.097,T*03
$GNGGA,104349.400,2500.7941129,N,12132.4797699,E,4,51,0.53,15.846,M,15.25,M,10,3335*7E
$GNRMC,104349.400,A,2500.7941129,N,12132.4797699,E,0.00,301.88,260623,,,R,V*19
$GPHDT,91.013,T*0F
$GNGGA,104349.600,2500.7941130,N,12132.4797690,E,4,51,0.53,15.847,M,15.25,M,10,3335*7C
$GNRMC,104349.600,A,2500.7941130,N,12132.4797690,E,0.00,301.88,260623,,,R,V*1A
$GPHDT,90.733,T*0B
$GNGGA,104349.800,2500.7941117,N,12132.4797698,E,4,51,0.53,15.854,M,15.25,M,10,3335*7D
$GNRMC,104349.800,A,2500.7941117,N,12132.4797698,E,0.00,301.88,260623,,,R,V*19
$GPHDT,90.546,T*0B
$GNGSA,A,3,24,196,199,18,15,195,05,194,13,23,,,1.02,0.53,0.87,1*08
$GNGSA,A,3,85,80,84,79,69,73,,,,,,,1.02,0.53,0.87,2*04
$GNGSA,A,3,13,08,07,15,03,,,,,,,,1.02,0.53,0.87,3*03
$GNGSA,A,3,38,39,08,16,06,13,46,20,09,19,29,37,1.02,0.53,0.87,4*0A
$GNGSA,A,3,36,,,,,,,,,,,,1.02,0.53,0.87,4*0B
$GPGSV,4,1,15,24,78,151,45,196,73,055,41,199,60,167,37,18,59,290,35,1*6C
$GPGSV,4,2,15,15,47,025,38,45,47,231,31,195,42,178,42,23,34,326,16,1*58
$GPGSV,4,3,15,05,31,101,35,194,24,143,19,13,21,044,37,29,10,211,,1*5F
$GPGSV,4,4,15,20,10,118,,12,08,156,,10,05,308,,1*5D
$GPGSV,2,1,06,24,78,151,49,196,73,055,44,199,60,167,45,18,59,290,39,8*61
$GPGSV,2,2,06,195,42,178,43,23,34,326,24,8*5E
$GLGSV,2,1,07,85,46,276,21,80,41,111,40,84,29,198,31,79,23,050,32,1*75
$GLGSV,2,2,07,69,20,052,24,73,17,168,29,71,14,293,14,1*4B
$GAGSV,2,1,06,13,66,266,37,08,54,005,44,07,40,282,17,15,39,173,37,7*7C
$GAGSV,2,2,06,02,19,102,23,03,18,052,28,7*7A
$GAGSV,1,1,04,13,66,266,41,08,54,005,44,07,40,282,17,15,39,173,44,1*7E
$GBGSV,4,1,13,38,78,048,43,39,73,249,44,08,69,007,40,16,65,231,43,1*78
$GBGSV,4,2,13,06,63,229,41,13,61,342,35,46,47,139,45,20,47,038,39,1*70
$GBGSV,4,3,13,09,46,223,38,19,41,324,23,29,32,225,41,37,32,063,44,1*73
$GBGSV,4,4,13,36,18,187,32,1*47
$GBGSV,2,1,08,38,78,048,46,39,73,249,46,20,47,038,42,46,47,139,43,4*70
$GBGSV,2,2,08,19,41,324,28,29,32,225,44,37,32,063,47,36,18,187,24,4*71
$GNGGA,104350.000,2500.7941137,N,12132.4797716,E,4,51,0.53,15.859,M,15.25,M,11,3335*74
$GNRMC,104350.000,A,2500.7941137,N,12132.4797716,E,0.00,301.88,260623,,,R,V*1C
$GPHDT,90.939,T*0F
$GNGGA,104350.200,2500.7941113,N,12132.4797699,E,4,50,0.53,15.855,M,15.25,M,11,3335*7B
$GNRMC,104350.200,A,2500.7941113,N,12132.4797699,E,0.01,301.88,260623,,,R,V*1F
$GPHDT,90.680,T*02
$GNGGA,104350.400,2500.7941110,N,12132.4797681,E,4,51,0.53,15.867,M,15.25,M,11,3335*77
$GNRMC,104350.400,A,2500.7941110,N,12132.4797681,E,0.00,301.88,260623,,,R,V*12
$GPHDT,90.584,T*05
$GNGGA,104350.600,2500.7941125,N,12132.4797670,E,4,51,0.53,15.860,M,15.25,M,11,3335*7A
$GNRMC,104350.600,A,2500.7941125,N,12132.4797670,E,0.00,301.88,260623,,,R,V*18
$GPHDT,91.070,T*0A
$GNGGA,104350.800,2500.7941137,N,12132.4797668,E,4,51,0.53,15.850,M,15.25,M,11,3335*7D
$GNRMC,104350.800,A,2500.7941137,N,12132.4797668,E,0.00,301.88,260623,,,R,V*1C
$GPHDT,91.234,T*08
$GNGSA,A,3,24,196,199,18,15,195,05,194,13,23,,,1.02,0.53,0.87,1*08
$GNGSA,A,3,85,80,84,79,69,73,,,,,,,1.02,0.53,0.87,2*04
$GNGSA,A,3,13,08,07,15,03,,,,,,,,1.02,0.53,0.87,3*03
$GNGSA,A,3,38,39,08,16,06,13,46,20,09,29,37,36,1.02,0.53,0.87,4*07
$GNGSA,A,3,19,,,,,,,,,,,,1.02,0.53,0.87,4*06
$GPGSV,4,1,15,24,78,151,44,196,73,055,41,199,60,167,37,18,59,290,35,1*6D
$GPGSV,4,2,15,15,47,025,38,45,47,231,31,195,42,178,42,23,34,326,17,1*59
$GPGSV,4,3,15,05,31,101,35,194,24,143,21,13,21,044,38,29,10,211,,1*5B
$GPGSV,4,4,15,20,10,118,,12,08,156,,10,05,308,,1*5D
$GPGSV,2,1,07,24,78,151,49,196,73,055,44,199,60,167,45,18,59,290,39,8*60
$GPGSV,2,2,07,195,42,178,43,23,34,326,24,194,24,143,27,8*56
$GLGSV,2,1,07,85,46,276,20,80,41,111,40,84,29,198,31,79,23,050,31,1*77
$GLGSV,2,2,07,69,20,052,22,73,17,168,29,71,14,293,14,1*4D
$GAGSV,2,1,06,13,66,266,37,08,54,005,44,07,40,282,18,15,39,173,37,7*73
$GAGSV,2,2,06,02,19,102,24,03,18,052,26,7*73
$GAGSV,1,1,04,13,66,266,41,08,54,005,45,07,40,282,17,15,39,173,44,1*7F
$GBGSV,4,1,13,38,78,049,43,39,73,249,44,08,69,007,40,16,65,231,43,1*79
$GBGSV,4,2,13,06,63,229,41,13,61,342,35,46,47,139,45,20,47,038,41,1*7F
$GBGSV,4,3,13,09,46,223,38,19,41,324,20,29,32,225,41,37,31,063,44,1*73
$GBGSV,4,4,13,36,18,187,31,1*44
$GBGSV,2,1,08,38,78,049,46,39,73,249,46,20,47,038,43,46,47,139,43,4*70
$GBGSV,2,2,08,19,41,324,30,29,32,225,44,37,31,063,47,36,18,187,23,4*7C
$GNGGA,104351.000,2500.7941146,N,12132.4797678,E,4,51,0.53,15.854,M,15.25,M,12,3335*74
$GNRMC,104351.000,A,2500.7941146,N,12132.4797678,E,0.00,301.88,260623,,,R,V*12
$GPHDT,91.131,T*0E
$GNGGA,104351.200,2500.7941144,N,12132.4797672,E,4,51,0.53,15.849,M,15.25,M,12,3335*72
$GNRMC,104351.200,A,2500.7941144,N,12132.4797672,E,0.00,301.88,260623,,,R,V*18
$GPHDT,91.190,T*05
$GNGGA,104351.400,2500.7941099,N,12132.4797682,E,4,51,0.53,15.877,M,15.25,M,12,3335*77
$GNRMC,104351.400,A,2500.7941099,N,12132.4797682,E,0.00,301.88,260623,,,R,V*10
$GPHDT,90.741,T*0E
$GNGGA,104351.600,2500.7941089,N,12132.4797664,E,4,51,0.53,15.882,M,15.25,M,12,3335*76
$GNRMC,104351.600,A,2500.7941089,N,12132.4797664,E,0.00,301.88,260623,,,R,V*1B
$GPHDT,90.317,T*09
$GNGGA,104351.800,2500.7941083,N,12132.4797681,E,4,53,0.53,15.883,M,15.25,M,12,3335*7A
$GNRMC,104351.800,A,2500.7941083,N,12132.4797681,E,0.00,301.88,260623,,,R,V*14
$GPHDT,90.589,T*08
$GNGSA,A,3,24,196,199,18,15,195,23,05,194,13,,,1.02,0.53,0.87,1*08
$GNGSA,A,3,85,80,84,79,69,73,,,,,,,1.02,0.53,0.87,2*04
$GNGSA,A,3,13,08,07,15,03,,,,,,,,1.02,0.53,0.87,3*03
$GNGSA,A,3,38,39,08,16,06,13,46,20,09,19,29,37,1.02,0.53,0.87,4*0A
$GNGSA,A,3,36,,,,,,,,,,,,1.02,0.53,0.87,4*0B
$GPGSV,4,1,15,24,78,151,44,196,73,055,41,199,60,167,37,18,59,290,35,1*6D
$GPGSV,4,2,15,15,47,025,38,45,47,231,31,195,42,178,42,23,34,326,15,1*5B
$GPGSV,4,3,15,05,31,101,34,194,24,143,22,13,21,044,33,29,10,211,,1*52
$GPGSV,4,4,15,20,10,118,,12,08,156,,10,05,308,,1*5D
$GPGSV,2,1,07,24,78,151,49,196,73,055,44,199,60,167,45,18,59,290,39,8*60
$GPGSV,2,2,07,195,42,178,43,23,34,326,25,194,24,143,26,8*56
$GLGSV,2,1,08,85,46,276,19,80,41,111,40,70,38,342,,84,29,198,31,1*73
$GLGSV,2,2,08,79,23,050,33,69,20,052,22,73,17,168,28,71,14,293,16,1*7B
$GAGSV,2,1,07,13,66,266,37,08,54,005,44,07,40,282,19,15,39,173,37,7*73
$GAGSV,2,2,07,26,22,319,,02,19,102,25,03,18,052,26,7*4C
$GAGSV,1,1,04,13,66,266,41,08,54,005,45,07,40,282,17,15,39,173,44,1*7F
$GBGSV,4,1,13,38,78,049,43,39,73,249,44,08,69,007,40,16,65,231,43,1*79
$GBGSV,4,2,13,06,63,229,41,13,61,342,35,46,47,139,45,20,47,038,41,1*7F
$GBGSV,4,3,13,09,46,223,38,19,41,324,21,29,32,225,41,37,31,063,45,1*73
$GBGSV,4,4,13,36,18,187,32,1*47
$GBGSV,2,1,08,38,78,049,46,39,73,249,46,20,47,038,43,46,47,139,43,4*70
$GBGSV,2,2,08,19,41,324,31,29,32,225,44,37,31,063,47,36,18,187,23,4*7D
$GNGGA,104352.000,2500.7941072,N,12132.4797729,E,4,53,0.53,15.884,M,15.25,M,13,3335*7A
$GNRMC,104352.000,A,2500.7941072,N,12132.4797729,E,0.00,301.88,260623,,,R,V*12
$GPHDT,90.708,T*03
$GNGGA,104352.200,2500.7941057,N,12132.4797735,E,4,53,0.53,15.884,M,15.25,M,13,3335*72
$GNRMC,104352.200,A,2500.7941057,N,12132.4797735,E,0.00,301.88,260623,,,R,V*1A
$GPHDT,90.566,T*09
$GNGGA,104352.400,2500.7941054,N,12132.4797744,E,4,52,0.53,15.888,M,15.25,M,13,3335*7C
$GNRMC,104352.400,A,2500.7941054,N,12132.4797744,E,0.00,301.88,260623,,,R,V*19
$GPHDT,90.541,T*0C
$GNGGA,104352.600,2500.7941055,N,12132.4797708,E,4,53,0.53,15.888,M,15.25,M,13,3335*76
$GNRMC,104352.600,A,2500.7941055,N,12132.4797708,E,0.00,301.88,260623,,,R,V*12
$GPHDT,90.379,T*01
$GNGGA,104352.800,2500.7941087,N,12132.4797723,E,4,53,0.53,15.875,M,15.25,M,13,3335*7C
$GNRMC,104352.800,A,2500.7941087,N,12132.4797723,E,0.00,301.88,260623,,,R,V*1A
$GPHDT,90.791,T*03
$GNGSA,A,3,24,196,199,18,15,195,23,05,194,13,,,1.02,0.53,0.87,1*08
$GNGSA,A,3,85,80,84,79,69,73,,,,,,,1.02,0.53,0.87,2*04
$GNGSA,A,3,13,08,07,15,03,,,,,,,,1.02,0.53,0.87,3*03
$GNGSA,A,3,38,39,08,16,06,13,46,20,09,19,29,37,1.02,0.53,0.87,4*0A
$GNGSA,A,3,36,,,,,,,,,,,,1.02,0.53,0.87,4*0B
$GPGSV,4,1,15,24,78,151,44,196,73,055,41,199,60,167,37,18,59,290,35,1*6D
$GPGSV,4,2,15,15,47,025,37,45,47,231,31,195,42,178,42,23,34,326,18,1*59
$GPGSV,4,3,15,05,31,101,34,194,24,143,21,13,21,044,32,29,10,211,,1*50
$GPGSV,4,4,15,20,10,118,,12,08,156,,10,05,308,,1*5D
$GPGSV,2,1,07,24,78,151,49,196,73,055,44,199,60,167,45,18,59,290,39,8*60
$GPGSV,2,2,07,195,42,178,43,23,34,326,25,194,24,143,27,8*57
$GLGSV,2,1,07,85,46,276,19,80,41,111,40,84,29,198,31,79,23,050,32,1*7E
$GLGSV,2,2,07,69,20,052,22,73,17,168,28,71,14,293,16,1*4E
$GAGSV,2,1,07,13,66,266,37,08,54,005,44,07,40,282,21,15,39,173,37,7*78
$GAGSV,2,2,07,26,22,319,,02,19,102,25,03,18,052,25,7*4F
$GAGSV,1,1,04,13,66,266,41,08,54,005,45,07,40,282,15,15,39,173,44,1*7D
$GBGSV,4,1,13,38,78,049,43,39,73,249,44,08,69,007,40,16,65,231,43,1*79
$GBGSV,4,2,13,06,63,229,41,13,61,342,35,46,47,138,45,20,47,038,41,1*7E
$GBGSV,4,3,13,09,46,223,38,19,41,324,22,29,32,225,41,37,31,063,45,1*70
$GBGSV,4,4,13,36,18,187,32,1*47
$GBGSV,2,1,08,38,78,049,46,39,73,249,46,20,47,038,43,46,47,138,43,4*71
$GBGSV,2,2,08,19,41,324,32,29,32,225,44,37,31,063,47,36,18,187,24,4*79
$GNGGA,104353.000,2500.7941072,N,12132.4797712,E,4,53,0.53,15.868,M,15.25,M,14,3335*76
$GNRMC,104353.000,A,2500.7941072,N,12132.4797712,E,0.00,301.88,260623,,,R,V*1B
$GPHDT,90.752,T*0C
$GNGGA,104353.200,2500.7941053,N,12132.4797726,E,4,53,0.53,15.887,M,15.25,M,14,3335*71
$GNRMC,104353.200,A,2500.7941053,N,12132.4797726,E,0.00,301.88,260623,,,R,V*1D
$GPHDT,90.667,T*0B
$GNGGA,104353.400,2500.7941052,N,12132.4797736,E,4,53,0.53,15.882,M,15.25,M,14,3335*72
$GNRMC,104353.400,A,2500.7941052,N,12132.4797736,E,0.00,301.88,260623,,,R,V*1B
$GPHDT,90.157,T*0F
$GNGGA,104353.600,2500.7941047,N,12132.4797727,E,4,53,0.53,15.886,M,15.25,M,14,3335*70
$GNRMC,104353.600,A,2500.7941047,N,12132.4797727,E,0.00,301.88,260623,,,R,V*1D
$GPHDT,90.377,T*0F
$GNGGA,104353.800,2500.7941059,N,12132.4797739,E,4,52,0.53,15.891,M,15.25,M,14,3335*79
$GNRMC,104353.800,A,2500.7941059,N,12132.4797739,E,0.00,301.88,260623,,,R,V*13
$GPHDT,90.301,T*0E
$GNGSA,A,3,24,196,199,18,15,195,23,05,194,13,,,1.02,0.53,0.87,1*08
$GNGSA,A,3,85,80,84,79,69,73,,,,,,,1.02,0.53,0.87,2*04
$GNGSA,A,3,13,08,07,15,03,,,,,,,,1.02,0.53,0.87,3*03
$GNGSA,A,3,38,39,08,16,06,13,46,20,09,29,37,36,1.02,0.53,0.87,4*07
$GNGSA,A,3,19,,,,,,,,,,,,1.02,0.53,0.87,4*06
$GPGSV,4,1,15,24,78,151,44,196,73,055,41,199,60,167,37,18,59,290,35,1*6D
$GPGSV,4,2,15,15,47,025,37,45,47,231,30,195,42,178,42,23,34,326,18,1*58
$GPGSV,4,3,15,05,31,101,34,194,24,143,18,13,21,044,32,29,10,211,,1*5A
$GPGSV,4,4,15,20,10,118,,12,08,156,,10,05,308,,1*5D
$GPGSV,2,1,07,24,78,151,48,196,73,055,44,199,60,167,45,18,59,290,38,8*60
$GPGSV,2,2,07,195,42,178,43,23,34,326,24,194,24,143,25,8*54
$GLGSV,2,1,08,85,46,276,19,80,41,111,41,84,29,198,31,79,23,050,33,1*71
$GLGSV,2,2,08,69,20,052,22,86,18,323,,73,17,168,28,71,14,293,16,1*74
$GAGSV,2,1,07,13,66,266,37,08,54,005,44,07,40,282,20,15,39,173,37,7*79
$GAGSV,2,2,07,26,22,319,,02,19,102,25,03,18,052,25,7*4F
$GAGSV,1,1,04,13,66,266,40,08,54,005,45,07,40,282,13,15,39,173,44,1*7A
$GBGSV,4,1,13,38,78,049,43,39,73,249,44,08,69,007,40,16,65,231,43,1*79
$GBGSV,4,2,13,06,63,229,41,13,61,342,35,46,47,138,45,20,47,038,38,1*70
$GBGSV,4,3,13,09,46,223,38,19,41,324,21,29,32,225,41,37,31,063,45,1*73
$GBGSV,4,4,13,36,18,187,31,1*44
$GBGSV,2,1,08,38,78,049,46,39,73,249,46,20,47,038,42,46,47,138,42,4*71
$GBGSV,2,2,08,19,41,324,32,29,32,225,44,37,31,063,46,36,18,187,24,4*78
$GNGGA,104354.000,2500.7941060,N,12132.4797702,E,4,52,0.53,15.879,M,15.25,M,15,3335*73
$GNRMC,104354.000,A,2500.7941060,N,12132.4797702,E,0.00,301.88,260623,,,R,V*1E
$GPHDT,89.994,T*00
$GNGGA,104354.200,2500.7941040,N,12132.4797764,E,4,52,0.53,15.895,M,15.25,M,15,3335*71
$GNRMC,104354.200,A,2500.7941040,N,12132.4797764,E,0.00,301.88,260623,,,R,V*1E
$GPHDT,89.899,T*0C
$GNGGA,104354.400,2500.7941045,N,12132.4797757,E,4,52,0.53,15.891,M,15.25,M,15,3335*76
$GNRMC,104354.400,A,2500.7941045,N,12132.4797757,E,0.00,301.88,260623,,,R,V*1D
$GPHDT,90.011,T*0C
$GNGGA,104354.600,2500.7941027,N,12132.4797714,E,4,52,0.53,15.894,M,15.25,M,15,3335*72
$GNRMC,104354.600,A,2500.7941027,N,12132.4797714,E,0.00,301.88,260623,,,R,V*1C
$GPHDT,89.847,T*0F
$GNGGA,104354.800,2500.7941076,N,12132.4797728,E,4,52,0.53,15.884,M,15.25,M,15,3335*76
$GNRMC,104354.800,A,2500.7941076,N,12132.4797728,E,0.00,301.88,260623,,,R,V*19
$GPHDT,90.503,T*0A
$GNGSA,A,3,24,196,199,18,15,195,23,05,194,13,,,1.02,0.53,0.87,1*08
$GNGSA,A,3,85,80,84,79,69,73,,,,,,,1.02,0.53,0.87,2*04
$GNGSA,A,3,13,08,07,15,03,,,,,,,,1.02,0.53,0.87,3*03
$GNGSA,A,3,38,39,08,16,06,13,46,20,09,29,37,36,1.02,0.53,0.87,4*07
$GNGSA,A,3,19,,,,,,,,,,,,1.02,0.53,0.87,4*06
$GPGSV,4,1,15,24,78,151,44,196,73,055,41,199,60,167,37,18,59,290,35,1*6D
$GPGSV,4,2,15,15,47,025,37,45,47,231,30,195,42,178,42,23,34,326,18,1*58
$GPGSV,4,3,15,05,31,101,34,194,24,143,19,13,21,044,31,29,10,211,,1*58
$GPGSV,4,4,15,20,10,118,,12,08,156,,10,05,308,,1*5D
$GPGSV,2,1,07,24,78,151,48,196,73,055,44,199,60,167,45,18,59,290,38,8*60
$GPGSV,2,2,07,195,42,178,43,23,34,326,23,194,24,143,25,8*53
$GLGSV,2,1,07,85,46,276,18,80,41,111,41,84,29,198,32,79,23,050,35,1*7A
$GLGSV,2,2,07,69,20,052,21,73,17,168,29,71,14,293,17,1*4D
$GAGSV,2,1,07,13,66,266,38,08,54,005,44,07,40,282,17,15,39,173,37,7*72
$GAGSV,2,2,07,26,22,319,,02,19,102,25,03,18,052,25,7*4F
$GAGSV,1,1,04,13,66,266,40,08,54,005,45,07,40,282,14,15,39,173,44,1*7D
$GBGSV,4,1,13,38,78,049,43,39,73,249,44,08,69,007,40,16,65,231,43,1*79
$GBGSV,4,2,13,06,63,229,41,13,61,342,36,46,47,138,45,20,47,038,37,1*7C
$GBGSV,4,3,13,09,46,223,38,19,41,324,19,29,32,225,41,37,31,063,44,1*79
$GBGSV,4,4,13,36,18,187,31,1*44
$GBGSV,2,1,08,38,78,049,46,39,73,249,46,20,47,038,43,46,47,138,42,4*70
$GBGSV,2,2,08,19,41,324,31,29,32,225,44,37,31,063,46,36,18,187,24,4*7B
$GNGGA,104355.000,2500.7941051,N,12132.4797726,E,4,52,0.53,15.891,M,15.25,M,16,3335*73
$GNRMC,104355.000,A,2500.7941051,N,12132.4797726,E,0.00,301.88,260623,,,R,V*1B
$GPHDT,90.265,T*0D
$GNGGA,104355.200,2500.7941074,N,12132.4797737,E,4,52,0.53,15.881,M,15.25,M,16,3335*77
$GNRMC,104355.200,A,2500.7941074,N,12132.4797737,E,0.00,301.88,260623,,,R,V*1E
$GPHDT,90.435,T*0E
$GNGGA,104355.400,2500.7941062,N,12132.4797738,E,4,52,0.53,15.876,M,15.25,M,16,3335*71
$GNRMC,104355.400,A,2500.7941062,N,12132.4797738,E,0.00,301.88,260623,,,R,V*10
$GPHDT,90.428,T*02
$GNGGA,104355.600,2500.7941085,N,12132.4797688,E,4,53,0.53,15.876,M,15.25,M,16,3335*71
$GNRMC,104355.600,A,2500.7941085,N,12132.4797688,E,0.00,301.88,260623,,,R,V*11
$GPHDT,90.437,T*0C
$GNGGA,104355.800,2500.7941069,N,12132.4797727,E,4,52,0.53,15.879,M,15.25,M,16,3335*77
$GNRMC,104355.800,A,2500.7941069,N,12132.4797727,E,0.00,301.88,260623,,,R,V*19
$GPHDT,89.882,T*06
$GNGSA,A,3,24,196,199,18,15,195,23,05,194,13,,,1.02,0.53,0.87,1*08
$GNGSA,A,3,85,80,84,79,69,73,,,,,,,1.02,0.53,0.87,2*04
$GNGSA,A,3,13,08,07,15,03,,,,,,,,1.02,0.53,0.87,3*03
$GNGSA,A,3,38,39,08,16,06,13,46,20,09,29,37,36,1.02,0.53,0.87,4*07
$GNGSA,A,3,19,,,,,,,,,,,,1.02,0.53,0.87,4*06
$GPGSV,4,1,15,24,78,151,44,196,73,055,41,199,60,167,37,18,59,290,35,1*6D
$GPGSV,4,2,15,15,47,025,37,45,47,231,30,195,42,178,42,23,34,326,18,1*58
$GPGSV,4,3,15,05,31,101,33,194,24,143,19,13,21,044,32,29,10,211,,1*5C
$GPGSV,4,4,15,20,10,118,,12,08,156,,10,05,308,,1*5D
$GPGSV,2,1,07,24,78,151,48,196,73,055,44,199,60,167,45,18,59,290,38,8*60
$GPGSV,2,2,07,195,42,178,43,23,34,326,23,194,24,143,25,8*53
$GLGSV,2,1,07,85,46,276,18,80,41,111,41,84,29,198,32,79,23,050,35,1*7A
$GLGSV,2,2,07,69,20,052,22,73,17,168,28,71,14,293,18,1*40
$GAGSV,2,1,07,13,66,266,38,08,54,005,44,07,40,282,17,15,39,173,37,7*72
$GAGSV,2,2,07,26,22,319,,02,19,102,25,03,18,052,24,7*4E
$GAGSV,1,1,04,13,66,266,40,08,54,005,45,07,40,282,14,15,39,173,44,1*7D
$GBGSV,4,1,13,38,78,049,43,39,73,249,44,08,69,007,40,16,65,231,43,1*79
$GBGSV,4,2,13,06,63,229,41,13,61,342,36,46,47,138,45,20,47,038,38,1*73
$GBGSV,4,3,13,09,46,223,38,19,41,324,19,29,32,225,41,37,31,063,45,1*78
$GBGSV,4,4,13,36,18,187,32,1*47
$GBGSV,2,1,08,38,78,049,46,39,73,249,46,20,47,038,43,46,47,138,42,4*70
$GBGSV,2,2,08,19,41,324,30,29,32,225,44,37,31,063,46,36,18,187,21,4*7F
$GNGGA,104356.000,2500.7941052,N,12132.4797752,E,4,52,0.53,15.887,M,15.25,M,17,3335*76
$GNRMC,104356.000,A,2500.7941052,N,12132.4797752,E,0.00,301.88,260623,,,R,V*18
$GPHDT,90.041,T*09
$GNGGA,104356.200,2500.7941050,N,12132.4797712,E,4,53,0.53,15.879,M,15.25,M,17,3335*72
$GNRMC,104356.200,A,2500.7941050,N,12132.4797712,E,0.00,301.88,260623,,,R,V*1C
$GPHDT,90.205,T*0B
$GNGGA,104356.400,2500.7941038,N,12132.4797739,E,4,53,0.53,15.890,M,15.25,M,17,3335*74
$GNRMC,104356.400,A,2500.7941038,N,12132.4797739,E,0.00,301.88,260623,,,R,V*1D
$GPHDT,89.998,T*0C
$GNGGA,104356.600,2500.7941053,N,12132.4797720,E,4,53,0.53,15.884,M,15.25,M,17,3335*76
$GNRMC,104356.600,A,2500.7941053,N,12132.4797720,E,0.00,301.88,260623,,,R,V*1A
$GPHDT,90.524,T*0F
$GNGGA,104356.800,2500.7941055,N,12132.4797722,E,4,53,0.53,15.882,M,15.25,M,13,3335*7E
$GNRMC,104356.800,A,2500.7941055,N,12132.4797722,E,0.00,301.88,260623,,,R,V*10
$GPHDT,90.135,T*0B
$GNGSA,A,3,24,196,199,18,15,195,23,05,194,13,,,1.02,0.53,0.87,1*08
$GNGSA,A,3,85,80,84,79,69,73,,,,,,,1.02,0.53,0.87,2*04
$GNGSA,A,3,13,08,07,15,03,,,,,,,,1.02,0.53,0.87,3*03
$GNGSA,A,3,38,39,08,16,06,13,46,20,09,19,29,37,1.02,0.53,0.87,4*0A
$GNGSA,A,3,36,,,,,,,,,,,,1.02,0.53,0.87,4*0B
$GPGSV,4,1,15,24,78,151,44,196,73,055,41,199,60,167,37,18,59,290,35,1*6D
$GPGSV,4,2,15,15,47,025,37,45,47,231,30,195,42,178,42,23,34,326,18,1*58
$GPGSV,4,3,15,05,30,101,30,194,24,143,19,13,21,044,31,29,10,211,,1*5D
$GPGSV,4,4,15,20,10,118,,12,08,156,,10,05,308,,1*5D
$GPGSV,2,1,07,24,78,151,48,196,73,055,44,199,60,167,45,18,59,290,38,8*60
$GPGSV,2,2,07,195,42,178,43,23,34,326,22,194,24,143,23,8*54
$GLGSV,2,1,07,85,46,276,18,80,41,111,41,84,29,198,32,79,23,050,35,1*7A
$GLGSV,2,2,07,69,20,052,23,73,17,168,28,71,14,293,19,1*40
$GAGSV,2,1,08,13,66,266,38,08,54,005,44,07,40,282,17,15,39,173,37,7*7D
$GAGSV,2,2,08,26,22,319,,02,19,102,25,03,18,052,24,30,14,154,,7*77
$GAGSV,1,1,04,13,66,266,40,08,54,005,45,07,40,282,14,15,39,173,44,1*7D
$GBGSV,4,1,15,38,78,049,43,39,73,249,44,08,69,007,40,16,65,231,43,1*7F
$GBGSV,4,2,15,06,63,229,41,13,61,342,36,46,47,138,45,20,47,038,38,1*75
$GBGSV,4,3,15,09,46,223,38,19,41,324,22,29,32,225,41,37,31,063,45,1*76
$GBGSV,4,4,15,36,18,187,31,32,09,084,,07,06,196,,1*49
$GBGSV,2,1,08,38,78,049,46,39,73,249,46,20,47,038,44,46,47,138,42,4*77
$GBGSV,2,2,08,19,41,324,30,29,32,225,43,37,31,063,47,36,18,187,24,4*7C
$GNGGA,104357.000,2500.7941039,N,12132.4797717,E,4,53,0.53,15.880,M,15.25,M,14,3335*7E
$GNRMC,104357.000,A,2500.7941039,N,12132.4797717,E,0.00,301.88,260623,,,R,V*15
$GPHDT,90.189,T*0C
$GNGGA,104357.200,2500.7941057,N,12132.4797706,E,4,52,0.53,15.893,M,15.25,M,14,3335*77
$GNRMC,104357.200,A,2500.7941057,N,12132.4797706,E,0.00,301.88,260623,,,R,V*1F
$GPHDT,90.099,T*0C
$GNGGA,104357.400,2500.7941054,N,12132.4797734,E,4,51,0.53,15.879,M,15.25,M,14,3335*74
$GNRMC,104357.400,A,2500.7941054,N,12132.4797734,E,0.00,301.88,260623,,,R,V*1B
$GPHDT,89.850,T*09
$GNGGA,104357.600,2500.7941034,N,12132.4797774,E,4,51,0.53,15.890,M,15.25,M,14,3335*73
$GNRMC,104357.600,A,2500.7941034,N,12132.4797774,E,0.00,301.88,260623,,,R,V*1B
$GPHDT,89.509,T*08
$GNGGA,104357.800,2500.7941075,N,12132.4797676,E,4,51,0.53,15.865,M,15.25,M,14,3335*71
$GNRMC,104357.800,A,2500.7941075,N,12132.4797676,E,0.00,301.88,260623,,,R,V*13
$GPHDT,90.152,T*0A
$GNGSA,A,3,24,196,199,18,15,195,23,05,194,13,,,1.02,0.53,0.87,1*08
$GNGSA,A,3,85,80,84,79,69,73,,,,,,,1.02,0.53,0.87,2*04
$GNGSA,A,3,13,08,07,15,03,,,,,,,,1.02,0.53,0.87,3*03
$GNGSA,A,3,38,39,08,16,06,13,46,20,09,29,37,36,1.02,0.53,0.87,4*07
$GNGSA,A,3,19,,,,,,,,,,,,1.02,0.53,0.87,4*06
$GPGSV,4,1,15,24,78,151,44,196,73,055,41,199,60,167,37,18,59,290,35,1*6D
$GPGSV,4,2,15,15,47,025,37,45,47,231,30,195,42,178,42,23,34,326,19,1*59
$GPGSV,4,3,15,05,30,101,25,194,24,143,19,13,21,044,31,29,10,211,,1*59
$GPGSV,4,4,15,20,10,118,,12,09,155,,10,05,308,,1*5F
$GPGSV,2,1,06,24,78,151,48,196,73,055,43,199,60,167,45,18,59,290,38,8*66
$GPGSV,2,2,06,195,42,178,43,23,34,326,21,8*5B
$GLGSV,2,1,07,85,46,276,18,80,41,111,38,84,29,198,31,79,23,050,34,1*76
$GLGSV,2,2,07,69,20,052,23,73,17,168,27,71,14,293,18,1*4E
$GAGSV,2,1,08,13,66,266,39,08,54,005,44,07,40,282,16,15,39,173,37,7*7D
$GAGSV,2,2,08,26,22,319,,02,19,102,25,03,18,052,25,30,14,154,,7*76
$GAGSV,1,1,04,13,66,266,40,08,54,005,45,07,40,282,14,15,39,173,44,1*7D
$GBGSV,4,1,13,38,78,049,44,39,73,249,44,08,69,007,40,16,65,231,43,1*7E
$GBGSV,4,2,13,06,63,229,41,13,61,342,35,46,47,138,46,20,47,038,38,1*73
$GBGSV,4,3,13,09,46,223,38,19,41,324,20,29,32,225,40,37,31,063,45,1*73
$GBGSV,4,4,13,36,18,187,21,1*45
$GBGSV,2,1,08,38,78,049,46,39,73,249,46,20,47,038,44,46,47,138,41,4*74
$GBGSV,2,2,08,19,41,324,30,29,32,225,43,37,31,063,47,36,18,187,21,4*79
$GNGGA,104358.000,2500.7941030,N,12132.4797750,E,4,51,0.53,15.875,M,15.25,M,15,3335*72
$GNRMC,104358.000,A,2500.7941030,N,12132.4797750,E,0.00,301.88,260623,,,R,V*10
$GPHDT,89.612,T*01
$GNGGA,104358.200,2500.7941041,N,12132.4797730,E,4,50,0.53,15.867,M,15.25,M,15,3335*72
$GNRMC,104358.200,A,2500.7941041,N,12132.4797730,E,0.00,301.88,260623,,,R,V*12
$GPHDT,90.529,T*02
$GNGGA,104358.400,2500.7941098,N,12132.4797664,E,4,50,0.53,15.876,M,15.25,M,15,3335*70
$GNRMC,104358.400,A,2500.7941098,N,12132.4797664,E,0.00,301.88,260623,,,R,V*10
$GPHDT,90.512,T*0A
$GNGGA,104358.600,2500.7941102,N,12132.4797692,E,4,51,0.53,15.860,M,15.25,M,15,3335*7F
$GNRMC,104358.600,A,2500.7941102,N,12132.4797692,E,0.00,301.88,260623,,,R,V*19
$GPHDT,90.625,T*0D
$GNGGA,104358.800,2500.7941051,N,12132.4797756,E,4,51,0.53,15.854,M,15.25,M,15,3335*78
$GNRMC,104358.800,A,2500.7941051,N,12132.4797756,E,0.01,301.88,260623,,,R,V*18
$GPHDT,90.083,T*07
$GNGSA,A,3,24,196,199,18,15,195,23,05,194,13,,,1.02,0.53,0.87,1*08
$GNGSA,A,3,85,80,84,79,69,73,,,,,,,1.02,0.53,0.87,2*04
$GNGSA,A,3,13,08,07,15,03,,,,,,,,1.02,0.53,0.87,3*03
$GNGSA,A,3,38,39,08,16,06,13,46,20,09,19,29,37,1.02,0.53,0.87,4*0A
$GNGSA,A,3,36,,,,,,,,,,,,1.02,0.53,0.87,4*0B
$GPGSV,4,1,15,24,78,151,45,196,73,055,41,199,60,167,37,18,59,290,34,1*6D
$GPGSV,4,2,15,15,47,025,37,45,47,231,30,195,42,178,42,23,34,326,19,1*59
$GPGSV,4,3,15,05,30,101,35,194,24,143,19,13,20,044,34,29,10,211,17,1*5A
$GPGSV,4,4,15,20,10,118,,12,09,155,,10,05,308,,1*5F
$GPGSV,2,1,06,24,78,151,49,196,73,055,43,199,60,167,44,18,59,290,39,8*67
$GPGSV,2,2,06,195,42,178,43,23,34,326,25,8*5F
$GLGSV,2,1,07,85,46,276,20,80,41,111,40,84,29,198,31,79,23,050,32,1*74
$GLGSV,2,2,07,69,20,052,22,73,17,168,25,71,14,293,18,1*4D
$GAGSV,2,1,08,13,66,266,39,08,54,005,45,07,40,282,17,15,39,173,37,7*7D
$GAGSV,2,2,08,26,22,319,,02,19,102,26,03,18,052,27,30,14,154,,7*77
$GAGSV,1,1,04,13,66,266,41,08,54,005,45,07,40,282,14,15,39,173,43,1*7B
$GBGSV,4,1,13,38,78,049,44,39,73,249,44,08,69,007,38,16,65,231,43,1*71
$GBGSV,4,2,13,06,63,229,41,13,61,342,35,46,47,138,42,20,47,038,39,1*76
$GBGSV,4,3,13,09,46,223,38,19,41,324,22,29,32,225,40,37,31,063,45,1*71
$GBGSV,4,4,13,36,18,187,28,1*4C
$GBGSV,2,1,07,38,78,049,46,39,73,249,46,20,47,038,44,46,47,138,38,4*75
$GBGSV,2,2,07,19,41,324,30,29,32,225,44,37,31,063,48,4*4F
$GNGGA,104359.000,2500.7941024,N,12132.4797787,E,4,51,0.53,15.864,M,15.25,M,16,3335*7F
$GNRMC,104359.000,A,2500.7941024,N,12132.4797787,E,0.00,301.88,260623,,,R,V*1E
$GPHDT,90.017,T*0A
$GNGGA,104359.200,2500.7941103,N,12132.4797656,E,4,51,0.53,15.870,M,15.25,M,16,3335*71
$GNRMC,104359.200,A,2500.7941103,N,12132.4797656,E,0.00,301.88,260623,,,R,V*15
$GPHDT,89.121,T*06
$GNGGA,104359.400,2500.7941166,N,12132.4797578,E,4,52,0.53,15.887,M,15.25,M,16,3335*70
$GNRMC,104359.400,A,2500.7941166,N,12132.4797578,E,0.00,301.88,260623,,,R,V*1F
