$FW : RTK35X,V1.1X0314AS,Lib20210517,1*54
$Tool : LOCOSYS , GNSS Firebird , v1.0.0.19*39
$---------------------------------------------------*2D
$GNGSA,A,3,24,196,199,18,15,195,05,194,13,,,,1.17,0.58,1.02,1*0A
$GNGSA,A,3,85,80,84,79,69,,,,,,,,1.17,0.58,1.02,2*03
$GNGSA,A,3,13,08,15,07,03,,,,,,,,1.17,0.58,1.02,3*00
$GNGSA,A,3,38,39,08,16,06,13,20,46,09,19,29,37,1.17,0.58,1.02,4*09
$GPGSV,4,1,14,24,77,155,43,196,73,054,41,199,60,167,35,18,58,292,27,1*63
$GPGSV,4,2,14,15,48,024,44,195,42,178,43,23,34,325,22,05,31,099,32,1*5F
$GPGSV,4,3,14,194,23,143,20,13,21,043,39,29,11,212,14,20,11,117,,1*59
$GPGSV,4,4,14,12,08,156,,10,04,307,,1*69
$GPGSV,2,1,07,24,77,155,48,196,73,054,43,199,60,167,45,18,58,292,35,8*63
$GPGSV,2,2,07,195,42,178,42,23,34,325,17,194,23,143,22,8*56
$GLGSV,2,1,08,85,46,279,29,80,40,113,37,84,31,199,32,79,23,051,29,1*7E
$GLGSV,2,2,08,69,20,050,28,86,17,324,,73,15,169,19,71,14,291,,1*70
$GAGSV,2,1,08,13,66,269,39,08,54,004,43,15,40,173,38,07,39,280,29,7*75
$GAGSV,2,2,08,26,21,319,,02,19,103,20,03,19,051,25,30,13,155,13,7*77
$GAGSV,2,1,05,13,66,269,42,08,54,004,43,15,40,173,41,07,39,280,20,1*75
$GAGSV,2,2,05,03,19,051,22,1*4F
$GBGSV,3,1,12,38,77,047,42,39,73,247,42,08,68,007,39,16,65,229,42,1*70
$GBGSV,3,2,12,06,63,227,39,13,60,342,33,20,47,036,44,46,46,140,45,1*7B
$GBGSV,3,3,12,09,46,221,37,19,41,322,23,29,33,227,42,37,32,064,43,1*7E
$GBGSV,2,1,07,38,77,047,45,39,73,247,44,20,47,036,44,46,46,140,46,4*72
$GBGSV,2,2,07,19,41,322,28,29,33,227,37,37,32,064,42,4*49
$GNGGA,104057.000,2500.7941077,N,12132.4797683,E,4,49,0.58,15.900,M,15.25,M,1,3335*46
$GNRMC,104057.000,A,2500.7941077,N,12132.4797683,E,0.02,115.18,260623,,,R,V*1C
$GPHDT,2.016,T*30
$GNGGA,104057.200,2500.7941079,N,12132.4797705,E,4,49,0.58,15.912,M,15.25,M,1,3335*46
$GNRMC,104057.200,A,2500.7941079,N,12132.4797705,E,0.01,115.18,260623,,,R,V*1C
$GPHDT,1.500,T*31
$GNGGA,104057.400,2500.7941084,N,12132.4797681,E,4,49,0.58,15.903,M,15.25,M,1,3335*4F
$GNRMC,104057.400,A,2500.7941084,N,12132.4797681,E,0.01,115.18,260623,,,R,V*15
$GPHDT,1.893,T*36
$GNGGA,104057.600,2500.7941087,N,12132.4797689,E,4,49,0.58,15.901,M,15.25,M,1,3335*44
$GNRMC,104057.600,A,2500.7941087,N,12132.4797689,E,0.01,115.18,260623,,,R,V*1C
$GPHDT,2.042,T*31
$GNGGA,104057.800,2500.7941086,N,12132.4797678,E,4,49,0.58,15.895,M,15.25,M,1,3335*49
$GNRMC,104057.800,A,2500.7941086,N,12132.4797678,E,0.00,115.18,260623,,,R,V*1C
$GPHDT,2.210,T*34
$GNGSA,A,3,24,196,199,18,15,195,05,194,13,,,,1.17,0.58,1.02,1*0A
$GNGSA,A,3,85,80,84,79,69,,,,,,,,1.17,0.58,1.02,2*03
$GNGSA,A,3,13,08,15,07,03,,,,,,,,1.17,0.58,1.02,3*00
$GNGSA,A,3,38,39,08,16,06,13,20,46,09,19,29,37,1.17,0.58,1.02,4*09
$GPGSV,4,1,14,24,77,155,42,196,73,054,41,199,60,167,35,18,58,292,28,1*6D
$GPGSV,4,2,14,15,48,024,44,195,42,178,43,23,34,325,20,05,31,099,31,1*5E
$GPGSV,4,3,14,194,23,143,18,13,21,043,39,29,11,212,12,20,11,117,,1*54
$GPGSV,4,4,14,12,08,156,,10,04,307,,1*69
$GPGSV,2,1,06,24,77,155,48,196,73,054,43,199,60,167,45,18,58,292,36,8*61
$GPGSV,2,2,06,195,42,178,42,194,23,143,23,8*62
$GLGSV,2,1,06,85,46,279,28,80,40,113,37,84,31,199,33,79,23,051,28,1*71
$GLGSV,2,2,06,69,20,051,28,73,16,168,19,1*79
$GAGSV,2,1,08,13,66,269,38,08,54,004,43,15,40,173,38,07,39,280,29,7*74
$GAGSV,2,2,08,26,21,319,,02,19,103,19,03,19,051,25,30,13,155,12,7*7C
$GAGSV,2,1,05,13,66,269,41,08,54,004,43,15,40,173,42,07,39,280,20,1*75
$GAGSV,2,2,05,03,19,051,23,1*4E
$GBGSV,3,1,12,38,77,047,42,39,73,247,42,08,68,007,39,16,65,229,42,1*70
$GBGSV,3,2,12,06,63,227,39,13,60,342,33,20,47,036,44,46,46,140,45,1*7B
$GBGSV,3,3,12,09,46,221,37,19,41,322,21,29,33,227,42,37,32,064,43,1*7C
$GBGSV,2,1,07,38,77,047,45,39,73,247,44,20,47,036,44,46,46,140,46,4*72
$GBGSV,2,2,07,19,41,322,28,29,33,227,37,37,32,064,43,4*48
$GNGGA,104058.000,2500.7941102,N,12132.4797697,E,4,49,0.58,15.917,M,15.25,M,2,3335*4A
$GNRMC,104058.000,A,2500.7941102,N,12132.4797697,E,0.00,115.18,260623,,,R,V*17
$GPHDT,1.640,T*36
$GNGGA,104058.200,2500.7941116,N,12132.4797665,E,4,48,0.58,15.902,M,15.25,M,2,3335*45
$GNRMC,104058.200,A,2500.7941116,N,12132.4797665,E,0.00,115.18,260623,,,R,V*1D
$GPHDT,2.283,T*3E
$GNGGA,104058.400,2500.7941089,N,12132.4797662,E,4,48,0.58,15.893,M,15.25,M,2,3335*4A
$GNRMC,104058.400,A,2500.7941089,N,12132.4797662,E,0.00,115.18,260623,,,R,V*1B
$GPHDT,2.114,T*33
$GNGGA,104058.600,2500.7941074,N,12132.4797689,E,4,49,0.58,15.913,M,15.25,M,2,3335*47
$GNRMC,104058.600,A,2500.7941074,N,12132.4797689,E,0.01,115.18,260623,,,R,V*1F
$GPHDT,1.996,T*32
$GNGGA,104058.800,2500.7941086,N,12132.4797673,E,4,49,0.58,15.905,M,15.25,M,2,3335*46
$GNRMC,104058.800,A,2500.7941086,N,12132.4797673,E,0.00,115.18,260623,,,R,V*18
$GPHDT,2.289,T*34
$GNGSA,A,3,24,196,199,18,15,195,05,194,13,,,,1.17,0.58,1.02,1*0A
$GNGSA,A,3,85,80,84,79,69,,,,,,,,1.17,0.58,1.02,2*03
$GNGSA,A,3,13,08,15,07,03,,,,,,,,1.17,0.58,1.02,3*00
$GNGSA,A,3,38,39,08,16,06,13,20,46,09,19,29,37,1.17,0.58,1.02,4*09
$GPGSV,4,1,14,24,77,155,42,196,73,054,41,199,60,167,35,18,58,292,28,1*6D
$GPGSV,4,2,14,15,48,024,44,195,42,178,43,23,34,325,18,05,31,099,32,1*56
$GPGSV,4,3,14,194,23,143,17,13,21,043,39,29,11,212,11,20,11,117,,1*58
$GPGSV,4,4,14,12,08,156,,10,04,307,,1*69
$GPGSV,2,1,06,24,77,155,48,196,73,054,43,199,60,167,45,18,58,292,34,8*63
$GPGSV,2,2,06,195,42,178,42,194,23,143,26,8*67
$GLGSV,2,1,06,85,46,279,27,80,40,113,37,84,31,199,33,79,23,051,27,1*71
$GLGSV,2,2,06,69,20,051,29,73,16,168,19,1*78
$GAGSV,2,1,08,13,66,269,38,08,54,004,43,15,40,173,38,07,39,280,30,7*7C
$GAGSV,2,2,08,26,21,319,,02,19,103,15,03,19,051,25,30,13,155,13,7*71
$GAGSV,2,1,05,13,66,269,40,08,54,004,43,15,40,173,41,07,39,280,21,1*76
$GAGSV,2,2,05,03,19,051,24,1*49
$GBGSV,3,1,12,38,77,047,42,39,73,247,42,08,68,007,39,16,65,229,42,1*70
$GBGSV,3,2,12,06,63,227,39,13,60,342,34,20,47,036,44,46,46,140,44,1*7D
$GBGSV,3,3,12,09,46,221,37,19,41,322,21,29,33,227,43,37,32,064,43,1*7D
$GBGSV,2,1,07,38,77,047,45,39,73,247,44,20,47,036,43,46,46,140,46,4*75
$GBGSV,2,2,07,19,41,322,28,29,33,227,37,37,32,064,43,4*48
$GNGGA,104059.000,2500.7941083,N,12132.4797735,E,4,49,0.58,15.913,M,15.25,M,3,3335*4F
$GNRMC,104059.000,A,2500.7941083,N,12132.4797735,E,0.01,115.18,260623,,,R,V*16
$GPHDT,1.296,T*39
$GNGGA,104059.200,2500.7941094,N,12132.4797703,E,4,49,0.58,15.910,M,15.25,M,3,3335*4D
$GNRMC,104059.200,A,2500.7941094,N,12132.4797703,E,0.00,115.18,260623,,,R,V*16
$GPHDT,1.572,T*34
$GNGGA,104059.400,2500.7941096,N,12132.4797700,E,4,48,0.58,15.903,M,15.25,M,3,3335*49
$GNRMC,104059.400,A,2500.7941096,N,12132.4797700,E,0.00,115.18,260623,,,R,V*11
$GPHDT,1.222,T*36
$GNGGA,104059.600,2500.7941086,N,12132.4797726,E,4,49,0.58,15.909,M,15.25,M,3,3335*45
$GNRMC,104059.600,A,2500.7941086,N,12132.4797726,E,0.00,115.18,260623,,,R,V*16
$GPHDT,1.135,T*33
$GNGGA,104059.800,2500.7941097,N,12132.4797702,E,4,49,0.58,15.907,M,15.25,M,3,3335*43
$GNRMC,104059.800,A,2500.7941097,N,12132.4797702,E,0.00,115.18,260623,,,R,V*1E
$GPHDT,1.411,T*30
$GNGSA,A,3,24,196,199,18,15,195,05,194,13,,,,1.17,0.58,1.02,1*0A
$GNGSA,A,3,85,80,84,79,69,,,,,,,,1.17,0.58,1.02,2*03
$GNGSA,A,3,13,08,15,07,03,,,,,,,,1.17,0.58,1.02,3*00
$GNGSA,A,3,38,39,08,16,06,13,20,46,09,19,29,37,1.17,0.58,1.02,4*09
$GPGSV,4,1,14,24,77,155,42,196,73,054,41,199,60,167,35,18,58,292,27,1*62
$GPGSV,4,2,14,15,48,024,44,195,42,178,43,23,34,325,17,05,31,099,32,1*59
$GPGSV,4,3,14,194,23,143,20,13,21,043,39,29,11,212,11,20,11,117,,1*5C
$GPGSV,4,4,14,12,08,156,,10,04,307,,1*69
$GPGSV,2,1,06,24,77,155,48,196,73,054,43,199,60,167,45,18,58,292,35,8*62
$GPGSV,2,2,06,195,42,178,42,194,23,143,24,8*65
$GLGSV,2,1,06,85,46,279,27,80,40,112,37,84,31,199,32,79,23,051,27,1*71
$GLGSV,2,2,06,69,20,051,28,73,16,168,19,1*79
$GAGSV,3,1,09,13,66,269,40,08,54,004,43,15,40,173,38,07,39,280,30,7*73
$GAGSV,3,2,09,26,21,319,,03,19,051,25,02,19,103,14,30,13,155,16,7*75
$GAGSV,3,3,09,25,05,057,,7*4A
$GAGSV,2,1,05,13,66,269,41,08,54,004,43,15,40,173,41,07,39,280,22,1*74
$GAGSV,2,2,05,03,19,051,23,1*4E
$GBGSV,4,1,14,38,77,047,42,39,73,247,42,08,68,007,39,16,65,229,42,1*71
$GBGSV,4,2,14,06,63,227,38,13,60,342,34,20,47,036,44,46,46,140,44,1*7D
$GBGSV,4,3,14,09,46,221,36,19,41,322,21,29,33,227,42,37,32,064,43,1*7C
$GBGSV,4,4,14,30,08,177,,07,06,197,,1*77
$GBGSV,2,1,07,38,77,047,45,39,73,247,44,20,47,036,43,46,46,140,46,4*75
$GBGSV,2,2,07,19,41,322,27,29,33,227,37,37,32,064,43,4*47
$GNGGA,104100.000,2500.7941092,N,12132.4797717,E,4,49,0.58,15.910,M,15.25,M,4,3335*46
$GNRMC,104100.000,A,2500.7941092,N,12132.4797717,E,0.00,115.18,260623,,,R,V*1A
$GPHDT,1.746,T*31
$GNGGA,104100.200,2500.7941077,N,12132.4797739,E,4,49,0.58,15.915,M,15.25,M,4,3335*46
$GNRMC,104100.200,A,2500.7941077,N,12132.4797739,E,0.00,115.18,260623,,,R,V*1F
$GPHDT,1.250,T*33
$GNGGA,104100.400,2500.7941088,N,12132.4797690,E,4,49,0.58,15.908,M,15.25,M,4,3335*4E
$GNRMC,104100.400,A,2500.7941088,N,12132.4797690,E,0.00,115.18,260623,,,R,V*1B
$GPHDT,1.475,T*32
$GNGGA,104100.600,2500.7941104,N,12132.4797711,E,4,49,0.58,15.914,M,15.25,M,4,3335*4C
$GNRMC,104100.600,A,2500.7941104,N,12132.4797711,E,0.00,115.18,260623,,,R,V*14
$GPHDT,1.472,T*35
$GNGGA,104100.800,2500.7941087,N,12132.4797713,E,4,49,0.58,15.908,M,15.25,M,4,3335*47
$GNRMC,104100.800,A,2500.7941087,N,12132.4797713,E,0.00,115.18,260623,,,R,V*12
$GPHDT,1.671,T*34
$GNGSA,A,3,24,196,199,18,15,195,05,194,13,,,,1.17,0.58,1.02,1*0A
$GNGSA,A,3,85,80,84,79,69,,,,,,,,1.17,0.58,1.02,2*03
$GNGSA,A,3,13,08,15,07,03,,,,,,,,1.17,0.58,1.02,3*00
$GNGSA,A,3,38,39,08,16,06,13,20,09,46,19,29,37,1.17,0.58,1.02,4*09
$GPGSV,4,1,14,24,77,155,42,196,73,054,41,199,60,167,36,18,58,292,26,1*60
$GPGSV,4,2,14,15,48,024,44,195,42,178,43,23,34,325,15,05,31,099,32,1*5B
$GPGSV,4,3,14,194,23,143,21,13,21,043,39,29,11,212,12,20,11,117,,1*5E
$GPGSV,4,4,14,12,08,156,,10,04,307,,1*69
$GPGSV,2,1,06,24,77,155,47,196,73,054,43,199,60,167,45,18,58,292,35,8*6D
$GPGSV,2,2,06,195,42,178,41,194,23,143,23,8*61
$GLGSV,2,1,06,85,46,279,27,80,40,112,37,84,30,198,32,79,23,051,27,1*71
$GLGSV,2,2,06,69,20,051,27,73,16,168,22,1*7E
$GAGSV,3,1,09,13,66,269,40,08,54,004,43,15,40,173,37,07,39,280,30,7*7C
$GAGSV,3,2,09,26,21,319,,03,19,051,25,02,19,103,16,30,13,155,16,7*77
$GAGSV,3,3,09,25,05,057,,7*4A
$GAGSV,2,1,05,13,66,269,41,08,54,004,43,15,40,173,41,07,39,280,22,1*74
$GAGSV,2,2,05,03,19,051,23,1*4E
$GBGSV,3,1,12,38,77,047,43,39,73,247,42,08,68,007,39,16,65,229,42,1*71
$GBGSV,3,2,12,06,63,227,39,13,60,342,33,20,47,036,44,09,46,221,36,1*70
$GBGSV,3,3,12,46,46,140,44,19,41,322,24,29,33,227,42,37,32,064,43,1*72
$GBGSV,2,1,07,38,77,047,45,39,73,247,44,20,47,036,43,46,46,140,46,4*75
$GBGSV,2,2,07,19,41,322,27,29,33,227,37,37,32,064,42,4*46
$GNGGA,104101.000,2500.7941101,N,12132.4797684,E,4,49,0.58,15.904,M,15.25,M,5,3335*43
$GNRMC,104101.000,A,2500.7941101,N,12132.4797684,E,0.00,115.18,260623,,,R,V*1B
$GPHDT,1.629,T*39
$GNGGA,104101.200,2500.7941076,N,12132.4797716,E,4,49,0.58,15.905,M,15.25,M,5,3335*4B
$GNRMC,104101.200,A,2500.7941076,N,12132.4797716,E,0.00,115.18,260623,,,R,V*12
$GPHDT,1.267,T*37
$GNGGA,104101.400,2500.7941109,N,12132.4797686,E,4,49,0.58,15.900,M,15.25,M,5,3335*49
$GNRMC,104101.400,A,2500.7941109,N,12132.4797686,E,0.00,115.18,260623,,,R,V*15
$GPHDT,1.541,T*34
$GNGGA,104101.600,2500.7941092,N,12132.4797675,E,4,49,0.58,15.892,M,15.25,M,5,3335*4E
$GNRMC,104101.600,A,2500.7941092,N,12132.4797675,E,0.00,115.18,260623,,,R,V*18
$GPHDT,1.592,T*3A
$GNGGA,104101.800,2500.7941082,N,12132.4797676,E,4,49,0.58,15.898,M,15.25,M,5,3335*48
$GNRMC,104101.800,A,2500.7941082,N,12132.4797676,E,0.00,115.18,260623,,,R,V*14
$GPHDT,1.658,T*3F
$GNGSA,A,3,24,196,199,18,15,195,05,194,13,,,,1.17,0.58,1.02,1*0A
$GNGSA,A,3,85,80,84,79,69,,,,,,,,1.17,0.58,1.02,2*03
$GNGSA,A,3,13,08,15,07,03,,,,,,,,1.17,0.58,1.02,3*00
$GNGSA,A,3,38,39,08,16,06,13,20,09,46,19,29,37,1.17,0.58,1.02,4*09
$GPGSV,4,1,14,24,77,155,42,196,73,054,41,199,60,167,36,18,58,292,27,1*61
$GPGSV,4,2,14,15,48,024,44,195,42,178,43,23,34,325,17,05,31,099,31,1*5A
$GPGSV,4,3,14,194,23,143,20,13,21,043,39,29,11,212,12,20,11,117,,1*5F
$GPGSV,4,4,14,12,08,156,,10,04,307,,1*69
$GPGSV,2,1,06,24,77,155,47,196,73,054,43,199,60,167,45,18,58,292,35,8*6D
$GPGSV,2,2,06,195,42,178,41,194,23,143,20,8*62
$GLGSV,2,1,06,85,46,279,27,80,40,112,37,84,30,198,32,79,23,051,26,1*70
$GLGSV,2,2,06,69,20,051,27,73,16,168,21,1*7D
$GAGSV,3,1,09,13,66,269,40,08,54,004,43,15,40,173,37,07,39,280,30,7*7C
$GAGSV,3,2,09,26,21,319,,03,19,051,25,02,19,103,15,30,13,155,16,7*74
$GAGSV,3,3,09,25,05,057,,7*4A
$GAGSV,2,1,05,13,66,269,41,08,54,004,43,15,40,173,41,07,39,280,22,1*74
$GAGSV,2,2,05,03,19,051,23,1*4E
$GBGSV,3,1,12,38,77,047,43,39,73,247,42,08,68,007,39,16,65,229,42,1*71
$GBGSV,3,2,12,06,63,227,39,13,60,342,33,20,47,036,44,09,46,221,36,1*70
$GBGSV,3,3,12,46,46,140,44,19,41,322,22,29,33,227,42,37,32,064,43,1*74
$GBGSV,2,1,07,38,77,047,45,39,73,247,44,20,47,036,43,46,46,140,46,4*75
$GBGSV,2,2,07,19,41,322,27,29,33,227,36,37,32,064,42,4*47
$GNGGA,104102.000,2500.7941083,N,12132.4797687,E,4,49,0.58,15.895,M,15.25,M,6,3335*42
$GNRMC,104102.000,A,2500.7941083,N,12132.4797687,E,0.00,115.18,260623,,,R,V*10
$GPHDT,1.430,T*33
$GNGGA,104102.200,2500.7941086,N,12132.4797685,E,4,49,0.58,15.899,M,15.25,M,6,3335*4B
$GNRMC,104102.200,A,2500.7941086,N,12132.4797685,E,0.00,115.18,260623,,,R,V*15
$GPHDT,1.656,T*31
$GNGGA,104102.400,2500.7941069,N,12132.4797716,E,4,49,0.58,15.902,M,15.25,M,6,3335*44
$GNRMC,104102.400,A,2500.7941069,N,12132.4797716,E,0.00,115.18,260623,,,R,V*19
$GPHDT,1.025,T*33
$GNGGA,104102.600,2500.7941092,N,12132.4797696,E,4,48,0.58,15.899,M,15.25,M,6,3335*49
$GNRMC,104102.600,A,2500.7941092,N,12132.4797696,E,0.00,115.18,260623,,,R,V*16
$GPHDT,1.149,T*38
$GNGGA,104102.800,2500.7941097,N,12132.4797690,E,4,47,0.61,15.903,M,15.25,M,6,3335*43
$GNRMC,104102.800,A,2500.7941097,N,12132.4797690,E,0.00,115.18,260623,,,R,V*1B
$GPHDT,1.309,T*3E
$GNGSA,A,3,24,196,199,18,15,195,05,13,194,,,,1.17,0.58,1.02,1*0A
$GNGSA,A,3,85,80,84,79,69,,,,,,,,1.17,0.58,1.02,2*03
$GNGSA,A,3,13,08,15,07,03,,,,,,,,1.17,0.58,1.02,3*00
$GNGSA,A,3,38,39,08,16,06,13,20,09,46,19,29,37,1.17,0.58,1.02,4*09
$GPGSV,4,1,14,24,77,155,42,196,73,054,41,199,60,167,36,18,58,292,28,1*6E
$GPGSV,4,2,14,15,48,024,44,195,42,178,44,23,34,325,21,05,31,099,31,1*58
$GPGSV,4,3,14,194,23,143,16,13,21,043,39,29,11,212,,20,11,117,,1*59
$GPGSV,4,4,14,12,08,156,,10,04,307,,1*69
$GPGSV,2,1,06,24,77,155,47,196,73,054,43,199,60,167,45,18,58,292,35,8*6D
$GPGSV,2,2,06,195,42,178,41,194,23,143,22,8*60
$GLGSV,2,1,06,85,46,279,28,80,40,112,37,84,30,198,32,79,23,051,25,1*7C
$GLGSV,2,2,06,69,20,051,27,73,16,168,22,1*7E
$GAGSV,3,1,09,13,66,269,40,08,54,004,43,15,40,173,37,07,39,280,30,7*7C
$GAGSV,3,2,09,26,21,319,,03,19,051,25,02,19,103,15,30,13,155,15,7*77
$GAGSV,3,3,09,25,05,057,,7*4A
$GAGSV,2,1,05,13,66,269,41,08,54,004,43,15,40,173,42,07,39,280,22,1*77
$GAGSV,2,2,05,03,19,051,24,1*49
$GBGSV,3,1,12,38,77,047,43,39,73,247,42,08,68,007,39,16,65,229,42,1*71
$GBGSV,3,2,12,06,63,228,39,13,60,342,33,20,47,036,44,09,46,222,36,1*7C
$GBGSV,3,3,12,46,46,140,44,19,41,322,21,29,33,227,42,37,32,064,43,1*77
$GBGSV,2,1,07,38,77,047,45,39,73,247,44,20,47,036,43,46,46,140,46,4*75
$GBGSV,2,2,07,19,41,322,27,29,33,227,38,37,32,064,42,4*49
$GNGGA,104103.000,2500.7941089,N,12132.4797687,E,4,48,0.58,15.891,M,15.25,M,7,3335*4D
$GNRMC,104103.000,A,2500.7941089,N,12132.4797687,E,0.00,115.18,260623,,,R,V*1B
$GPHDT,1.361,T*30
$GNGGA,104103.200,2500.7941107,N,12132.4797652,E,4,48,0.58,15.893,M,15.25,M,7,3335*42
$GNRMC,104103.200,A,2500.7941107,N,12132.4797652,E,0.00,115.18,260623,,,R,V*16
$GPHDT,1.599,T*31
$GNGGA,104103.400,2500.7941077,N,12132.4797660,E,4,48,0.58,15.887,M,15.25,M,7,3335*46
$GNRMC,104103.400,A,2500.7941077,N,12132.4797660,E,0.00,115.18,260623,,,R,V*17
$GPHDT,1.406,T*36
$GNGGA,104103.600,2500.7941092,N,12132.4797665,E,4,48,0.58,15.892,M,15.25,M,7,3335*4E
$GNRMC,104103.600,A,2500.7941092,N,12132.4797665,E,0.00,115.18,260623,,,R,V*1B
$GPHDT,1.219,T*3E
$GNGGA,104103.800,2500.7941082,N,12132.4797651,E,4,48,0.58,15.883,M,15.25,M,7,3335*46
$GNRMC,104103.800,A,2500.7941082,N,12132.4797651,E,0.04,115.18,260623,,,R,V*17
$GPHDT,1.805,T*39
$GNGSA,A,3,24,196,199,18,15,195,05,13,194,,,,1.17,0.58,1.02,1*0A
$GNGSA,A,3,85,80,84,79,69,,,,,,,,1.17,0.58,1.02,2*03
$GNGSA,A,3,13,08,15,07,03,,,,,,,,1.17,0.58,1.02,3*00
$GNGSA,A,3,38,39,08,16,06,13,20,09,46,19,29,37,1.17,0.58,1.02,4*09
$GPGSV,4,1,14,24,77,155,42,196,73,054,41,199,60,167,36,18,58,292,29,1*6F
$GPGSV,4,2,14,15,48,024,44,195,42,178,44,23,34,325,22,05,31,099,30,1*5A
$GPGSV,4,3,14,194,23,143,15,13,21,043,39,29,11,212,,20,11,117,,1*5A
$GPGSV,4,4,14,12,08,156,,10,04,307,,1*69
$GPGSV,2,1,06,24,77,155,47,196,73,054,43,199,60,167,45,18,58,292,36,8*6E
$GPGSV,2,2,06,195,42,178,42,194,23,143,22,8*63
$GLGSV,2,1,06,85,46,279,27,80,40,112,37,84,30,198,32,79,23,051,23,1*75
$GLGSV,2,2,06,69,20,051,29,73,16,168,21,1*73
$GAGSV,3,1,09,13,66,269,40,08,54,004,43,15,40,173,37,07,39,280,30,7*7C
$GAGSV,3,2,09,26,21,319,,02,19,103,12,03,19,051,25,30,13,155,16,7*73
$GAGSV,3,3,09,25,05,057,,7*4A
$GAGSV,2,1,05,13,66,269,41,08,54,004,43,15,40,173,42,07,39,280,22,1*77
$GAGSV,2,2,05,03,19,051,25,1*48
$GBGSV,4,1,14,38,77,047,43,39,73,247,42,08,68,007,39,16,65,229,42,1*70
$GBGSV,4,2,14,06,63,228,39,13,60,342,33,20,47,036,44,09,46,222,36,1*7D
$GBGSV,4,3,14,46,46,140,44,19,41,322,19,29,33,227,42,37,32,064,43,1*7D
$GBGSV,4,4,14,10,05,207,,22,02,286,,1*7C
$GBGSV,2,1,07,38,77,047,45,39,73,247,44,20,47,036,43,46,46,140,46,4*75
$GBGSV,2,2,07,19,41,322,28,29,33,227,37,37,32,064,43,4*48
$GNGGA,104104.000,2500.7941105,N,12132.4797671,E,4,48,0.58,15.883,M,15.25,M,8,3335*4A
$GNRMC,104104.000,A,2500.7941105,N,12132.4797671,E,0.02,115.18,260623,,,R,V*12
$GPHDT,1.373,T*33
$GNGGA,104104.200,2500.7941087,N,12132.4797683,E,4,48,0.58,15.890,M,15.25,M,8,3335*4C
$GNRMC,104104.200,A,2500.7941087,N,12132.4797683,E,0.02,115.18,260623,,,R,V*16
$GPHDT,1.125,T*32
$GNGGA,104104.400,2500.7941076,N,12132.4797666,E,4,48,0.58,15.881,M,15.25,M,8,3335*4F
$GNRMC,104104.400,A,2500.7941076,N,12132.4797666,E,0.00,115.18,260623,,,R,V*17
$GPHDT,1.326,T*33
$GNGGA,104104.600,2500.7941084,N,12132.4797660,E,4,48,0.58,15.887,M,15.25,M,8,3335*40
$GNRMC,104104.600,A,2500.7941084,N,12132.4797660,E,0.00,115.18,260623,,,R,V*1E
$GPHDT,1.077,T*34
$GNGGA,104104.800,2500.7941101,N,12132.4797602,E,4,48,0.58,15.884,M,15.25,M,8,3335*45
$GNRMC,104104.800,A,2500.7941101,N,12132.4797602,E,0.01,115.18,260623,,,R,V*19
$GPHDT,1.293,T*3C
$GNGSA,A,3,24,196,199,18,15,195,05,13,194,,,,1.17,0.58,1.02,1*0A
$GNGSA,A,3,85,80,84,79,69,,,,,,,,1.17,0.58,1.02,2*03
$GNGSA,A,3,13,08,15,07,03,,,,,,,,1.17,0.58,1.02,3*00
$GNGSA,A,3,38,39,08,16,06,13,20,46,09,19,29,37,1.17,0.58,1.02,4*09
$GPGSV,4,1,13,24,77,155,42,196,73,054,41,199,60,167,36,18,58,292,30,1*60
$GPGSV,4,2,13,15,48,024,44,195,42,178,44,23,34,325,24,05,31,099,30,1*5B
$GPGSV,4,3,13,194,23,143,14,13,21,043,39,20,11,117,,29,11,212,15,1*58
$GPGSV,4,4,13,10,04,307,,1*57
$GPGSV,2,1,06,24,77,155,47,196,73,054,43,199,60,167,45,18,58,292,36,8*6E
$GPGSV,2,2,06,195,42,178,42,194,23,143,22,8*63
$GLGSV,2,1,06,85,46,279,26,80,40,112,37,84,30,198,31,79,23,051,21,1*75
$GLGSV,2,2,06,69,20,051,29,73,16,168,19,1*78
$GAGSV,2,1,08,13,66,269,40,08,54,004,43,15,40,173,37,07,39,280,29,7*74
$GAGSV,2,2,08,03,19,051,24,02,19,103,13,30,13,155,16,25,05,057,,7*7F
$GAGSV,2,1,05,13,66,269,41,08,54,004,43,15,40,173,42,07,39,280,21,1*74
$GAGSV,2,2,05,03,19,051,25,1*48
$GBGSV,4,1,15,38,77,047,43,39,73,247,42,08,68,007,39,16,65,229,42,1*71
$GBGSV,4,2,15,06,63,228,39,13,60,342,32,20,47,037,44,46,46,140,44,1*75
$GBGSV,4,3,15,09,46,222,35,19,41,322,20,29,33,227,38,37,32,064,43,1*71
$GBGSV,4,4,15,35,24,289,,36,17,187,,22,02,286,,1*42
$GBGSV,2,1,07,38,77,047,45,39,73,247,44,20,47,037,43,46,46,140,46,4*74
$GBGSV,2,2,07,19,41,322,26,29,33,227,29,37,32,064,43,4*49
$GNGGA,104105.000,2500.7941091,N,12132.4797641,E,4,48,0.58,15.888,M,15.25,M,9,3335*4E
$GNRMC,104105.000,A,2500.7941091,N,12132.4797641,E,0.01,115.18,260623,,,R,V*1F
$GPHDT,0.840,T*39
$GNGGA,104105.200,2500.7941099,N,12132.4797629,E,4,47,0.61,15.883,M,15.25,M,9,3335*44
$GNRMC,104105.200,A,2500.7941099,N,12132.4797629,E,0.00,115.18,260623,,,R,V*1A
$GPHDT,1.057,T*36
$GNGGA,104105.400,2500.7941079,N,12132.4797637,E,4,47,0.61,15.882,M,15.25,M,9,3335*42
$GNRMC,104105.400,A,2500.7941079,N,12132.4797637,E,0.01,115.18,260623,,,R,V*1C
$GPHDT,1.108,T*3D
$GNGGA,104105.600,2500.7941079,N,12132.4797645,E,4,47,0.61,15.890,M,15.25,M,9,3335*46
$GNRMC,104105.600,A,2500.7941079,N,12132.4797645,E,0.01,115.18,260623,,,R,V*1B
$GPHDT,1.270,T*31
$GNGGA,104105.800,2500.7941084,N,12132.4797626,E,4,47,0.61,15.884,M,15.25,M,9,3335*4A
$GNRMC,104105.800,A,2500.7941084,N,12132.4797626,E,0.09,115.18,260623,,,R,V*1A
$GPHDT,1.112,T*36
$GNGSA,A,3,24,196,199,18,15,195,05,194,13,,,,1.17,0.58,1.02,1*0A
$GNGSA,A,3,85,80,84,79,69,,,,,,,,1.17,0.58,1.02,2*03
$GNGSA,A,3,13,08,15,07,03,,,,,,,,1.17,0.58,1.02,3*00
$GNGSA,A,3,38,39,08,16,06,13,20,46,09,19,29,37,1.17,0.58,1.02,4*09
$GPGSV,4,1,14,24,77,155,42,196,73,054,41,199,60,167,36,18,58,292,31,1*66
$GPGSV,4,2,14,15,48,024,44,195,42,178,44,23,34,325,24,05,31,099,32,1*5E
$GPGSV,4,3,14,194,23,143,17,13,21,043,39,29,11,212,14,20,11,117,,1*5D
$GPGSV,4,4,14,12,08,156,,10,04,307,,1*69
$GPGSV,2,1,05,24,77,155,47,196,73,054,43,199,60,167,45,18,58,292,36,8*6D
$GPGSV,2,2,05,195,42,178,42,8*6B
$GLGSV,2,1,06,85,46,279,26,80,40,112,39,84,30,198,31,79,23,051,22,1*78
$GLGSV,2,2,06,69,20,051,29,73,16,168,21,1*73
$GAGSV,2,1,08,13,66,269,40,08,54,004,43,15,40,173,38,07,39,280,29,7*7B
$GAGSV,2,2,08,03,19,051,25,02,19,103,14,30,13,155,17,25,05,057,,7*78
$GAGSV,2,1,05,13,66,269,41,08,54,004,43,15,40,173,42,07,39,280,22,1*77
$GAGSV,2,2,05,03,19,051,25,1*48
$GBGSV,3,1,12,38,77,047,43,39,73,247,42,08,68,007,39,16,65,229,42,1*71
$GBGSV,3,2,12,06,63,228,39,13,60,342,32,20,47,037,44,46,46,140,44,1*75
$GBGSV,3,3,12,09,46,222,35,19,41,322,21,29,33,227,38,37,32,064,43,1*70
$GBGSV,2,1,07,38,77,047,45,39,73,247,44,20,47,037,43,46,46,140,46,4*74
$GBGSV,2,2,07,19,41,322,26,29,33,227,26,37,32,064,42,4*47
$GNGGA,104106.000,2500.7941064,N,12132.4797655,E,4,48,0.58,15.891,M,15.25,M,10,3335*72
$GNRMC,104106.000,A,2500.7941064,N,12132.4797655,E,0.02,115.18,260623,,,R,V*10
$GPHDT,1.259,T*3A
$GNGGA,104106.200,2500.7941072,N,12132.4797632,E,4,48,0.58,15.884,M,15.25,M,10,3335*72
$GNRMC,104106.200,A,2500.7941072,N,12132.4797632,E,0.01,115.18,260623,,,R,V*17
$GPHDT,1.320,T*35
$GNGGA,104106.400,2500.7941074,N,12132.4797611,E,4,48,0.58,15.881,M,15.25,M,10,3335*76
$GNRMC,104106.400,A,2500.7941074,N,12132.4797611,E,0.00,115.18,260623,,,R,V*17
$GPHDT,1.198,T*34
$GNGGA,104106.600,2500.7941073,N,12132.4797599,E,4,48,0.58,15.880,M,15.25,M,10,3335*71
$GNRMC,104106.600,A,2500.7941073,N,12132.4797599,E,0.02,115.18,260623,,,R,V*13
$GPHDT,1.651,T*36
$GNGGA,104106.800,2500.7941079,N,12132.4797604,E,4,48,0.58,15.876,M,15.25,M,10,3335*7B
$GNRMC,104106.800,A,2500.7941079,N,12132.4797604,E,0.01,115.18,260623,,,R,V*13
$GPHDT,2.224,T*33
$GNGSA,A,3,24,196,199,18,15,195,05,194,13,,,,1.17,0.58,1.02,1*0A
$GNGSA,A,3,85,80,84,79,69,,,,,,,,1.17,0.58,1.02,2*03
$GNGSA,A,3,13,08,15,07,03,,,,,,,,1.17,0.58,1.02,3*00
$GNGSA,A,3,38,39,08,16,06,13,20,46,09,19,29,37,1.17,0.58,1.02,4*09
$GPGSV,4,1,14,24,77,155,42,196,73,054,41,199,60,167,36,18,58,292,31,1*66
$GPGSV,4,2,14,15,48,024,44,195,42,178,44,23,34,325,24,05,31,099,32,1*5E
$GPGSV,4,3,14,194,23,143,17,13,21,043,39,29,11,212,14,20,11,117,,1*5D
$GPGSV,4,4,14,12,08,156,,10,04,307,,1*69
$GPGSV,2,1,05,24,77,155,47,196,73,054,43,199,60,167,45,18,58,292,37,8*6C
$GPGSV,2,2,05,195,42,178,42,8*6B
$GLGSV,2,1,06,85,46,279,26,80,40,112,39,84,30,198,31,79,23,051,21,1*7B
$GLGSV,2,2,06,69,20,051,30,73,16,168,21,1*7B
$GAGSV,2,1,08,13,66,269,40,08,54,004,43,15,40,173,38,07,39,280,29,7*7B
$GAGSV,2,2,08,03,19,051,25,02,19,103,14,30,13,155,17,25,05,057,,7*78
$GAGSV,2,1,05,13,66,269,41,08,54,004,43,15,40,173,42,07,39,280,21,1*74
$GAGSV,2,2,05,03,19,051,25,1*48
$GBGSV,3,1,12,38,77,047,43,39,73,247,42,08,68,007,39,16,65,229,42,1*71
$GBGSV,3,2,12,06,63,228,39,13,60,342,32,20,47,037,44,46,46,140,44,1*75
$GBGSV,3,3,12,09,46,222,35,19,41,322,19,29,33,226,41,37,32,064,42,1*75
$GBGSV,2,1,07,38,77,047,45,39,73,247,44,20,47,037,43,46,46,140,46,4*74
$GBGSV,2,2,07,19,41,322,26,29,33,226,31,37,32,064,42,4*40
$GNGGA,104107.000,2500.7941091,N,12132.4797603,E,4,48,0.58,15.869,M,15.25,M,11,3335*7C
$GNRMC,104107.000,A,2500.7941091,N,12132.4797603,E,0.00,115.18,260623,,,R,V*1A
$GPHDT,2.462,T*37
$GNGGA,104107.200,2500.7941073,N,12132.4797579,E,4,48,0.58,15.864,M,15.25,M,11,3335*71
$GNRMC,104107.200,A,2500.7941073,N,12132.4797579,E,0.01,115.18,260623,,,R,V*1B
$GPHDT,2.523,T*33
$GNGGA,104107.400,2500.7941081,N,12132.4797591,E,4,48,0.58,15.873,M,15.25,M,11,3335*7A
$GNRMC,104107.400,A,2500.7941081,N,12132.4797591,E,0.01,115.18,260623,,,R,V*16
$GPHDT,2.300,T*34
$GNGGA,104107.600,2500.7941083,N,12132.4797572,E,4,47,0.58,15.862,M,15.25,M,11,3335*78
$GNRMC,104107.600,A,2500.7941083,N,12132.4797572,E,0.01,115.18,260623,,,R,V*1B
$GPHDT,1.532,T*30
$GNGGA,104107.800,2500.7941087,N,12132.4797583,E,4,47,0.58,15.868,M,15.25,M,11,3335*76
$GNRMC,104107.800,A,2500.7941087,N,12132.4797583,E,0.00,115.18,260623,,,R,V*1E
$GPHDT,1.152,T*32
$GNGSA,A,3,24,196,199,18,15,195,05,194,13,,,,1.17,0.58,1.02,1*0A
$GNGSA,A,3,85,80,84,79,69,,,,,,,,1.17,0.58,1.02,2*03
$GNGSA,A,3,13,08,15,07,03,,,,,,,,1.17,0.58,1.02,3*00
$GNGSA,A,3,38,39,08,16,06,13,20,46,09,19,29,37,1.17,0.58,1.02,4*09
$GPGSV,4,1,14,24,77,155,42,196,73,054,41,199,60,167,35,18,58,292,32,1*66
$GPGSV,4,2,14,15,48,024,44,195,42,178,44,23,34,325,24,05,31,099,32,1*5E
$GPGSV,4,3,14,194,23,143,16,13,21,043,39,29,11,212,15,20,11,117,,1*5D
$GPGSV,4,4,14,12,08,156,,10,04,307,,1*69
$GPGSV,2,1,05,24,77,155,47,196,73,054,43,199,60,167,45,18,58,292,37,8*6C
$GPGSV,2,2,05,195,42,178,41,8*68
$GLGSV,2,1,06,85,46,279,26,80,40,112,39,84,30,198,32,79,23,051,21,1*78
$GLGSV,2,2,06,69,20,051,30,73,16,168,19,1*70
$GAGSV,2,1,08,13,66,269,39,08,54,004,43,15,40,173,37,07,39,280,29,7*7A
$GAGSV,2,2,08,03,19,051,25,02,19,103,15,30,13,155,17,25,05,057,15,7*7D
$GAGSV,1,1,04,13,66,269,40,08,54,004,43,15,40,173,41,03,19,051,25,1*78
$GBGSV,3,1,12,38,77,047,43,39,73,247,42,08,68,007,39,16,65,229,39,1*7D
$GBGSV,3,2,12,06,63,228,35,13,60,342,32,20,47,037,44,46,46,140,43,1*7E
$GBGSV,3,3,12,09,46,222,33,19,41,322,18,29,33,226,40,37,32,064,42,1*73
$GBGSV,2,1,07,38,77,047,45,39,73,247,44,20,47,037,43,46,46,140,46,4*74
$GBGSV,2,2,07,19,41,322,26,29,33,226,29,37,32,064,41,4*4A
$GNGGA,104108.000,2500.7941108,N,12132.4797626,E,4,47,0.58,15.873,M,15.25,M,12,3335*72
$GNRMC,104108.000,A,2500.7941108,N,12132.4797626,E,0.00,115.18,260623,,,R,V*13
$GPHDT,0.608,T*3B
$GNGGA,104108.200,2500.7941108,N,12132.4797629,E,4,47,0.58,15.867,M,15.25,M,12,3335*7A
$GNRMC,104108.200,A,2500.7941108,N,12132.4797629,E,0.01,115.18,260623,,,R,V*1F
$GPHDT,0.355,T*36
$GNGGA,104108.400,2500.7941089,N,12132.4797650,E,4,47,0.58,15.877,M,15.25,M,12,3335*7B
$GNRMC,104108.400,A,2500.7941089,N,12132.4797650,E,0.00,115.18,260623,,,R,V*1E
$GPHDT,0.732,T*33
$GNGGA,104108.600,2500.7941058,N,12132.4797661,E,4,47,0.58,15.878,M,15.25,M,12,3335*78
$GNRMC,104108.600,A,2500.7941058,N,12132.4797661,E,0.00,115.18,260623,,,R,V*12
$GPHDT,0.655,T*33
$GNGGA,104108.800,2500.7941099,N,12132.4797544,E,4,47,0.58,15.877,M,15.25,M,12,3335*70
$GNRMC,104108.800,A,2500.7941099,N,12132.4797544,E,0.02,115.18,260623,,,R,V*17
$GPHDT,0.454,T*30
$GNGSA,A,3,24,196,199,18,15,195,05,194,13,,,,1.17,0.58,1.02,1*0A
$GNGSA,A,3,85,80,84,79,69,,,,,,,,1.17,0.58,1.02,2*03
$GNGSA,A,3,13,08,15,07,03,,,,,,,,1.17,0.58,1.02,3*00
$GNGSA,A,3,38,39,08,16,06,13,20,46,09,19,29,37,1.17,0.58,1.02,4*09
$GPGSV,4,1,14,24,77,155,36,196,73,054,41,199,60,167,33,18,58,292,32,1*63
$GPGSV,4,2,14,15,48,024,43,195,42,178,41,23,34,325,23,05,31,099,31,1*58
$G