$FW : RTK35X,V1.1X0314AS,Lib20210517,1*54
$Tool : LOCOSYS , GNSS Firebird , v1.0.0.19*39
$---------------------------------------------------*2D
,13,06,63,228,42,13,60,342,35,46,47,139,39,20,47,038,43,1*75
$GBGSV,4,3,13,09,46,222,38,19,41,323,31,37,32,063,47,29,32,226,44,1*73
$GBGSV,4,4,13,36,17,187,33,1*49
$GBGSV,2,1,08,38,78,048,46,39,73,248,45,20,47,038,44,46,47,139,43,4*74
$GBGSV,2,2,08,19,41,323,16,29,32,226,38,37,32,063,42,36,17,187,29,4*74
$GNGGA,104302.000,2500.7941021,N,12132.4797696,E,4,50,0.55,15.866,M,15.25,M,1,3335*46
$GNRMC,104302.000,A,2500.7941021,N,12132.4797696,E,0.02,301.88,260623,,,R,V*16
$GPHDT,,T*1B
$GNGGA,104302.200,2500.7941027,N,12132.4797699,E,4,50,0.55,15.867,M,15.25,M,1,3335*4C
$GNRMC,104302.200,A,2500.7941027,N,12132.4797699,E,0.02,301.88,260623,,,R,V*1D
$GPHDT,,T*1B
$GNGGA,104302.400,2500.7941002,N,12132.4797741,E,4,50,0.55,15.887,M,15.25,M,1,3335*47
$GNRMC,104302.400,A,2500.7941002,N,12132.4797741,E,0.02,301.88,260623,,,R,V*18
$GPHDT,,T*1B
$GNGGA,104302.600,2500.7940988,N,12132.4797747,E,4,49,0.55,15.864,M,15.25,M,0,3335*4D
$GNRMC,104302.600,A,2500.7940988,N,12132.4797747,E,0.02,301.88,260623,,,R,V*16
$GPHDT,,T*1B
$GNGGA,104302.800,2500.7941007,N,12132.4797766,E,4,49,0.55,15.883,M,15.25,M,0,3335*46
$GNRMC,104302.800,A,2500.7941007,N,12132.4797766,E,0.02,301.88,260623,,,R,V*14
$GPHDT,,T*1B
$GNGSA,A,3,24,196,199,18,15,195,05,13,23,194,,,1.07,0.55,0.92,1*0F
$GNGSA,A,3,85,80,84,79,69,73,,,,,,,1.07,0.55,0.92,2*03
$GNGSA,A,3,13,08,15,07,03,,,,,,,,1.07,0.55,0.92,3*04
$GNGSA,A,3,38,39,08,16,06,13,46,20,09,19,37,29,1.07,0.55,0.92,4*0D
$GPGSV,4,1,15,24,78,152,44,196,73,055,41,199,60,167,38,18,59,290,37,1*63
$GPGSV,4,2,15,15,47,025,41,45,47,231,33,195,42,178,42,23,34,326,15,1*57
$GPGSV,4,3,15,05,31,100,33,194,24,143,16,13,21,044,39,29,11,211,19,1*50
$GPGSV,4,4,15,20,10,118,,12,08,156,,10,05,308,,1*5D
$GPGSV,2,1,07,24,78,152,47,196,73,055,44,199,60,167,46,18,59,290,39,8*6E
$GPGSV,2,2,07,195,42,178,42,23,34,326,19,194,24,143,26,8*58
$GLGSV,2,1,07,85,46,277,16,80,41,111,32,70,38,341,,84,29,198,30,1*75
$GLGSV,2,2,07,79,23,050,28,69,20,052,25,73,16,168,18,1*47
$GAGSV,2,1,07,13,66,266,38,08,54,005,43,15,40,173,38,07,40,282,18,7*7B
$GAGSV,2,2,07,02,19,102,19,03,18,052,23,30,14,154,15,7*4B
$GAGSV,1,1,03,13,66,266,42,08,54,005,44,15,40,173,43,1*4E
$GBGSV,4,1,13,38,78,048,42,39,73,248,44,08,69,007,40,16,65,230,43,1*79
$GBGSV,4,2,13,06,63,228,42,13,60,342,35,46,47,139,41,20,47,038,43,1*7A
$GBGSV,4,3,13,09,46,222,38,19,41,323,31,37,32,063,47,29,32,226,44,1*73
$GBGSV,4,4,13,36,17,187,33,1*49
$GBGSV,2,1,08,38,78,048,46,39,73,248,45,20,47,038,44,46,47,139,43,4*74
$GBGSV,2,2,08,19,41,323,16,29,32,226,38,37,32,063,40,36,17,187,28,4*77
$GNGGA,104303.000,2500.7940999,N,12132.4797744,E,4,48,0.55,15.869,M,15.25,M,1,3335*44
$GNRMC,104303.000,A,2500.7940999,N,12132.4797744,E,0.02,301.88,260623,,,R,V*12
$GPHDT,,T*1B
$GNGGA,104303.200,2500.7941004,N,12132.4797735,E,4,48,0.55,15.869,M,15.25,M,1,3335*4C
$GNRMC,104303.200,A,2500.7941004,N,12132.4797735,E,0.02,301.88,260623,,,R,V*1A
$GPHDT,178.236,T*3C
$GNGGA,104303.400,2500.7940991,N,12132.4797758,E,4,48,0.55,15.888,M,15.25,M,1,3335*4A
$GNRMC,104303.400,A,2500.7940991,N,12132.4797758,E,0.02,301.88,260623,,,R,V*13
$GPHDT,178.757,T*3E
$GNGGA,104303.600,2500.7940998,N,12132.4797754,E,4,48,0.55,15.885,M,15.25,M,1,3335*40
$GNRMC,104303.600,A,2500.7940998,N,12132.4797754,E,0.02,301.88,260623,,,R,V*14
$GPHDT,178.805,T*36
$GNGGA,104303.800,2500.7941018,N,12132.4797708,E,4,48,0.55,15.874,M,15.25,M,0,3335*48
$GNRMC,104303.800,A,2500.7941018,N,12132.4797708,E,0.02,301.88,260623,,,R,V*13
$GPHDT,178.310,T*39
$GNGSA,A,3,24,196,199,18,15,195,23,05,13,194,,,1.07,0.55,0.92,1*0F
$GNGSA,A,3,85,80,84,79,69,73,,,,,,,1.07,0.55,0.92,2*03
$GNGSA,A,3,13,08,07,15,03,,,,,,,,1.07,0.55,0.92,3*04
$GNGSA,A,3,38,39,08,16,06,13,46,20,09,19,37,29,1.07,0.55,0.92,4*0D
$GPGSV,4,1,15,24,78,152,44,196,73,055,41,199,60,167,38,18,59,290,37,1*63
$GPGSV,4,2,15,15,47,025,41,45,47,231,33,195,42,178,41,23,34,326,15,1*54
$GPGSV,4,3,15,05,31,100,32,194,24,143,15,13,21,044,40,29,11,211,19,1*5C
$GPGSV,4,4,15,20,10,118,,12,08,156,,10,05,308,,1*5D
$GPGSV,2,1,07,24,78,152,47,196,73,055,44,199,60,167,45,18,59,290,39,8*6D
$GPGSV,2,2,07,195,42,178,42,23,34,326,22,194,24,143,25,8*53
$GLGSV,2,1,06,85,46,277,16,80,41,111,35,84,29,198,30,79,23,050,26,1*77
$GLGSV,2,2,06,69,20,052,24,73,16,168,17,1*78
$GAGSV,2,1,07,13,66,266,38,08,54,005,44,07,40,282,19,15,40,173,38,7*7D
$GAGSV,2,2,07,02,19,102,20,03,18,052,23,30,14,154,16,7*42
$GAGSV,1,1,03,13,66,266,42,08,54,005,44,15,40,173,44,1*49
$GBGSV,4,1,13,38,78,048,42,39,73,248,44,08,69,007,40,16,65,230,43,1*79
$GBGSV,4,2,13,06,63,228,42,13,60,342,34,46,47,139,43,20,47,038,43,1*79
$GBGSV,4,3,13,09,46,222,38,19,41,323,31,37,32,063,47,29,32,226,44,1*73
$GBGSV,4,4,13,36,17,187,33,1*49
$GBGSV,2,1,08,38,78,048,46,39,73,248,45,20,47,038,45,46,47,139,43,4*75
$GBGSV,2,2,08,19,41,323,17,29,32,226,38,37,32,063,42,36,17,187,28,4*74
$GNGGA,104304.000,2500.7941018,N,12132.4797740,E,4,49,0.55,15.886,M,15.25,M,1,3335*46
$GNRMC,104304.000,A,2500.7941018,N,12132.4797740,E,0.02,301.88,260623,,,R,V*10
$GPHDT,178.723,T*3D
$GNGGA,104304.200,2500.7941017,N,12132.4797734,E,4,48,0.55,15.877,M,15.25,M,1,3335*47
$GNRMC,104304.200,A,2500.7941017,N,12132.4797734,E,0.02,301.88,260623,,,R,V*1E
$GPHDT,178.722,T*3C
$GNGGA,104304.400,2500.7941008,N,12132.4797727,E,4,48,0.55,15.877,M,15.25,M,1,3335*4D
$GNRMC,104304.400,A,2500.7941008,N,12132.4797727,E,0.02,301.88,260623,,,R,V*14
$GPHDT,178.454,T*3E
$GNGGA,104304.600,2500.7941019,N,12132.4797711,E,4,48,0.55,15.877,M,15.25,M,0,3335*4B
$GNRMC,104304.600,A,2500.7941019,N,12132.4797711,E,0.02,301.88,260623,,,R,V*13
$GPHDT,177.993,T*37
$GNGGA,104304.800,2500.7941022,N,12132.4797715,E,4,49,0.55,15.873,M,15.25,M,0,3335*4C
$GNRMC,104304.800,A,2500.7941022,N,12132.4797715,E,0.02,301.88,260623,,,R,V*11
$GPHDT,178.389,T*39
$GNGSA,A,3,24,196,199,18,15,195,05,194,13,23,,,1.07,0.55,0.92,1*0F
$GNGSA,A,3,85,80,84,79,69,73,,,,,,,1.07,0.55,0.92,2*03
$GNGSA,A,3,13,08,07,15,03,,,,,,,,1.07,0.55,0.92,3*04
$GNGSA,A,3,38,39,08,16,06,13,46,20,09,19,37,29,1.07,0.55,0.92,4*0D
$GPGSV,4,1,15,24,78,152,44,196,73,055,41,199,60,167,37,18,59,290,37,1*6C
$GPGSV,4,2,15,15,47,025,41,45,47,231,33,195,42,178,41,23,34,326,14,1*55
$GPGSV,4,3,15,05,31,100,29,194,24,143,18,13,21,044,39,29,11,211,17,1*5B
$GPGSV,4,4,15,20,10,118,,12,08,156,,10,05,308,,1*5D
$GPGSV,2,1,07,24,78,152,47,196,73,055,44,199,60,167,46,18,59,290,39,8*6E
$GPGSV,2,2,07,195,42,178,42,23,34,326,25,194,24,143,20,8*51
$GLGSV,2,1,06,85,46,277,14,80,41,111,30,84,29,198,30,79,23,050,26,1*70
$GLGSV,2,2,06,69,20,052,23,73,16,168,18,1*70
$GAGSV,2,1,08,13,66,266,38,08,54,005,44,07,40,282,19,15,40,173,38,7*72
$GAGSV,2,2,08,26,22,319,,02,19,102,20,03,18,052,21,30,14,154,16,7*70
$GAGSV,1,1,03,13,66,266,42,08,54,005,44,15,40,173,44,1*49
$GBGSV,4,1,13,38,78,048,42,39,73,248,44,08,69,007,40,16,65,230,43,1*79
$GBGSV,4,2,13,06,63,228,42,13,60,342,33,46,47,139,42,20,47,038,43,1*7F
$GBGSV,4,3,13,09,46,222,38,19,41,323,31,37,32,063,47,29,32,226,44,1*73
$GBGSV,4,4,13,36,17,187,32,1*48
$GBGSV,2,1,08,38,78,048,46,39,73,248,45,20,47,038,45,46,47,139,43,4*75
$GBGSV,2,2,08,19,41,323,17,29,32,226,38,37,32,063,42,36,17,187,26,4*7A
$GNGGA,104305.000,2500.7941009,N,12132.4797759,E,4,49,0.55,15.874,M,15.25,M,1,3335*42
$GNRMC,104305.000,A,2500.7941009,N,12132.4797759,E,0.02,301.88,260623,,,R,V*19
$GPHDT,178.662,T*39
$GNGGA,104305.200,2500.7941042,N,12132.4797743,E,4,48,0.55,15.887,M,15.25,M,1,3335*49
$GNRMC,104305.200,A,2500.7941042,N,12132.4797743,E,0.02,301.88,260623,,,R,V*1F
$GPHDT,178.625,T*3A
$GNGGA,104305.400,2500.7941031,N,12132.4797738,E,4,48,0.55,15.873,M,15.25,M,1,3335*4C
$GNRMC,104305.400,A,2500.7941031,N,12132.4797738,E,0.01,301.88,260623,,,R,V*12
$GPHDT,178.299,T*39
$GNGGA,104305.600,2500.7941000,N,12132.4797747,E,4,48,0.56,15.878,M,15.25,M,0,3335*4D
$GNRMC,104305.600,A,2500.7941000,N,12132.4797747,E,0.02,301.88,260623,,,R,V*19
$GPHDT,178.261,T*3E
$GNGGA,104305.800,2500.7941017,N,12132.4797750,E,4,48,0.56,15.892,M,15.25,M,0,3335*47
$GNRMC,104305.800,A,2500.7941017,N,12132.4797750,E,0.02,301.88,260623,,,R,V*17
$GPHDT,178.261,T*3E
$GNGSA,A,3,24,196,199,18,15,195,05,194,13,23,,,1.09,0.56,0.93,1*03
$GNGSA,A,3,80,84,79,69,73,,,,,,,,1.09,0.56,0.93,2*02
$GNGSA,A,3,13,08,15,07,03,,,,,,,,1.09,0.56,0.93,3*08
$GNGSA,A,3,38,39,08,16,06,13,46,20,09,19,37,29,1.09,0.56,0.93,4*01
$GPGSV,4,1,15,24,78,152,44,196,73,055,41,199,60,167,37,18,59,290,37,1*6C
$GPGSV,4,2,15,15,47,025,41,45,47,231,33,195,42,178,41,23,34,326,16,1*57
$GPGSV,4,3,15,05,31,100,34,194,24,143,20,13,21,044,39,29,11,211,17,1*5C
$GPGSV,4,4,15,20,10,118,,12,08,156,,10,05,308,,1*5D
$GPGSV,2,1,07,24,78,152,47,196,73,055,44,199,60,167,46,18,59,290,39,8*6E
$GPGSV,2,2,07,195,42,178,42,23,34,326,25,194,24,143,18,8*5A
$GLGSV,2,1,08,85,46,277,15,80,41,111,31,84,29,198,30,79,23,050,27,1*7F
$GLGSV,2,2,08,69,20,052,23,86,17,323,,73,16,168,18,71,14,292,,1*7E
$GAGSV,2,1,08,13,66,266,38,08,54,005,44,15,40,173,38,07,40,282,19,7*72
$GAGSV,2,2,08,26,22,319,,02,19,102,19,03,18,052,22,30,14,154,17,7*78
$GAGSV,1,1,04,13,66,266,42,08,54,005,43,07,40,282,20,15,40,173,44,1*70
$GBGSV,4,1,13,38,78,048,42,39,73,248,44,08,69,007,40,16,65,230,43,1*79
$GBGSV,4,2,13,06,63,228,42,13,60,342,34,46,47,139,42,20,47,038,43,1*78
$GBGSV,4,3,13,09,46,222,38,19,41,323,31,37,32,063,47,29,32,226,44,1*73
$GBGSV,4,4,13,36,17,187,32,1*48
$GBGSV,2,1,07,38,78,048,46,39,73,248,45,20,47,038,45,46,47,139,43,4*7A
$GBGSV,2,2,07,29,32,226,38,37,32,063,42,36,17,187,27,4*4D
$GNGGA,104306.000,2500.7941026,N,12132.4797735,E,4,48,0.56,15.890,M,15.25,M,1,3335*4E
$GNRMC,104306.000,A,2500.7941026,N,12132.4797735,E,0.02,301.88,260623,,,R,V*1D
$GPHDT,178.639,T*37
$GNGGA,104306.200,2500.7940992,N,12132.4797720,E,4,48,0.56,15.896,M,15.25,M,1,3335*49
$GNRMC,104306.200,A,2500.7940992,N,12132.4797720,E,0.02,301.88,260623,,,R,V*1C
$GPHDT,178.392,T*33
$GNGGA,104306.400,2500.7941027,N,12132.4797707,E,4,48,0.56,15.881,M,15.25,M,1,3335*4A
$GNRMC,104306.400,A,2500.7941027,N,12132.4797707,E,0.02,301.88,260623,,,R,V*19
$GPHDT,178.000,T*3B
$GNGGA,104306.600,2500.7941037,N,12132.4797687,E,4,48,0.56,15.880,M,15.25,M,1,3335*41
$GNRMC,104306.600,A,2500.7941037,N,12132.4797687,E,0.02,301.88,260623,,,R,V*13
$GPHDT,178.133,T*3A
$GNGGA,104306.800,2500.7941017,N,12132.4797708,E,4,48,0.56,15.874,M,15.25,M,0,3335*41
$GNRMC,104306.800,A,2500.7941017,N,12132.4797708,E,0.02,301.88,260623,,,R,V*19
$GPHDT,178.045,T*3A
$GNGSA,A,3,24,196,199,18,15,195,05,194,13,23,,,1.09,0.56,0.93,1*03
$GNGSA,A,3,80,84,79,69,73,,,,,,,,1.09,0.56,0.93,2*02
$GNGSA,A,3,13,08,15,07,03,,,,,,,,1.09,0.56,0.93,3*08
$GNGSA,A,3,38,39,08,16,06,13,46,20,09,19,29,37,1.09,0.56,0.93,4*01
$GPGSV,4,1,15,24,78,152,44,196,73,055,41,199,60,167,37,18,59,290,37,1*6C
$GPGSV,4,2,15,15,47,025,41,45,47,231,33,195,42,178,41,23,34,326,16,1*57
$GPGSV,4,3,15,05,31,100,35,194,24,143,17,13,21,044,39,29,11,211,17,1*59
$GPGSV,4,4,15,20,10,118,,12,08,156,,10,05,308,,1*5D
$GPGSV,2,1,07,24,78,152,47,196,73,055,44,199,60,167,46,18,59,290,39,8*6E
$GPGSV,2,2,07,195,42,178,42,23,34,326,25,194,24,143,18,8*5A
$GLGSV,2,1,07,85,46,277,16,80,41,111,35,84,29,198,30,79,23,050,26,1*76
$GLGSV,2,2,07,69,20,052,20,73,16,168,18,71,14,292,,1*48
$GAGSV,2,1,08,13,66,266,38,08,54,005,44,15,40,173,38,07,40,282,19,7*72
$GAGSV,2,2,08,26,22,319,,02,19,102,19,03,18,052,22,30,14,154,16,7*79
$GAGSV,1,1,04,13,66,266,42,08,54,005,43,07,40,282,18,15,40,173,44,1*7B
$GBGSV,4,1,13,38,78,048,42,39,73,248,44,08,69,007,40,16,65,230,43,1*79
$GBGSV,4,2,13,06,63,228,42,13,60,342,35,46,47,139,42,20,47,038,43,1*79
$GBGSV,4,3,13,09,46,222,38,19,41,323,31,29,32,226,44,37,32,063,47,1*73
$GBGSV,4,4,13,36,17,187,31,1*4B
$GBGSV,2,1,07,38,78,048,46,39,73,248,45,20,47,038,45,46,47,139,42,4*7B
$GBGSV,2,2,07,29,32,226,38,37,32,063,42,36,17,187,27,4*4D
$GNGGA,104307.000,2500.7941021,N,12132.4797723,E,4,48,0.56,15.881,M,15.25,M,1,3335*4F
$GNRMC,104307.000,A,2500.7941021,N,12132.4797723,E,0.02,301.88,260623,,,R,V*1C
$GPHDT,178.593,T*34
$GNGGA,104307.200,2500.7940992,N,12132.4797730,E,4,48,0.56,15.871,M,15.25,M,1,3335*40
$GNRMC,104307.200,A,2500.7940992,N,12132.4797730,E,0.02,301.88,260623,,,R,V*1C
$GPHDT,178.555,T*3E
$GNGGA,104307.400,2500.7940994,N,12132.4797742,E,4,48,0.56,15.870,M,15.25,M,1,3335*44
$GNRMC,104307.400,A,2500.7940994,N,12132.4797742,E,0.02,301.88,260623,,,R,V*19
$GPHDT,178.891,T*3B
$GNGGA,104307.600,2500.7940987,N,12132.4797727,E,4,48,0.56,15.866,M,15.25,M,1,3335*40
$GNRMC,104307.600,A,2500.7940987,N,12132.4797727,E,0.02,301.88,260623,,,R,V*1A
$GPHDT,178.609,T*34
$GNGGA,104307.800,2500.7941003,N,12132.4797722,E,4,49,0.56,15.872,M,15.25,M,1,3335*4B
$GNRMC,104307.800,A,2500.7941003,N,12132.4797722,E,0.02,301.88,260623,,,R,V*15
$GPHDT,178.149,T*37
$GNGSA,A,3,24,196,199,18,15,195,05,194,13,23,,,1.09,0.56,0.93,1*03
$GNGSA,A,3,80,84,79,69,73,,,,,,,,1.09,0.56,0.93,2*02
$GNGSA,A,3,13,08,07,15,03,,,,,,,,1.09,0.56,0.93,3*08
$GNGSA,A,3,38,39,08,16,06,13,46,20,09,19,37,29,1.09,0.56,0.93,4*01
$GPGSV,4,1,15,24,78,152,45,196,73,055,41,199,60,167,37,18,59,290,37,1*6D
$GPGSV,4,2,15,15,47,025,41,45,47,231,33,195,42,178,42,23,34,326,15,1*57
$GPGSV,4,3,15,05,31,100,36,194,24,143,25,13,21,044,39,29,11,211,17,1*5B
$GPGSV,4,4,15,20,10,118,,12,08,156,,10,05,308,,1*5D
$GPGSV,2,1,07,24,78,152,47,196,73,055,44,199,60,167,46,18,59,290,39,8*6E
$GPGSV,2,2,07,195,42,178,42,23,34,326,26,194,24,143,15,8*54
$GLGSV,2,1,06,85,46,277,16,80,41,111,34,84,29,198,30,79,23,050,26,1*76
$GLGSV,2,2,06,69,20,052,18,73,17,168,15,1*74
$GAGSV,2,1,08,13,66,266,38,08,54,005,44,07,40,282,19,15,40,173,38,7*72
$GAGSV,2,2,08,26,22,319,,02,19,102,19,03,18,052,22,30,14,154,16,7*79
$GAGSV,1,1,04,13,66,266,42,08,54,005,43,07,40,282,19,15,40,173,43,1*7D
$GBGSV,4,1,13,38,78,048,43,39,73,248,44,08,69,007,40,16,65,230,43,1*78
$GBGSV,4,2,13,06,63,228,42,13,60,342,35,46,47,139,39,20,47,038,43,1*75
$GBGSV,4,3,13,09,46,222,38,19,41,323,31,37,32,063,47,29,32,226,44,1*73
$GBGSV,4,4,13,36,17,187,31,1*4B
$GBGSV,2,1,08,38,78,048,46,39,73,248,45,20,47,038,45,46,47,139,42,4*74
$GBGSV,2,2,08,19,41,323,18,29,32,226,38,37,32,063,42,36,17,187,28,4*7B
$GNGGA,104308.000,2500.7941002,N,12132.4797744,E,4,49,0.56,15.873,M,15.25,M,1,3335*4C
$GNRMC,104308.000,A,2500.7941002,N,12132.4797744,E,0.00,301.88,260623,,,R,V*11
$GPHDT,178.301,T*39
$GNGGA,104308.200,2500.7940995,N,12132.4797738,E,4,50,0.55,15.871,M,15.25,M,1,3335*4A
$GNRMC,104308.200,A,2500.7940995,N,12132.4797738,E,0.00,301.88,260623,,,R,V*1E
$GPHDT,178.226,T*3D
$GNGGA,104308.400,2500.7940999,N,12132.4797728,E,4,50,0.55,15.870,M,15.25,M,1,3335*40
$GNRMC,104308.400,A,2500.7940999,N,12132.4797728,E,0.00,301.88,260623,,,R,V*15
$GPHDT,178.564,T*3C
$GNGGA,104308.600,2500.7940992,N,12132.4797749,E,4,50,0.55,15.876,M,15.25,M,1,3335*48
$GNRMC,104308.600,A,2500.7940992,N,12132.4797749,E,0.00,301.88,260623,,,R,V*1B
$GPHDT,178.757,T*3E
$GNGGA,104308.800,2500.7940993,N,12132.4797719,E,4,50,0.55,15.870,M,15.25,M,0,3335*45
$GNRMC,104308.800,A,2500.7940993,N,12132.4797719,E,0.00,301.88,260623,,,R,V*11
$GPHDT,178.389,T*39
$GNGSA,A,3,24,196,199,18,15,195,05,194,13,23,,,1.07,0.55,0.92,1*0F
$GNGSA,A,3,85,80,84,79,69,73,,,,,,,1.07,0.55,0.92,2*03
$GNGSA,A,3,13,08,07,15,03,,,,,,,,1.07,0.55,0.92,3*04
$GNGSA,A,3,38,39,08,16,06,13,46,20,09,19,29,37,1.07,0.55,0.92,4*0D
$GPGSV,4,1,15,24,78,152,45,196,73,055,41,199,60,167,37,18,59,290,36,1*6C
$GPGSV,4,2,15,15,47,025,41,45,47,231,33,195,42,178,41,23,34,326,16,1*57
$GPGSV,4,3,15,05,31,100,36,194,24,143,27,13,21,044,39,29,11,211,17,1*59
$GPGSV,4,4,15,20,10,118,,12,08,156,,10,05,308,,1*5D
$GPGSV,2,1,07,24,78,152,47,196,73,055,44,199,60,167,46,18,59,290,39,8*6E
$GPGSV,2,2,07,195,42,178,43,23,34,326,26,194,24,143,14,8*54
$GLGSV,2,1,06,85,46,277,16,80,41,111,34,84,29,198,30,79,23,050,26,1*76
$GLGSV,2,2,06,69,20,052,18,73,17,168,15,1*74
$GAGSV,3,1,09,13,66,266,38,08,54,005,44,07,40,282,19,15,40,173,38,7*72
$GAGSV,3,2,09,26,22,319,,02,19,102,16,03,18,052,23,30,14,154,15,7*74
$GAGSV,3,3,09,25,05,056,,7*4B
$GAGSV,1,1,04,13,66,266,42,08,54,005,43,07,40,282,20,15,40,173,43,1*77
$GBGSV,4,1,14,38,78,048,43,39,73,248,44,08,69,007,40,16,65,230,43,1*7F
$GBGSV,4,2,14,06,63,228,42,13,60,342,35,46,47,139,38,20,47,038,43,1*73
$GBGSV,4,3,14,09,46,222,38,19,41,323,31,29,32,226,44,37,32,063,47,1*74
$GBGSV,4,4,14,36,17,187,32,32,10,083,,1*74
$GBGSV,2,1,08,38,78,048,46,39,73,248,45,20,47,038,45,46,47,139,42,4*74
$GBGSV,2,2,08,19,41,323,19,29,32,226,39,37,32,063,41,36,17,187,27,4*77
$GNGGA,104309.000,2500.7940987,N,12132.4797714,E,4,50,0.55,15.871,M,15.25,M,1,3335*44
$GNRMC,104309.000,A,2500.7940987,N,12132.4797714,E,0.00,301.88,260623,,,R,V*10
$GPHDT,178.551,T*3A
$GNGGA,104309.200,2500.7940995,N,12132.4797741,E,4,50,0.56,15.882,M,15.25,M,1,3335*4A
$GNRMC,104309.200,A,2500.7940995,N,12132.4797741,E,0.00,301.88,260623,,,R,V*11
$GPHDT,178.676,T*3C
$GNGGA,104309.400,2500.7940997,N,12132.4797721,E,4,50,0.56,15.873,M,15.25,M,1,3335*46
$GNRMC,104309.400,A,2500.7940997,N,12132.4797721,E,0.00,301.88,260623,,,R,V*13
$GPHDT,178.548,T*32
$GNGGA,104309.600,2500.7941007,N,12132.4797739,E,4,49,0.56,15.879,M,15.25,M,0,3335*4F
$GNRMC,104309.600,A,2500.7941007,N,12132.4797739,E,0.00,301.88,260623,,,R,V*19
$GPHDT,178.498,T*3E
$GNGGA,104309.800,2500.7941003,N,12132.4797728,E,4,49,0.56,15.881,M,15.25,M,0,3335*42
$GNRMC,104309.800,A,2500.7941003,N,12132.4797728,E,0.00,301.88,260623,,,R,V*13
$GPHDT,178.613,T*3F
$GNGSA,A,3,24,196,199,18,15,195,05,194,13,23,,,1.13,0.56,0.98,1*03
$GNGSA,A,3,85,80,84,79,69,,,,,,,,1.13,0.56,0.98,2*0B
$GNGSA,A,3,13,08,15,07,03,,,,,,,,1.13,0.56,0.98,3*08
$GNGSA,A,3,38,39,08,16,06,13,46,20,09,19,37,29,1.13,0.56,0.98,4*01
$GPGSV,4,1,15,24,78,152,45,196,73,055,41,199,60,167,37,18,59,290,35,1*6F
$GPGSV,4,2,15,15,47,025,41,45,47,231,33,195,42,178,41,23,34,326,17,1*56
$GPGSV,4,3,15,05,31,100,36,194,24,143,24,13,21,044,38,29,11,211,18,1*54
$GPGSV,4,4,15,20,10,118,,12,08,156,,10,05,308,,1*5D
$GPGSV,2,1,06,24,78,152,47,196,73,055,43,199,60,167,46,18,59,290,39,8*68
$GPGSV,2,2,06,195,42,178,43,23,34,326,26,8*5C
$GLGSV,2,1,06,85,46,277,16,80,41,111,35,84,29,198,30,79,23,050,26,1*77
$GLGSV,2,2,06,69,20,052,16,73,17,168,13,1*7C
$GAGSV,2,1,08,13,66,266,38,08,54,005,44,15,40,173,38,07,40,282,19,7*72
$GAGSV,2,2,08,02,19,102,17,03,18,052,23,30,14,154,15,25,05,056,,7*7B
$GAGSV,1,1,04,13,66,266,42,08,54,005,43,15,40,173,43,07,40,282,21,1*76
$GBGSV,4,1,13,38,78,048,43,39,73,248,44,08,69,007,40,16,65,230,43,1*78
$GBGSV,4,2,13,06,63,228,42,13,60,342,35,46,47,139,38,20,47,038,43,1*74
$GBGSV,4,3,13,09,46,222,38,19,41,323,31,37,32,063,47,29,32,226,44,1*73
$GBGSV,4,4,13,36,17,187,32,1*48
$GBGSV,2,1,08,38,78,048,46,39,73,248,45,20,47,038,45,46,47,139,41,4*77
$GBGSV,2,2,08,19,41,323,20,29,32,226,39,37,32,063,41,36,17,187,27,4*7D
$GNGGA,104310.000,2500.7941003,N,12132.4797724,E,4,48,0.56,15.871,M,15.25,M,1,3335*41
$GNRMC,104310.000,A,2500.7941003,N,12132.4797724,E,0.00,301.88,260623,,,R,V*1F
$GPHDT,178.317,T*3E
$GNGGA,104310.200,2500.7940983,N,12132.4797732,E,4,48,0.56,15.883,M,15.25,M,1,3335*49
$GNRMC,104310.200,A,2500.7940983,N,12132.4797732,E,0.00,301.88,260623,,,R,V*1A
$GPHDT,178.590,T*37
$GNGGA,104310.400,2500.7941003,N,12132.4797740,E,4,48,0.56,15.878,M,15.25,M,1,3335*4E
$GNRMC,104310.400,A,2500.7941003,N,12132.4797740,E,0.00,301.88,260623,,,R,V*19
$GPHDT,178.432,T*3E
$GNGGA,104310.600,2500.7941031,N,12132.4797748,E,4,49,0.56,15.880,M,15.25,M,1,3335*43
$GNRMC,104310.600,A,2500.7941031,N,12132.4797748,E,0.00,301.88,260623,,,R,V*12
$GPHDT,178.774,T*3F
$GNGGA,104310.800,2500.7941002,N,12132.4797754,E,4,48,0.56,15.885,M,15.25,M,0,3335*45
$GNRMC,104310.800,A,2500.7941002,N,12132.4797754,E,0.00,301.88,260623,,,R,V*11
$GPHDT,178.507,T*39
$GNGSA,A,3,24,196,199,18,15,195,05,194,13,23,,,1.13,0.56,0.98,1*03
$GNGSA,A,3,85,80,84,79,69,,,,,,,,1.13,0.56,0.98,2*0B
$GNGSA,A,3,13,08,15,07,03,,,,,,,,1.13,0.56,0.98,3*08
$GNGSA,A,3,38,39,08,16,06,13,46,20,09,19,37,29,1.13,0.56,0.98,4*01
$GPGSV,4,1,15,24,78,152,45,196,73,055,41,199,60,167,37,18,59,290,36,1*6C
$GPGSV,4,2,15,15,47,025,41,45,47,231,33,195,42,178,41,23,34,326,17,1*56
$GPGSV,4,3,15,05,31,100,36,194,24,143,21,13,21,044,38,29,11,211,19,1*50
$GPGSV,4,4,15,20,10,118,,12,08,156,,10,05,308,,1*5D
$GPGSV,2,1,06,24,78,152,47,196,73,055,43,199,60,167,46,18,59,290,39,8*68
$GPGSV,2,2,06,195,42,178,42,23,34,326,26,8*5D
$GLGSV,2,1,06,85,46,277,17,80,41,111,35,84,29,198,30,79,23,050,28,1*78
$GLGSV,2,2,06,69,20,052,16,73,17,168,14,1*7B
$GAGSV,2,1,08,13,66,266,38,08,54,005,44,15,40,173,38,07,40,282,19,7*72
$GAGSV,2,2,08,02,19,102,18,03,18,052,23,30,14,154,13,25,05,056,,7*72
$GAGSV,1,1,04,13,66,266,42,08,54,005,43,15,40,173,43,07,40,282,21,1*76
$GBGSV,4,1,13,38,78,048,43,39,73,248,44,08,69,007,40,16,65,230,43,1*78
$GBGSV,4,2,13,06,63,228,42,13,60,342,35,46,47,139,39,20,47,038,44,1*72
$GBGSV,4,3,13,09,46,222,38,19,41,323,31,37,32,063,47,29,32,226,43,1*74
$GBGSV,4,4,13,36,17,187,32,1*48
$GBGSV,2,1,08,38,78,048,46,39,73,248,45,20,47,038,45,46,47,139,41,4*77
$GBGSV,2,2,08,19,41,323,20,29,32,226,39,37,32,063,40,36,17,187,28,4*73
$GNGGA,104311.000,2500.7940997,N,12132.4797776,E,4,48,0.56,15.889,M,15.25,M,1,3335*45
$GNRMC,104311.000,A,2500.7940997,N,12132.4797776,E,0.00,301.88,260623,,,R,V*1C
$GPHDT,178.523,T*3F
$GNGGA,104311.200,2500.7940975,N,12132.4797734,E,4,48,0.56,15.886,M,15.25,M,1,3335*42
$GNRMC,104311.200,A,2500.7940975,N,12132.4797734,E,0.00,301.88,260623,,,R,V*14
$GPHDT,178.445,T*3E
$GNGGA,104311.400,2500.7941020,N,12132.4797724,E,4,48,0.56,15.862,M,15.25,M,1,3335*47
$GNRMC,104311.400,A,2500.7941020,N,12132.4797724,E,0.00,301.88,260623,,,R,V*1B
$GPHDT,178.140,T*3E
$GNGGA,104311.600,2500.7941013,N,12132.4797752,E,4,48,0.56,15.875,M,15.25,M,1,3335*42
$GNRMC,104311.600,A,2500.7941013,N,12132.4797752,E,0.00,301.88,260623,,,R,V*18
$GPHDT,178.703,T*3F
$GNGGA,104311.800,2500.7941002,N,12132.4797754,E,4,48,0.56,15.881,M,15.25,M,1,3335*41
$GNRMC,104311.800,A,2500.7941002,N,12132.4797754,E,0.00,301.88,260623,,,R,V*10
$GPHDT,178.863,T*36
$GNGSA,A,3,24,196,199,18,15,195,05,194,13,23,,,1.13,0.56,0.98,1*03
$GNGSA,A,3,85,80,84,79,69,,,,,,,,1.13,0.56,0.98,2*0B
$GNGSA,A,3,13,08,07,15,03,,,,,,,,1.13,0.56,0.98,3*08
$GNGSA,A,3,38,39,08,16,06,13,20,46,09,19,29,37,1.13,0.56,0.98,4*01
$GPGSV,4,1,15,24,78,152,45,196,73,055,41,199,60,167,38,18,59,290,36,1*63
$GPGSV,4,2,15,45,47,231,33,15,47,025,41,195,42,178,41,23,34,326,17,1*56
$GPGSV,4,3,15,05,31,100,36,194,24,143,18,13,21,044,39,29,11,211,20,1*51
$GPGSV,4,4,15,20,10,118,,12,08,156,,10,05,308,,1*5D
$GPGSV,2,1,06,24,78,152,47,196,73,055,43,199,60,167,46,18,59,290,39,8*68
$GPGSV,2,2,06,195,42,178,42,23,34,326,26,8*5D
$GLGSV,2,1,06,85,46,277,17,80,41,111,35,84,29,198,30,79,23,050,29,1*79
$GLGSV,2,2,06,69,20,052,17,73,17,168,15,1*7B
$GAGSV,2,1,08,13,66,266,38,08,54,005,44,07,40,282,21,15,40,173,38,7*79
$GAGSV,2,2,08,02,19,102,19,03,18,052,22,30,14,154,14,25,05,056,,7*75
$GAGSV,1,1,04,13,66,266,42,08,54,005,43,15,40,173,43,07,40,282,21,1*76
$GBGSV,4,1,15,38,78,048,43,39,73,248,44,08,69,007,40,16,65,230,43,1*7E
$GBGSV,4,2,15,06,63,229,42,13,60,342,35,20,47,038,44,46,47,139,42,1*79
$GBGSV,4,3,15,09,46,222,38,19,41,323,30,29,32,226,43,37,32,063,44,1*70
$GBGSV,4,4,15,36,17,187,32,30,07,177,,22,03,287,,1*45
$GBGSV,2,1,08,38,78,048,46,39,73,248,45,20,47,038,45,46,47,139,43,4*75
$GBGSV,2,2,08,19,41,323,21,29,32,226,39,37,32,063,40,36,17,187,29,4*73
$GNGGA,104312.000,2500.7941001,N,12132.4797779,E,4,48,0.56,15.881,M,15.25,M,2,3335*45
$GNRMC,104312.000,A,2500.7941001,N,12132.4797779,E,0.00,301.88,260623,,,R,V*17
$GPHDT,179.118,T*32
$GNGGA,104312.200,2500.7940956,N,12132.4797759,E,4,47,0.57,15.901,M,15.25,M,2,3335*48
$GNRMC,104312.200,A,2500.7940956,N,12132.4797759,E,0.00,301.88,260623,,,R,V*1D
$GPHDT,178.981,T*3B
$GNGGA,104312.400,2500.7941003,N,12132.4797746,E,4,47,0.57,15.882,M,15.25,M,2,3335*42
$GNRMC,104312.400,A,2500.7941003,N,12132.4797746,E,0.00,301.88,260623,,,R,V*1D
$GPHDT,178.699,T*3D
$GNGGA,104312.600,2500.7940989,N,12132.4797755,E,4,47,0.57,15.879,M,15.25,M,2,3335*4C
$GNRMC,104312.600,A,2500.7940989,N,12132.4797755,E,0.00,301.88,260623,,,R,V*17
$GPHDT,178.592,T*35
$GNGGA,104312.800,2500.7941008,N,12132.4797743,E,4,48,0.56,15.872,M,15.25,M,2,3335*41
$GNRMC,104312.800,A,2500.7941008,N,12132.4797743,E,0.00,301.88,260623,,,R,V*1F
