$FW : RTK35X,V1.1X0314AS,Lib20210517,1*54
$Tool : LOCOSYS , GNSS Firebird , v1.0.0.19*39
$---------------------------------------------------*2D
$GPHDT,47.180,T*0F
$GNGGA,104018.600,2500.7940892,N,12132.4798481,E,4,45,0.62,15.837,M,15.25,M,39,3335*7D
$GNRMC,104018.600,A,2500.7940892,N,12132.4798481,E,0.05,115.18,260623,,,R,V*1B
$GPHDT,47.010,T*07
$GNGGA,104018.800,2500.7940906,N,12132.4798444,E,4,45,0.62,15.835,M,15.25,M,39,3335*74
$GNRMC,104018.800,A,2500.7940906,N,12132.4798444,E,0.06,115.18,260623,,,R,V*13
$GPHDT,47.246,T*06
$GNGSA,A,3,24,196,199,18,15,195,05,13,194,,,,1.21,0.62,1.04,1*00
$GNGSA,A,3,85,80,84,79,69,,,,,,,,1.21,0.62,1.04,2*09
$GNGSA,A,3,13,08,15,07,03,,,,,,,,1.21,0.62,1.04,3*0A
$GNGSA,A,3,38,39,08,16,06,13,20,46,09,29,37,,1.21,0.62,1.04,4*0B
$GPGSV,4,1,14,24,77,156,45,196,73,054,41,199,60,167,36,18,58,293,18,1*68
$GPGSV,4,2,14,50,50,134,39,15,48,023,38,195,42,178,44,23,33,325,20,1*5B
$GPGSV,4,3,14,05,31,099,39,194,23,143,17,13,22,043,40,29,11,212,17,1*5B
$GPGSV,4,4,14,20,11,117,,10,04,307,14,1*60
$GPGSV,2,1,07,24,77,156,47,196,73,054,43,199,60,167,45,18,58,293,34,8*6F
$GPGSV,2,2,07,195,42,178,43,23,33,325,24,194,23,143,22,8*50
$GLGSV,2,1,05,85,46,280,18,80,40,113,41,84,31,199,31,79,24,052,24,1*7C
$GLGSV,2,2,05,69,21,050,29,1*4F
$GAGSV,2,1,08,13,66,270,39,08,55,004,42,15,41,173,39,07,39,280,24,7*70
$GAGSV,2,2,08,02,19,103,,03,19,051,29,30,13,155,18,25,05,058,,7*71
$GAGSV,1,1,04,13,66,270,41,08,55,004,43,15,41,173,43,03,19,051,19,1*7C
$GBGSV,3,1,11,38,77,046,43,39,73,246,42,08,68,007,40,16,65,229,42,1*7C
$GBGSV,3,2,11,06,62,227,41,13,60,343,33,20,47,036,44,46,46,140,45,1*77
$GBGSV,3,3,11,09,46,221,39,29,33,227,41,37,32,065,40,1*4D
$GBGSV,2,1,06,38,77,046,45,39,73,246,44,20,47,036,44,46,46,140,45,4*70
$GBGSV,2,2,06,29,33,227,39,37,32,065,42,4*73
$GNGGA,104019.000,2500.7940902,N,12132.4798463,E,4,45,0.62,15.832,M,15.25,M,40,3335*75
$GNRMC,104019.000,A,2500.7940902,N,12132.4798463,E,0.03,115.18,260623,,,R,V*1E
$GPHDT,47.309,T*0C
$GNGGA,104019.200,2500.7940900,N,12132.4798477,E,4,45,0.62,15.828,M,15.25,M,40,3335*7B
$GNRMC,104019.200,A,2500.7940900,N,12132.4798477,E,0.04,115.18,260623,,,R,V*1C
$GPHDT,47.693,T*0A
$GNGGA,104019.400,2500.7940879,N,12132.4798463,E,4,45,0.62,15.827,M,15.25,M,40,3335*78
$GNRMC,104019.400,A,2500.7940879,N,12132.4798463,E,0.03,115.18,260623,,,R,V*17
$GPHDT,47.005,T*03
$GNGGA,104019.600,2500.7940887,N,12132.4798478,E,4,45,0.62,15.831,M,15.25,M,40,3335*76
$GNRMC,104019.600,A,2500.7940887,N,12132.4798478,E,0.01,115.18,260623,,,R,V*1C
$GPHDT,46.980,T*06
$GNGGA,104019.800,2500.7940907,N,12132.4798444,E,4,45,0.62,15.819,M,15.25,M,40,3335*74
$GNRMC,104019.800,A,2500.7940907,N,12132.4798444,E,0.00,115.18,260623,,,R,V*15
$GPHDT,47.240,T*00
$GNGSA,A,3,24,196,199,18,15,195,05,13,194,,,,1.21,0.62,1.04,1*00
$GNGSA,A,3,85,80,84,79,69,,,,,,,,1.21,0.62,1.04,2*09
$GNGSA,A,3,13,08,15,07,03,,,,,,,,1.21,0.62,1.04,3*0A
$GNGSA,A,3,38,39,08,16,06,13,20,46,09,29,37,,1.21,0.62,1.04,4*0B
$GPGSV,4,1,14,24,77,156,45,196,73,054,41,199,60,167,36,18,58,293,20,1*63
$GPGSV,4,2,14,50,50,134,39,15,48,023,40,195,42,178,44,23,33,325,18,1*5F
$GPGSV,4,3,14,05,31,099,39,194,23,143,15,13,22,043,40,29,11,212,17,1*59
$GPGSV,4,4,14,20,11,117,,10,04,307,14,1*60
$GPGSV,2,1,07,24,77,156,47,196,73,054,43,199,60,167,45,18,58,293,34,8*6F
$GPGSV,2,2,07,195,42,178,43,23,33,325,25,194,23,143,25,8*56
$GLGSV,2,1,05,85,46,280,18,80,40,113,41,84,31,199,31,79,24,052,26,1*7E
$GLGSV,2,2,05,69,21,050,28,1*4E
$GAGSV,2,1,08,13,66,269,39,08,55,004,44,15,41,173,39,07,39,280,23,7*79
$GAGSV,2,2,08,02,19,103,,03,19,051,28,30,13,155,18,25,05,058,,7*70
$GAGSV,1,1,04,13,66,269,41,08,55,004,43,15,41,173,43,03,19,051,16,1*7B
$GBGSV,3,1,11,38,77,046,43,39,73,246,42,08,68,007,40,16,65,229,41,1*7F
$GBGSV,3,2,11,06,62,227,40,13,60,343,33,20,47,036,44,46,46,140,45,1*76
$GBGSV,3,3,11,09,46,221,39,29,33,227,41,37,32,065,40,1*4D
$GBGSV,2,1,06,38,77,046,45,39,73,246,44,20,47,036,43,46,46,140,45,4*77
$GBGSV,2,2,06,29,33,227,39,37,32,065,43,4*72
$GNGGA,104020.000,2500.7940888,N,12132.4798462,E,4,45,0.62,15.820,M,15.25,M,41,3335*7F
$GNRMC,104020.000,A,2500.7940888,N,12132.4798462,E,0.02,115.18,260623,,,R,V*17
$GPHDT,47.194,T*0A
$GNGGA,104020.200,2500.7940914,N,12132.4798408,E,4,46,0.62,15.819,M,15.25,M,41,3335*7C
$GNRMC,104020.200,A,2500.7940914,N,12132.4798408,E,0.01,115.18,260623,,,R,V*1E
$GPHDT,47.690,T*09
$GNGGA,104020.400,2500.7940896,N,12132.4798461,E,4,45,0.62,15.833,M,15.25,M,41,3335*75
$GNRMC,104020.400,A,2500.7940896,N,12132.4798461,E,0.01,115.18,260623,,,R,V*1C
$GPHDT,47.353,T*03
$GNGGA,104020.600,2500.7940888,N,12132.4798440,E,4,45,0.62,15.835,M,15.25,M,41,3335*7D
$GNRMC,104020.600,A,2500.7940888,N,12132.4798440,E,0.01,115.18,260623,,,R,V*12
$GPHDT,47.717,T*07
$GNGGA,104020.800,2500.7940880,N,12132.4798498,E,4,45,0.62,15.824,M,15.25,M,41,3335*7E
$GNRMC,104020.800,A,2500.7940880,N,12132.4798498,E,0.12,115.18,260623,,,R,V*13
$GPHDT,47.883,T*05
$GNGSA,A,3,24,196,199,18,15,195,05,13,194,,,,1.21,0.62,1.04,1*00
$GNGSA,A,3,85,80,84,79,69,,,,,,,,1.21,0.62,1.04,2*09
$GNGSA,A,3,13,08,15,07,03,,,,,,,,1.21,0.62,1.04,3*0A
$GNGSA,A,3,38,39,08,16,06,13,20,46,09,29,37,,1.21,0.62,1.04,4*0B
$GPGSV,4,1,13,24,77,156,45,196,73,054,41,199,60,167,36,18,58,293,19,1*6E
$GPGSV,4,2,13,15,48,023,41,195,42,178,44,23,33,325,18,05,31,099,39,1*58
$GPGSV,4,3,13,194,23,143,17,13,22,043,40,29,11,212,17,20,11,117,,1*54
$GPGSV,4,4,13,10,04,307,13,1*55
$GPGSV,2,1,07,24,77,156,47,196,73,054,43,199,60,167,45,18,58,293,34,8*6F
$GPGSV,2,2,07,195,42,178,43,23,33,325,24,194,23,143,23,8*51
$GLGSV,2,1,05,85,46,280,18,80,40,113,40,84,31,199,30,79,24,052,29,1*71
$GLGSV,2,2,05,69,21,050,27,1*41
$GAGSV,2,1,08,13,66,269,39,08,55,004,43,15,41,173,39,07,39,280,23,7*7E
$GAGSV,2,2,08,03,19,051,28,02,19,103,,30,13,155,19,25,05,058,,7*71
$GAGSV,1,1,04,13,66,269,41,08,55,004,44,15,41,173,43,03,19,051,14,1*7E
$GBGSV,3,1,11,38,77,046,43,39,73,246,42,08,68,007,40,16,65,229,41,1*7F
$GBGSV,3,2,11,06,62,227,40,13,60,343,34,20,47,036,44,46,46,140,45,1*71
$GBGSV,3,3,11,09,46,221,39,29,33,227,40,37,32,065,40,1*4C
$GBGSV,2,1,06,38,77,046,45,39,73,246,44,20,47,036,43,46,46,140,45,4*77
$GBGSV,2,2,06,29,33,227,39,37,32,065,43,4*72
$GNGGA,104021.000,2500.7940891,N,12132.4798457,E,4,45,0.62,15.823,M,15.25,M,42,3335*70
$GNRMC,104021.000,A,2500.7940891,N,12132.4798457,E,0.01,115.18,260623,,,R,V*1B
$GPHDT,47.628,T*0A
$GNGGA,104021.200,2500.7940904,N,12132.4798435,E,4,45,0.62,15.817,M,15.25,M,42,3335*7C
$GNRMC,104021.200,A,2500.7940904,N,12132.4798435,E,0.03,115.18,260623,,,R,V*12
$GPHDT,47.594,T*0E
$GNGGA,104021.400,2500.7940919,N,12132.4798427,E,4,46,0.62,15.810,M,15.25,M,42,3335*71
$GNRMC,104021.400,A,2500.7940919,N,12132.4798427,E,0.02,115.18,260623,,,R,V*1A
$GPHDT,47.802,T*0C
$GNGGA,104021.600,2500.7940888,N,12132.4798542,E,4,46,0.62,15.828,M,15.25,M,42,3335*73
$GNRMC,104021.600,A,2500.7940888,N,12132.4798542,E,0.01,115.18,260623,,,R,V*10
$GPHDT,47.277,T*04
$GNGGA,104021.800,2500.7940899,N,12132.4798483,E,4,46,0.62,15.829,M,15.25,M,42,3335*70
$GNRMC,104021.800,A,2500.7940899,N,12132.4798483,E,0.03,115.18,260623,,,R,V*10
$GPHDT,46.978,T*01
$GNGSA,A,3,24,196,199,18,15,195,05,13,194,,,,1.21,0.62,1.04,1*00
$GNGSA,A,3,85,80,84,79,69,,,,,,,,1.21,0.62,1.04,2*09
$GNGSA,A,3,13,08,15,07,03,,,,,,,,1.21,0.62,1.04,3*0A
$GNGSA,A,3,38,39,08,16,06,13,20,46,09,29,37,,1.21,0.62,1.04,4*0B
$GPGSV,4,1,13,24,77,156,45,196,73,054,41,199,60,167,37,18,58,293,18,1*6E
$GPGSV,4,2,13,15,48,023,41,195,42,178,44,23,33,325,18,05,31,099,39,1*58
$GPGSV,4,3,13,194,23,143,17,13,22,043,40,29,11,212,17,20,11,117,,1*54
$GPGSV,4,4,13,10,04,307,13,1*55
$GPGSV,2,1,07,24,77,156,47,196,73,054,43,199,60,167,46,18,58,293,34,8*6C
$GPGSV,2,2,07,195,42,178,43,23,33,325,24,194,23,143,21,8*53
$GLGSV,2,1,05,85,46,280,19,80,40,113,41,84,31,199,30,79,24,052,29,1*71
$GLGSV,2,2,05,69,21,050,25,1*43
$GAGSV,2,1,07,13,66,269,39,08,55,004,43,15,41,173,39,07,39,280,23,7*71
$GAGSV,2,2,07,03,19,051,28,02,19,103,20,30,13,155,19,7*43
$GAGSV,1,1,04,13,66,269,42,08,55,004,44,15,41,173,43,03,19,051,16,1*7F
$GBGSV,3,1,11,38,77,046,43,39,73,246,42,08,68,007,41,16,65,229,41,1*7E
$GBGSV,3,2,11,06,62,227,40,13,60,343,34,20,47,036,44,46,46,140,46,1*72
$GBGSV,3,3,11,09,46,221,39,29,33,227,41,37,32,065,41,1*4C
$GBGSV,2,1,06,38,77,046,45,39,73,246,44,20,47,036,43,46,46,140,45,4*77
$GBGSV,2,2,06,29,33,227,39,37,32,065,44,4*75
$GNGGA,104022.000,2500.7940884,N,12132.4798525,E,4,45,0.62,15.833,M,15.25,M,43,3335*73
$GNRMC,104022.000,A,2500.7940884,N,12132.4798525,E,0.01,115.18,260623,,,R,V*18
$GPHDT,47.213,T*06
$GNGGA,104022.200,2500.7940882,N,12132.4798491,E,4,44,0.62,15.820,M,15.25,M,43,3335*7A
$GNRMC,104022.200,A,2500.7940882,N,12132.4798491,E,0.02,115.18,260623,,,R,V*11
$GPHDT,47.272,T*01
$GNGGA,104022.400,2500.7940877,N,12132.4798521,E,4,45,0.62,15.831,M,15.25,M,43,3335*7D
$GNRMC,104022.400,A,2500.7940877,N,12132.4798521,E,0.01,115.18,260623,,,R,V*14
$GPHDT,46.931,T*0C
$GNGGA,104022.600,2500.7940851,N,12132.4798588,E,4,45,0.62,15.840,M,15.25,M,43,3335*7E
$GNRMC,104022.600,A,2500.7940851,N,12132.4798588,E,0.02,115.18,260623,,,R,V*12
$GPHDT,46.990,T*07
$GNGGA,104022.800,2500.7940886,N,12132.4798505,E,4,45,0.62,15.830,M,15.25,M,43,3335*78
$GNRMC,104022.800,A,2500.7940886,N,12132.4798505,E,0.06,115.18,260623,,,R,V*17
$GPHDT,47.132,T*06
$GNGSA,A,3,24,196,199,18,15,195,05,13,194,,,,1.21,0.62,1.04,1*00
$GNGSA,A,3,85,80,84,79,69,,,,,,,,1.21,0.62,1.04,2*09
$GNGSA,A,3,13,08,15,07,03,,,,,,,,1.21,0.62,1.04,3*0A
$GNGSA,A,3,38,39,08,16,06,13,20,46,09,29,37,,1.21,0.62,1.04,4*0B
$GPGSV,4,1,13,24,77,156,45,196,73,054,41,199,60,167,37,18,58,293,17,1*61
$GPGSV,4,2,13,15,48,023,41,195,42,178,44,23,33,325,17,05,31,099,37,1*59
$GPGSV,4,3,13,194,23,143,16,13,22,043,40,29,11,212,17,20,11,117,,1*55
$GPGSV,4,4,13,10,04,307,13,1*55
$GPGSV,2,1,07,24,77,156,47,196,73,054,43,199,60,167,46,18,58,293,33,8*6B
$GPGSV,2,2,07,195,42,178,43,23,33,325,21,194,23,143,22,8*55
$GLGSV,2,1,05,85,46,280,16,80,40,113,41,84,31,199,29,79,24,052,29,1*76
$GLGSV,2,2,05,69,21,050,26,1*40
$GAGSV,2,1,07,13,66,269,39,08,55,004,43,15,41,173,40,07,39,280,24,7*78
$GAGSV,2,2,07,03,19,051,28,02,19,103,20,30,13,155,19,7*43
$GAGSV,1,1,04,13,66,269,42,08,55,004,44,15,41,173,43,03,19,051,15,1*7C
$GBGSV,3,1,11,38,77,046,43,39,73,246,42,08,68,007,41,16,65,229,41,1*7E
$GBGSV,3,2,11,06,62,227,40,13,60,343,34,20,47,036,44,46,46,140,46,1*72
$GBGSV,3,3,11,09,46,221,39,29,33,227,41,37,32,065,42,1*4F
$GBGSV,2,1,06,38,77,046,45,39,73,246,44,20,47,036,43,46,46,140,44,4*76
$GBGSV,2,2,06,29,33,227,39,37,32,065,43,4*72
$GNGGA,104023.000,2500.7940881,N,12132.4798524,E,4,45,0.62,15.837,M,15.25,M,44,3335*75
$GNRMC,104023.000,A,2500.7940881,N,12132.4798524,E,0.03,115.18,260623,,,R,V*1F
$GPHDT,47.022,T*06
$GNGGA,104023.200,2500.7940866,N,12132.4798525,E,4,45,0.62,15.821,M,15.25,M,44,3335*78
$GNRMC,104023.200,A,2500.7940866,N,12132.4798525,E,0.02,115.18,260623,,,R,V*14
$GPHDT,47.488,T*02
$GNGGA,104023.400,2500.7940890,N,12132.4798529,E,4,45,0.62,15.831,M,15.25,M,44,3335*7A
$GNRMC,104023.400,A,2500.7940890,N,12132.4798529,E,0.02,115.18,260623,,,R,V*17
$GPHDT,47.617,T*06
$GNGGA,104023.600,2500.7940893,N,12132.4798496,E,4,44,0.62,15.823,M,15.25,M,44,3335*7C
$GNRMC,104023.600,A,2500.7940893,N,12132.4798496,E,0.02,115.18,260623,,,R,V*13
$GPHDT,47.447,T*01
$GNGGA,104023.800,2500.7940867,N,12132.4798565,E,4,44,0.62,15.825,M,15.25,M,44,3335*72
$GNRMC,104023.800,A,2500.7940867,N,12132.4798565,E,0.00,115.18,260623,,,R,V*19
$GPHDT,47.650,T*05
$GNGSA,A,3,24,196,199,18,15,195,05,13,194,,,,1.21,0.62,1.04,1*00
$GNGSA,A,3,85,80,84,79,69,,,,,,,,1.21,0.62,1.04,2*09
$GNGSA,A,3,13,08,15,07,03,,,,,,,,1.21,0.62,1.04,3*0A
$GNGSA,A,3,38,39,08,16,06,13,20,46,09,29,37,,1.21,0.62,1.04,4*0B
$GPGSV,4,1,13,24,77,156,45,196,73,054,41,199,60,167,37,18,58,293,19,1*6F
$GPGSV,4,2,13,15,48,023,41,195,42,178,44,23,33,325,17,05,31,099,38,1*56
$GPGSV,4,3,13,194,23,143,14,13,22,043,40,29,11,212,17,20,11,117,,1*57
$GPGSV,4,4,13,10,04,307,13,1*55
$GPGSV,2,1,07,24,77,156,47,196,73,054,44,199,60,167,46,18,58,293,33,8*6C
$GPGSV,2,2,07,195,42,178,43,23,33,325,21,194,23,143,23,8*54
$GLGSV,2,1,05,85,46,280,14,80,40,113,40,84,31,199,29,79,24,052,28,1*74
$GLGSV,2,2,05,69,21,050,25,1*43
$GAGSV,2,1,07,13,66,269,39,08,55,004,43,15,41,173,40,07,39,280,24,7*78
$GAGSV,2,2,07,03,19,051,29,02,19,103,18,30,13,155,19,7*49
$GAGSV,1,1,03,13,66,269,42,08,55,004,44,15,41,173,43,1*40
$GBGSV,3,1,11,38,77,046,42,39,73,246,42,08,68,007,41,16,65,229,41,1*7F
$GBGSV,3,2,11,06,62,227,40,13,60,343,34,20,47,036,44,46,46,140,46,1*72
$GBGSV,3,3,11,09,46,221,39,29,33,227,41,37,32,065,42,1*4F
$GBGSV,2,1,06,38,77,046,45,39,73,246,44,20,47,036,43,46,46,140,45,4*77
$GBGSV,2,2,06,29,33,227,39,37,32,065,43,4*72
$GNGGA,104024.000,2500.7940879,N,12132.4798529,E,4,44,0.62,15.820,M,15.25,M,45,3335*7E
$GNRMC,104024.000,A,2500.7940879,N,12132.4798529,E,0.04,115.18,260623,,,R,V*15
$GPHDT,47.499,T*02
$GNGGA,104024.200,2500.7940896,N,12132.4798532,E,4,44,0.62,15.817,M,15.25,M,45,3335*73
$GNRMC,104024.200,A,2500.7940896,N,12132.4798532,E,0.01,115.18,260623,,,R,V*19
$GPHDT,47.436,T*07
$GNGGA,104024.400,2500.7940866,N,12132.4798534,E,4,43,0.65,15.820,M,15.25,M,45,3335*78
$GNRMC,104024.400,A,2500.7940866,N,12132.4798534,E,0.02,115.18,260623,,,R,V*15
$GPHDT,48.017,T*0F
$GNGGA,104024.600,2500.7940881,N,12132.4798508,E,4,43,0.65,15.823,M,15.25,M,45,3335*7F
$GNRMC,104024.600,A,2500.7940881,N,12132.4798508,E,0.01,115.18,260623,,,R,V*12
$GPHDT,47.396,T*0A
$GNGGA,104024.800,2500.7940877,N,12132.4798532,E,4,43,0.65,15.823,M,15.25,M,45,3335*71
$GNRMC,104024.800,A,2500.7940877,N,12132.4798532,E,0.04,115.18,260623,,,R,V*19
$GPHDT,47.774,T*02
$GNGSA,A,3,24,196,199,18,15,195,05,13,194,,,,1.24,0.65,1.06,1*00
$GNGSA,A,3,80,84,79,69,,,,,,,,,1.24,0.65,1.06,2*04
$GNGSA,A,3,13,08,15,07,03,,,,,,,,1.24,0.65,1.06,3*0A
$GNGSA,A,3,38,39,08,16,06,13,20,46,09,29,37,,1.24,0.65,1.06,4*0B
$GPGSV,4,1,13,24,77,156,45,196,73,054,41,199,60,167,36,18,58,293,21,1*65
$GPGSV,4,2,13,15,48,023,41,195,42,178,44,23,33,325,17,05,31,099,37,1*59
$GPGSV,4,3,13,194,23,143,14,13,22,043,40,29,11,212,17,20,11,117,,1*57
$GPGSV,4,4,13,10,04,307,14,1*52
$GPGSV,2,1,07,24,77,156,47,196,73,054,44,199,60,167,46,18,58,293,34,8*6B
$GPGSV,2,2,07,195,42,178,43,23,33,325,23,194,23,143,22,8*57
$GLGSV,2,1,05,85,46,280,17,80,40,113,40,84,31,199,29,79,24,052,28,1*77
$GLGSV,2,2,05,69,20,050,25,1*42
$GAGSV,2,1,07,13,66,269,39,08,55,004,43,15,41,173,40,07,39,280,23,7*7F
$GAGSV,2,2,07,03,19,051,29,02,19,103,18,30,13,155,19,7*49
$GAGSV,1,1,03,13,66,269,42,08,55,004,44,15,41,173,42,1*41
$GBGSV,3,1,11,38,77,046,42,39,73,246,42,08,68,007,41,16,65,229,41,1*7F
$GBGSV,3,2,11,06,62,227,40,13,60,343,34,20,47,036,44,46,46,140,46,1*72
$GBGSV,3,3,11,09,46,221,39,29,33,227,41,37,32,065,42,1*4F
$GBGSV,2,1,06,38,77,046,45,39,73,246,44,20,47,036,43,46,46,140,45,4*77
$GBGSV,2,2,06,29,33,227,38,37,32,065,44,4*74
$GNGGA,104025.000,2500.7941073,N,12132.4798382,E,4,43,0.65,15.833,M,15.25,M,46,3335*7A
$GNRMC,104025.000,A,2500.7941073,N,12132.4798382,E,0.01,115.18,260623,,,R,V*15
$GPHDT,47.402,T*00
$GNGGA,104025.200,2500.7941044,N,12132.4798346,E,4,43,0.65,15.814,M,15.25,M,46,3335*71
$GNRMC,104025.200,A,2500.7941044,N,12132.4798346,E,0.02,115.18,260623,,,R,V*18
$GPHDT,47.699,T*00
$GNGGA,104025.400,2500.7941086,N,12132.4798342,E,4,43,0.65,15.829,M,15.25,M,46,3335*73
$GNRMC,104025.400,A,2500.7941086,N,12132.4798342,E,0.01,115.18,260623,,,R,V*17
$GPHDT,47.173,T*03
$GNGGA,104025.600,2500.7941091,N,12132.4798364,E,4,43,0.65,15.828,M,15.25,M,46,3335*72
$GNRMC,104025.600,A,2500.7941091,N,12132.4798364,E,0.01,115.18,260623,,,R,V*17
$GPHDT,47.869,T*01
$GNGGA,104025.800,2500.7941080,N,12132.4798355,E,4,43,0.65,15.816,M,15.25,M,46,3335*73
$GNRMC,104025.800,A,2500.7941080,N,12132.4798355,E,0.11,115.18,260623,,,R,V*1A
$GPHDT,47.786,T*0F
$GNGSA,A,3,24,196,199,18,15,195,05,194,13,,,,1.24,0.65,1.06,1*00
$GNGSA,A,3,80,84,79,69,,,,,,,,,1.24,0.65,1.06,2*04
$GNGSA,A,3,13,08,15,07,03,,,,,,,,1.24,0.65,1.06,3*0A
$GNGSA,A,3,38,39,08,16,06,13,20,46,09,29,37,,1.24,0.65,1.06,4*0B
$GPGSV,4,1,13,24,77,156,44,196,73,054,41,199,60,167,36,18,58,293,21,1*64
$GPGSV,4,2,13,15,48,023,41,195,42,178,44,23,33,325,17,05,31,099,37,1*59
$GPGSV,4,3,13,194,23,143,16,13,22,043,40,29,11,212,17,20,11,117,,1*55
$GPGSV,4,4,13,10,04,307,14,1*52
$GPGSV,2,1,07,24,77,156,47,196,73,054,44,199,60,167,46,18,58,293,34,8*6B
$GPGSV,2,2,07,195,42,178,43,23,33,325,23,194,23,143,20,8*55
$GLGSV,2,1,05,85,46,280,15,80,40,113,40,84,31,199,29,79,24,052,25,1*78
$GLGSV,2,2,05,69,20,050,25,1*42
$GAGSV,2,1,07,13,66,269,39,08,55,004,43,15,41,173,39,07,39,280,22,7*70
$GAGSV,2,2,07,03,19,051,28,02,19,103,17,30,13,155,19,7*47
$GAGSV,1,1,03,13,66,269,41,08,55,004,44,15,41,173,42,1*42
$GBGSV,3,1,11,38,77,046,42,39,73,246,43,08,68,007,41,16,65,229,41,1*7E
$GBGSV,3,2,11,06,62,227,40,13,60,343,34,20,47,036,43,46,46,140,46,1*75
$GBGSV,3,3,11,09,46,221,39,29,33,227,41,37,32,065,42,1*4F
$GBGSV,2,1,06,38,77,046,45,39,73,246,44,20,47,036,43,46,46,140,45,4*77
$GBGSV,2,2,06,29,33,227,38,37,32,065,43,4*73
$GNGGA,104026.000,2500.7940891,N,12132.4798559,E,4,44,0.65,15.818,M,15.25,M,47,3335*73
$GNRMC,104026.000,A,2500.7940891,N,12132.4798559,E,0.01,115.18,260623,,,R,V*13
$GPHDT,47.878,T*01
$GNGGA,104026.200,2500.7940888,N,12132.4798564,E,4,44,0.65,15.818,M,15.25,M,47,3335*77
$GNRMC,104026.200,A,2500.7940888,N,12132.4798564,E,0.01,115.18,260623,,,R,V*17
$GPHDT,48.194,T*05
$GNGGA,104026.400,2500.7940885,N,12132.4798585,E,4,43,0.65,15.813,M,15.25,M,47,3335*7F
$GNRMC,104026.400,A,2500.7940885,N,12132.4798585,E,0.01,115.18,260623,,,R,V*13
$GPHDT,47.867,T*0F
$GNGGA,104026.600,2500.7940886,N,12132.4798500,E,4,43,0.65,15.812,M,15.25,M,47,3335*72
$GNRMC,104026.600,A,2500.7940886,N,12132.4798500,E,0.03,115.18,260623,,,R,V*1D
$GPHDT,47.955,T*0F
$GNGGA,104026.800,2500.7940875,N,12132.4798617,E,4,44,0.65,15.829,M,15.25,M,47,3335*7A
$GNRMC,104026.800,A,2500.7940875,N,12132.4798617,E,0.07,115.18,260623,,,R,V*1E
$GPHDT,47.347,T*06
$GNGSA,A,3,24,196,199,18,15,195,05,13,194,,,,1.21,0.62,1.04,1*00
$GNGSA,A,3,85,80,84,79,69,,,,,,,,1.21,0.62,1.04,2*09
$GNGSA,A,3,13,08,15,07,03,,,,,,,,1.21,0.62,1.04,3*0A
$GNGSA,A,3,38,39,08,16,06,13,20,46,09,29,37,,1.21,0.62,1.04,4*0B
$GPGSV,4,1,14,24,77,156,44,196,73,054,41,199,60,167,36,18,58,293,19,1*68
$GPGSV,4,2,14,15,48,023,41,195,42,178,44,41,38,241,,23,33,325,17,1*54
$GPGSV,4,3,14,05,31,099,37,194,23,143,15,13,22,043,40,29,11,212,17,1*57
$GPGSV,4,4,14,20,11,117,,10,04,307,14,1*60
$GPGSV,2,1,07,24,77,156,47,196,73,054,43,199,60,167,46,18,58,293,34,8*6C
$GPGSV,2,2,07,195,42,178,43,23,33,325,21,194,23,143,18,8*5C
$GLGSV,2,1,05,85,46,280,15,80,40,113,40,84,31,199,29,79,23,051,25,1*7C
$GLGSV,2,2,05,69,20,050,24,1*43
$GAGSV,2,1,07,13,66,269,40,08,55,004,43,15,41,173,39,07,39,280,22,7*7E
$GAGSV,2,2,07,02,19,103,17,03,19,051,27,30,13,155,19,7*48
$GAGSV,1,1,04,13,66,269,41,08,55,004,44,15,41,173,42,07,39,280,19,1*7A
$GBGSV,3,1,11,38,77,046,42,39,73,246,43,08,68,007,41,16,65,229,41,1*7E
$GBGSV,3,2,11,06,62,227,40,13,60,343,34,20,47,036,44,46,46,140,46,1*72
$GBGSV,3,3,11,09,46,221,39,29,33,227,41,37,32,065,42,1*4F
$GBGSV,2,1,06,38,77,046,44,39,73,246,44,20,47,036,43,46,46,140,45,4*76
$GBGSV,2,2,06,29,33,227,38,37,32,065,42,4*72
$GNGGA,104027.000,2500.7940877,N,12132.4798574,E,4,45,0.62,15.816,M,15.25,M,48,3335*72
$GNRMC,104027.000,A,2500.7940877,N,12132.4798574,E,0.01,115.18,260623,,,R,V*15
$GPHDT,47.318,T*0C
$GNGGA,104027.200,2500.7940859,N,12132.4798634,E,4,45,0.62,15.816,M,15.25,M,48,3335*7B
$GNRMC,104027.200,A,2500.7940859,N,12132.4798634,E,0.02,115.18,260623,,,R,V*1F
$GPHDT,47.247,T*07
$GNGGA,104027.400,2500.7940867,N,12132.4798595,E,4,46,0.62,15.826,M,15.25,M,48,3335*78
$GNRMC,104027.400,A,2500.7940867,N,12132.4798595,E,0.00,115.18,260623,,,R,V*1E
$GPHDT,47.044,T*06
$GNGGA,104027.600,2500.7940866,N,12132.4798628,E,4,46,0.62,15.810,M,15.25,M,48,3335*7B
$GNRMC,104027.600,A,2500.7940866,N,12132.4798628,E,0.01,115.18,260623,,,R,V*19
$GPHDT,47.167,T*06
$GNGGA,104027.800,2500.7940881,N,12132.4798612,E,4,45,0.62,15.809,M,15.25,M,48,3335*7E
$GNRMC,104027.800,A,2500.7940881,N,12132.4798612,E,0.04,115.18,260623,,,R,V*12
$GPHDT,47.308,T*0D
$GNGSA,A,3,24,196,199,18,15,195,05,13,194,,,,1.21,0.62,1.04,1*00
$GNGSA,A,3,85,80,84,79,69,,,,,,,,1.21,0.62,1.04,2*09
$GNGSA,A,3,13,08,15,07,03,,,,,,,,1.21,0.62,1.04,3*0A
$GNGSA,A,3,38,39,08,16,06,13,20,09,46,29,37,,1.21,0.62,1.04,4*0B
$GPGSV,4,1,14,24,77,156,44,196,73,054,41,199,60,167,36,18,58,293,17,1*66
$GPGSV,4,2,14,15,48,023,41,195,42,178,44,41,38,241,,23,33,325,17,1*54
$GPGSV,4,3,14,05,31,099,36,194,23,143,15,13,22,043,39,29,11,212,16,1*59
$GPGSV,4,4,14,20,11,117,,10,04,307,12,1*66
$GPGSV,2,1,07,24,77,156,47,196,73,054,43,199,60,167,46,18,58,293,34,8*6C
$GPGSV,2,2,07,195,42,178,43,23,33,325,21,194,23,143,23,8*54
$GLGSV,2,1,08,85,46,279,19,80,40,113,40,70,38,340,,84,31,199,30,1*74
$GLGSV,2,2,08,79,23,051,24,69,20,050,23,86,17,324,,73,15,169,,1*77
$GAGSV,2,1,08,13,66,269,40,08,55,004,43,15,41,173,39,07,39,280,24,7*77
$GAGSV,2,2,08,26,21,319,,02,19,103,17,03,19,051,26,30,13,155,18,7*7B
$GAGSV,1,1,04,13,66,269,42,08,55,004,44,15,41,173,42,07,39,280,20,1*73
$GBGSV,3,1,12,38,77,046,42,39,73,246,42,08,68,007,41,16,65,229,41,1*7C
$GBGSV,3,2,12,06,62,227,40,13,60,343,34,20,47,036,44,09,46,221,39,1*76
$GBGSV,3,3,12,46,46,140,46,19,40,322,,29,33,227,41,37,32,065,42,1*74
$GBGSV,2,1,06,38,77,046,44,39,73,246,44,20,47,036,43,46,46,140,45,4*76
$GBGSV,2,2,06,29,33,227,38,37,32,065,42,4*72
$GNGGA,104028.000,2500.7941076,N,12132.4798422,E,4,45,0.62,15.831,M,15.25,M,49,3335*73
$GNRMC,104028.000,A,2500.7941076,N,12132.4798422,E,0.00,115.18,260623,,,R,V*11
$GPHDT,47.218,T*0D
$GNGGA,104028.200,2500.7941072,N,12132.4798406,E,4,45,0.62,15.827,M,15.25,M,49,3335*74
$GNRMC,104028.200,A,2500.7941072,N,12132.4798406,E,0.01,115.18,260623,,,R,V*10
$GPHDT,46.991,T*06
$GNGGA,104028.400,2500.7941072,N,12132.4798443,E,4,45,0.62,15.823,M,15.25,M,49,3335*77
$GNRMC,104028.400,A,2500.7941072,N,12132.4798443,E,0.01,115.18,260623,,,R,V*17
$GPHDT,47.052,T*01
$GNGGA,104028.600,2500.7941094,N,12132.4798404,E,4,45,0.62,15.818,M,15.25,M,49,3335*76
$GNRMC,104028.600,A,2500.7941094,N,12132.4798404,E,0.00,115.18,260623,,,R,V*1F
$GPHDT,47.353,T*03
$GNGGA,104028.800,2500.7941120,N,12132.4798353,E,4,46,0.62,15.830,M,15.25,M,49,3335*7A
$GNRMC,104028.800,A,2500.7941120,N,12132.4798353,E,0.02,115.18,260623,,,R,V*18
$GPHDT,47.185,T*0A
$GNGSA,A,3,24,196,199,18,15,195,05,13,194,,,,1.21,0.62,1.04,1*00
$GNGSA,A,3,85,80,84,79,69,,,,,,,,1.21,0.62,1.04,2*09
$GNGSA,A,3,13,08,15,07,03,,,,,,,,1.21,0.62,1.04,3*0A
$GNGSA,A,3,38,39,08,16,06,13,20,09,46,29,37,,1.21,0.62,1.04,4*0B
$GPGSV,4,1,14,24,77,156,44,196,73,054,41,199,60,167,36,18,58,293,17,1*66
$GPGSV,4,2,14,15,48,023,41,195,42,178,44,41,38,241,30,23,33,325,17,1*57
$GPGSV,4,3,14,05,31,099,35,194,23,143,12,13,22,043,39,29,11,212,16,1*5D
$GPGSV,4,4,14,20,11,117,,10,04,307,11,1*65
$GPGSV,2,1,07,24,77,156,47,196,73,054,43,199,60,167,46,18,58,293,34,8*6C
$GPGSV,2,2,07,195,42,178,43,23,33,325,22,194,23,143,26,8*52
$GLGSV,3,1,09,85,46,279,18,80,40,113,40,70,38,340,,84,31,199,29,1*7D
$GLGSV,3,2,09,79,23,051,24,69,20,050,22,86,17,324,,73,15,169,,1*76
$GLGSV,3,3,09,71,14,291,,1*48
$GAGSV,3,1,09,13,66,269,40,08,55,004,43,15,41,173,39,07,39,280,24,7*77
$GAGSV,3,2,09,26,21,319,,03,19,051,26,02,19,103,16,30,13,155,18,7*7A
$GAGSV,3,3,09,25,05,057,,7*4A
$GAGSV,2,1,05,13,66,269,42,08,55,004,44,15,41,173,41,07,39,280,21,1*73
$GAGSV,2,2,05,03,19,051,19,1*47
$GBGSV,4,1,14,38,77,046,42,39,73,246,42,08,68,007,41,16,65,229,41,1*7D
$GBGSV,4,2,14,06,62,227,40,13,60,343,34,20,47,036,44,09,46,221,39,1*77
$GBGSV,4,3,14,46,46,140,46,19,40,322,29,29,33,227,41,37,32,065,42,1*7E
$GBGSV,4,4,14,30,08,177,,07,06,197,,1*77
$GBGSV,2,1,06,38,77,046,43,39,73,246,44,20,47,036,43,46,46,140,45,4*71
$GBGSV,2,2,06,29,33,227,38,37,32,065,42,4*72
$GNGGA,104029.000,2500.7941855,N,12132.4797386,E,4,46,0.62,15.924,M,15.25,M,50,3335*73
$GNRMC,104029.000,A,2500.7941855,N,12132.4797386,E,0.02,115.18,260623,,,R,V*1D
$GPHDT,47.337,T*01
$GNGGA,104029.200,2500.7941848,N,12132.4797388,E,4,46,0.62,15.919,M,15.25,M,50,3335*7D
$GNRMC,104029.200,A,2500.7941848,N,12132.4797388,E,0.01,115.18,260623,,,R,V*1E
$GPHDT,47.611,T*00
$GNGGA,104029.400,2500.7941836,N,12132.4797419,E,4,46,0.62,15.932,M,15.25,M,50,3335*74
$GNRMC,104029.400,A,2500.7941836,N,12132.4797419,E,0.01,115.18,260623,,,R,V*1E
$GPHDT,47.539,T*09
