$FW : RTK35X,V1.1X0314AS,Lib20210517,1*54
$Tool : LOCOSYS , GNSS Firebird , v1.0.0.19*39
$---------------------------------------------------*2D
$GPHDT,,T*1B
$GNGGA,104128.800,2500.7941085,N,12132.4797698,E,4,49,0.58,15.878,M,15.25,M,11,3335*7F
$GNRMC,104128.800,A,2500.7941085,N,12132.4797698,E,0.01,65.49,260623,,,R,V*2B
$GPHDT,,T*1B
$GNGSA,A,3,24,196,199,18,15,195,05,194,13,,,,1.17,0.58,1.02,1*0A
$GNGSA,A,3,85,80,84,79,69,,,,,,,,1.17,0.58,1.02,2*03
$GNGSA,A,3,13,08,15,07,03,,,,,,,,1.17,0.58,1.02,3*00
$GNGSA,A,3,38,39,08,16,06,13,20,09,46,19,29,37,1.17,0.58,1.02,4*09
$GPGSV,4,1,15,24,77,154,40,196,73,054,40,199,60,167,36,18,58,292,28,1*6D
$GPGSV,4,2,15,15,48,024,42,45,47,231,29,195,42,178,42,23,34,325,18,1*5F
$GPGSV,4,3,15,05,31,099,32,194,24,143,29,13,21,043,38,29,11,211,17,1*54
$GPGSV,4,4,15,20,11,117,,12,08,156,,10,04,308,,1*52
$GPGSV,2,1,06,24,77,154,46,196,73,054,44,199,60,167,46,18,58,292,38,8*64
$GPGSV,2,2,06,195,42,178,41,194,24,143,23,8*66
$GLGSV,2,1,08,85,46,279,23,80,40,112,39,84,30,198,32,79,23,051,23,1*71
$GLGSV,2,2,08,69,20,051,28,86,17,324,,73,16,168,20,71,14,291,,1*79
$GAGSV,3,1,09,13,66,268,40,08,54,004,43,15,40,173,35,07,39,281,24,7*7B
$GAGSV,3,2,09,26,22,319,,03,19,051,27,02,19,103,17,30,13,155,15,7*74
$GAGSV,3,3,09,25,05,057,,7*4A
$GAGSV,2,1,05,13,66,268,42,08,54,004,44,15,40,173,40,07,39,281,15,1*75
$GAGSV,2,2,05,03,19,051,21,1*4C
$GBGSV,4,1,13,38,78,047,43,39,73,247,42,08,68,007,40,16,65,229,42,1*76
$GBGSV,4,2,13,06,63,228,39,13,60,342,32,20,47,037,44,09,46,222,36,1*7A
$GBGSV,4,3,13,46,46,140,40,19,41,322,19,29,33,226,39,37,32,064,44,1*74
$GBGSV,4,4,13,58,,,27,1*7C
$GBGSV,2,1,07,38,78,047,45,39,73,247,45,20,47,037,45,46,46,140,45,4*7F
$GBGSV,2,2,07,19,41,322,28,29,33,226,36,37,32,064,42,4*49
$GNGGA,104129.000,2500.7941102,N,12132.4797668,E,4,49,0.58,15.862,M,15.25,M,12,3335*7F
$GNRMC,104129.000,A,2500.7941102,N,12132.4797668,E,0.01,65.49,260623,,,R,V*23
$GPHDT,,T*1B
$GNGGA,104129.200,2500.7941098,N,12132.4797675,E,4,49,0.58,15.863,M,15.25,M,12,3335*72
$GNRMC,104129.200,A,2500.7941098,N,12132.4797675,E,0.01,65.49,260623,,,R,V*2F
$GPHDT,,T*1B
$GNGGA,104129.400,2500.7941101,N,12132.4797660,E,4,48,0.58,15.865,M,15.25,M,12,3335*76
$GNRMC,104129.400,A,2500.7941101,N,12132.4797660,E,0.01,65.49,260623,,,R,V*2C
$GPHDT,,T*1B
$GNGGA,104129.600,2500.7941094,N,12132.4797675,E,4,48,0.58,15.869,M,15.25,M,12,3335*71
$GNRMC,104129.600,A,2500.7941094,N,12132.4797675,E,0.01,65.49,260623,,,R,V*27
$GPHDT,,T*1B
$GNGGA,104129.800,2500.7941082,N,12132.4797663,E,4,48,0.58,15.861,M,15.25,M,12,3335*77
$GNRMC,104129.800,A,2500.7941082,N,12132.4797663,E,0.01,65.49,260623,,,R,V*29
$GPHDT,,T*1B
$GNGSA,A,3,24,196,199,18,15,195,05,194,13,,,,1.17,0.58,1.02,1*0A
$GNGSA,A,3,85,80,84,79,69,,,,,,,,1.17,0.58,1.02,2*03
$GNGSA,A,3,13,08,15,07,03,,,,,,,,1.17,0.58,1.02,3*00
$GNGSA,A,3,38,39,08,16,06,13,20,09,46,19,29,37,1.17,0.58,1.02,4*09
$GPGSV,4,1,15,24,77,154,40,196,73,054,40,199,60,167,36,18,58,292,28,1*6D
$GPGSV,4,2,15,15,48,024,42,45,47,231,29,195,42,178,42,23,34,325,18,1*5F
$GPGSV,4,3,15,05,31,099,30,194,24,143,28,13,21,043,38,29,11,211,15,1*55
$GPGSV,4,4,15,20,11,117,,12,08,156,,10,04,308,,1*52
$GPGSV,2,1,06,24,77,154,46,196,73,054,44,199,60,167,46,18,58,292,38,8*64
$GPGSV,2,2,06,195,42,178,42,194,24,143,23,8*65
$GLGSV,2,1,08,85,46,279,21,80,40,112,39,84,30,198,32,79,23,051,25,1*75
$GLGSV,2,2,08,69,20,051,28,86,17,324,,73,16,168,23,71,14,292,,1*79
$GAGSV,3,1,09,13,66,268,40,08,54,004,43,15,40,173,35,07,39,281,24,7*7B
$GAGSV,3,2,09,26,22,319,,03,19,051,25,02,19,103,18,30,13,155,16,7*7A
$GAGSV,3,3,09,25,05,057,,7*4A
$GAGSV,1,1,04,13,66,268,42,08,54,004,44,15,40,173,40,03,19,051,20,1*78
$GBGSV,4,1,13,38,78,047,43,39,73,247,42,08,68,007,40,16,65,229,42,1*76
$GBGSV,4,2,13,06,63,228,39,13,60,342,32,20,47,037,44,09,46,222,36,1*7A
$GBGSV,4,3,13,46,46,140,40,19,41,322,20,29,33,226,39,37,32,064,44,1*7E
$GBGSV,4,4,13,58,,,25,1*7E
$GBGSV,2,1,07,38,78,047,45,39,73,247,45,20,47,037,45,46,46,140,45,4*7F
$GBGSV,2,2,07,19,41,322,28,29,33,226,36,37,32,064,42,4*49
$GNGGA,104130.000,2500.7941099,N,12132.4797654,E,4,48,0.58,15.856,M,15.25,M,13,3335*7C
$GNRMC,104130.000,A,2500.7941099,N,12132.4797654,E,0.01,65.49,260623,,,R,V*27
$GPHDT,,T*1B
$GNGGA,104130.200,2500.7941100,N,12132.4797644,E,4,48,0.58,15.863,M,15.25,M,13,3335*78
$GNRMC,104130.200,A,2500.7941100,N,12132.4797644,E,0.01,65.49,260623,,,R,V*25
$GPHDT,,T*1B
$GNGGA,104130.400,2500.7941094,N,12132.4797674,E,4,48,0.58,15.868,M,15.25,M,13,3335*7A
$GNRMC,104130.400,A,2500.7941094,N,12132.4797674,E,0.01,65.49,260623,,,R,V*2C
$GPHDT,,T*1B
$GNGGA,104130.600,2500.7941110,N,12132.4797643,E,4,48,0.58,15.863,M,15.25,M,13,3335*7A
$GNRMC,104130.600,A,2500.7941110,N,12132.4797643,E,0.01,65.49,260623,,,R,V*27
$GPHDT,,T*1B
$GNGGA,104130.800,2500.7941089,N,12132.4797678,E,4,48,0.58,15.864,M,15.25,M,13,3335*7A
$GNRMC,104130.800,A,2500.7941089,N,12132.4797678,E,0.01,65.49,260623,,,R,V*20
$GPHDT,,T*1B
$GNGSA,A,3,24,196,199,18,15,195,05,194,13,,,,1.17,0.58,1.02,1*0A
$GNGSA,A,3,85,80,84,79,69,,,,,,,,1.17,0.58,1.02,2*03
$GNGSA,A,3,13,08,15,07,03,,,,,,,,1.17,0.58,1.02,3*00
$GNGSA,A,3,38,39,08,16,06,13,20,09,46,19,29,37,1.17,0.58,1.02,4*09
$GPGSV,4,1,15,24,77,154,40,196,73,054,40,199,60,167,36,18,58,292,28,1*6D
$GPGSV,4,2,15,15,48,024,41,45,47,231,29,195,42,178,42,23,34,325,18,1*5C
$GPGSV,4,3,15,05,31,099,31,194,24,143,27,13,21,043,38,29,11,211,15,1*5B
$GPGSV,4,4,15,20,11,117,,12,08,156,,10,04,308,,1*52
$GPGSV,2,1,06,24,77,154,46,196,73,054,44,199,60,167,46,18,58,292,38,8*64
$GPGSV,2,2,06,195,42,178,42,194,24,143,22,8*64
$GLGSV,2,1,06,85,46,279,19,80,40,112,39,84,30,198,32,79,23,051,25,1*70
$GLGSV,2,2,06,69,20,051,28,73,16,168,25,1*76
$GAGSV,3,1,09,13,66,268,40,08,54,004,43,15,40,173,35,07,39,281,24,7*7B
$GAGSV,3,2,09,26,22,319,,03,19,051,25,02,19,103,18,30,13,155,17,7*7B
$GAGSV,3,3,09,25,05,057,,7*4A
$GAGSV,1,1,04,13,66,268,42,08,54,004,44,15,40,173,40,03,19,051,18,1*73
$GBGSV,4,1,13,38,78,047,43,39,73,247,42,08,68,007,40,16,65,229,42,1*76
$GBGSV,4,2,13,06,63,228,39,13,60,342,32,20,47,037,44,09,46,222,36,1*7A
$GBGSV,4,3,13,46,46,140,39,19,41,322,21,29,33,226,39,37,32,064,44,1*71
$GBGSV,4,4,13,58,,,25,1*7E
$GBGSV,2,1,07,38,78,047,45,39,73,247,45,20,47,037,45,46,46,140,45,4*7F
$GBGSV,2,2,07,19,41,322,28,29,33,226,36,37,32,064,42,4*49
$GNGGA,104131.000,2500.7941100,N,12132.4797645,E,4,48,0.58,15.854,M,15.25,M,14,3335*79
$GNRMC,104131.000,A,2500.7941100,N,12132.4797645,E,0.01,65.49,260623,,,R,V*27
$GPHDT,,T*1B
$GNGGA,104131.200,2500.7941110,N,12132.4797666,E,4,48,0.58,15.858,M,15.25,M,14,3335*77
$GNRMC,104131.200,A,2500.7941110,N,12132.4797666,E,0.01,65.49,260623,,,R,V*25
$GPHDT,,T*1B
$GNGGA,104131.400,2500.7941093,N,12132.4797686,E,4,49,0.58,15.857,M,15.25,M,14,3335*7B
$GNRMC,104131.400,A,2500.7941093,N,12132.4797686,E,0.01,65.49,260623,,,R,V*27
$GPHDT,,T*1B
$GNGGA,104131.600,2500.7941089,N,12132.4797693,E,4,49,0.58,15.863,M,15.25,M,14,3335*71
$GNRMC,104131.600,A,2500.7941089,N,12132.4797693,E,0.01,65.49,260623,,,R,V*2A
$GPHDT,,T*1B
$GNGGA,104131.800,2500.7941112,N,12132.4797664,E,4,48,0.58,15.861,M,15.25,M,14,3335*77
$GNRMC,104131.800,A,2500.7941112,N,12132.4797664,E,0.08,65.49,260623,,,R,V*26
$GPHDT,,T*1B
$GNGSA,A,3,24,196,199,18,15,195,05,194,13,,,,1.17,0.58,1.02,1*0A
$GNGSA,A,3,85,80,84,79,69,,,,,,,,1.17,0.58,1.02,2*03
$GNGSA,A,3,13,08,15,07,03,,,,,,,,1.17,0.58,1.02,3*00
$GNGSA,A,3,38,39,08,16,06,13,20,09,46,29,37,19,1.17,0.58,1.02,4*09
$GPGSV,4,1,15,24,77,154,41,196,73,054,40,199,60,167,36,18,58,292,27,1*63
$GPGSV,4,2,15,15,48,024,41,45,47,231,29,195,42,178,42,23,34,325,19,1*5D
$GPGSV,4,3,15,05,31,099,31,194,24,143,28,13,21,043,38,29,11,211,15,1*54
$GPGSV,4,4,15,20,11,117,,12,08,156,,10,04,308,,1*52
$GPGSV,2,1,06,24,77,154,46,196,73,054,44,199,60,167,46,18,58,292,38,8*64
$GPGSV,2,2,06,195,42,178,42,194,24,143,22,8*64
$GLGSV,2,1,06,85,46,279,18,80,40,112,39,84,30,198,32,79,23,051,28,1*7C
$GLGSV,2,2,06,69,20,051,27,73,16,168,25,1*79
$GAGSV,3,1,09,13,66,268,40,08,54,004,43,15,40,173,34,07,39,281,24,7*7A
$GAGSV,3,2,09,26,22,319,,03,19,051,25,02,19,103,18,30,13,155,17,7*7B
$GAGSV,3,3,09,25,05,057,,7*4A
$GAGSV,2,1,05,13,66,268,42,08,54,004,44,15,40,173,40,07,39,281,18,1*78
$GAGSV,2,2,05,03,19,051,19,1*47
$GBGSV,4,1,13,38,78,047,43,39,73,247,42,08,68,007,40,16,65,229,42,1*76
$GBGSV,4,2,13,06,63,228,39,13,60,342,32,20,47,037,45,09,46,222,36,1*7B
$GBGSV,4,3,13,46,46,140,39,19,41,322,22,29,33,226,40,37,32,064,44,1*7C
$GBGSV,4,4,13,58,,,25,1*7E
$GBGSV,2,1,07,38,78,047,45,39,73,247,45,20,47,037,45,46,46,140,45,4*7F
$GBGSV,2,2,07,19,41,322,29,29,33,226,36,37,32,064,42,4*48
$GNGGA,104132.000,2500.7941070,N,12132.4797668,E,4,48,0.58,15.852,M,15.25,M,15,3335*74
$GNRMC,104132.000,A,2500.7941070,N,12132.4797668,E,0.04,65.49,260623,,,R,V*28
$GPHDT,,T*1B
$GNGGA,104132.200,2500.7941093,N,12132.4797714,E,4,48,0.58,15.858,M,15.25,M,15,3335*7B
$GNRMC,104132.200,A,2500.7941093,N,12132.4797714,E,0.05,65.49,260623,,,R,V*2C
$GPHDT,,T*1B
$GNGGA,104132.400,2500.7941092,N,12132.4797674,E,4,48,0.58,15.856,M,15.25,M,15,3335*75
$GNRMC,104132.400,A,2500.7941092,N,12132.4797674,E,0.05,65.49,260623,,,R,V*2C
$GPHDT,,T*1B
$GNGGA,104132.600,2500.7941094,N,12132.4797656,E,4,48,0.58,15.853,M,15.25,M,15,3335*74
$GNRMC,104132.600,A,2500.7941094,N,12132.4797656,E,0.05,65.49,260623,,,R,V*28
$GPHDT,,T*1B
$GNGGA,104132.800,2500.7941068,N,12132.4797654,E,4,49,0.58,15.857,M,15.25,M,15,3335*7E
$GNRMC,104132.800,A,2500.7941068,N,12132.4797654,E,0.02,65.49,260623,,,R,V*20
$GPHDT,,T*1B
$GNGSA,A,3,24,196,199,18,15,195,05,194,13,,,,1.17,0.58,1.02,1*0A
$GNGSA,A,3,85,80,84,79,69,,,,,,,,1.17,0.58,1.02,2*03
$GNGSA,A,3,13,08,15,07,03,,,,,,,,1.17,0.58,1.02,3*00
$GNGSA,A,3,38,39,08,16,06,13,20,09,46,19,29,37,1.17,0.58,1.02,4*09
$GPGSV,4,1,15,24,77,154,41,196,73,054,40,199,60,167,36,18,58,292,24,1*60
$GPGSV,4,2,15,15,48,024,41,45,47,231,30,195,42,178,42,23,34,325,19,1*55
$GPGSV,4,3,15,05,31,099,33,194,24,143,27,13,21,043,38,29,11,211,15,1*59
$GPGSV,4,4,15,20,11,117,,12,08,156,,10,04,308,,1*52
$GPGSV,2,1,06,24,77,154,46,196,73,054,44,199,60,167,46,18,58,292,38,8*64
$GPGSV,2,2,06,195,42,178,42,194,24,143,21,8*67
$GLGSV,2,1,06,85,46,278,19,80,40,112,39,84,30,198,30,79,23,051,25,1*73
$GLGSV,2,2,06,69,20,051,29,73,16,168,25,1*77
$GAGSV,3,1,09,13,66,268,40,08,54,004,43,15,40,173,36,07,39,281,25,7*79
$GAGSV,3,2,09,26,22,319,16,03,19,051,25,02,19,103,18,30,13,155,17,7*7C
$GAGSV,3,3,09,25,05,057,,7*4A
$GAGSV,2,1,05,13,66,268,42,08,54,004,43,15,40,173,38,07,39,281,17,1*7F
$GAGSV,2,2,05,03,19,051,18,1*46
$GBGSV,4,1,13,38,78,047,43,39,73,247,42,08,68,007,40,16,65,229,42,1*76
$GBGSV,4,2,13,06,63,228,39,13,60,342,32,20,47,037,45,09,46,222,36,1*7B
$GBGSV,4,3,13,46,46,140,39,19,41,322,21,29,33,226,38,37,32,064,44,1*70
$GBGSV,4,4,13,58,,,26,1*7D
$GBGSV,2,1,07,38,78,047,45,39,73,247,45,20,47,037,45,46,46,140,45,4*7F
$GBGSV,2,2,07,19,41,322,29,29,33,226,37,37,32,064,42,4*49
$GNGGA,104133.000,2500.7941102,N,12132.4797624,E,4,49,0.58,15.843,M,15.25,M,16,3335*7B
$GNRMC,104133.000,A,2500.7941102,N,12132.4797624,E,0.01,65.49,260623,,,R,V*20
$GPHDT,,T*1B
$GNGGA,104133.200,2500.7941086,N,12132.4797615,E,4,49,0.58,15.846,M,15.25,M,16,3335*73
$GNRMC,104133.200,A,2500.7941086,N,12132.4797615,E,0.01,65.49,260623,,,R,V*2D
$GPHDT,,T*1B
$GNGGA,104133.400,2500.7941107,N,12132.4797609,E,4,49,0.58,15.845,M,15.25,M,16,3335*73
$GNRMC,104133.400,A,2500.7941107,N,12132.4797609,E,0.02,65.49,260623,,,R,V*2D
$GPHDT,,T*1B
$GNGGA,104133.600,2500.7941106,N,12132.4797619,E,4,49,0.58,15.845,M,15.25,M,16,3335*71
$GNRMC,104133.600,A,2500.7941106,N,12132.4797619,E,0.03,65.49,260623,,,R,V*2E
$GPHDT,,T*1B
$GNGGA,104133.800,2500.7941110,N,12132.4797599,E,4,49,0.58,15.842,M,15.25,M,16,3335*74
$GNRMC,104133.800,A,2500.7941110,N,12132.4797599,E,0.07,65.49,260623,,,R,V*28
$GPHDT,,T*1B
$GNGSA,A,3,24,196,199,18,15,195,05,194,13,,,,1.17,0.58,1.02,1*0A
$GNGSA,A,3,85,80,84,79,69,,,,,,,,1.17,0.58,1.02,2*03
$GNGSA,A,3,13,08,15,07,03,,,,,,,,1.17,0.58,1.02,3*00
$GNGSA,A,3,38,39,08,16,06,13,20,09,46,19,29,37,1.17,0.58,1.02,4*09
$GPGSV,4,1,15,24,77,154,41,196,73,054,40,199,60,167,36,18,58,292,24,1*60
$GPGSV,4,2,15,15,48,024,41,45,47,231,30,195,42,178,42,23,34,325,19,1*55
$GPGSV,4,3,15,05,31,099,32,194,24,143,28,13,21,043,38,29,11,211,15,1*57
$GPGSV,4,4,15,20,11,117,,12,08,156,,10,04,308,,1*52
$GPGSV,2,1,06,24,77,154,46,196,73,054,44,199,60,167,46,18,58,292,38,8*64
$GPGSV,2,2,06,195,42,178,42,194,24,143,21,8*67
$GLGSV,2,1,06,85,46,278,20,80,40,112,39,84,30,198,27,79,23,051,24,1*7E
$GLGSV,2,2,06,69,20,051,30,73,16,168,25,1*7F
$GAGSV,3,1,09,13,66,268,40,08,54,004,43,15,40,173,35,07,39,281,26,7*79
$GAGSV,3,2,09,26,22,319,17,03,19,051,23,02,19,103,18,30,13,155,17,7*7B
$GAGSV,3,3,09,25,05,057,,7*4A
$GAGSV,2,1,05,13,66,268,42,08,54,004,43,15,40,173,40,07,39,281,18,1*7F
$GAGSV,2,2,05,03,19,051,19,1*47
$GBGSV,4,1,13,38,78,047,43,39,73,247,42,08,68,007,40,16,65,229,42,1*76
$GBGSV,4,2,13,06,63,228,39,13,60,342,31,20,47,037,45,09,46,222,36,1*78
$GBGSV,4,3,13,46,46,140,39,19,41,322,22,29,33,226,42,37,32,064,44,1*7E
$GBGSV,4,4,13,58,,,25,1*7E
$GBGSV,2,1,07,38,78,047,45,39,73,247,45,20,47,037,45,46,46,140,45,4*7F
$GBGSV,2,2,07,19,41,322,29,29,33,226,41,37,32,064,42,4*48
$GNGGA,104134.000,2500.7941099,N,12132.4797615,E,4,49,0.58,15.841,M,15.25,M,17,3335*7E
$GNRMC,104134.000,A,2500.7941099,N,12132.4797615,E,0.08,65.49,260623,,,R,V*2F
$GPHDT,,T*1B
$GNGGA,104134.200,2500.7941116,N,12132.4797586,E,4,49,0.58,15.836,M,15.25,M,17,3335*73
$GNRMC,104134.200,A,2500.7941116,N,12132.4797586,E,0.07,65.49,260623,,,R,V*2D
$GPHDT,,T*1B
$GNGGA,104134.400,2500.7941116,N,12132.4797593,E,4,49,0.58,15.839,M,15.25,M,17,3335*7E
$GNRMC,104134.400,A,2500.7941116,N,12132.4797593,E,0.08,65.49,260623,,,R,V*20
$GPHDT,,T*1B
$GNGGA,104134.600,2500.7941107,N,12132.4797609,E,4,49,0.58,15.838,M,15.25,M,17,3335*7D
$GNRMC,104134.600,A,2500.7941107,N,12132.4797609,E,0.05,65.49,260623,,,R,V*2F
$GPHDT,,T*1B
$GNGGA,104134.800,2500.7941107,N,12132.4797604,E,4,47,0.58,15.841,M,15.25,M,17,3335*7E
$GNRMC,104134.800,A,2500.7941107,N,12132.4797604,E,0.02,65.49,260623,,,R,V*2B
$GPHDT,,T*1B
$GNGSA,A,3,24,196,199,15,195,05,194,13,18,,,,1.17,0.58,1.02,1*0A
$GNGSA,A,3,85,80,84,79,69,,,,,,,,1.17,0.58,1.02,2*03
$GNGSA,A,3,13,08,15,07,03,,,,,,,,1.17,0.58,1.02,3*00
$GNGSA,A,3,38,39,08,16,06,13,20,09,46,29,37,19,1.17,0.58,1.02,4*09
$GPGSV,4,1,15,24,77,154,41,196,73,054,40,199,60,167,36,18,58,292,21,1*65
$GPGSV,4,2,15,15,48,024,41,45,47,231,31,195,42,178,43,23,34,325,18,1*54
$GPGSV,4,3,15,05,31,099,31,194,24,143,27,13,21,043,38,29,11,211,15,1*5B
$GPGSV,4,4,15,20,11,117,,12,08,156,,10,04,308,,1*52
$GPGSV,2,1,06,24,77,154,46,196,73,054,44,199,60,167,46,18,58,292,38,8*64
$GPGSV,2,2,06,195,42,178,42,194,24,143,21,8*67
$GLGSV,2,1,06,85,46,278,18,80,40,112,38,84,30,198,25,79,23,051,24,1*76
$GLGSV,2,2,06,69,20,051,30,73,16,168,27,1*7D
$GAGSV,3,1,09,13,66,268,40,08,54,004,43,15,40,173,36,07,39,281,26,7*7A
$GAGSV,3,2,09,26,22,319,17,03,19,051,21,02,19,103,17,30,13,155,17,7*76
$GAGSV,3,3,09,25,05,057,,7*4A
$GAGSV,2,1,05,13,66,268,42,08,54,004,43,15,40,173,40,07,39,281,18,1*7F
$GAGSV,2,2,05,03,19,051,20,1*4D
$GBGSV,3,1,12,38,78,047,43,39,73,247,42,08,69,007,40,16,65,229,42,1*71
$GBGSV,3,2,12,06,63,228,39,13,60,342,31,20,47,037,45,09,46,222,36,1*7E
$GBGSV,3,3,12,46,46,140,39,19,41,322,21,29,33,226,42,37,32,064,44,1*7B
$GBGSV,2,1,07,38,78,047,45,39,73,247,45,20,47,037,45,46,46,140,45,4*7F
$GBGSV,2,2,07,19,41,322,29,29,33,226,41,37,32,064,42,4*48
$GNGGA,104135.000,2500.7941102,N,12132.4797614,E,4,47,0.58,15.846,M,15.25,M,18,3335*7B
$GNRMC,104135.000,A,2500.7941102,N,12132.4797614,E,0.04,65.49,260623,,,R,V*20
$GPHDT,,T*1B
$GNGGA,104135.200,2500.7941135,N,12132.4797573,E,4,47,0.58,15.836,M,15.25,M,18,3335*78
$GNRMC,104135.200,A,2500.7941135,N,12132.4797573,E,0.01,65.49,260623,,,R,V*21
$GPHDT,,T*1B
$GNGGA,104135.400,2500.7941135,N,12132.4797562,E,4,47,0.58,15.831,M,15.25,M,18,3335*79
$GNRMC,104135.400,A,2500.7941135,N,12132.4797562,E,0.02,65.49,260623,,,R,V*24
$GPHDT,,T*1B
$GNGGA,104135.600,2500.7941127,N,12132.4797547,E,4,47,0.58,15.839,M,15.25,M,18,3335*77
$GNRMC,104135.600,A,2500.7941127,N,12132.4797547,E,0.13,65.49,260623,,,R,V*22
$GPHDT,,T*1B
$GNGGA,104135.800,2500.7941104,N,12132.4797604,E,4,48,0.58,15.836,M,15.25,M,18,3335*7C
$GNRMC,104135.800,A,2500.7941104,N,12132.4797604,E,0.13,65.49,260623,,,R,V*29
$GPHDT,,T*1B
$GNGSA,A,3,24,196,199,18,15,195,05,194,13,,,,1.17,0.58,1.02,1*0A
$GNGSA,A,3,85,80,84,79,69,,,,,,,,1.17,0.58,1.02,2*03
$GNGSA,A,3,13,08,15,07,03,,,,,,,,1.17,0.58,1.02,3*00
$GNGSA,A,3,38,39,08,16,06,13,20,09,46,29,37,19,1.17,0.58,1.02,4*09
$GPGSV,4,1,15,24,77,154,41,196,73,054,40,199,60,167,36,18,58,292,22,1*66
$GPGSV,4,2,15,15,48,024,41,45,47,231,31,195,42,178,43,23,34,325,18,1*54
$GPGSV,4,3,15,05,31,099,33,194,24,143,27,13,21,043,38,29,11,211,16,1*5A
$GPGSV,4,4,15,20,11,117,,12,08,156,,10,04,308,,1*52
$GPGSV,2,1,06,24,77,154,46,196,73,054,44,199,60,167,46,18,58,292,38,8*64
$GPGSV,2,2,06,195,42,178,42,194,24,143,20,8*66
$GLGSV,2,1,06,85,46,278,16,80,40,112,39,84,30,198,25,79,23,051,26,1*7B
$GLGSV,2,2,06,69,20,051,30,73,16,168,27,1*7D
$GAGSV,3,1,09,13,66,268,40,08,54,004,43,15,40,173,35,07,39,281,26,7*79
$GAGSV,3,2,09,26,22,319,17,03,19,051,23,02,19,103,13,30,13,155,17,7*70
$GAGSV,3,3,09,25,05,057,,7*4A
$GAGSV,2,1,05,13,66,268,42,08,54,004,43,15,40,173,39,07,39,281,18,1*71
$GAGSV,2,2,05,03,19,051,18,1*46
$GBGSV,4,1,13,38,78,047,43,39,73,247,42,08,69,007,40,16,65,229,42,1*77
$GBGSV,4,2,13,06,63,228,39,13,60,342,30,20,47,037,45,09,46,222,36,1*79
$GBGSV,4,3,13,46,46,140,39,19,41,322,20,29,33,226,39,37,32,064,44,1*70
$GBGSV,4,4,13,58,,,25,1*7E
$GBGSV,2,1,07,38,78,047,45,39,73,247,45,20,47,037,45,46,46,140,45,4*7F
$GBGSV,2,2,07,19,41,322,28,29,33,226,39,37,32,064,42,4*46
$GNGGA,104136.000,2500.7941133,N,12132.4797553,E,4,48,0.58,15.829,M,15.25,M,19,3335*7D
$GNRMC,104136.000,A,2500.7941133,N,12132.4797553,E,0.09,65.49,260623,,,R,V*2C
$GPHDT,,T*1B
$GNGGA,104136.200,2500.7941147,N,12132.4797594,E,4,48,0.58,15.839,M,15.25,M,19,3335*76
$GNRMC,104136.200,A,2500.7941147,N,12132.4797594,E,0.09,65.49,260623,,,R,V*26
$GPHDT,,T*1B
$GNGGA,104136.400,2500.7941133,N,12132.4797567,E,4,48,0.58,15.835,M,15.25,M,19,3335*73
$GNRMC,104136.400,A,2500.7941133,N,12132.4797567,E,0.08,65.49,260623,,,R,V*2E
$GPHDT,,T*1B
$GNGGA,104136.600,2500.7941109,N,12132.4797612,E,4,48,0.58,15.842,M,15.25,M,19,3335*79
$GNRMC,104136.600,A,2500.7941109,N,12132.4797612,E,0.07,65.49,260623,,,R,V*2B
$GPHDT,,T*1B
$GNGGA,104136.800,2500.7941120,N,12132.4797636,E,4,48,0.58,15.840,M,15.25,M,19,3335*78
$GNRMC,104136.800,A,2500.7941120,N,12132.4797636,E,0.17,65.49,260623,,,R,V*29
$GPHDT,,T*1B
$GNGSA,A,3,24,196,199,15,195,05,194,13,18,,,,1.17,0.58,1.02,1*0A
$GNGSA,A,3,85,80,84,79,69,,,,,,,,1.17,0.58,1.02,2*03
$GNGSA,A,3,13,08,15,07,03,,,,,,,,1.17,0.58,1.02,3*00
$GNGSA,A,3,38,39,08,16,06,13,20,09,46,29,37,19,1.17,0.58,1.02,4*09
$GPGSV,4,1,15,24,77,154,41,196,73,054,40,199,60,167,36,18,58,292,21,1*65
$GPGSV,4,2,15,15,48,024,41,45,47,231,29,195,42,178,42,23,34,325,19,1*5D
$GPGSV,4,3,15,05,31,099,33,194,24,143,26,13,21,043,38,29,11,211,16,1*5B
$GPGSV,4,4,15,20,11,117,,12,08,156,,10,04,308,,1*52
$GPGSV,2,1,05,24,77,154,46,196,73,054,44,199,60,167,46,18,58,292,38,8*67
$GPGSV,2,2,05,195,42,178,42,8*6B
$GLGSV,2,1,06,85,46,278,15,80,40,112,39,84,30,198,27,79,23,051,28,1*74
$GLGSV,2,2,06,69,20,051,30,73,16,168,25,1*7F
$GAGSV,3,1,09,13,66,268,40,08,54,004,43,15,40,173,35,07,39,281,25,7*7A
$GAGSV,3,2,09,26,22,319,18,03,19,051,24,02,19,103,13,30,13,155,19,7*76
$GAGSV,3,3,09,25,05,057,,7*4A
$GAGSV,2,1,05,13,66,268,42,08,54,004,43,15,40,173,38,07,39,281,18,1*70
$GAGSV,2,2,05,03,19,051,18,1*46
$GBGSV,4,1,13,38,78,047,43,39,73,247,42,08,69,007,40,16,65,230,42,1*7F
$GBGSV,4,2,13,06,63,228,39,13,60,342,30,20,47,037,45,09,46,222,36,1*79
$GBGSV,4,3,13,46,46,140,39,19,41,322,20,29,33,226,35,37,32,064,45,1*7D
$GBGSV,4,4,13,58,,,26,1*7D
$GBGSV,2,1,07,38,78,047,45,39,73,247,45,20,47,037,45,46,46,140,45,4*7F
$GBGSV,2,2,07,19,41,322,28,29,33,226,37,37,32,064,42,4*48
$GNGGA,104137.000,2500.7941139,N,12132.4797724,E,4,46,0.58,15.860,M,15.25,M,20,3335*7D
$GNRMC,104137.000,A,2500.7941139,N,12132.4797724,E,0.13,65.49,260623,,,R,V*2E
$GPHDT,,T*1B
$GNGGA,104137.200,2500.7941133,N,12132.4797726,E,4,46,0.58,15.864,M,15.25,M,20,3335*73
$GNRMC,104137.200,A,2500.7941133,N,12132.4797726,E,0.13,65.49,260623,,,R,V*24
$GPHDT,,T*1B
$GNGGA,104137.400,2500.7941150,N,12132.4797688,E,4,47,0.58,15.866,M,15.25,M,20,3335*76
$GNRMC,104137.400,A,2500.7941150,N,12132.4797688,E,0.11,65.49,260623,,,R,V*20
$GPHDT,,T*1B
$GNGGA,104137.600,2500.7941155,N,12132.4797691,E,4,47,0.58,15.867,M,15.25,M,20,3335*78
$GNRMC,104137.600,A,2500.7941155,N,12132.4797691,E,0.11,65.49,260623,,,R,V*2F
$GPHDT,,T*1B
$GNGGA,104137.800,2500.7941139,N,12132.4797569,E,4,47,0.58,15.838,M,15.25,M,20,3335*72
$GNRMC,104137.800,A,2500.7941139,N,12132.4797569,E,0.03,65.49,260623,,,R,V*2C
$GPHDT,,T*1B
$GNGSA,A,3,24,196,199,18,15,195,05,194,13,,,,1.17,0.58,1.02,1*0A
$GNGSA,A,3,85,80,84,79,69,,,,,,,,1.17,0.58,1.02,2*03
$GNGSA,A,3,13,08,15,07,03,,,,,,,,1.17,0.58,1.02,3*00
$GNGSA,A,3,38,39,08,16,06,13,20,09,46,29,37,19,1.17,0.58,1.02,4*09
$GPGSV,4,1,15,24,77,154,41,196,73,054,40,199,60,167,36,18,58,292,20,1*64
$GPGSV,4,2,15,15,48,024,41,45,47,231,29,195,42,178,42,23,34,325,18,1*5C
$GPGSV,4,3,15,05,31,099,34,194,24,143,26,13,21,043,37,29,11,211,16,1*53
$GPGSV,4,4,15,20,11,117,,12,08,156,,10,04,308,,1*52
$GPGSV,2,1,06,24,77,154,46,196,73,054,44,199,60,167,45,18,58,292,38,8*67
$GPGSV,2,2,06,195,42,178,42,194,24,143,19,8*6C
$GLGSV,2,1,06,85,46,278,15,80,40,112,39,84,30,198,28,79,23,051,31,1*73
$GLGSV,2,2,06,69,20,051,30,73,16,168,25,1*7F
$GAGSV,3,1,09,13,66,268,40,08,54,004,43,15,40,173,35,07,39,281,24,7*7B
$GAGSV,3,2,09,26,22,319,18,03,19,051,25,02,19,103,15,30,13,155,20,7*7B
$GAGSV,3,3,09,25,05,057,,7*4A
$GAGSV,2,1,05,13,66,268,42,08,54,004,43,15,40,173,38,07,39,281,18,1*70
$GAGSV,2,2,05,03,19,051,17,1*49
$GBGSV,4,1,13,38,78,047,43,39,73,247,42,08,69,007,40,16,65,230,42,1*7F
$GBGSV,4,2,13,06,63,228,39,13,60,342,30,20,47,037,45,09,46,222,35,1*7A
$GBGSV,4,3,13,46,46,140,39,19,41,323,19,29,33,226,31,37,32,064,45,1*72
$GBGSV,4,4,13,58,,,24,1*7F
$GBGSV,2,1,07,38,78,047,45,39,73,247,45,20,47,037,45,46,46,140,45,4*7F
$GBGSV,2,2,07,19,41,323,28,29,33,226,36,37,32,064,42,4*48
$GNGGA,104138.000,2500.7941153,N,12132.4797569,E,4,48,0.58,15.840,M,15.25,M,21,3335*78
$GNRMC,104138.000,A,2500.7941153,N,12132.4797569,E,0.06,65.49,260623,,,R,V*22
$GPHDT,,T*1B
$GNGGA,104138.200,2500.7941149,N,12132.4797562,E,4,48,0.58,15.842,M,15.25,M,21,3335*78
$GNRMC,104138.200,A,2500.7941149,N,12132.4797562,E,0.05,65.49,260623,,,R,V*23
$GPHDT,,T*1B
$GNGGA,104138.400,2500.7941147,N,12132.4797548,E,4,48,0.58,15.832,M,15.25,M,21,3335*7F
$GNRMC,104138.400,A,2500.7941147,N,12132.4797548,E,0.06,65.49,260623,,,R,V*20
$GPHDT,,T*1B
$GNGGA,104138.600,2500.7941135,N,12132.4797583,E,4,48,0.58,15.837,M,15.25,M,21,3335*7A
$GNRMC,104138.600,A,2500.7941135,N,12132.4797583,E,0.19,65.49,260623,,,R,V*2E
$GPHDT,,T*1B
$GNGGA,104138.800,2500.7941141,N,12132.4797599,E,4,48,0.58,15.842,M,15.25,M,21,3335*7E
$GNRMC,104138.800,A,2500.7941141,N,12132.4797599,E,0.16,65.49,260623,,,R,V*27
$GPHDT,,T*1B
$GNGSA,A,3,24,196,199,18,15,195,05,194,13,,,,1.17,0.58,1.02,1*0A
$GNGSA,A,3,85,80,84,79,69,,,,,,,,1.17,0.58,1.02,2*03
$GNGSA,A,3,13,08,15,07,03,,,,,,,,1.17,0.58,1.02,3*00
$GNGSA,A,3,38,39,08,16,06,13,20,46,09,29,37,19,1.17,0.58,1.02,4*09
$GPGSV,4,1,15,24,77,154,41,196,73,054,40,199,60,167,37,18,58,292,20,1*65
$GPGSV,4,2,15,15,48,024,41,45,47,231,28,195,42,178,42,23,34,325,18,1*5D
$GPGSV,4,3,15,05,31,099,34,194,24,143,24,13,21,043,38,29,11,211,16,1*5E
$GPGSV,4,4,15,20,11,117,,12,08,156,,10,04,308,,1*52
$GPGSV,2,1,06,24,77,154,46,196,73,054,44,199,60,167,45,18,58,292,38,8*67
$GPGSV,2,2,06,195,42,178,42,194,24,143,19,8*6C
$GLGSV,2,1,06,85,46,278,14,80,40,112,39,84,30,198,28,79,23,051,31,1*72
$GLGSV,2,2,06,69,20,051,30,73,16,168,25,1*7F
$GAGSV,2,1,08,13,66,268,40,08,54,004,43,15,40,173,34,07,39,281,23,7*7D
$GAGSV,2,2,08,26,22,319,19,03,19,051,25,02,19,103,16,30,13,155,19,7*73
$GAGSV,2,1,05,13,66,268,42,08,54,004,43,15,40,173,38,07,39,281,18,1*70
$GAGSV,2,2,05,03,19,051,16,1*48
$GBGSV,3,1,12,38,78,047,43,39,73,247,42,08,69,007,40,16,65,230,42,1*79
$GBGSV,3,2,12,06,63,228,39,13,60,342,30,20,47,037,45,46,46,140,39,1*7C
$GBGSV,3,3,12,09,46,222,35,19,41,323,19,29,33,226,32,37,32,064,45,1*77
$GBGSV,2,1,07,38,78,047,45,39,73,247,45,20,47,037,45,46,46,140,46,4*7C
$GBGSV,2,2,07,19,41,323,28,29,33,226,35,37,32,064,42,4*4B
$GNGGA,104139.000,2500.7941160,N,12132.4797534,E,4,48,0.58,15.835,M,15.25,M,22,3335*70
$GNRMC,104139.000,A,2500.7941160,N,12132.4797534,E,0.13,65.49,260623,,,R,V*2F
$GPHDT,,T*1B
$GNGGA,104139.200,2500.7941110,N,12132.4797594,E,4,47,0.61,15.836,M,15.25,M,22,3335*79
$GNRMC,104139.200,A,2500.7941110,N,12132.4797594,E,0.11,65.49,260623,,,R,V*22
$GPHDT,,T*1B
$GNGGA,104139.400,2500.7941123,N,12132.4797602,E,4,47,0.61,15.840,M,15.25,M,22,3335*72
$GNRMC,104139.400,A,2500.7941123,N,12132.4797602,E,0.10,65.49,260623,,,R,V*29
$GPHDT,,T*1B
$GNGGA,104139.600,2500.7941126,N,12132.4797577,E,4,47,0.61,15.829,M,15.25,M,22,3335*7B
$GNRMC,104139.600,A,2500.7941126,N,12132.4797577,E,0.08,65.49,260623,,,R,V*26
$GPHDT,,T*1B
$GNGGA,104139.800,2500.7941143,N,12132.4797562,E,4,47,0.60,15.830,M,15.25,M,22,3335*7B
$GNRMC,104139.800,A,2500.7941143,N,12132.4797562,E,0.08,65.49,260623,,,R,V*2F
$GPHDT,,T*1B
$GNGSA,A,3,24,196,199,18,15,195,05,194,13,,,,1.14,0.60,0.97,1*0F
$GNGSA,A,3,80,84,79,69,73,,,,,,,,1.14,0.60,0.97,2*0F
$GNGSA,A,3,13,08,15,07,03,,,,,,,,1.14,0.60,0.97,3*05
$GNGSA,A,3,38,39,08,16,06,13,20,09,46,37,29,19,1.14,0.60,0.97,4*0C
$GPGSV,4,1,15,24,77,154,42,196,73,054,40,199,60,167,37,18,58,292,22,1*64
$GPGSV,4,2,15,15,48,024,41,45,47,231,27,195,42,178,42,23,34,325,17,1*5D
$GPGSV,4,3,15,05,31,099,32,194,24,143,24,13,21,043,38,29,11,211,17,1*59
$GPGSV,4,4,15,20,11,117,,12,08,156,,10,04,308,,1*52
$GPGSV,2,1,06,24,77,154,46,196,73,054,44,199,60,167,45,18,58,292,37,8*68
$GPGSV,2,2,06,195,42,178,42,194,24,143,20,8*66
$GLGSV,2,1,06,85,46,278,14,80,40,112,39,84,30,198,30,79,23,051,32,1*78
$GLGSV,2,2,06,69,20,051,30,73,16,168,25,1*7F
$GAGSV,2,1,08,13,66,268,40,08,54,004,43,15,40,173,34,07,39,281,22,7*7C
$GAGSV,2,2,08,26,22,319,19,03,19,051,25,02,19,103,17,30,13,155,19,7*72
$GAGSV,2,1,05,13,66,268,42,08,54,004,43,15,40,173,38,07,39,281,18,1*70
$GAGSV,2,2,05,03,19,051,14,1*4A
$GBGSV,3,1,12,38,78,047,43,39,73,247,42,08,69,007,40,16,65,230,42,1*79
$GBGSV,3,2,12,06,63,228,39,13,60,342,30,20,47,037,45,09,46,222,35,1*7C
$GBGSV,3,3,12,46,46,140,40,19,41,323,18,37,32,064,45,29,32,226,35,1*7E
$GBGSV,2,1,07,38,78,047,45,39,73,247,45,20,47,037,45,46,46,140,46,4*7C
$GBGSV,2,2,07,19,41,323,27,29,32,226,35,37,32,064,42,4*45
$GNGGA,104140.000,2500.7941128,N,12132.4797582,E,4,48,0.60,15.839,M,15.25,M,23,3335*79
$GNRMC,104140.000,A,2500.7941128,N,12132.4797582,E,0.06,65.49,260623,,,R,V*24
$GPHDT,,T*1B
