$FW : RTK35X,V1.1X0314AS,Lib20210517,1*54
$Tool : LOCOSYS , GNSS Firebird , v1.0.0.19*39
$---------------------------------------------------*2D
$GPHDT,,T*1B
$GNGGA,100550.800,2500.7847716,N,12132.4689881,E,4,46,0.63,15.920,M,15.25,M,2,3335*4B
$GNRMC,100550.800,A,2500.7847716,N,12132.4689881,E,0.01,56.47,260623,,,R,V*28
$GPHDT,,T*1B
$GNGSA,A,3,196,24,199,15,195,05,13,29,20,194,,,1.17,0.63,0.99,1*01
$GNGSA,A,3,84,69,79,,,,,,,,,,1.17,0.63,0.99,2*0D
$GNGSA,A,3,13,08,15,07,03,,,,,,,,1.17,0.63,0.99,3*0B
$GNGSA,A,3,38,39,16,06,20,29,37,46,30,32,,,1.17,0.63,0.99,4*0B
$GPGSV,4,1,13,196,72,049,41,24,60,175,46,199,60,167,37,15,57,001,17,1*63
$GPGSV,4,2,13,195,49,176,45,05,39,081,29,41,38,242,34,13,34,035,31,1*50
$GPGSV,4,3,13,29,21,224,41,20,20,104,28,194,19,147,27,11,09,148,,1*50
$GPGSV,4,4,13,12,01,168,,1*5B
$GPGSV,2,1,05,196,72,049,47,24,60,175,48,199,60,167,47,195,49,176,46,8*57
$GPGSV,2,2,05,194,19,147,23,8*6F
$GLGSV,1,1,04,84,50,207,32,85,42,307,25,69,27,033,32,79,26,071,28,1*74
$GAGSV,2,1,06,13,62,302,36,08,61,344,26,15,55,169,42,07,35,264,21,7*72
$GAGSV,2,2,06,03,27,042,26,02,12,115,,7*75
$GAGSV,2,1,05,13,62,302,42,08,61,344,37,15,55,169,44,07,35,264,21,1*72
$GAGSV,2,2,05,03,27,042,23,1*41
$GBGSV,3,1,11,38,71,031,45,39,70,219,41,08,61,004,,16,61,211,42,1*77
$GBGSV,3,2,11,06,58,211,40,20,49,016,27,29,43,242,42,37,34,082,29,1*7B
$GBGSV,3,3,11,46,33,152,44,30,20,183,21,32,16,069,33,1*43
$GBGSV,2,1,07,38,71,031,44,39,70,219,45,20,49,016,32,29,43,242,43,4*78
$GBGSV,2,2,07,37,34,082,32,46,33,152,45,32,16,069,25,4*47
$GNGGA,100551.000,2500.7847688,N,12132.4689901,E,4,45,0.63,15.922,M,15.25,M,2,3335*4C
$GNRMC,100551.000,A,2500.7847688,N,12132.4689901,E,0.01,56.47,260623,,,R,V*2E
$GPHDT,,T*1B
$GNGGA,100551.200,2500.7847724,N,12132.4689910,E,4,45,0.63,15.892,M,15.25,M,1,3335*40
$GNRMC,100551.200,A,2500.7847724,N,12132.4689910,E,0.01,56.47,260623,,,R,V*2B
$GPHDT,,T*1B
$GNGGA,100551.400,2500.7847727,N,12132.4689877,E,4,46,0.63,15.894,M,15.25,M,1,3335*40
$GNRMC,100551.400,A,2500.7847727,N,12132.4689877,E,0.01,56.47,260623,,,R,V*2E
$GPHDT,,T*1B
$GNGGA,100551.600,2500.7847745,N,12132.4689913,E,4,46,0.63,15.903,M,15.25,M,1,3335*4A
$GNRMC,100551.600,A,2500.7847745,N,12132.4689913,E,0.00,56.47,260623,,,R,V*2A
$GPHDT,,T*1B
$GNGGA,100551.800,2500.7847743,N,12132.4689893,E,4,45,0.63,15.901,M,15.25,M,1,3335*4A
$GNRMC,100551.800,A,2500.7847743,N,12132.4689893,E,0.00,56.47,260623,,,R,V*2B
$GPHDT,,T*1B
$GNGSA,A,3,196,24,199,15,195,05,13,29,20,194,,,1.17,0.63,0.99,1*01
$GNGSA,A,3,84,69,79,,,,,,,,,,1.17,0.63,0.99,2*0D
$GNGSA,A,3,13,08,15,07,03,,,,,,,,1.17,0.63,0.99,3*0B
$GNGSA,A,3,38,39,16,06,20,29,37,46,30,32,,,1.17,0.63,0.99,4*0B
$GPGSV,4,1,13,196,72,049,41,24,60,175,46,199,60,167,37,15,57,001,19,1*6D
$GPGSV,4,2,13,195,49,176,44,05,39,081,28,41,38,242,33,13,34,035,32,1*54
$GPGSV,4,3,13,29,21,224,40,20,20,104,28,194,19,147,28,11,09,148,,1*5E
$GPGSV,4,4,13,12,01,168,,1*5B
$GPGSV,2,1,05,196,72,049,47,24,60,175,48,199,60,167,47,195,49,176,46,8*57
$GPGSV,2,2,05,194,19,147,23,8*6F
$GLGSV,1,1,04,84,50,207,32,85,42,307,23,69,27,033,33,79,26,071,30,1*7A
$GAGSV,2,1,06,13,62,302,36,08,61,344,26,15,55,169,42,07,35,264,21,7*72
$GAGSV,2,2,06,03,27,042,26,02,12,115,,7*75
$GAGSV,2,1,05,13,62,302,42,08,61,344,37,15,55,169,44,07,35,264,21,1*72
$GAGSV,2,2,05,03,27,042,23,1*41
$GBGSV,3,1,11,38,71,031,45,39,70,219,41,08,61,004,,16,61,211,42,1*77
$GBGSV,3,2,11,06,58,211,40,20,49,016,29,29,43,242,42,37,34,082,29,1*75
$GBGSV,3,3,11,46,33,152,44,30,20,183,22,32,16,069,33,1*40
$GBGSV,2,1,07,38,71,031,44,39,70,219,45,20,49,016,32,29,43,242,43,4*78
$GBGSV,2,2,07,37,34,082,32,46,33,152,45,32,16,069,26,4*44
$GNGGA,100552.000,2500.7847691,N,12132.4689862,E,4,45,0.63,15.918,M,15.25,M,1,3335*49
$GNRMC,100552.000,A,2500.7847691,N,12132.4689862,E,0.01,56.47,260623,,,R,V*21
$GPHDT,,T*1B
$GNGGA,100552.200,2500.7847707,N,12132.4689910,E,4,45,0.63,15.905,M,15.25,M,1,3335*4D
$GNRMC,100552.200,A,2500.7847707,N,12132.4689910,E,0.00,56.47,260623,,,R,V*28
$GPHDT,,T*1B
$GNGGA,100552.400,2500.7847721,N,12132.4689848,E,4,45,0.63,15.913,M,15.25,M,1,3335*44
$GNRMC,100552.400,A,2500.7847721,N,12132.4689848,E,0.00,56.47,260623,,,R,V*26
$GPHDT,,T*1B
$GNGGA,100552.600,2500.7847708,N,12132.4689880,E,4,45,0.63,15.913,M,15.25,M,0,3335*48
$GNRMC,100552.600,A,2500.7847708,N,12132.4689880,E,0.00,56.47,260623,,,R,V*2B
$GPHDT,,T*1B
$GNGGA,100552.800,2500.7847715,N,12132.4689877,E,4,45,0.63,15.911,M,15.25,M,0,3335*40
$GNRMC,100552.800,A,2500.7847715,N,12132.4689877,E,0.00,56.47,260623,,,R,V*21
$GPHDT,,T*1B
$GNGSA,A,3,196,24,199,15,195,05,13,29,20,194,,,1.17,0.63,0.99,1*01
$GNGSA,A,3,84,69,79,,,,,,,,,,1.17,0.63,0.99,2*0D
$GNGSA,A,3,13,08,15,07,03,,,,,,,,1.17,0.63,0.99,3*0B
$GNGSA,A,3,38,39,16,06,20,29,37,46,30,32,,,1.17,0.63,0.99,4*0B
$GPGSV,4,1,13,196,72,049,41,24,60,175,46,199,60,167,37,15,57,001,23,1*64
$GPGSV,4,2,13,195,49,176,43,05,39,081,24,41,38,242,32,13,34,035,32,1*5E
$GPGSV,4,3,13,29,21,224,39,20,20,104,28,194,19,147,28,11,09,148,,1*50
$GPGSV,4,4,13,12,01,168,,1*5B
$GPGSV,2,1,05,196,72,049,47,24,60,175,48,199,60,167,46,195,49,176,46,8*56
$GPGSV,2,2,05,194,19,147,21,8*6D
$GLGSV,1,1,04,84,50,207,32,85,42,307,21,69,27,033,33,79,26,071,31,1*79
$GAGSV,2,1,06,13,62,302,34,08,61,344,26,15,55,169,42,07,35,264,21,7*70
$GAGSV,2,2,06,03,27,042,26,02,12,115,,7*75
$GAGSV,2,1,05,13,62,302,42,08,61,344,37,15,55,169,45,07,35,264,21,1*73
$GAGSV,2,2,05,03,27,042,23,1*41
$GBGSV,3,1,11,38,71,031,45,39,70,219,41,08,61,004,,16,61,211,42,1*77
$GBGSV,3,2,11,06,58,211,40,20,49,016,29,29,43,242,42,37,34,082,29,1*75
$GBGSV,3,3,11,46,33,152,44,30,20,183,24,32,16,069,31,1*44
$GBGSV,2,1,07,38,71,031,44,39,70,219,44,20,49,016,32,29,43,242,43,4*79
$GBGSV,2,2,07,37,34,082,34,46,33,152,45,32,16,069,28,4*4C
$GNGGA,100553.000,2500.7847719,N,12132.4689896,E,4,45,0.63,15.908,M,15.25,M,1,3335*43
$GNRMC,100553.000,A,2500.7847719,N,12132.4689896,E,0.00,56.47,260623,,,R,V*2B
$GPHDT,,T*1B
$GNGGA,100553.200,2500.7847728,N,12132.4689892,E,4,45,0.63,15.907,M,15.25,M,1,3335*48
$GNRMC,100553.200,A,2500.7847728,N,12132.4689892,E,0.00,56.47,260623,,,R,V*2F
$GPHDT,,T*1B
$GNGGA,100553.400,2500.7847705,N,12132.4689881,E,4,45,0.63,15.919,M,15.25,M,1,3335*4C
$GNRMC,100553.400,A,2500.7847705,N,12132.4689881,E,0.00,56.47,260623,,,R,V*24
$GPHDT,,T*1B
$GNGGA,100553.600,2500.7847724,N,12132.4689865,E,4,45,0.63,15.900,M,15.25,M,1,3335*4F
$GNRMC,100553.600,A,2500.7847724,N,12132.4689865,E,0.00,56.47,260623,,,R,V*2F
$GPHDT,,T*1B
$GNGGA,100553.800,2500.7847672,N,12132.4689837,E,4,45,0.63,15.927,M,15.25,M,1,3335*41
$GNRMC,100553.800,A,2500.7847672,N,12132.4689837,E,0.00,56.47,260623,,,R,V*24
$GPHDT,,T*1B
$GNGSA,A,3,196,24,199,15,195,05,13,29,20,194,,,1.17,0.63,0.99,1*01
$GNGSA,A,3,84,69,79,,,,,,,,,,1.17,0.63,0.99,2*0D
$GNGSA,A,3,13,08,15,07,03,,,,,,,,1.17,0.63,0.99,3*0B
$GNGSA,A,3,38,39,16,06,20,29,37,46,30,32,,,1.17,0.63,0.99,4*0B
$GPGSV,4,1,13,196,72,049,41,24,60,175,46,199,60,167,37,15,57,001,24,1*63
$GPGSV,4,2,13,195,49,176,43,05,39,081,26,41,38,242,33,13,34,035,31,1*5E
$GPGSV,4,3,13,29,21,224,40,20,20,104,28,194,19,147,28,11,09,148,,1*5E
$GPGSV,4,4,13,12,01,168,,1*5B
$GPGSV,2,1,05,196,72,049,47,24,60,175,48,199,60,167,46,195,49,176,46,8*56
$GPGSV,2,2,05,194,19,147,20,8*6C
$GLGSV,1,1,04,84,50,207,32,85,42,307,23,69,27,033,35,79,26,071,31,1*7D
$GAGSV,2,1,06,13,62,302,36,08,61,344,27,15,55,169,42,07,35,264,21,7*73
$GAGSV,2,2,06,03,27,042,26,02,12,115,,7*75
$GAGSV,2,1,05,13,62,302,42,08,61,344,37,15,55,169,45,07,35,264,20,1*72
$GAGSV,2,2,05,03,27,042,22,1*40
$GBGSV,3,1,11,38,71,031,45,39,70,219,41,08,61,004,,16,61,211,42,1*77
$GBGSV,3,2,11,06,58,211,40,20,49,016,28,29,43,242,42,37,34,082,29,1*74
$GBGSV,3,3,11,46,33,152,44,30,20,183,22,32,16,069,32,1*41
$GBGSV,2,1,07,38,71,031,44,39,70,219,43,20,49,016,32,29,43,242,42,4*7F
$GBGSV,2,2,07,37,34,082,33,46,33,152,45,32,16,069,27,4*44
$GNGGA,100554.000,2500.7847712,N,12132.4689881,E,4,45,0.63,15.918,M,15.25,M,2,3335*4B
$GNRMC,100554.000,A,2500.7847712,N,12132.4689881,E,0.00,56.47,260623,,,R,V*21
$GPHDT,,T*1B
$GNGGA,100554.200,2500.7847736,N,12132.4689908,E,4,45,0.63,15.896,M,15.25,M,2,3335*48
$GNRMC,100554.200,A,2500.7847736,N,12132.4689908,E,0.00,56.47,260623,,,R,V*25
$GPHDT,,T*1B
$GNGGA,100554.400,2500.7847728,N,12132.4689879,E,4,45,0.63,15.912,M,15.25,M,2,3335*4B
$GNRMC,100554.400,A,2500.7847728,N,12132.4689879,E,0.00,56.47,260623,,,R,V*2B
$GPHDT,,T*1B
$GNGGA,100554.600,2500.7847710,N,12132.4689904,E,4,45,0.63,15.905,M,15.25,M,2,3335*4F
$GNRMC,100554.600,A,2500.7847710,N,12132.4689904,E,0.00,56.47,260623,,,R,V*29
$GPHDT,,T*1B
$GNGGA,100554.800,2500.7847744,N,12132.4689901,E,4,45,0.63,15.889,M,15.25,M,2,3335*40
$GNRMC,100554.800,A,2500.7847744,N,12132.4689901,E,0.00,56.47,260623,,,R,V*23
$GPHDT,,T*1B
$GNGSA,A,3,196,24,199,15,195,05,13,29,20,194,,,1.17,0.63,0.99,1*01
$GNGSA,A,3,84,69,79,,,,,,,,,,1.17,0.63,0.99,2*0D
$GNGSA,A,3,13,08,15,07,03,,,,,,,,1.17,0.63,0.99,3*0B
$GNGSA,A,3,38,39,16,06,20,29,37,46,30,32,,,1.17,0.63,0.99,4*0B
$GPGSV,4,1,13,196,72,049,41,24,60,175,46,199,60,167,37,15,57,001,26,1*61
$GPGSV,4,2,13,195,49,176,43,05,39,081,26,41,38,242,32,13,34,035,31,1*5F
$GPGSV,4,3,13,29,21,224,40,20,20,104,28,194,19,147,25,11,09,148,,1*53
$GPGSV,4,4,13,12,01,168,,1*5B
$GPGSV,2,1,05,196,72,049,47,24,60,175,48,199,60,167,46,195,49,176,46,8*56
$GPGSV,2,2,05,194,19,147,20,8*6C
$GLGSV,1,1,04,84,50,207,32,85,42,307,24,69,27,033,36,79,26,071,31,1*79
$GAGSV,2,1,05,13,62,302,36,08,61,344,27,15,55,169,42,07,35,264,20,7*71
$GAGSV,2,2,05,03,27,042,26,7*42
$GAGSV,2,1,05,13,62,302,43,08,61,344,37,15,55,169,45,07,35,264,21,1*72
$GAGSV,2,2,05,03,27,042,22,1*40
$GBGSV,3,1,11,38,71,031,45,39,70,219,41,08,61,004,,16,61,211,42,1*77
$GBGSV,3,2,11,06,58,211,40,20,49,016,26,29,43,242,43,37,34,082,30,1*73
$GBGSV,3,3,11,46,33,152,44,30,20,183,23,32,16,069,32,1*40
$GBGSV,2,1,07,38,71,031,44,39,70,219,43,20,49,016,32,29,43,242,43,4*7E
$GBGSV,2,2,07,37,34,082,33,46,33,152,45,32,16,069,27,4*44
$GNGGA,100555.000,2500.7847707,N,12132.4689885,E,4,45,0.63,15.915,M,15.25,M,3,3335*46
$GNRMC,100555.000,A,2500.7847707,N,12132.4689885,E,0.00,56.47,260623,,,R,V*20
$GPHDT,,T*1B
$GNGGA,100555.200,2500.7847713,N,12132.4689920,E,4,45,0.63,15.913,M,15.25,M,3,3335*49
$GNRMC,100555.200,A,2500.7847713,N,12132.4689920,E,0.00,56.47,260623,,,R,V*29
$GPHDT,,T*1B
$GNGGA,100555.400,2500.7847722,N,12132.4689872,E,4,45,0.63,15.905,M,15.25,M,3,3335*4C
$GNRMC,100555.400,A,2500.7847722,N,12132.4689872,E,0.00,56.47,260623,,,R,V*2B
$GPHDT,,T*1B
$GNGGA,100555.600,2500.7847719,N,12132.4689887,E,4,45,0.63,15.908,M,15.25,M,3,3335*41
$GNRMC,100555.600,A,2500.7847719,N,12132.4689887,E,0.00,56.47,260623,,,R,V*2B
$GPHDT,,T*1B
$GNGGA,100555.800,2500.7847709,N,12132.4689904,E,4,45,0.63,15.916,M,15.25,M,3,3335*4B
$GNRMC,100555.800,A,2500.7847709,N,12132.4689904,E,0.00,56.47,260623,,,R,V*2E
$GPHDT,,T*1B
$GNGSA,A,3,196,24,199,15,195,05,13,29,20,194,,,1.17,0.63,0.99,1*01
$GNGSA,A,3,84,69,79,,,,,,,,,,1.17,0.63,0.99,2*0D
$GNGSA,A,3,13,08,15,07,03,,,,,,,,1.17,0.63,0.99,3*0B
$GNGSA,A,3,38,39,16,06,20,29,37,46,30,32,,,1.17,0.63,0.99,4*0B
$GPGSV,4,1,13,196,72,049,41,24,60,175,46,199,60,167,37,15,57,001,26,1*61
$GPGSV,4,2,13,195,49,176,43,05,39,081,28,41,38,242,33,13,34,035,31,1*50
$GPGSV,4,3,13,29,21,224,40,20,20,104,28,194,19,147,25,11,09,148,,1*53
$GPGSV,4,4,13,12,01,168,,1*5B
$GPGSV,2,1,05,196,72,049,47,24,60,175,48,199,60,167,46,195,49,176,46,8*56
$GPGSV,2,2,05,194,19,147,19,8*66
$GLGSV,1,1,03,84,50,207,32,69,27,033,36,79,26,071,30,1*46
$GAGSV,2,1,05,13,62,302,36,08,61,344,27,15,55,169,42,07,35,264,20,7*71
$GAGSV,2,2,05,03,27,042,26,7*42
$GAGSV,2,1,05,13,62,302,43,08,61,344,37,15,55,169,45,07,35,264,21,1*72
$GAGSV,2,2,05,03,27,042,22,1*40
$GBGSV,3,1,11,38,71,031,45,39,70,219,41,08,61,004,,16,61,211,42,1*77
$GBGSV,3,2,11,06,58,211,40,20,49,016,26,29,43,242,43,37,34,082,30,1*73
$GBGSV,3,3,11,46,33,152,44,30,20,183,24,32,16,069,32,1*47
$GBGSV,2,1,08,38,71,031,44,39,70,219,43,20,49,016,32,29,43,242,43,4*71
$GBGSV,2,2,08,37,34,082,33,46,33,152,45,30,20,183,20,32,16,069,27,4*72
$GNGGA,100556.000,2500.7847735,N,12132.4689892,E,4,46,0.63,15.911,M,15.25,M,4,3335*42
$GNRMC,100556.000,A,2500.7847735,N,12132.4689892,E,0.00,56.47,260623,,,R,V*24
$GPHDT,,T*1B
$GNGGA,100556.200,2500.7847708,N,12132.4689880,E,4,46,0.63,15.924,M,15.25,M,4,3335*4B
$GNRMC,100556.200,A,2500.7847708,N,12132.4689880,E,0.00,56.47,260623,,,R,V*2B
$GPHDT,,T*1B
$GNGGA,100556.400,2500.7847742,N,12132.4689889,E,4,44,0.63,15.911,M,15.25,M,4,3335*4E
$GNRMC,100556.400,A,2500.7847742,N,12132.4689889,E,0.00,56.47,260623,,,R,V*2A
$GPHDT,,T*1B
$GNGGA,100556.600,2500.7847732,N,12132.4689883,E,4,44,0.63,15.902,M,15.25,M,4,3335*43
$GNRMC,100556.600,A,2500.7847732,N,12132.4689883,E,0.00,56.47,260623,,,R,V*25
$GPHDT,,T*1B
$GNGGA,100556.800,2500.7847754,N,12132.4689869,E,4,44,0.63,15.902,M,15.25,M,4,3335*49
$GNRMC,100556.800,A,2500.7847754,N,12132.4689869,E,0.00,56.47,260623,,,R,V*2F
$GPHDT,,T*1B
$GNGSA,A,3,196,24,199,15,195,05,13,29,20,194,,,1.17,0.63,0.99,1*01
$GNGSA,A,3,84,69,79,,,,,,,,,,1.17,0.63,0.99,2*0D
$GNGSA,A,3,13,08,15,07,03,,,,,,,,1.17,0.63,0.99,3*0B
$GNGSA,A,3,38,39,16,06,20,29,37,46,30,32,,,1.17,0.63,0.99,4*0B
$GPGSV,4,1,13,196,72,049,41,24,60,175,46,199,60,167,37,15,57,001,27,1*60
$GPGSV,4,2,13,195,49,176,43,05,39,081,30,41,38,242,32,13,34,035,30,1*59
$GPGSV,4,3,13,29,21,224,40,20,20,104,28,194,19,147,26,11,09,148,,1*50
$GPGSV,4,4,13,12,01,168,,1*5B
$GPGSV,2,1,05,196,72,049,47,24,60,175,48,199,60,167,46,195,49,176,46,8*56
$GPGSV,2,2,05,194,19,147,17,8*68
$GLGSV,1,1,03,84,50,207,32,69,27,033,37,79,26,071,30,1*47
$GAGSV,2,1,05,13,62,302,36,08,61,344,26,15,55,169,42,07,35,264,20,7*70
$GAGSV,2,2,05,03,27,042,26,7*42
$GAGSV,2,1,05,13,62,302,43,08,61,344,37,15,55,169,44,07,35,264,21,1*73
$GAGSV,2,2,05,03,27,042,21,1*43
$GBGSV,3,1,11,38,71,031,45,39,70,219,41,08,61,004,,16,61,211,42,1*77
$GBGSV,3,2,11,06,58,211,40,20,49,016,26,29,43,242,43,37,34,082,30,1*73
$GBGSV,3,3,11,46,33,152,44,30,20,183,23,32,16,069,31,1*43
$GBGSV,2,1,07,38,71,031,44,39,70,219,43,20,49,016,32,29,43,242,43,4*7E
$GBGSV,2,2,07,37,34,082,31,46,33,152,45,32,16,069,26,4*47
$GNGGA,100557.000,2500.7847763,N,12132.4689878,E,4,44,0.63,15.895,M,15.25,M,5,3335*4A
$GNRMC,100557.000,A,2500.7847763,N,12132.4689878,E,0.00,56.47,260623,,,R,V*22
$GPHDT,,T*1B
$GNGGA,100557.200,2500.7847739,N,12132.4689883,E,4,44,0.63,15.907,M,15.25,M,5,3335*49
$GNRMC,100557.200,A,2500.7847739,N,12132.4689883,E,0.00,56.47,260623,,,R,V*2B
$GPHDT,,T*1B
$GNGGA,100557.400,2500.7847746,N,12132.4689867,E,4,44,0.63,15.907,M,15.25,M,5,3335*4D
$GNRMC,100557.400,A,2500.7847746,N,12132.4689867,E,0.00,56.47,260623,,,R,V*2F
$GPHDT,,T*1B
$GNGGA,100557.600,2500.7847708,N,12132.4689878,E,4,44,0.63,15.923,M,15.25,M,5,3335*4D
$GNRMC,100557.600,A,2500.7847708,N,12132.4689878,E,0.00,56.47,260623,,,R,V*29
$GPHDT,,T*1B
$GNGGA,100557.800,2500.7847751,N,12132.4689869,E,4,45,0.63,15.907,M,15.25,M,5,3335*48
$GNRMC,100557.800,A,2500.7847751,N,12132.4689869,E,0.00,56.47,260623,,,R,V*2B
$GPHDT,,T*1B
$GNGSA,A,3,196,24,199,15,195,05,13,29,20,194,,,1.17,0.63,0.99,1*01
$GNGSA,A,3,84,69,79,,,,,,,,,,1.17,0.63,0.99,2*0D
$GNGSA,A,3,13,08,15,07,03,,,,,,,,1.17,0.63,0.99,3*0B
$GNGSA,A,3,38,39,16,06,20,29,37,46,30,32,,,1.17,0.63,0.99,4*0B
$GPGSV,4,1,13,196,72,049,41,24,60,175,46,199,60,167,37,15,57,001,27,1*60
$GPGSV,4,2,13,195,49,176,43,05,39,081,30,41,38,242,33,13,34,035,30,1*58
$GPGSV,4,3,13,29,21,224,40,20,20,104,28,194,19,147,26,11,09,148,,1*50
$GPGSV,4,4,13,12,01,168,,1*5B
$GPGSV,2,1,05,196,72,049,47,24,60,175,48,199,60,167,46,195,49,176,46,8*56
$GPGSV,2,2,05,194,19,147,19,8*66
$GLGSV,1,1,03,84,50,207,33,69,27,033,37,79,26,071,31,1*47
$GAGSV,2,1,05,13,62,302,36,08,61,344,26,15,55,169,42,07,35,264,20,7*70
$GAGSV,2,2,05,03,27,042,25,7*41
$GAGSV,2,1,05,13,62,302,43,08,61,344,37,15,55,169,44,07,35,264,22,1*70
$GAGSV,2,2,05,03,27,042,21,1*43
$GBGSV,3,1,11,38,71,031,45,39,70,219,41,08,61,004,,16,61,211,42,1*77
$GBGSV,3,2,11,06,58,211,40,20,49,016,26,29,43,242,43,37,34,082,30,1*73
$GBGSV,3,3,11,46,33,152,44,30,20,183,23,32,16,069,31,1*43
$GBGSV,2,1,07,38,71,031,44,39,70,219,43,20,49,016,32,29,43,242,43,4*7E
$GBGSV,2,2,07,37,34,082,31,46,33,152,45,32,16,069,27,4*46
$GNGGA,100558.000,2500.7847759,N,12132.4689876,E,4,45,0.63,15.909,M,15.25,M,6,3335*44
$GNRMC,100558.000,A,2500.7847759,N,12132.4689876,E,0.00,56.47,260623,,,R,V*2A
$GPHDT,,T*1B
$GNGGA,100558.200,2500.7847733,N,12132.4689860,E,4,45,0.63,15.915,M,15.25,M,6,3335*40
$GNRMC,100558.200,A,2500.7847733,N,12132.4689860,E,0.00,56.47,260623,,,R,V*23
$GPHDT,,T*1B
$GNGGA,100558.400,2500.7847729,N,12132.4689867,E,4,46,0.63,15.926,M,15.25,M,5,3335*4A
$GNRMC,100558.400,A,2500.7847729,N,12132.4689867,E,0.00,56.47,260623,,,R,V*29
$GPHDT,,T*1B
$GNGGA,100558.600,2500.7847752,N,12132.4689882,E,4,45,0.63,15.906,M,15.25,M,5,3335*4E
$GNRMC,100558.600,A,2500.7847752,N,12132.4689882,E,0.00,56.47,260623,,,R,V*2C
$GPHDT,,T*1B
$GNGGA,100558.800,2500.7847723,N,12132.4689905,E,4,45,0.63,15.920,M,15.25,M,3,3335*4A
$GNRMC,100558.800,A,2500.7847723,N,12132.4689905,E,0.00,56.47,260623,,,R,V*2A
$GPHDT,,T*1B
$GNGSA,A,3,196,24,199,15,195,05,13,29,20,194,,,1.17,0.63,0.99,1*01
$GNGSA,A,3,84,69,79,,,,,,,,,,1.17,0.63,0.99,2*0D
$GNGSA,A,3,13,08,15,07,03,,,,,,,,1.17,0.63,0.99,3*0B
$GNGSA,A,3,38,39,16,06,20,29,37,46,30,32,,,1.17,0.63,0.99,4*0B
$GPGSV,4,1,13,196,72,049,41,24,60,175,46,199,60,167,37,15,57,001,28,1*6F
$GPGSV,4,2,13,195,49,176,43,05,39,081,31,41,38,242,33,13,34,035,30,1*59
$GPGSV,4,3,13,29,21,224,41,20,20,104,27,194,19,147,26,11,09,148,,1*5E
$GPGSV,4,4,13,12,01,168,,1*5B
$GPGSV,2,1,05,196,72,049,47,24,60,175,48,199,60,167,46,195,49,176,46,8*56
$GPGSV,2,2,05,194,19,147,19,8*66
$GLGSV,1,1,03,84,50,207,33,69,27,033,37,79,26,071,30,1*46
$GAGSV,2,1,05,13,62,302,36,08,61,344,27,15,55,169,42,07,35,264,20,7*71
$GAGSV,2,2,05,03,27,042,25,7*41
$GAGSV,2,1,05,13,62,302,43,08,61,344,37,15,55,169,44,07,35,264,22,1*70
$GAGSV,2,2,05,03,27,042,22,1*40
$GBGSV,3,1,11,38,71,031,45,39,70,219,41,08,61,004,,16,61,211,42,1*77
$GBGSV,3,2,11,06,58,211,40,20,49,016,25,29,43,242,43,37,34,082,32,1*72
$GBGSV,3,3,11,46,33,152,44,30,20,183,24,32,16,069,31,1*44
$GBGSV,2,1,07,38,71,031,44,39,70,219,43,20,49,016,32,29,43,242,43,4*7E
$GBGSV,2,2,07,37,34,082,31,46,33,152,45,32,16,069,27,4*46
$GNGGA,100559.000,2500.7847699,N,12132.4689901,E,4,45,0.63,15.924,M,15.25,M,2,3335*42
$GNRMC,100559.000,A,2500.7847699,N,12132.4689901,E,0.00,56.47,260623,,,R,V*27
$GPHDT,,T*1B
$GNGGA,100559.200,2500.7847747,N,12132.4689859,E,4,45,0.63,15.918,M,15.25,M,1,3335*42
$GNRMC,100559.200,A,2500.7847747,N,12132.4689859,E,0.00,56.47,260623,,,R,V*2B
$GPHDT,,T*1B
$GNGGA,100559.400,2500.7847744,N,12132.4689905,E,4,45,0.63,15.922,M,15.25,M,1,3335*46
$GNRMC,100559.400,A,2500.7847744,N,12132.4689905,E,0.00,56.47,260623,,,R,V*26
$GPHDT,,T*1B
$GNGGA,100559.600,2500.7847770,N,12132.4689891,E,4,45,0.63,15.889,M,15.25,M,1,3335*4F
$GNRMC,100559.600,A,2500.7847770,N,12132.4689891,E,0.00,56.47,260623,,,R,V*2F
$GPHDT,,T*1B
$GNGGA,100559.800,2500.7847749,N,12132.4689868,E,4,45,0.63,15.904,M,15.25,M,1,3335*49
$GNRMC,100559.800,A,2500.7847749,N,12132.4689868,E,0.00,56.47,260623,,,R,V*2D
$GPHDT,,T*1B
$GNGSA,A,3,196,24,199,15,195,05,13,29,20,194,,,1.17,0.63,0.99,1*01
$GNGSA,A,3,84,69,79,,,,,,,,,,1.17,0.63,0.99,2*0D
$GNGSA,A,3,13,08,15,07,03,,,,,,,,1.17,0.63,0.99,3*0B
$GNGSA,A,3,38,39,16,06,20,29,37,46,30,32,,,1.17,0.63,0.99,4*0B
$GPGSV,4,1,13,196,72,049,41,24,60,175,46,199,60,167,37,15,57,001,28,1*6F
$GPGSV,4,2,13,195,49,176,43,05,39,081,29,41,38,242,33,13,34,035,31,1*51
$GPGSV,4,3,13,29,21,224,41,20,20,104,28,194,19,147,26,11,09,148,,1*51
$GPGSV,4,4,13,12,01,168,,1*5B
$GPGSV,2,1,05,196,72,049,47,24,60,175,48,199,60,167,46,195,49,176,46,8*56
$GPGSV,2,2,05,194,19,147,21,8*6D
$GLGSV,1,1,03,84,50,207,33,69,27,033,37,79,26,071,29,1*4E
$GAGSV,2,1,05,13,62,302,36,08,61,344,27,15,55,169,42,07,35,264,20,7*71
$GAGSV,2,2,05,03,27,042,25,7*41
$GAGSV,2,1,05,13,62,302,43,08,61,344,37,15,55,169,44,07,35,264,21,1*73
$GAGSV,2,2,05,03,27,042,22,1*40
$GBGSV,3,1,11,38,71,031,45,39,70,219,42,08,61,004,,16,61,211,42,1*74
$GBGSV,3,2,11,06,58,211,40,20,49,016,25,29,43,242,43,37,34,082,32,1*72
$GBGSV,3,3,11,46,33,152,44,30,20,183,25,32,16,069,31,1*45
$GBGSV,2,1,07,38,71,031,44,39,70,219,43,20,49,016,32,29,43,242,43,4*7E
$GBGSV,2,2,07,37,34,082,31,46,33,152,45,32,16,069,27,4*46
$GNGGA,100600.000,2500.7847751,N,12132.4689902,E,4,45,0.63,15.897,M,15.25,M,2,3335*42
$GNRMC,100600.000,A,2500.7847751,N,12132.4689902,E,0.00,56.47,260623,,,R,V*2E
$PAIR010,0,1,2268,122778*3D
$GPHDT,,T*1B
$GNGGA,100600.200,2500.7847768,N,12132.4689881,E,4,45,0.63,15.898,M,15.25,M,2,3335*4F
$GNRMC,100600.200,A,2500.7847768,N,12132.4689881,E,0.00,56.47,260623,,,R,V*2C
$GPHDT,,T*1B
$GNGGA,100600.400,2500.7847755,N,12132.4689874,E,4,45,0.63,15.897,M,15.25,M,2,3335*42
$GNRMC,100600.400,A,2500.7847755,N,12132.4689874,E,0.00,56.47,260623,,,R,V*2E
$GPHDT,,T*1B
$GNGGA,100600.600,2500.7847725,N,12132.4689893,E,4,45,0.63,15.919,M,15.25,M,2,3335*49
$GNRMC,100600.600,A,2500.7847725,N,12132.4689893,E,0.00,56.47,260623,,,R,V*22
$GPHDT,,T*1B
$GNGGA,100600.800,2500.7847744,N,12132.4689881,E,4,45,0.63,15.912,M,15.25,M,2,3335*48
$GNRMC,100600.800,A,2500.7847744,N,12132.4689881,E,0.00,56.47,260623,,,R,V*28
$GPHDT,,T*1B
$GNGSA,A,3,196,24,199,15,195,05,13,29,20,194,,,1.17,0.63,0.99,1*01
$GNGSA,A,3,84,69,79,,,,,,,,,,1.17,0.63,0.99,2*0D
$GNGSA,A,3,13,08,15,07,03,,,,,,,,1.17,0.63,0.99,3*0B
$GNGSA,A,3,38,39,16,06,20,29,37,46,30,32,,,1.17,0.63,0.99,4*0B
$GPGSV,4,1,13,196,72,049,41,24,60,175,46,199,60,167,37,15,57,001,28,1*6F
$GPGSV,4,2,13,195,49,176,43,05,39,081,30,41,38,242,33,13,34,035,32,1*5A
$GPGSV,4,3,13,29,21,224,41,20,20,104,28,194,19,147,26,11,09,148,,1*51
$GPGSV,4,4,13,12,01,168,,1*5B
$GPGSV,2,1,05,196,72,049,47,24,60,175,48,199,60,167,46,195,49,176,46,8*56
$GPGSV,2,2,05,194,19,147,23,8*6F
$GLGSV,1,1,03,84,50,207,33,69,27,033,37,79,26,071,29,1*4E
$GAGSV,2,1,05,13,62,302,36,08,61,344,27,15,55,169,42,07,35,264,21,7*70
$GAGSV,2,2,05,03,27,042,24,7*40
$GAGSV,2,1,05,13,62,302,43,08,61,344,37,15,55,169,44,07,35,264,22,1*70
$GAGSV,2,2,05,03,27,042,23,1*41
$GBGSV,3,1,11,38,71,031,45,39,70,219,42,08,61,004,,16,61,211,42,1*74
$GBGSV,3,2,11,06,58,211,40,20,49,016,26,29,43,242,43,37,34,082,32,1*71
$GBGSV,3,3,11,46,33,152,44,30,20,183,25,32,16,070,31,1*4D
$GBGSV,2,1,07,38,