$FW : RTK35X,V1.1X0314AS,Lib20210517,1*54
$Tool : LOCOSYS , GNSS Firebird , v1.0.0.19*39
$---------------------------------------------------*2D
312,21,195,48,176,43,41,38,242,33,05,38,082,32,1*58
$GPGSV,4,3,14,13,33,035,31,29,20,223,33,20,20,105,22,194,19,147,21,1*5B
$GPGSV,4,4,14,11,08,148,,12,01,167,,1*66
$GPGSV,2,1,06,196,72,049,45,24,61,174,46,199,60,167,45,18,48,312,19,8*65
$GPGSV,2,2,06,195,48,176,45,194,19,147,23,8*6C
$GLGSV,1,1,04,84,48,206,34,85,43,305,16,69,27,034,30,79,26,069,30,1*7C
$GAGSV,2,1,07,13,63,300,40,08,61,346,24,15,54,169,41,07,35,265,22,7*71
$GAGSV,2,2,07,03,26,043,28,30,06,163,,25,04,068,,7*42
$GAGSV,2,1,05,13,63,300,42,08,61,346,34,15,54,169,44,07,35,265,23,1*72
$GAGSV,2,2,05,03,26,043,23,1*41
$GBGSV,3,1,12,39,71,221,45,38,71,032,40,08,62,004,22,16,61,212,43,1*7D
$GBGSV,3,2,12,06,59,212,42,20,49,017,27,29,42,241,44,09,42,212,30,1*72
$GBGSV,3,3,12,37,34,080,38,46,34,151,40,30,19,182,17,32,16,070,,1*76
$GBGSV,2,1,07,38,71,032,43,39,71,221,45,20,49,017,24,29,42,241,45,4*74
$GBGSV,2,2,07,37,34,080,26,46,34,151,43,30,19,182,20,4*4E
$GNGGA,100842.000,2500.7855400,N,12132.4700300,E,2,47,0.57,34.58,M,15.25,M,3,3335*7C
$GNRMC,100842.000,A,2500.7855400,N,12132.4700300,E,0.00,202.25,260623,,,D,V*0B
$GPHDT,,T*1B
$GNGGA,100842.200,2500.7855400,N,12132.4700300,E,2,47,0.57,34.59,M,15.25,M,3,3335*7F
$GNRMC,100842.200,A,2500.7855400,N,12132.4700300,E,0.08,202.25,260623,,,D,V*01
$GPHDT,,T*1B
$GNGGA,100842.400,2500.7855300,N,12132.4700300,E,2,47,0.57,34.59,M,15.25,M,3,3335*7E
$GNRMC,100842.400,A,2500.7855300,N,12132.4700300,E,0.03,202.25,260623,,,D,V*0B
$GPHDT,,T*1B
$GNGGA,100842.600,2500.7855300,N,12132.4700300,E,2,46,0.57,34.59,M,15.25,M,3,3335*7D
$GNRMC,100842.600,A,2500.7855300,N,12132.4700300,E,0.05,202.25,260623,,,D,V*0F
$GPHDT,,T*1B
$GNGGA,100842.800,2500.7855300,N,12132.4700300,E,2,46,0.57,34.59,M,15.25,M,3,3335*73
$GNRMC,100842.800,A,2500.7855300,N,12132.4700300,E,0.06,202.25,260623,,,D,V*02
$GPHDT,,T*1B
$GNGSA,A,3,196,24,199,195,05,13,20,29,194,,,,0.91,0.57,0.70,1*0A
$GNGSA,A,3,84,85,69,79,,,,,,,,,0.91,0.57,0.70,2*0F
$GNGSA,A,3,13,08,15,07,03,,,,,,,,0.91,0.57,0.70,3*04
$GNGSA,A,3,39,38,08,16,06,20,29,09,37,46,30,,0.91,0.57,0.70,4*04
$GPGSV,4,1,15,196,72,049,39,24,61,174,47,199,60,167,39,15,56,003,24,1*66
$GPGSV,4,2,15,18,48,312,20,195,48,176,43,41,38,242,33,05,38,082,31,1*5B
$GPGSV,4,3,15,13,33,035,31,23,24,315,,20,20,105,21,29,20,223,33,1*6C
$GPGSV,4,4,15,194,19,147,21,11,08,148,,12,01,167,,1*62
$GPGSV,2,1,06,196,72,049,45,24,61,174,46,199,60,167,45,18,48,312,20,8*6F
$GPGSV,2,2,06,195,48,176,45,194,19,147,20,8*6F
$GLGSV,1,1,04,84,48,206,34,85,43,305,17,69,27,034,29,79,26,069,30,1*75
$GAGSV,2,1,07,13,63,300,39,08,61,346,24,15,54,169,41,07,35,265,22,7*7F
$GAGSV,2,2,07,03,26,043,28,30,06,163,,25,04,068,,7*42
$GAGSV,2,1,05,13,63,300,42,08,61,346,34,15,54,169,44,07,35,265,23,1*72
$GAGSV,2,2,05,03,26,043,23,1*41
$GBGSV,3,1,12,39,71,221,45,38,71,032,40,08,62,004,23,16,61,212,43,1*7C
$GBGSV,3,2,12,06,59,212,41,20,49,017,28,29,42,241,44,09,42,212,30,1*7E
$GBGSV,3,3,12,37,34,080,38,46,34,151,40,30,19,182,16,32,15,071,,1*75
$GBGSV,2,1,07,38,71,032,43,39,71,221,45,20,49,017,24,29,42,241,45,4*74
$GBGSV,2,2,07,37,34,080,25,46,34,151,43,30,19,182,21,4*4C
$GNGGA,100843.000,2500.7855300,N,12132.4700300,E,2,46,0.57,34.59,M,15.25,M,4,3335*7D
$GNRMC,100843.000,A,2500.7855300,N,12132.4700300,E,0.03,202.25,260623,,,D,V*0E
$GPHDT,,T*1B
$GNGGA,100843.200,2500.7855200,N,12132.4700300,E,2,47,0.57,34.59,M,15.25,M,4,3335*7F
$GNRMC,100843.200,A,2500.7855200,N,12132.4700300,E,0.06,202.25,260623,,,D,V*08
$GPHDT,,T*1B
$GNGGA,100843.400,2500.7855100,N,12132.4700300,E,2,47,0.57,34.59,M,15.25,M,4,3335*7A
$GNRMC,100843.400,A,2500.7855100,N,12132.4700300,E,0.04,202.25,260623,,,D,V*0F
$GPHDT,,T*1B
$GNGGA,100843.600,2500.7855100,N,12132.4700300,E,2,47,0.57,34.59,M,15.25,M,4,3335*78
$GNRMC,100843.600,A,2500.7855100,N,12132.4700300,E,0.14,202.25,260623,,,D,V*0C
$GPHDT,,T*1B
$GNGGA,100843.800,2500.7855100,N,12132.4700300,E,2,47,0.57,34.59,M,15.25,M,4,3335*76
$GNRMC,100843.800,A,2500.7855100,N,12132.4700300,E,0.07,202.25,260623,,,D,V*00
$GPHDT,,T*1B
$GNGSA,A,3,196,24,199,15,195,05,13,20,29,194,,,0.90,0.57,0.70,1*0F
$GNGSA,A,3,84,85,69,79,,,,,,,,,0.90,0.57,0.70,2*0E
$GNGSA,A,3,13,08,15,07,03,,,,,,,,0.90,0.57,0.70,3*05
$GNGSA,A,3,39,38,08,16,06,20,29,09,37,46,30,,0.90,0.57,0.70,4*05
$GPGSV,4,1,15,196,72,049,39,24,61,174,47,199,60,167,38,15,56,003,22,1*61
$GPGSV,4,2,15,18,48,312,22,195,48,176,43,41,38,242,33,05,38,082,31,1*59
$GPGSV,4,3,15,13,33,035,32,23,24,315,,20,20,105,22,29,20,223,32,1*6D
$GPGSV,4,4,15,194,19,147,19,11,08,148,,12,01,167,,1*69
$GPGSV,2,1,06,196,72,049,45,24,61,174,46,199,60,167,45,18,48,312,20,8*6F
$GPGSV,2,2,06,195,48,176,45,194,19,147,23,8*6C
$GLGSV,1,1,04,84,48,206,34,85,43,305,17,69,27,034,29,79,26,069,30,1*75
$GAGSV,2,1,07,13,63,300,40,08,61,346,24,15,54,169,41,07,35,265,22,7*71
$GAGSV,2,2,07,03,26,043,28,30,06,163,,25,04,068,,7*42
$GAGSV,2,1,05,13,63,300,42,08,61,346,34,15,54,169,44,07,35,265,23,1*72
$GAGSV,2,2,05,03,26,043,23,1*41
$GBGSV,3,1,12,39,71,221,45,38,71,032,40,08,62,004,23,16,61,212,43,1*7C
$GBGSV,3,2,12,06,59,212,41,20,49,017,28,29,42,241,44,09,42,212,30,1*7E
$GBGSV,3,3,12,37,34,080,38,46,34,151,40,30,19,182,15,32,15,071,,1*76
$GBGSV,2,1,07,38,71,032,43,39,71,221,45,20,49,017,25,29,42,241,45,4*75
$GBGSV,2,2,07,37,34,080,25,46,34,151,43,30,19,182,22,4*4F
$GNGGA,100844.000,2500.7855000,N,12132.4700300,E,2,47,0.57,34.60,M,15.25,M,5,3335*73
$GNRMC,100844.000,A,2500.7855000,N,12132.4700300,E,0.10,202.25,260623,,,D,V*08
$GPHDT,,T*1B
$GNGGA,100844.200,2500.7855000,N,12132.4700300,E,2,47,0.57,34.60,M,15.25,M,5,3335*71
$GNRMC,100844.200,A,2500.7855000,N,12132.4700300,E,0.13,202.25,260623,,,D,V*09
$GPHDT,,T*1B
$GNGGA,100844.400,2500.7854900,N,12132.4700200,E,2,47,0.57,34.60,M,15.25,M,5,3335*7E
$GNRMC,100844.400,A,2500.7854900,N,12132.4700200,E,0.09,202.25,260623,,,D,V*0D
$GPHDT,,T*1B
$GNGGA,100844.600,2500.7854800,N,12132.4700200,E,2,47,0.57,34.60,M,15.25,M,5,3335*7D
$GNRMC,100844.600,A,2500.7854800,N,12132.4700200,E,0.00,202.25,260623,,,D,V*07
$GPHDT,,T*1B
$GNGGA,100844.800,2500.7854800,N,12132.4700200,E,2,47,0.57,34.60,M,15.25,M,5,3335*73
$GNRMC,100844.800,A,2500.7854800,N,12132.4700200,E,0.08,202.25,260623,,,D,V*01
$GPHDT,,T*1B
$GNGSA,A,3,196,24,199,15,195,05,13,20,29,194,,,0.90,0.57,0.70,1*0F
$GNGSA,A,3,84,85,69,79,,,,,,,,,0.90,0.57,0.70,2*0E
$GNGSA,A,3,13,08,15,07,03,,,,,,,,0.90,0.57,0.70,3*05
$GNGSA,A,3,39,38,08,16,06,20,29,09,46,37,30,,0.90,0.57,0.70,4*05
$GPGSV,4,1,15,196,72,049,39,24,61,174,47,199,60,167,38,15,56,003,21,1*62
$GPGSV,4,2,15,18,48,312,21,195,48,176,43,41,38,242,34,05,38,082,31,1*5D
$GPGSV,4,3,15,13,33,035,31,23,24,315,23,20,20,105,20,29,20,223,32,1*6D
$GPGSV,4,4,15,194,19,147,19,11,08,148,,12,01,167,,1*69
$GPGSV,2,1,06,196,72,049,45,24,61,174,46,199,60,167,45,18,48,312,20,8*6F
$GPGSV,2,2,06,195,48,176,45,194,19,147,22,8*6D
$GLGSV,1,1,04,84,48,206,34,85,43,305,17,69,27,034,26,79,26,069,30,1*7A
$GAGSV,2,1,08,13,63,300,40,08,61,346,24,15,54,169,41,07,35,265,22,7*7E
$GAGSV,2,2,08,03,26,043,28,30,06,163,,34,06,152,,25,04,068,,7*7A
$GAGSV,2,1,05,13,63,300,42,08,61,346,34,15,54,169,44,07,35,265,23,1*72
$GAGSV,2,2,05,03,26,043,23,1*41
$GBGSV,3,1,12,39,71,221,45,38,71,032,40,08,62,004,24,16,61,212,43,1*7B
$GBGSV,3,2,12,06,59,212,41,20,49,017,28,29,42,241,44,09,42,212,30,1*7E
$GBGSV,3,3,12,46,35,151,40,37,34,080,38,30,19,182,15,32,15,071,,1*77
$GBGSV,2,1,07,38,71,032,43,39,71,221,45,20,49,017,25,29,42,241,45,4*75
$GBGSV,2,2,07,46,35,151,43,37,34,080,26,30,19,182,22,4*4D
$GNGGA,100845.000,2500.7854800,N,12132.4700100,E,2,47,0.57,34.60,M,15.25,M,6,3335*7A
$GNRMC,100845.000,A,2500.7854800,N,12132.4700100,E,0.02,202.25,260623,,,D,V*01
$GPHDT,,T*1B
$GNGGA,100845.200,2500.7854800,N,12132.4700100,E,2,47,0.57,34.60,M,15.25,M,6,3335*78
$GNRMC,100845.200,A,2500.7854800,N,12132.4700100,E,0.02,202.25,260623,,,D,V*03
$GPHDT,,T*1B
$GNGGA,100845.400,2500.7854800,N,12132.4700100,E,2,47,0.57,34.60,M,15.25,M,6,3335*7E
$GNRMC,100845.400,A,2500.7854800,N,12132.4700100,E,0.09,202.25,260623,,,D,V*0E
$GPHDT,,T*1B
$GNGGA,100845.600,2500.7854700,N,12132.4700100,E,2,47,0.57,34.60,M,15.25,M,6,3335*73
$GNRMC,100845.600,A,2500.7854700,N,12132.4700100,E,0.11,202.25,260623,,,D,V*0A
$GPHDT,,T*1B
$GNGGA,100845.800,2500.7854700,N,12132.4700100,E,2,47,0.57,34.59,M,15.25,M,6,3335*77
$GNRMC,100845.800,A,2500.7854700,N,12132.4700100,E,0.06,202.25,260623,,,D,V*02
$GPHDT,,T*1B
$GNGSA,A,3,196,24,199,15,195,05,13,20,29,194,,,0.90,0.57,0.70,1*0F
$GNGSA,A,3,84,85,69,79,,,,,,,,,0.90,0.57,0.70,2*0E
$GNGSA,A,3,13,08,15,07,03,,,,,,,,0.90,0.57,0.70,3*05
$GNGSA,A,3,39,38,08,16,06,20,09,29,46,37,30,,0.90,0.57,0.70,4*05
$GPGSV,4,1,15,196,72,049,39,24,61,174,47,199,60,167,38,15,56,003,20,1*63
$GPGSV,4,2,15,18,48,312,19,195,48,176,43,05,38,082,31,41,38,242,34,1*56
$GPGSV,4,3,15,13,33,035,32,23,24,315,22,20,20,105,20,29,20,223,32,1*6F
$GPGSV,4,4,15,194,19,147,19,11,08,148,,12,01,167,,1*69
$GPGSV,2,1,06,196,72,049,45,24,61,174,46,199,60,167,45,18,48,312,20,8*6F
$GPGSV,2,2,06,195,48,176,45,194,19,147,21,8*6E
$GLGSV,2,1,05,84,48,206,33,85,43,305,17,69,27,034,22,79,26,069,29,1*73
$GLGSV,2,2,05,73,02,175,,1*48
$GAGSV,2,1,08,13,63,300,40,08,61,346,22,15,54,169,41,07,35,265,23,7*79
$GAGSV,2,2,08,03,26,043,28,34,06,152,,30,06,163,,25,04,068,,7*7A
$GAGSV,2,1,05,13,63,300,42,08,61,346,34,15,54,169,44,07,35,265,24,1*75
$GAGSV,2,2,05,03,26,043,24,1*46
$GBGSV,4,1,13,39,71,221,45,38,71,032,40,08,62,004,24,16,61,212,43,1*7D
$GBGSV,4,2,13,06,59,212,41,20,49,017,27,09,42,212,30,29,42,241,44,1*77
$GBGSV,4,3,13,46,35,151,40,37,34,080,38,30,19,182,16,32,15,071,,1*72
$GBGSV,4,4,13,10,07,210,,1*41
$GBGSV,2,1,07,38,71,032,43,39,71,221,45,20,49,017,25,29,42,241,45,4*75
$GBGSV,2,2,07,46,35,151,43,37,34,080,26,30,19,182,22,4*4D
$GNGGA,100846.000,2500.7854600,N,12132.4700000,E,2,47,0.57,34.59,M,15.25,M,5,3335*7F
$GNRMC,100846.000,A,2500.7854600,N,12132.4700000,E,0.09,202.25,260623,,,D,V*06
$GPHDT,,T*1B
$GNGGA,100846.200,2500.7854600,N,12132.4700000,E,2,47,0.57,34.59,M,15.25,M,4,3335*7C
$GNRMC,100846.200,A,2500.7854600,N,12132.4700000,E,0.05,202.25,260623,,,D,V*08
$GPHDT,,T*1B
$GNGGA,100846.400,2500.7854600,N,12132.4700000,E,2,47,0.57,34.59,M,15.25,M,1,3335*7F
$GNRMC,100846.400,A,2500.7854600,N,12132.4700000,E,0.04,202.25,260623,,,D,V*0F
$GPHDT,,T*1B
$GNGGA,100846.600,2500.7854500,N,12132.4700000,E,2,46,0.57,34.59,M,15.25,M,1,3335*7F
$GNRMC,100846.600,A,2500.7854500,N,12132.4700000,E,0.11,202.25,260623,,,D,V*0A
$GPHDT,,T*1B
$GNGGA,100846.800,2500.7854500,N,12132.4700000,E,2,46,0.57,34.59,M,15.25,M,0,3335*70
$GNRMC,100846.800,A,2500.7854500,N,12132.4700000,E,0.04,202.25,260623,,,D,V*00
$GPHDT,,T*1B
$GNGSA,A,3,196,24,199,15,195,05,13,20,29,194,,,0.90,0.57,0.70,1*0F
$GNGSA,A,3,84,85,69,79,,,,,,,,,0.90,0.57,0.70,2*0E
$GNGSA,A,3,13,08,15,07,03,,,,,,,,0.90,0.57,0.70,3*05
$GNGSA,A,3,39,38,08,16,06,20,29,09,46,37,30,,0.90,0.57,0.70,4*05
$GPGSV,4,1,15,196,72,049,39,24,61,174,47,199,60,167,38,15,56,003,21,1*62
$GPGSV,4,2,15,18,48,312,20,195,48,176,43,41,38,242,34,05,38,082,31,1*5C
$GPGSV,4,3,15,13,33,035,30,23,24,315,20,20,20,105,20,29,20,223,32,1*6F
$GPGSV,4,4,15,194,19,147,17,11,08,148,,12,01,167,,1*67
$GPGSV,2,1,06,196,72,049,45,24,61,174,46,199,60,167,46,18,48,312,22,8*6E
$GPGSV,2,2,06,195,48,176,45,194,19,147,22,8*6D
$GLGSV,1,1,04,84,48,206,33,85,43,305,17,69,27,034,20,79,26,069,30,1*7B
$GAGSV,2,1,07,13,63,300,40,08,61,346,21,15,54,169,41,07,35,265,21,7*77
$GAGSV,2,2,07,03,26,043,28,34,06,152,,25,04,068,,7*44
$GAGSV,2,1,05,13,63,300,42,08,61,346,34,15,54,169,44,07,35,265,24,1*75
$GAGSV,2,2,05,03,26,043,24,1*46
$GBGSV,3,1,12,39,71,221,45,38,71,032,40,08,62,004,24,16,61,212,43,1*7B
$GBGSV,3,2,12,06,59,212,41,20,49,017,27,29,42,241,44,09,42,212,30,1*71
$GBGSV,3,3,12,46,35,151,40,37,34,080,38,30,19,182,16,32,15,071,,1*74
$GBGSV,2,1,07,38,71,032,43,39,71,221,45,20,49,017,25,29,42,241,45,4*75
$GBGSV,2,2,07,46,35,151,43,37,34,080,27,30,19,182,23,4*4D
$GNGGA,100847.000,2500.7854500,N,12132.4700000,E,2,46,0.57,34.59,M,15.25,M,1,3335*78
$GNRMC,100847.000,A,2500.7854500,N,12132.4700000,E,0.08,202.25,260623,,,D,V*05
$GPHDT,,T*1B
$GNGGA,100847.200,2500.7854400,N,12132.4699900,E,2,46,0.57,34.59,M,15.25,M,1,3335*73
$GNRMC,100847.200,A,2500.7854400,N,12132.4699900,E,0.09,202.25,260623,,,D,V*0F
$GPHDT,,T*1B
$GNGGA,100847.400,2500.7854400,N,12132.4700000,E,2,46,0.57,34.59,M,15.25,M,1,3335*7D
$GNRMC,100847.400,A,2500.7854400,N,12132.4700000,E,0.08,202.25,260623,,,D,V*00
$GPHDT,,T*1B
$GNGGA,100847.600,2500.7854300,N,12132.4699900,E,2,46,0.57,34.60,M,15.25,M,0,3335*7B
$GNRMC,100847.600,A,2500.7854300,N,12132.4699900,E,0.10,202.25,260623,,,D,V*04
$GPHDT,,T*1B
$GNGGA,100847.800,2500.7854200,N,12132.4699900,E,2,46,0.57,34.60,M,15.25,M,0,3335*74
$GNRMC,100847.800,A,2500.7854200,N,12132.4699900,E,0.11,202.25,260623,,,D,V*0A
$GPHDT,,T*1B
$GNGSA,A,3,196,24,199,15,195,05,13,20,29,194,,,0.90,0.57,0.70,1*0F
$GNGSA,A,3,84,85,69,79,,,,,,,,,0.90,0.57,0.70,2*0E
$GNGSA,A,3,13,08,15,07,03,,,,,,,,0.90,0.57,0.70,3*05
$GNGSA,A,3,39,38,08,16,06,20,29,09,46,37,30,,0.90,0.57,0.70,4*05
$GPGSV,4,1,15,196,72,049,39,24,61,174,47,199,60,167,38,15,56,003,20,1*63
$GPGSV,4,2,15,18,48,312,20,195,48,176,43,41,38,242,33,05,38,082,31,1*5B
$GPGSV,4,3,15,13,33,035,30,23,24,315,21,20,20,105,20,29,20,223,32,1*6E
$GPGSV,4,4,15,194,19,147,17,11,08,148,,12,01,167,,1*67
$GPGSV,2,1,06,196,72,049,45,24,61,174,46,199,60,167,46,18,48,312,21,8*6D
$GPGSV,2,2,06,195,48,176,45,194,19,147,21,8*6E
$GLGSV,1,1,04,84,48,206,33,85,43,305,17,69,27,034,18,79,26,069,29,1*78
$GAGSV,2,1,07,13,63,300,40,08,61,346,21,15,54,169,41,07,35,265,23,7*75
$GAGSV,2,2,07,03,26,043,28,34,06,152,,25,04,068,,7*44
$GAGSV,2,1,05,13,63,300,41,08,61,346,34,15,54,169,44,07,35,265,24,1*76
$GAGSV,2,2,05,03,26,043,24,1*46
$GBGSV,3,1,12,39,71,221,45,38,71,032,40,08,62,004,24,16,61,212,43,1*7B
$GBGSV,3,2,12,06,59,212,41,20,49,017,27,29,42,241,44,09,42,212,31,1*70
$GBGSV,3,3,12,46,35,151,40,37,34,080,37,30,19,182,16,32,15,071,,1*7B
$GBGSV,2,1,07,38,71,032,43,39,71,221,45,20,49,017,25,29,42,241,45,4*75
$GBGSV,2,2,07,46,35,151,43,37,34,080,25,30,19,182,23,4*4F
$GNGGA,100848.000,2500.7854200,N,12132.4699800,E,2,47,0.57,34.60,M,15.25,M,1,3335*72
$GNRMC,100848.000,A,2500.7854200,N,12132.4699800,E,0.11,202.25,260623,,,D,V*0C
$GPHDT,,T*1B
$GNGGA,100848.200,2500.7854100,N,12132.4699800,E,2,46,0.57,34.61,M,15.25,M,1,3335*73
$GNRMC,100848.200,A,2500.7854100,N,12132.4699800,E,0.08,202.25,260623,,,D,V*05
$GPHDT,,T*1B
$GNGGA,100848.400,2500.7854100,N,12132.4699700,E,2,46,0.57,34.61,M,15.25,M,1,3335*7A
$GNRMC,100848.400,A,2500.7854100,N,12132.4699700,E,0.07,202.25,260623,,,D,V*03
$GPHDT,,T*1B
$GNGGA,100848.600,2500.7854000,N,12132.4699700,E,2,47,0.57,34.61,M,15.25,M,1,3335*78
$GNRMC,100848.600,A,2500.7854000,N,12132.4699700,E,0.09,202.25,260623,,,D,V*0E
$GPHDT,,T*1B
$GNGGA,100848.800,2500.7853900,N,12132.4699700,E,2,46,0.57,34.61,M,15.25,M,0,3335*78
$GNRMC,100848.800,A,2500.7853900,N,12132.4699700,E,0.04,202.25,260623,,,D,V*03
$GPHDT,,T*1B
$GNGSA,A,3,196,24,199,15,195,05,13,20,29,194,,,0.90,0.57,0.70,1*0F
$GNGSA,A,3,84,85,69,79,,,,,,,,,0.90,0.57,0.70,2*0E
$GNGSA,A,3,13,08,15,07,03,,,,,,,,0.90,0.57,0.70,3*05
$GNGSA,A,3,39,38,08,16,06,20,09,29,46,37,30,,0.90,0.57,0.70,4*05
$GPGSV,4,1,15,196,72,049,39,24,61,174,47,199,60,167,38,15,56,003,20,1*63
$GPGSV,4,2,15,18,48,312,21,195,48,176,43,41,38,242,33,05,38,082,30,1*5B
$GPGSV,4,3,15,13,33,035,30,23,24,315,23,20,20,105,18,29,20,223,32,1*67
$GPGSV,4,4,15,194,19,147,17,11,08,148,,12,01,167,,1*67
$GPGSV,2,1,06,196,72,049,45,24,61,174,46,199,60,167,46,18,48,312,21,8*6D
$GPGSV,2,2,06,195,48,176,45,194,19,147,21,8*6E
$GLGSV,1,1,04,84,48,206,33,85,43,305,17,69,27,034,18,79,26,069,28,1*79
$GAGSV,2,1,07,13,63,300,40,08,61,346,21,15,54,169,41,07,35,265,22,7*74
$GAGSV,2,2,07,03,26,043,27,34,06,152,,25,04,068,,7*4B
$GAGSV,2,1,05,13,63,300,41,08,61,346,34,15,54,169,44,07,35,265,24,1*76
$GAGSV,2,2,05,03,26,043,24,1*46
$GBGSV,4,1,14,39,71,221,45,38,71,032,39,08,62,004,24,16,61,212,43,1*74
$GBGSV,4,2,14,06,59,212,41,20,49,017,26,09,42,212,30,29,42,241,44,1*71
$GBGSV,4,3,14,46,35,151,40,37,34,080,36,30,19,182,16,32,15,071,,1*7B
$GBGSV,4,4,14,40,03,192,,23,02,040,,1*79
$GBGSV,2,1,07,38,71,032,43,39,71,221,45,20,49,017,25,29,42,241,45,4*75
$GBGSV,2,2,07,46,35,151,43,37,34,080,25,30,19,182,24,4*48
$GNGGA,100849.000,2500.7853900,N,12132.4699700,E,2,47,0.57,34.61,M,15.25,M,1,3335*71
$GNRMC,100849.000,A,2500.7853900,N,12132.4699700,E,0.12,202.25,260623,,,D,V*0D
$GPHDT,,T*1B
$GNGGA,100849.200,2500.7853800,N,12132.4699600,E,2,46,0.57,34.61,M,15.25,M,1,3335*72
$GNRMC,100849.200,A,2500.7853800,N,12132.4699600,E,0.11,202.25,260623,,,D,V*0C
$GPHDT,,T*1B
$GNGGA,100849.400,2500.7853800,N,12132.4699500,E,2,46,0.57,34.61,M,15.25,M,1,3335*77
$GNRMC,100849.400,A,2500.7853800,N,12132.4699500,E,0.11,202.25,260623,,,D,V*09
$GPHDT,,T*1B
$GNGGA,100849.600,2500.7853700,N,12132.4699400,E,2,47,0.57,34.62,M,15.25,M,1,3335*79
$GNRMC,100849.600,A,2500.7853700,N,12132.4699400,E,0.08,202.25,260623,,,D,V*0D
$GPHDT,,T*1B
$GNGGA,100849.800,2500.7853700,N,12132.4699400,E,2,47,0.57,34.62,M,15.25,M,0,3335*76
$GNRMC,100849.800,A,2500.7853700,N,12132.4699400,E,0.11,202.25,260623,,,D,V*0B
$GPHDT,,T*1B
$GNGSA,A,3,196,24,199,15,195,05,20,29,194,,,,0.92,0.58,0.71,1*01
$GNGSA,A,3,84,85,69,79,,,,,,,,,0.92,0.58,0.71,2*02
$GNGSA,A,3,13,08,15,07,03,,,,,,,,0.92,0.58,0.71,3*09
$GNGSA,A,3,39,38,08,16,06,20,29,09,46,37,30,,0.92,0.58,0.71,4*09
$GPGSV,4,1,15,196,72,049,37,24,61,174,47,199,60,167,38,15,56,003,22,1*6F
$GPGSV,4,2,15,18,48,312,22,195,48,176,44,41,38,242,35,05,38,082,32,1*5B
$GPGSV,4,3,15,13,33,035,27,23,24,315,23,20,20,105,18,29,20,223,33,1*60
$GPGSV,4,4,15,194,19,147,16,11,08,148,,12,01,167,,1*66
$GPGSV,2,1,06,196,72,049,45,24,61,174,47,199,60,167,46,18,48,312,21,8*6C
$GPGSV,2,2,06,195,48,176,45,194,19,147,21,8*6E
$GLGSV,1,1,04,84,48,206,33,85,43,305,17,69,27,034,21,79,26,069,28,1*73
$GAGSV,2,1,06,13,63,300,40,08,61,346,23,15,54,169,41,07,35,265,22,7*77
$GAGSV,2,2,06,03,26,043,26,34,06,152,,7*76
$GAGSV,2,1,05,13,63,300,42,08,61,346,34,15,54,169,45,07,35,265,24,1*74
$GAGSV,2,2,05,03,26,043,24,1*46
$GBGSV,3,1,12,39,71,221,45,38,71,032,39,08,62,004,22,16,61,212,43,1*73
$GBGSV,3,2,12,06,59,212,42,20,49,017,27,29,42,241,44,09,42,212,29,1*7A
$GBGSV,3,3,12,46,35,151,40,37,34,080,32,30,19,182,18,32,15,071,,1*70
$GBGSV,2,1,07,38,71,032,43,39,71,221,45,20,49,017,24,29,42,241,45,4*74
$GBGSV,2,2,07,46,35,151,43,37,34,080,29,30,19,182,24,4*44
$GNGGA,100850.000,2500.7853600,N,12132.4699400,E,2,46,0.58,34.62,M,15.25,M,1,3335*78
$GNRMC,100850.000,A,2500.7853600,N,12132.4699400,E,0.11,202.25,260623,,,D,V*0A
$GPHDT,,T*1B
$GNGGA,100850.200,2500.7853600,N,12132.4699400,E,2,45,0.58,34.62,M,15.25,M,1,3335*79
$GNRMC,100850.200,A,2500.7853600,N,12132.4699400,E,0.13,202.25,260623,,,D,V*0A
$GPHDT,,T*1B
$GNGGA,100850.400,2500.7853500,N,12132.4699300,E,2,45,0.58,34.62,M,15.25,M,1,3335*7B
$GNRMC,100850.400,A,2500.7853500,N,12132.4699300,E,0.08,202.25,260623,,,D,V*02
$GPHDT,,T*1B
$GNGGA,100850.600,2500.7853500,N,12132.4699300,E,2,47,0.57,34.61,M,15.25,M,0,3335*76
$GNRMC,100850.600,A,2500.7853500,N,12132.4699300,E,0.09,202.25,260623,,,D,V*01
$GPHDT,,T*1B
$GNGGA,100850.800,2500.7853400,N,12132.4699200,E,2,47,0.57,34.62,M,15.25,M,0,3335*7B
$GNRMC,100850.800,A,2500.7853400,N,12132.4699200,E,0.03,202.25,260623,,,D,V*05
$GPHDT,,T*1B
$GNGSA,A,3,196,24,199,15,195,05,13,20,29,194,,,0.90,0.57,0.70,1*0F
$GNGSA,A,3,84,85,69,79,,,,,,,,,0.90,0.57,0.70,2*0E
$GNGSA,A,3,13,08,15,07,03,,,,,,,,0.90,0.57,0.70,3*05
$GNGSA,A,3,39,38,08,16,06,20,29,09,46,37,30,,0.90,0.57,0.70,4*05
$GPGSV,4,1,15,196,72,049,37,24,61,174,47,199,60,167,38,15,56,003,22,1*6F
$GPGSV,4,2,15,18,48,312,23,195,48,176,44,41,38,242,35,05,38,082,32,1*5A
$GPGSV,4,3,15,13,33,035,36,23,24,315,23,20,20,105,18,29,20,223,33,1*60
$GPGSV,4,4,15,194,19,147,18,11,07,148,,12,01,167,,1*67
$GPGSV,2,1,06,196,72,049,44,24,61,174,46,199,60,167,46,18,48,312,20,8*6D
$GPGSV,2,2,06,195,48,176,45,194,19,147,20,8*6F
$GLGSV,1,1,04,84,48,206,33,85,43,305,17,69,27,034,26,79,26,069,29,1*75
$GAGSV,2,1,06,13,63,300,40,08,61,346,22,15,54,169,42,07,35,265,21,7*76
$GAGSV,2,2,06,03,26,043,27,34,06,152,,7*77
$GAGSV,2,1,05,13,63,300,42,08,61,346,33,15,54,169,45,07,35,265,24,1*73
$GAGSV,2,2,05,03,26,043,24,1*46
$GBGSV,3,1,12,39,71,221,45,38,71,032,39,08,62,004,19,16,61,212,43,1*7B
$GBGSV,3,2,12,06,59,212,42,20,49,017,26,29,42,241,44,09,42,212,27,1*75
$GBGSV,3,3,12,46,35,151,40,37,34,080,27,30,19,182,19,32,15,071,,1*75
$GBGSV,2,1,07,38,71,032,43,39,71,221,45,20,49,017,20,29,42,241,45,4*70
$GBGSV,2,2,07,46,35,151,43,37,34,080,29,30,19,182,22,4*42
$GNGGA,100851.000,2500.7853300,N,12132.4699200,E,2,47,0.57,34.62,M,15.25,M,1,3335*74
$GNRMC,100851.000,A,2500.7853300,N,12132.4699200,E,0.06,202.25,260623,,,D,V*0E
$GPHDT,,T*1B
$GNGGA,100851.200,2500.7853300,N,12132.4699200,E,2,47,0.57,34.62,M,15.25,M,1,3335*76
$GNRMC,100851.200,A,2500.7853300,N,12132.4699200,E,0.06,202.25,260623,,,D,V*0C
$GPHDT,,T*1B
$GNGGA,100851.400,2500.7853300,N,12132.4699200,E,2,47,0.57,34.62,M,15.25,M,1,3335*70
$GNRMC,100851.400,A,2500.7853300,N,12132.4699200,E,0.05,202.25,260623,,,D,V*09
$GPHDT,,T*1B
$GNGGA,100851.600,2500.7853300,N,12132.4699100,E,2,47,0.57,34.62,M,15.25,M,0,3335*70
$GNRMC,100851.600,A,2500.7853300,N,12132.4699100,E,0.02,202.25,260623,,,D,V*0F
$GPHDT,,T*1B
$GNGGA,100851.800,2500.7853200,N,12132.4699100,E,2,47,0.57,34.62,M,15.25,M,0,3335*7F
$GNRMC,100851.800,A,2500.7853200,N,12132.4699100,E,0.05,202.25,260623,,,D,V*07
$GPHDT,,T*1B
$GNGSA,A,3,196,24,199,15,195,05,13,20,29,194,,,0.90,0.57,0.70,1*0F
$GNGSA,A,3,84,85,69,79,,,,,,,,,0.90,0.57,0.70,2*0E
$GNGSA,A,3,13,08,15,07,03,,,,,,,,0.90,0.57,0.70,3*05
$GNGSA,A,3,39,38,08,16,06,20,29,09,46,30,37,,0.90,0.57,0.70,4*05
$GPGSV,4,1,15,196,72,049,37,24,61,174,47,199,60,167,38,15,56,004,24,1*6E
$GPGSV,4,2,15,18,48,312,23,195,48,176,44,41,38,242,35,05,38,082,32,1*5A
$GPGSV,4,3,15,13,33,035,35,23,24,315,22,20,20,105,18,29,20,223,33,1*62
$GPGSV,4,4,15,194,19,147,19,11,07,148,,12,01,167,,1*66
$GPGSV,2,1,06,196,72,049,44,24,61,174,46,199,60,167,45,18,48,312,21,8*6F
$GPGSV,2,2,06,195,48,176,45,194,19,147,21,8*6E
$GLGSV,1,1,04,84,48,206,33,85,43,305,17,69,27,034,29,79,26,069,30,1*72
$GAGSV,2,1,06,13,63,300,39,08,61,346,24,15,54,169,42,07,35,265,21,7*7E
$GAGSV,2,2,06,03,26,043,27,34,06,152,,7*77
$GAGSV,2,1,05,13,63,300,42,08,61,346,34,15,54,169,45,07,35,265,24,1*74
$GAGSV,2,2,05,03,26,043,25,1*47
$GBGSV,3,1,12,39,71,221,45,38,71,032,39,08,62,004,19,16,61,212,43,1*7B
$GBGSV,3,2,12,06,59,212,42,20,49,017,26,29,42,241,44,09,42,212,27,1*75
$GBGSV,3,3,12,46,35,151,40,37,34,080,,30,19,182,22,32,15,071,,1*78
$GBGSV,2,1,07,38,71,032,43,39,71,221,44,20,49,017,20,29,42,241,45,4*71
$GBGSV,2,2,07,46,35,151,43,37,34,080,29,30,19,182,22,4*42
$GNGGA,100852.000,2500.7853200,N,12132.4699100,E,2,46,0.57,34.62,M,15.25,M,1,3335*74
$GNRMC,100852.000,A,2500.7853200,N,12132.4699100,E,0.05,202.25,260623,,,D,V*0C
$GPHDT,,T*1B
$GNGGA,100852.200,2500.7853200,N,12132.4699100,E,2,46,0.57,34.62,M,15.25,M,1,3335*76
$GNRMC,100852.200,A,2500.7853200,N,12132.4699100,E,0.09,202.25,260623,,,D,V*02
$GPHDT,,T*1B
$GNGGA,100852.400,2500.7853100,N,12132.4699100,E,2,47,0.56,34.62,M,15.25,M,1,3335*73
$GNRMC,100852.400,A,2500.7853100,N,12132.4699100,E,0.05,202.25,260623,,,D,V*0B
