$FW : RTK35X,V1.1X0314AS,Lib20210517,1*54
$Tool : LOCOSYS , GNSS Firebird , v1.0.0.19*39
$---------------------------------------------------*2D
$GPHDT,,T*1B
$GNGGA,100750.800,2500.7861891,N,12132.4694014,E,2,47,0.57,13.325,M,15.25,M,0,3335*4E
$GNRMC,100750.800,A,2500.7861891,N,12132.4694014,E,0.03,78.22,260623,,,D,V*3D
$GPHDT,,T*1B
$GNGSA,A,3,196,24,199,15,195,05,13,29,20,194,,,0.90,0.57,0.70,1*0F
$GNGSA,A,3,84,85,69,79,,,,,,,,,0.90,0.57,0.70,2*0E
$GNGSA,A,3,13,08,15,07,03,,,,,,,,0.90,0.57,0.70,3*05
$GNGSA,A,3,39,38,08,16,06,20,29,09,37,46,30,,0.90,0.57,0.70,4*05
$GPGSV,4,1,14,196,72,049,38,24,61,174,45,199,60,167,36,15,57,003,33,1*6C
$GPGSV,4,2,14,18,48,312,22,195,48,176,38,41,38,242,31,05,38,082,31,1*56
$GPGSV,4,3,14,13,33,035,32,29,20,223,41,20,20,105,17,194,19,147,24,1*5E
$GPGSV,4,4,14,11,08,148,,12,01,167,,1*66
$GPGSV,2,1,06,196,72,049,46,24,61,174,46,199,60,167,46,18,48,312,25,8*6A
$GPGSV,2,2,06,195,48,176,40,194,19,147,23,8*69
$GLGSV,1,1,04,84,49,206,29,85,43,305,17,69,27,034,35,79,26,070,27,1*7B
$GAGSV,2,1,08,13,63,301,38,08,61,345,25,15,54,169,41,07,35,265,18,7*7B
$GAGSV,2,2,08,03,26,043,20,26,12,323,,30,06,163,,25,04,069,,7*71
$GAGSV,2,1,05,13,63,301,40,08,61,345,38,15,54,169,44,07,35,265,20,1*7D
$GAGSV,2,2,05,03,26,043,29,1*4B
$GBGSV,3,1,12,39,71,220,44,38,71,032,46,08,62,004,28,16,61,212,43,1*71
$GBGSV,3,2,12,06,59,212,40,20,49,017,23,29,42,241,46,09,42,211,33,1*76
$GBGSV,3,3,12,37,34,080,36,46,34,151,39,30,19,182,19,32,16,070,,1*78
$GBGSV,2,1,07,38,71,032,46,39,71,220,43,20,49,017,21,29,42,241,42,4*74
$GBGSV,2,2,07,37,34,080,31,46,34,151,43,30,19,182,13,4*48
$GNGGA,100751.000,2500.7861891,N,12132.4694074,E,2,47,0.57,13.329,M,15.25,M,1,3335*4C
$GNRMC,100751.000,A,2500.7861891,N,12132.4694074,E,0.07,78.22,260623,,,D,V*36
$GPHDT,,T*1B
$GNGGA,100751.200,2500.7861891,N,12132.4694014,E,2,47,0.57,13.334,M,15.25,M,1,3335*44
$GNRMC,100751.200,A,2500.7861891,N,12132.4694014,E,0.09,78.22,260623,,,D,V*3C
$GPHDT,,T*1B
$GNGGA,100751.400,2500.7861891,N,12132.4694014,E,2,47,0.57,13.338,M,15.25,M,1,3335*4E
$GNRMC,100751.400,A,2500.7861891,N,12132.4694014,E,0.04,78.22,260623,,,D,V*37
$GPHDT,,T*1B
$GNGGA,100751.600,2500.7861831,N,12132.4694014,E,2,47,0.57,13.341,M,15.25,M,0,3335*49
$GNRMC,100751.600,A,2500.7861831,N,12132.4694014,E,0.01,78.22,260623,,,D,V*3A
$GPHDT,,T*1B
$GNGGA,100751.800,2500.7861831,N,12132.4694014,E,2,47,0.57,13.344,M,15.25,M,0,3335*42
$GNRMC,100751.800,A,2500.7861831,N,12132.4694014,E,0.04,78.22,260623,,,D,V*31
$GPHDT,,T*1B
$GNGSA,A,3,196,24,199,15,195,05,13,29,20,194,,,0.90,0.57,0.70,1*0F
$GNGSA,A,3,84,85,69,79,,,,,,,,,0.90,0.57,0.70,2*0E
$GNGSA,A,3,13,08,15,07,03,,,,,,,,0.90,0.57,0.70,3*05
$GNGSA,A,3,39,38,08,16,06,20,29,09,37,46,30,,0.90,0.57,0.70,4*05
$GPGSV,4,1,14,196,72,049,39,24,61,174,45,199,60,167,35,15,57,003,35,1*68
$GPGSV,4,2,14,18,48,312,23,195,48,176,36,41,38,242,31,05,38,082,32,1*5A
$GPGSV,4,3,14,13,33,035,33,29,20,223,41,20,20,105,17,194,19,147,24,1*5F
$GPGSV,4,4,14,11,08,148,,12,01,167,,1*66
$GPGSV,2,1,06,196,72,049,47,24,61,174,46,199,60,167,46,18,48,312,23,8*6D
$GPGSV,2,2,06,195,48,176,41,194,19,147,19,8*61
$GLGSV,1,1,04,84,49,206,29,85,43,305,17,69,27,034,35,79,26,070,24,1*78
$GAGSV,2,1,07,13,63,301,38,08,61,345,26,15,54,169,41,07,35,265,19,7*76
$GAGSV,2,2,07,03,26,043,19,30,06,163,,25,04,069,,7*41
$GAGSV,2,1,05,13,63,301,41,08,61,345,37,15,54,169,44,07,35,265,19,1*79
$GAGSV,2,2,05,03,26,043,29,1*4B
$GBGSV,3,1,12,39,71,220,45,38,71,032,46,08,62,004,28,16,61,212,43,1*70
$GBGSV,3,2,12,06,59,212,40,20,49,017,31,29,42,241,44,09,42,211,33,1*77
$GBGSV,3,3,12,37,34,080,36,46,34,151,36,30,19,182,19,32,16,070,,1*77
$GBGSV,2,1,07,38,71,032,45,39,71,220,44,20,49,017,24,29,42,241,42,4*75
$GBGSV,2,2,07,37,34,080,31,46,34,151,41,30,19,182,13,4*4A
$GNGGA,100752.000,2500.7861831,N,12132.4694014,E,2,47,0.57,13.347,M,15.25,M,1,3335*4B
$GNRMC,100752.000,A,2500.7861831,N,12132.4694014,E,0.07,78.22,260623,,,D,V*39
$GPHDT,,T*1B
$GNGGA,100752.200,2500.7861831,N,12132.4694014,E,2,47,0.57,13.347,M,15.25,M,1,3335*49
$GNRMC,100752.200,A,2500.7861831,N,12132.4694014,E,0.07,78.22,260623,,,D,V*3B
$GPHDT,,T*1B
$GNGGA,100752.400,2500.7861831,N,12132.4694014,E,2,47,0.57,13.351,M,15.25,M,1,3335*48
$GNRMC,100752.400,A,2500.7861831,N,12132.4694014,E,0.07,78.22,260623,,,D,V*3D
$GPHDT,,T*1B
$GNGGA,100752.600,2500.7861831,N,12132.4694014,E,2,46,0.57,13.353,M,15.25,M,1,3335*49
$GNRMC,100752.600,A,2500.7861831,N,12132.4694014,E,0.11,78.22,260623,,,D,V*38
$GPHDT,,T*1B
$GNGGA,100752.800,2500.7861831,N,12132.4693954,E,2,46,0.57,13.355,M,15.25,M,0,3335*4A
$GNRMC,100752.800,A,2500.7861831,N,12132.4693954,E,0.04,78.22,260623,,,D,V*38
$GPHDT,,T*1B
$GNGSA,A,3,196,24,199,15,195,05,13,29,20,194,,,0.90,0.57,0.70,1*0F
$GNGSA,A,3,84,85,69,79,,,,,,,,,0.90,0.57,0.70,2*0E
$GNGSA,A,3,13,08,15,07,03,,,,,,,,0.90,0.57,0.70,3*05
$GNGSA,A,3,38,39,08,16,06,20,09,29,37,46,30,,0.90,0.57,0.70,4*05
$GPGSV,4,1,14,196,72,049,39,24,61,174,45,199,60,167,35,15,57,003,35,1*68
$GPGSV,4,2,14,18,48,312,22,195,48,176,36,05,38,082,32,41,38,242,31,1*5B
$GPGSV,4,3,14,13,33,035,34,29,20,223,41,20,20,105,16,194,19,147,21,1*5C
$GPGSV,4,4,14,11,08,148,,12,01,167,,1*66
$GPGSV,2,1,06,196,72,049,47,24,61,174,46,199,60,167,46,18,48,312,20,8*6E
$GPGSV,2,2,06,195,48,176,41,194,19,147,19,8*61
$GLGSV,2,1,05,84,49,206,29,85,43,305,17,69,27,034,34,79,26,070,23,1*7C
$GLGSV,2,2,05,73,02,176,,1*4B
$GAGSV,2,1,08,13,63,301,38,08,61,345,28,15,54,169,41,07,35,265,19,7*77
$GAGSV,2,2,08,03,26,043,19,34,06,152,,30,06,163,,25,04,069,,7*79
$GAGSV,2,1,05,13,63,301,41,08,61,345,37,15,54,169,44,07,35,265,18,1*78
$GAGSV,2,2,05,03,26,043,28,1*4A
$GBGSV,4,1,14,38,71,032,46,39,71,220,45,08,62,004,26,16,61,212,43,1*7F
$GBGSV,4,2,14,06,59,212,41,20,49,017,28,09,42,211,33,29,42,241,44,1*7F
$GBGSV,4,3,14,37,34,080,36,46,34,151,36,30,19,182,19,32,16,070,,1*76
$GBGSV,4,4,14,23,03,040,,40,03,192,,1*78
$GBGSV,2,1,07,38,71,032,44,39,71,220,44,20,49,017,24,29,42,241,42,4*74
$GBGSV,2,2,07,37,34,080,29,46,34,151,41,30,19,182,14,4*44
$GNGGA,100753.000,2500.7861831,N,12132.4694014,E,2,46,0.57,13.355,M,15.25,M,1,3335*48
$GNRMC,100753.000,A,2500.7861831,N,12132.4694014,E,0.13,78.22,260623,,,D,V*3D
$GPHDT,,T*1B
$GNGGA,100753.200,2500.7861831,N,12132.4693954,E,2,45,0.59,13.358,M,15.25,M,1,3335*40
$GNRMC,100753.200,A,2500.7861831,N,12132.4693954,E,0.04,78.22,260623,,,D,V*33
$GPHDT,,T*1B
$GNGGA,100753.400,2500.7861831,N,12132.4693954,E,2,45,0.59,13.362,M,15.25,M,1,3335*4F
$GNRMC,100753.400,A,2500.7861831,N,12132.4693954,E,0.04,78.22,260623,,,D,V*35
$GPHDT,,T*1B
$GNGGA,100753.600,2500.7861831,N,12132.4693954,E,2,45,0.59,13.364,M,15.25,M,1,3335*4B
$GNRMC,100753.600,A,2500.7861831,N,12132.4693954,E,0.01,78.22,260623,,,D,V*32
$GPHDT,,T*1B
$GNGGA,100753.800,2500.7861831,N,12132.4693954,E,2,45,0.59,13.368,M,15.25,M,0,3335*48
$GNRMC,100753.800,A,2500.7861831,N,12132.4693954,E,0.15,78.22,260623,,,D,V*39
$GPHDT,,T*1B
$GNGSA,A,3,196,24,199,15,195,05,13,29,194,,,,0.92,0.59,0.71,1*00
$GNGSA,A,3,84,85,69,79,,,,,,,,,0.92,0.59,0.71,2*03
$GNGSA,A,3,13,08,15,07,03,,,,,,,,0.92,0.59,0.71,3*08
$GNGSA,A,3,39,38,08,16,06,20,29,09,37,46,30,,0.92,0.59,0.71,4*08
$GPGSV,4,1,14,196,72,049,39,24,61,174,45,199,60,167,35,15,57,003,35,1*68
$GPGSV,4,2,14,18,48,312,22,195,48,176,36,41,38,242,34,05,38,082,32,1*5E
$GPGSV,4,3,14,13,33,035,34,29,20,223,41,20,20,105,15,194,19,147,19,1*54
$GPGSV,4,4,14,11,08,148,,12,01,167,,1*66
$GPGSV,2,1,06,196,72,049,47,24,61,174,46,199,60,167,46,18,48,312,21,8*6F
$GPGSV,2,2,06,195,48,176,41,194,19,147,23,8*68
$GLGSV,1,1,04,84,49,206,30,85,43,305,18,69,27,034,34,79,26,070,24,1*7E
$GAGSV,2,1,08,13,63,300,38,08,61,345,29,15,54,169,41,07,35,265,19,7*77
$GAGSV,2,2,08,03,26,043,19,30,06,163,,34,06,152,,25,04,069,,7*79
$GAGSV,2,1,05,13,63,300,41,08,61,345,37,15,54,169,43,07,35,265,18,1*7E
$GAGSV,2,2,05,03,26,043,28,1*4A
$GBGSV,3,1,12,39,71,220,45,38,71,032,46,08,62,004,26,16,61,212,43,1*7E
$GBGSV,3,2,12,06,59,212,41,20,49,017,25,29,42,241,44,09,42,211,33,1*73
$GBGSV,3,3,12,37,34,080,36,46,34,151,35,30,19,182,20,32,16,070,,1*7E
$GBGSV,2,1,07,38,71,032,44,39,71,220,44,20,49,017,23,29,42,241,42,4*73
$GBGSV,2,2,07,37,34,080,29,46,34,151,42,30,19,182,13,4*40
$GNGGA,100754.000,2500.7861771,N,12132.4693894,E,2,45,0.59,13.372,M,15.25,M,1,3335*4B
$GNRMC,100754.000,A,2500.7861771,N,12132.4693894,E,0.08,78.22,260623,,,D,V*3C
$GPHDT,,T*1B
$GNGGA,100754.200,2500.7861771,N,12132.4693954,E,2,45,0.59,13.376,M,15.25,M,1,3335*40
$GNRMC,100754.200,A,2500.7861771,N,12132.4693954,E,0.07,78.22,260623,,,D,V*3C
$GPHDT,,T*1B
$GNGGA,100754.400,2500.7861711,N,12132.4693894,E,2,45,0.59,13.379,M,15.25,M,1,3335*42
$GNRMC,100754.400,A,2500.7861711,N,12132.4693894,E,0.06,78.22,260623,,,D,V*30
$GPHDT,,T*1B
$GNGGA,100754.600,2500.7861711,N,12132.4693954,E,2,45,0.59,13.381,M,15.25,M,1,3335*4A
$GNRMC,100754.600,A,2500.7861711,N,12132.4693954,E,0.05,78.22,260623,,,D,V*3C
$GPHDT,,T*1B
$GNGGA,100754.800,2500.7861711,N,12132.4693954,E,2,46,0.59,13.382,M,15.25,M,0,3335*45
$GNRMC,100754.800,A,2500.7861711,N,12132.4693954,E,0.01,78.22,260623,,,D,V*36
$GPHDT,,T*1B
$GNGSA,A,3,196,24,199,15,195,05,13,29,194,,,,0.92,0.59,0.71,1*00
$GNGSA,A,3,84,85,69,79,,,,,,,,,0.92,0.59,0.71,2*03
$GNGSA,A,3,13,08,15,07,03,,,,,,,,0.92,0.59,0.71,3*08
$GNGSA,A,3,39,38,08,16,06,20,29,09,37,46,30,,0.92,0.59,0.71,4*08
$GPGSV,4,1,14,196,72,049,39,24,61,174,45,199,60,167,36,15,57,003,35,1*6B
$GPGSV,4,2,14,18,48,312,22,195,48,176,35,41,38,242,34,05,38,082,32,1*5D
$GPGSV,4,3,14,13,33,035,32,29,20,223,41,20,20,105,14,194,19,147,21,1*58
$GPGSV,4,4,14,11,08,148,,12,01,167,,1*66
$GPGSV,2,1,06,196,72,049,47,24,61,174,45,199,60,167,46,18,48,312,24,8*69
$GPGSV,2,2,06,195,48,176,42,194,19,147,23,8*6B
$GLGSV,1,1,04,84,49,206,28,85,43,305,19,69,27,034,34,79,26,070,21,1*73
$GAGSV,2,1,08,13,63,300,38,08,61,345,28,15,54,169,41,07,35,265,20,7*7C
$GAGSV,2,2,08,03,26,043,20,30,06,163,,34,06,152,,25,04,069,,7*73
$GAGSV,2,1,05,13,63,300,41,08,61,345,37,15,54,169,43,07,35,265,18,1*7E
$GAGSV,2,2,05,03,26,043,28,1*4A
$GBGSV,3,1,12,39,71,220,45,38,71,032,46,08,62,004,27,16,61,212,43,1*7F
$GBGSV,3,2,12,06,59,212,40,20,49,017,26,29,42,241,44,09,42,211,33,1*71
$GBGSV,3,3,12,37,34,080,35,46,34,151,35,30,19,182,20,32,16,070,,1*7D
$GBGSV,2,1,07,38,71,032,45,39,71,220,44,20,49,017,24,29,42,241,43,4*74
$GBGSV,2,2,07,37,34,080,32,46,34,151,42,30,19,182,13,4*4A
$GNGGA,100755.000,2500.7861711,N,12132.4693954,E,2,46,0.59,13.384,M,15.25,M,1,3335*4B
$GNRMC,100755.000,A,2500.7861711,N,12132.4693954,E,0.04,78.22,260623,,,D,V*3A
$GPHDT,,T*1B
$GNGGA,100755.200,2500.7861711,N,12132.4693954,E,2,45,0.59,13.387,M,15.25,M,1,3335*49
$GNRMC,100755.200,A,2500.7861711,N,12132.4693954,E,0.03,78.22,260623,,,D,V*3F
$GPHDT,,T*1B
$GNGGA,100755.400,2500.7861711,N,12132.4693954,E,2,45,0.59,13.388,M,15.25,M,1,3335*40
$GNRMC,100755.400,A,2500.7861711,N,12132.4693954,E,0.01,78.22,260623,,,D,V*3B
$GPHDT,,T*1B
$GNGGA,100755.600,2500.7861711,N,12132.4693894,E,2,45,0.59,13.389,M,15.25,M,1,3335*4E
$GNRMC,100755.600,A,2500.7861711,N,12132.4693894,E,0.01,78.22,260623,,,D,V*34
$GPHDT,,T*1B
$GNGGA,100755.800,2500.7861711,N,12132.4693894,E,2,45,0.59,13.390,M,15.25,M,1,3335*48
$GNRMC,100755.800,A,2500.7861711,N,12132.4693894,E,0.09,78.22,260623,,,D,V*32
$GPHDT,,T*1B
$GNGSA,A,3,196,24,199,15,195,05,13,29,194,,,,0.92,0.59,0.71,1*00
$GNGSA,A,3,84,85,69,79,,,,,,,,,0.92,0.59,0.71,2*03
$GNGSA,A,3,13,08,15,07,03,,,,,,,,0.92,0.59,0.71,3*08
$GNGSA,A,3,39,38,08,16,06,20,29,09,37,46,30,,0.92,0.59,0.71,4*08
$GPGSV,4,1,14,196,72,049,39,24,61,174,45,199,60,167,36,15,57,003,35,1*6B
$GPGSV,4,2,14,18,48,312,21,195,48,176,36,41,38,242,35,05,38,082,32,1*5C
$GPGSV,4,3,14,13,33,035,33,29,20,223,40,20,20,105,13,194,19,147,24,1*5A
$GPGSV,4,4,14,11,08,148,,12,01,167,,1*66
$GPGSV,2,1,06,196,72,049,47,24,61,174,45,199,60,167,46,18,48,312,23,8*6E
$GPGSV,2,2,06,195,48,176,42,194,19,147,19,8*62
$GLGSV,1,1,04,84,49,206,29,85,43,305,23,69,27,034,32,79,26,070,23,1*7F
$GAGSV,2,1,08,13,63,300,40,08,61,345,26,15,54,169,41,07,35,265,23,7*7E
$GAGSV,2,2,08,03,26,043,18,30,06,163,,34,06,152,,25,04,069,,7*78
$GAGSV,2,1,05,13,63,300,41,08,61,345,37,15,54,169,43,07,35,265,19,1*7F
$GAGSV,2,2,05,03,26,043,30,1*43
$GBGSV,3,1,12,39,71,220,45,38,71,032,46,08,62,004,28,16,61,212,43,1*70
$GBGSV,3,2,12,06,59,212,40,20,49,017,26,29,42,241,44,09,42,211,33,1*71
$GBGSV,3,3,12,37,34,080,36,46,34,151,30,30,19,182,20,32,16,070,,1*7B
$GBGSV,2,1,06,38,71,032,45,39,71,220,44,20,49,017,26,29,42,241,43,4*77
$GBGSV,2,2,06,37,34,080,32,46,34,151,42,4*79
$GNGGA,100756.000,2500.7861711,N,12132.4693894,E,2,45,0.59,13.392,M,15.25,M,2,3335*42
$GNRMC,100756.000,A,2500.7861711,N,12132.4693894,E,0.07,78.22,260623,,,D,V*37
$GPHDT,,T*1B
$GNGGA,100756.200,2500.7861711,N,12132.4693894,E,2,45,0.59,13.393,M,15.25,M,2,3335*41
$GNRMC,100756.200,A,2500.7861711,N,12132.4693894,E,0.06,78.22,260623,,,D,V*34
$GPHDT,,T*1B
$GNGGA,100756.400,2500.7861651,N,12132.4693894,E,2,44,0.59,13.396,M,15.25,M,2,3335*46
$GNRMC,100756.400,A,2500.7861651,N,12132.4693894,E,0.04,78.22,260623,,,D,V*35
$GPHDT,,T*1B
$GNGGA,100756.600,2500.7861651,N,12132.4693834,E,2,44,0.59,13.397,M,15.25,M,2,3335*4F
$GNRMC,100756.600,A,2500.7861651,N,12132.4693834,E,0.04,78.22,260623,,,D,V*3D
$GPHDT,,T*1B
$GNGGA,100756.800,2500.7861651,N,12132.4693834,E,2,45,0.59,13.399,M,15.25,M,2,3335*4E
$GNRMC,100756.800,A,2500.7861651,N,12132.4693834,E,0.03,78.22,260623,,,D,V*34
$GPHDT,,T*1B
$GNGSA,A,3,196,24,199,15,195,05,13,29,194,,,,0.90,0.58,0.69,1*0A
$GNGSA,A,3,84,85,69,79,,,,,,,,,0.90,0.58,0.69,2*09
$GNGSA,A,3,13,08,15,07,03,,,,,,,,0.90,0.58,0.69,3*02
$GNGSA,A,3,39,38,08,16,06,20,29,09,37,46,30,32,0.90,0.58,0.69,4*03
$GPGSV,4,1,14,196,72,049,39,24,61,174,45,199,60,167,36,15,57,003,35,1*6B
$GPGSV,4,2,14,18,48,312,21,195,48,176,36,41,38,242,34,05,38,082,34,1*5B
$GPGSV,4,3,14,13,33,035,33,29,20,223,40,20,20,105,12,194,19,147,24,1*5B
$GPGSV,4,4,14,11,08,148,,12,01,167,,1*66
$GPGSV,2,1,06,196,72,049,47,24,61,174,45,199,60,167,46,18,48,312,23,8*6E
$GPGSV,2,2,06,195,48,176,42,194,19,147,19,8*62
$GLGSV,1,1,04,84,49,206,29,85,43,305,23,69,27,034,32,79,26,070,20,1*7C
$GAGSV,2,1,07,13,63,300,40,08,61,345,28,15,54,169,41,07,35,265,24,7*78
$GAGSV,2,2,07,03,26,043,17,30,06,163,,34,06,152,,7*44
$GAGSV,2,1,05,13,63,300,41,08,61,345,37,15,54,169,43,07,35,265,20,1*75
$GAGSV,2,2,05,03,26,043,29,1*4B
$GBGSV,3,1,12,39,71,220,45,38,71,032,46,08,62,004,28,16,61,212,43,1*70
$GBGSV,3,2,12,06,59,212,41,20,49,017,26,29,42,241,44,09,42,211,33,1*70
$GBGSV,3,3,12,37,34,080,36,46,34,151,31,30,19,182,21,32,16,070,27,1*7E
$GBGSV,2,1,07,38,71,032,45,39,71,220,44,20,49,017,26,29,42,241,43,4*76
$GBGSV,2,2,07,37,34,080,32,46,34,151,42,30,19,182,17,4*4E
$GNGGA,100757.000,2500.7861651,N,12132.4693834,E,2,46,0.58,13.399,M,15.25,M,3,3335*44
$GNRMC,100757.000,A,2500.7861651,N,12132.4693834,E,0.02,78.22,260623,,,D,V*3C
$GPHDT,,T*1B
$GNGGA,100757.200,2500.7861651,N,12132.4693834,E,2,46,0.58,13.398,M,15.25,M,3,3335*47
$GNRMC,100757.200,A,2500.7861651,N,12132.4693834,E,0.01,78.22,260623,,,D,V*3D
$GPHDT,,T*1B
$GNGGA,100757.400,2500.7861651,N,12132.4693834,E,2,46,0.58,13.398,M,15.25,M,3,3335*41
$GNRMC,100757.400,A,2500.7861651,N,12132.4693834,E,0.02,78.22,260623,,,D,V*38
$GPHDT,,T*1B
$GNGGA,100757.600,2500.7861651,N,12132.4693834,E,2,45,0.59,13.397,M,15.25,M,3,3335*4E
$GNRMC,100757.600,A,2500.7861651,N,12132.4693834,E,0.05,78.22,260623,,,D,V*3D
$GPHDT,,T*1B
$GNGGA,100757.800,2500.7861651,N,12132.4693834,E,2,45,0.59,13.401,M,15.25,M,2,3335*49
$GNRMC,100757.800,A,2500.7861651,N,12132.4693834,E,0.05,78.22,260623,,,D,V*33
$GPHDT,,T*1B
$GNGSA,A,3,196,24,199,15,195,05,13,29,194,,,,0.92,0.59,0.71,1*00
$GNGSA,A,3,84,85,69,79,,,,,,,,,0.92,0.59,0.71,2*03
$GNGSA,A,3,13,08,15,07,03,,,,,,,,0.92,0.59,0.71,3*08
$GNGSA,A,3,39,38,08,16,06,20,29,09,46,37,30,,0.92,0.59,0.71,4*08
$GPGSV,4,1,14,196,72,049,39,24,61,174,45,199,60,167,36,15,57,003,35,1*6B
$GPGSV,4,2,14,18,48,312,22,195,48,176,37,41,38,242,32,05,38,082,34,1*5F
$GPGSV,4,3,14,13,33,035,34,29,20,223,40,20,20,105,12,194,19,147,25,1*5D
$GPGSV,4,4,14,11,08,148,,12,01,167,,1*66
$GPGSV,2,1,06,196,72,049,46,24,61,174,45,199,60,167,45,18,48,312,22,8*6D
$GPGSV,2,2,06,195,48,176,42,194,19,147,18,8*63
$GLGSV,1,1,04,84,49,206,29,85,43,305,23,69,27,034,32,79,26,070,20,1*7C
$GAGSV,2,1,07,13,63,300,40,08,61,345,28,15,54,169,41,07,35,265,24,7*78
$GAGSV,2,2,07,03,26,043,17,30,06,163,,34,06,152,,7*44
$GAGSV,2,1,05,13,63,300,41,08,61,345,37,15,54,169,43,07,35,265,20,1*75
$GAGSV,2,2,05,03,26,043,29,1*4B
$GBGSV,4,1,13,39,71,220,45,38,71,032,46,08,62,004,28,16,61,212,43,1*76
$GBGSV,4,2,13,06,59,212,41,20,49,017,26,29,42,241,44,09,42,211,33,1*76
$GBGSV,4,3,13,46,34,151,31,37,34,080,37,30,19,182,22,32,16,070,25,1*78
$GBGSV,4,4,13,36,06,191,,1*4E
$GBGSV,2,1,07,38,71,032,45,39,71,220,44,20,49,017,26,29,42,241,43,4*76
$GBGSV,2,2,07,37,34,080,33,46,34,151,42,30,19,182,14,4*4C
$GNGGA,100758.000,2500.7861591,N,12132.4693834,E,2,45,0.59,13.405,M,15.25,M,1,3335*46
$GNRMC,100758.000,A,2500.7861591,N,12132.4693834,E,0.06,78.22,260623,,,D,V*38
$GPHDT,,T*1B
$GNGGA,100758.200,2500.7861591,N,12132.4693834,E,2,46,0.58,13.407,M,15.25,M,1,3335*44
$GNRMC,100758.200,A,2500.7861591,N,12132.4693834,E,0.05,78.22,260623,,,D,V*39
$GPHDT,,T*1B
$GNGGA,100758.400,2500.7861591,N,12132.4693834,E,2,45,0.59,13.410,M,15.25,M,1,3335*46
$GNRMC,100758.400,A,2500.7861591,N,12132.4693834,E,0.04,78.22,260623,,,D,V*3E
$GPHDT,,T*1B
$GNGGA,100758.600,2500.7861531,N,12132.4693834,E,2,46,0.58,13.413,M,15.25,M,1,3335*4F
$GNRMC,100758.600,A,2500.7861531,N,12132.4693834,E,0.05,78.22,260623,,,D,V*37
$GPHDT,,T*1B
$GNGGA,100758.800,2500.7861531,N,12132.4693834,E,2,45,0.59,13.415,M,15.25,M,1,3335*45
$GNRMC,100758.800,A,2500.7861531,N,12132.4693834,E,0.08,78.22,260623,,,D,V*34
$GPHDT,,T*1B
$GNGSA,A,3,196,24,199,15,195,05,13,29,194,,,,0.92,0.59,0.71,1*00
$GNGSA,A,3,84,85,69,79,,,,,,,,,0.92,0.59,0.71,2*03
$GNGSA,A,3,13,08,15,07,03,,,,,,,,0.92,0.59,0.71,3*08
$GNGSA,A,3,39,38,08,16,06,20,09,29,37,46,30,,0.92,0.59,0.71,4*08
$GPGSV,4,1,14,196,72,049,39,24,61,174,45,199,60,167,36,15,57,003,34,1*6A
$GPGSV,4,2,14,18,48,312,20,195,48,176,37,41,38,242,32,05,38,082,34,1*5D
$GPGSV,4,3,14,13,33,035,36,29,20,223,39,20,20,105,12,194,19,147,25,1*51
$GPGSV,4,4,14,11,08,148,,12,01,167,,1*66
$GPGSV,2,1,06,196,72,049,46,24,61,174,45,199,60,167,45,18,48,312,22,8*6D
$GPGSV,2,2,06,195,48,176,41,194,19,147,18,8*60
$GLGSV,2,1,05,84,49,206,29,85,43,305,23,69,27,034,31,79,26,070,19,1*77
$GLGSV,2,2,05,86,05,333,,1*45
$GAGSV,2,1,08,13,63,300,40,08,61,345,27,15,54,169,40,07,35,265,24,7*79
$GAGSV,2,2,08,03,26,043,21,30,06,163,,34,06,152,,25,04,068,,7*73
$GAGSV,2,1,05,13,63,300,41,08,61,345,37,15,54,169,43,07,35,265,19,1*7F
$GAGSV,2,2,05,03,26,043,29,1*4B
$GBGSV,4,1,13,39,71,220,45,38,71,032,46,08,62,004,28,16,61,212,43,1*76
$GBGSV,4,2,13,06,59,212,41,20,49,017,26,09,42,211,32,29,42,241,45,1*76
$GBGSV,4,3,13,37,34,080,37,46,34,151,32,30,19,182,20,32,16,070,,1*7E
$GBGSV,4,4,13,36,06,191,,1*4E
$GBGSV,2,1,06,38,71,032,45,39,71,220,44,20,49,017,25,29,42,241,43,4*74
$GBGSV,2,2,06,37,34,080,32,46,34,151,42,4*79
$GNGGA,100759.000,2500.7861591,N,12132.4693774,E,2,45,0.59,13.415,M,15.25,M,2,3335*4E
$GNRMC,100759.000,A,2500.7861591,N,12132.4693774,E,0.06,78.22,260623,,,D,V*32
$GPHDT,,T*1B
$GNGGA,100759.200,2500.7861591,N,12132.4693774,E,2,45,0.59,13.415,M,15.25,M,2,3335*4C
$GNRMC,100759.200,A,2500.7861591,N,12132.4693774,E,0.03,78.22,260623,,,D,V*35
$GPHDT,,T*1B
$GNGGA,100759.400,2500.7861591,N,12132.4693774,E,2,45,0.59,13.414,M,15.25,M,2,3335*4B
$GNRMC,100759.400,A,2500.7861591,N,12132.4693774,E,0.09,78.22,260623,,,D,V*39
$GPHDT,,T*1B
$GNGGA,100759.600,2500.7861591,N,12132.4693774,E,2,45,0.59,13.416,M,15.25,M,2,3335*4B
$GNRMC,100759.600,A,2500.7861591,N,12132.4693774,E,0.07,78.22,260623,,,D,V*35
$GPHDT,,T*1B
$GNGGA,100759.800,2500.7861531,N,12132.4693774,E,2,45,0.59,13.421,M,15.25,M,2,3335*4B
$GNRMC,100759.800,A,2500.7861531,N,12132.4693774,E,0.08,78.22,260623,,,D,V*3E
$GPHDT,,T*1B
$GNGSA,A,3,196,24,199,15,195,05,13,29,194,,,,0.92,0.59,0.71,1*00
$GNGSA,A,3,84,85,69,79,,,,,,,,,0.92,0.59,0.71,2*03
$GNGSA,A,3,13,08,15,07,03,,,,,,,,0.92,0.59,0.71,3*08
$GNGSA,A,3,39,38,08,16,06,20,29,09,37,46,30,,0.92,0.59,0.71,4*08
$GPGSV,4,1,14,196,72,049,39,24,61,174,45,199,60,167,36,15,57,003,34,1*6A
$GPGSV,4,2,14,18,48,312,19,195,48,176,37,41,38,242,32,05,38,082,34,1*57
$GPGSV,4,3,14,13,33,035,36,29,20,223,39,20,20,105,13,194,19,147,24,1*51
$GPGSV,4,4,14,11,08,148,,12,01,167,,1*66
$GPGSV,2,1,06,196,72,049,45,24,61,174,45,199,60,167,45,18,48,312,22,8*6E
$GPGSV,2,2,06,195,48,176,41,194,19,147,18,8*60
$GLGSV,1,1,04,84,49,206,29,85,43,305,23,69,27,034,31,79,26,070,19,1*75
$GAGSV,2,1,08,13,63,300,39,08,61,345,27,15,54,169,40,07,35,265,23,7*70
$GAGSV,2,2,08,03,26,043,23,30,06,163,,34,06,152,,25,04,068,,7*71
$GAGSV,2,1,05,13,63,300,41,08,61,345,36,15,54,169,43,07,35,265,19,1*7E
$GAGSV,2,2,05,03,26,043,29,1*4B
$GBGSV,3,1,12,39,71,220,45,38,71,032,46,08,62,004,28,16,61,212,43,1*70
$GBGSV,3,2,12,06,59,212,41,20,49,017,26,29,42,241,45,09,42,211,32,1*70
$GBGSV,3,3,12,37,34,080,37,46,34,151,32,30,19,182,21,32,16,070,,1*79
$GBGSV,2,1,06,38,71,032,45,39,71,220,44,20,49,017,25,29,42,241,43,4*74
$GBGSV,2,2,06,37,34,080,31,46,34,151,42,4*7A
$GNGGA,100800.000,2500.7861531,N,12132.4693714,E,2,45,0.59,13.427,M,15.25,M,3,3335*41
$GNRMC,100800.000,A,2500.7861531,N,12132.4693714,E,0.05,78.22,260623,,,D,V*3E
$PAIR010,0,0,2268,122898*3D
$PAIR010,0,1,2268,122898*3C
$GPHDT,,T*1B
$GNGGA,100800.200,2500.7861531,N,12132.4693774,E,2,45,0.59,13.431,M,15.25,M,3,3335*42
$GNRMC,100800.200,A,2500.7861531,N,12132.4693774,E,0.08,78.22,260623,,,D,V*37
$GPHDT,,T*1B
$GNGGA,100800.400,2500.7861531,N,12132.4693774,E,2,45,0.59,13.434,M,15.25,M,3,3335*41
$GNRMC,100800.400,A,2500.7861531,N,12132.4693774,E,0.05,78.22,260623,,,D,V*3C
$GPHDT,,T*1B
$GNGGA,100800.600,2500.7861471,N,12132.4693774,E,2,45,0.59,13.438,M,15.25,M,3,3335*4A
$GNRMC,100800.600,A,2500.7861471,N,12132.4693774,E,0.06,78.22,260623,,,D,V*38
$GPHDT,,T*1B
$GNGGA,100800.800,2500.7861471,N,12132.4693774,E,2,45,0.59,13.443,M,15.25,M,3,3335*48
$GNRMC,100800.800,A,2500.7861471,N,12132.4693774,E,0.09,78.22,260623,,,D,V*39
$GPHDT,,T*1B
$GNGSA,A,3,196,24,199,15,195,05,13,29,194,,,,0.92,0.59,0.71,1*00
$GNGSA,A,3,84,85,69,79,,,,,,,,,0.92,0.59,0.71,2*03
$GNGSA,A,3,13,08,15,07,03,,,,,,,,0.92,0.59,0.71,3*08
$GNGSA,A,3,39,38,08,16,06,20,29,09,37,46,30,,0.92,0.59,0.71,4*08
$GPGSV,4,1,14,196,72,049,39,24,61,174,45,199,60,167,36,15,57,003,34,1*6A
$GPGSV,4,2,14,18,48,312,19,195,48,176,37,41,38,242,32,05,38,082,35,1*56
$GPGSV,4,3,14,13,33,035,36,29,20,223,39,20,20,105,14,194,19,147,24,1*56
$GPGSV,4,4,14,11,08,148,,12,01,167,,1*66
$GPGSV,2,1,06,196,72,049,45,24,61,174,45,199,60,167,45,18,48,312,21,8*6D
$GPGSV,2,2,06,195,48,176,41,194,19,147,18,8*60
$GLGSV,1,1,04,84,49,206,29,85,43,305,21,69,27,034,31,79,26,070,18,1*76
$GAGSV,2,1,08,13,63,300,39,08,61,345,27,15,54,169,40,07,35,265,22,7*71
$GAGSV,2,2,08,03,26,043,25,30,06,163,,34,06,152,,25,04,068,,7*77
$GAGSV,2,1,05,13,63,300,41,08,61,345,37,15,54,169,43,07,35,265,19,1*7F
$GAGSV,2,2,05,03,26,043,29,1*4B
$GBGSV,3,1,12,39,71,220,45,38,71,032,46,08,62,004,29,16,61,212,43,1*71
$GBGSV,3,2,12,06,59,212,41,20,49,017,26,29,42,241,45,09,42,211,32,1*70
$GBGSV,3,3,12,37,34,080,37,46,34,151,33,30,19,182,21,32,16,070,,1*78
$GBGSV,2,1,06,38,71,032,45,39,71,220,44,20,49,017,25,29,42,241,43,4*74
$GBGSV,2,2,06,37,34,080,31,46,34,151,42,4*7A
$GNGGA,100801.000,2500.7861471,N,12132.4693774,E,2,45,0.59,13.446,M,15.25,M,3,3335*44
$GNRMC,100801.000,A,2500.7861471,N,12132.4693774,E,0.05,78.22,260623,,,D,V*3C
$GPHDT,,T*1B
$GNGGA,100801.200,2500.7861471,N,12132.4693714,E,2,45,0.59,13.448,M,15.25,M,1,3335*4C
$GNRMC,100801.200,A,2500.7861471,N,12132.4693714,E,0.15,78.22,260623,,,D,V*39
$GPHDT,,T*1B
$GNGGA,100801.400,2500.7861471,N,12132.4693714,E,2,45,0.59,13.448,M,15.25,M,1,3335*4A
$GNRMC,100801.400,A,2500.7861471,N,12132.4693714,E,0.03,78.22,260623,,,D,V*38
$GPHDT,,T*1B
$GNGGA,100801.600,2500.7861531,N,12132.4693714,E,2,46,0.58,13.449,M,15.25,M,1,3335*4E
$GNRMC,100801.600,A,2500.7861531,N,12132.4693714,E,0.09,78.22,260623,,,D,V*35
$GPHDT,,T*1B
$GNGGA,100801.800,2500.7861531,N,12132.4693714,E,2,46,0.58,13.448,M,15.25,M,1,3335*41
$GNRMC,100801.800,A,2500.7861531,N,12132.4693714,E,0.06,78.22,260623,,,D,V*34
$GPHDT,,T*1B
$GNGSA,A,3,196,24,199,15,195,05,13,29,194,,,,0.92,0.59,0.71,1*00
$GNGSA,A,3,84,85,69,79,,,,,,,,,0.92,0.59,0.71,2*03
$GNGSA,A,3,13,08,15,07,03,,,,,,,,0.92,0.59,0.71,3*08
$GNGSA,A,3,39,38,08,16,06,20,29,09,37,46,30,,0.92,0.59,0.71,4*08
$GPGSV,4,1,14,196,72,049,38,24,61,174,45,199,60,167,36,15,57,003,34,1*6B
$GPGSV,4,2,14,18,48,312,19,195,48,176,37,41,38,242,32,05,38,082,35,1*56
$GPGSV,4,3,14,13,33,035,35,29,20,223,39,20,20,105,14,194,19,147,24,1*55
$GPGSV,4,4,14,11,08,148,,12,01,167,,1*66
$GPGSV,2,1,06,196,72,049,45,24,61,174,45,199,60,167,45,18,48,312,21,8*6D
$GPGSV,2,2,06,195,48,176,41,194,19,147,18,8*60
$GLGSV,1,1,04,84,49,206,29,85,43,305,20,69,27,034,30,79,26,070,19,1*77
$GAGSV,2,1,08,13,63,300,38,08,61,345,27,15,54,169,40,07,35,265,22,7*70
$GAGSV,2,2,08,03,26,043,24,30,06,163,,34,06,152,,25,04,068,,7*76
$GAGSV,2,1,05,13,63,300,41,08,61,345,37,15,54,169,43,07,35,265,19,1*7F
$GAGSV,2,2,05,03,26,043,29,1*4B
$GBGSV,3,1,12,39,71,220,45,38,71,032,46,08,62,004,29,16,61,212,43,1*71
$GBGSV,3,2,12,06,59,212,41,20,49,017,27,29,42,241,45,09,42,211,32,1*71
$GBGSV,3,3,12,37,34,080,37,46,34,151,33,30,19,182,21,32,16,070,,1*78
$GBGSV,2,1,06,38,71,032,45,39,71,220,44,20,49,017,25,29,42,241,43,4*74
$GBGSV,2,2,06,37,34,080,32,46,34,151,42,4*79
$GNGGA,100802.000,2500.7861531,N,12132.4693654,E,2,45,0.59,13.449,M,15.25,M,2,3335*4F
$GNRMC,100802.000,A,2500.7861531,N,12132.4693654,E,0.05,78.22,260623,,,D,V*39
$GPHDT,,T*1B
$GNGGA,100802.200,2500.7861471,N,12132.4693654,E,2,45,0.59,13.452,M,15.25,M,2,3335*42
$GNRMC,100802.200,A,2500.7861471,N,12132.4693654,E,0.05,78.22,260623,,,D,V*3E
$GPHDT,,T*1B
