$FW : RTK35X,V1.1X0314AS,Lib20210517,1*54
$Tool : LOCOSYS , GNSS Firebird , v1.0.0.19*39
$---------------------------------------------------*2D
GNRMC,100615.000,A,2500.7847431,N,12132.4693354,E,0.03,56.47,260623,,,D,V*38
$GPHDT,,T*1B
$GNGGA,100615.200,2500.7847491,N,12132.4693474,E,2,45,0.63,14.954,M,15.25,M,1,3335*46
$GNRMC,100615.200,A,2500.7847491,N,12132.4693474,E,0.03,56.47,260623,,,D,V*35
$GPHDT,,T*1B
$GNGGA,100615.400,2500.7847491,N,12132.4693594,E,2,45,0.63,14.940,M,15.25,M,1,3335*4A
$GNRMC,100615.400,A,2500.7847491,N,12132.4693594,E,0.03,56.47,260623,,,D,V*3C
$GPHDT,,T*1B
$GNGGA,100615.600,2500.7847611,N,12132.4693774,E,2,44,0.63,14.921,M,15.25,M,0,3335*49
$GNRMC,100615.600,A,2500.7847611,N,12132.4693774,E,0.03,56.47,260623,,,D,V*38
$GPHDT,,T*1B
$GNGGA,100615.800,2500.7847731,N,12132.4693954,E,2,45,0.63,14.907,M,15.25,M,0,3335*4D
$GNRMC,100615.800,A,2500.7847731,N,12132.4693954,E,0.03,56.47,260623,,,D,V*39
$GPHDT,,T*1B
$GNGSA,A,3,196,24,199,15,195,05,13,29,20,194,,,1.17,0.63,0.99,1*01
$GNGSA,A,3,84,69,79,,,,,,,,,,1.17,0.63,0.99,2*0D
$GNGSA,A,3,13,08,15,07,03,,,,,,,,1.17,0.63,0.99,3*0B
$GNGSA,A,3,38,39,16,06,20,29,37,46,30,32,,,1.17,0.63,0.99,4*0B
$GPGSV,4,1,14,196,72,049,41,24,60,175,45,199,60,167,37,15,57,002,23,1*63
$GPGSV,4,2,14,195,49,176,43,18,47,313,,05,39,081,29,41,38,242,34,1*5B
$GPGSV,4,3,14,13,34,035,33,29,21,224,36,20,20,104,26,194,19,147,23,1*5A
$GPGSV,4,4,14,11,09,148,,12,01,168,,1*68
$GPGSV,2,1,05,196,72,049,47,24,60,175,48,199,60,167,46,195,49,176,45,8*55
$GPGSV,2,2,05,194,19,147,24,8*68
$GLGSV,1,1,03,84,50,207,34,69,27,033,33,79,26,071,22,1*46
$GAGSV,2,1,08,13,62,302,36,08,61,344,28,15,55,169,42,07,35,264,23,7*70
$GAGSV,2,2,08,03,27,042,24,26,11,324,,34,07,152,,25,04,069,,7*76
$GAGSV,2,1,05,13,62,302,43,08,61,344,37,15,55,169,43,07,35,264,17,1*71
$GAGSV,2,2,05,03,27,042,22,1*40
$GBGSV,3,1,11,38,71,031,46,39,70,219,40,08,61,004,,16,61,211,39,1*79
$GBGSV,3,2,11,06,58,211,40,20,49,016,29,29,43,242,31,37,34,081,32,1*78
$GBGSV,3,3,11,46,34,152,45,30,20,183,29,32,16,070,30,1*46
$GBGSV,2,1,07,38,71,031,43,39,70,219,43,20,49,016,34,29,43,242,36,4*7D
$GBGSV,2,2,07,37,34,081,34,46,34,152,45,32,16,070,21,4*49
$GNGGA,100616.000,2500.7847851,N,12132.4694134,E,2,45,0.63,14.894,M,15.25,M,1,3335*4C
$GNRMC,100616.000,A,2500.7847851,N,12132.4694134,E,0.03,56.47,260623,,,D,V*32
$GPHDT,,T*1B
$GNGGA,100616.200,2500.7847911,N,12132.4694254,E,2,45,0.63,14.876,M,15.25,M,1,3335*42
$GNRMC,100616.200,A,2500.7847911,N,12132.4694254,E,0.03,56.47,260623,,,D,V*30
$GPHDT,,T*1B
$GNGGA,100616.400,2500.7847971,N,12132.4694374,E,2,45,0.63,14.861,M,15.25,M,1,3335*47
$GNRMC,100616.400,A,2500.7847971,N,12132.4694374,E,0.03,56.47,260623,,,D,V*33
$GPHDT,,T*1B
$GNGGA,100616.600,2500.7847971,N,12132.4694434,E,2,45,0.63,14.848,M,15.25,M,1,3335*4D
$GNRMC,100616.600,A,2500.7847971,N,12132.4694434,E,0.03,56.47,260623,,,D,V*32
$GPHDT,,T*1B
$GNGGA,100616.800,2500.7848031,N,12132.4694494,E,2,45,0.63,14.837,M,15.25,M,0,3335*42
$GNRMC,100616.800,A,2500.7848031,N,12132.4694494,E,0.03,56.47,260623,,,D,V*34
$GPHDT,,T*1B
$GNGSA,A,3,196,24,199,15,195,05,13,29,20,194,,,1.17,0.63,0.99,1*01
$GNGSA,A,3,84,69,79,,,,,,,,,,1.17,0.63,0.99,2*0D
$GNGSA,A,3,13,08,15,07,03,,,,,,,,1.17,0.63,0.99,3*0B
$GNGSA,A,3,38,39,16,06,20,29,37,46,30,32,,,1.17,0.63,0.99,4*0B
$GPGSV,4,1,14,196,72,049,40,24,60,175,45,199,60,167,37,15,57,002,24,1*65
$GPGSV,4,2,14,195,49,176,44,18,47,313,,05,39,081,21,41,38,242,32,1*52
$GPGSV,4,3,14,13,34,035,32,29,21,224,33,20,20,104,26,194,19,147,23,1*5E
$GPGSV,4,4,14,11,09,148,,12,01,168,,1*68
$GPGSV,2,1,05,196,72,049,47,24,60,175,49,199,60,167,46,195,49,176,45,8*54
$GPGSV,2,2,05,194,19,147,24,8*68
$GLGSV,1,1,03,84,50,207,30,69,27,033,34,79,26,071,22,1*45
$GAGSV,2,1,08,13,62,302,36,08,61,344,27,15,55,169,42,07,35,264,20,7*7C
$GAGSV,2,2,08,03,27,042,24,26,11,324,,34,07,152,,25,04,069,,7*76
$GAGSV,2,1,05,13,62,302,43,08,61,344,37,15,55,169,44,07,35,264,17,1*76
$GAGSV,2,2,05,03,27,042,21,1*43
$GBGSV,3,1,11,38,71,031,46,39,70,219,39,08,61,004,,16,61,211,35,1*7B
$GBGSV,3,2,11,06,58,211,37,20,49,016,29,29,43,242,32,37,34,081,32,1*7B
$GBGSV,3,3,11,46,34,152,43,30,20,183,27,32,16,070,29,1*46
$GBGSV,2,1,07,38,71,031,44,39,70,219,41,20,49,016,34,29,43,242,36,4*78
$GBGSV,2,2,07,37,34,081,34,46,34,152,45,32,16,070,19,4*42
$GNGGA,100617.000,2500.7848031,N,12132.4694614,E,2,45,0.63,14.820,M,15.25,M,1,3335*46
$GNRMC,100617.000,A,2500.7848031,N,12132.4694614,E,0.03,56.47,260623,,,D,V*37
$GPHDT,,T*1B
$GNGGA,100617.200,2500.7848091,N,12132.4694674,E,2,45,0.63,14.808,M,15.25,M,1,3335*42
$GNRMC,100617.200,A,2500.7848091,N,12132.4694674,E,0.00,56.47,260623,,,D,V*3A
$GPHDT,,T*1B
$GNGGA,100617.400,2500.7848091,N,12132.4694734,E,2,45,0.63,14.796,M,15.25,M,1,3335*49
$GNRMC,100617.400,A,2500.7848091,N,12132.4694734,E,0.00,56.47,260623,,,D,V*39
$GPHDT,,T*1B
$GNGGA,100617.600,2500.7848091,N,12132.4694854,E,2,46,0.63,14.782,M,15.25,M,1,3335*44
$GNRMC,100617.600,A,2500.7848091,N,12132.4694854,E,0.00,56.47,260623,,,D,V*32
$GPHDT,,T*1B
$GNGGA,100617.800,2500.7848151,N,12132.4694914,E,2,46,0.63,14.768,M,15.25,M,1,3335*46
$GNRMC,100617.800,A,2500.7848151,N,12132.4694914,E,0.00,56.47,260623,,,D,V*34
$GPHDT,,T*1B
$GNGSA,A,3,196,24,199,15,195,05,13,29,20,194,,,1.17,0.63,0.99,1*01
$GNGSA,A,3,84,69,79,,,,,,,,,,1.17,0.63,0.99,2*0D
$GNGSA,A,3,13,08,15,07,03,,,,,,,,1.17,0.63,0.99,3*0B
$GNGSA,A,3,38,39,16,06,20,29,37,46,30,32,,,1.17,0.63,0.99,4*0B
$GPGSV,4,1,14,196,72,049,40,24,60,175,45,199,60,167,37,15,57,002,24,1*65
$GPGSV,4,2,14,195,49,176,44,18,47,313,,05,39,081,23,41,38,242,34,1*56
$GPGSV,4,3,14,13,34,035,33,29,21,224,35,20,20,104,23,194,19,147,27,1*58
$GPGSV,4,4,14,11,09,148,,12,01,168,,1*68
$GPGSV,2,1,05,196,72,049,47,24,60,175,49,199,60,167,47,195,49,176,45,8*55
$GPGSV,2,2,05,194,19,147,22,8*6E
$GLGSV,1,1,03,84,50,207,33,69,27,033,36,79,26,071,20,1*46
$GAGSV,2,1,08,13,62,302,36,08,61,344,27,15,55,169,42,07,35,264,19,7*76
$GAGSV,2,2,08,03,27,042,24,26,11,324,,34,07,152,,25,04,069,,7*76
$GAGSV,2,1,05,13,62,302,44,08,61,344,38,15,55,169,44,07,35,264,18,1*71
$GAGSV,2,2,05,03,27,042,21,1*43
$GBGSV,3,1,11,38,71,031,46,39,70,219,41,08,61,004,,16,61,211,40,1*76
$GBGSV,3,2,11,06,58,211,40,20,49,016,28,29,43,242,37,37,34,081,32,1*7F
$GBGSV,3,3,11,46,34,152,43,30,20,183,27,32,16,070,29,1*46
$GBGSV,2,1,08,38,71,031,44,39,70,219,43,20,49,016,34,29,43,242,39,4*7A
$GBGSV,2,2,08,37,34,081,34,46,34,152,45,30,20,183,23,32,16,070,17,4*79
$GNGGA,100618.000,2500.7848211,N,12132.4694974,E,2,46,0.63,14.756,M,15.25,M,2,3335*4E
$GNRMC,100618.000,A,2500.7848211,N,12132.4694974,E,0.00,56.47,260623,,,D,V*32
$GPHDT,,T*1B
$GNGGA,100618.200,2500.7848271,N,12132.4695094,E,2,46,0.63,14.743,M,15.25,M,2,3335*48
$GNRMC,100618.200,A,2500.7848271,N,12132.4695094,E,0.00,56.47,260623,,,D,V*30
$GPHDT,,T*1B
$GNGGA,100618.400,2500.7848331,N,12132.4695214,E,2,46,0.63,14.727,M,15.25,M,2,3335*43
$GNRMC,100618.400,A,2500.7848331,N,12132.4695214,E,0.00,56.47,260623,,,D,V*39
$GPHDT,,T*1B
$GNGGA,100618.600,2500.7848331,N,12132.4695274,E,2,46,0.63,14.715,M,15.25,M,2,3335*46
$GNRMC,100618.600,A,2500.7848331,N,12132.4695274,E,0.00,56.47,260623,,,D,V*3D
$GPHDT,,T*1B
$GNGGA,100618.800,2500.7848391,N,12132.4695334,E,2,46,0.63,14.704,M,15.25,M,1,3335*44
$GNRMC,100618.800,A,2500.7848391,N,12132.4695334,E,0.00,56.47,260623,,,D,V*3C
$GPHDT,,T*1B
$GNGSA,A,3,196,24,199,15,195,05,13,29,20,194,,,1.17,0.63,0.99,1*01
$GNGSA,A,3,84,69,79,,,,,,,,,,1.17,0.63,0.99,2*0D
$GNGSA,A,3,13,08,15,07,03,,,,,,,,1.17,0.63,0.99,3*0B
$GNGSA,A,3,38,39,16,06,20,29,37,46,30,32,,,1.17,0.63,0.99,4*0B
$GPGSV,4,1,14,196,72,049,40,24,60,175,45,199,60,167,37,15,57,002,24,1*65
$GPGSV,4,2,14,195,49,176,44,18,47,313,,05,39,081,21,41,38,242,36,1*56
$GPGSV,4,3,14,13,34,035,35,29,21,224,38,20,20,104,24,194,19,147,25,1*56
$GPGSV,4,4,14,11,09,148,,12,01,168,,1*68
$GPGSV,2,1,05,196,72,049,47,24,60,175,48,199,60,167,46,195,49,176,45,8*55
$GPGSV,2,2,05,194,19,147,24,8*68
$GLGSV,1,1,04,84,50,207,34,69,27,033,36,79,26,071,23,78,01,028,,1*71
$GAGSV,2,1,08,13,62,302,37,08,61,344,26,15,55,169,42,07,35,264,21,7*7D
$GAGSV,2,2,08,03,27,042,24,26,11,324,,34,07,152,,25,04,069,,7*76
$GAGSV,2,1,05,13,62,302,44,08,61,344,38,15,55,169,44,07,35,264,18,1*71
$GAGSV,2,2,05,03,27,042,20,1*42
$GBGSV,4,1,13,38,71,031,46,39,70,219,41,08,61,004,,16,61,211,40,1*73
$GBGSV,4,2,13,06,58,211,41,20,49,016,28,29,43,242,37,37,34,081,31,1*78
$GBGSV,4,3,13,46,34,152,43,30,20,183,25,32,16,070,29,40,03,192,,1*7C
$GBGSV,4,4,13,23,03,041,,1*43
$GBGSV,2,1,08,38,71,031,44,39,70,219,43,20,49,016,33,29,43,242,39,4*7D
$GBGSV,2,2,08,37,34,081,33,46,34,152,45,30,20,183,22,32,16,070,14,4*7C
$GNGGA,100619.000,2500.7848331,N,12132.4695334,E,2,46,0.63,14.697,M,15.25,M,2,3335*4F
$GNRMC,100619.000,A,2500.7848331,N,12132.4695334,E,0.00,56.47,260623,,,D,V*3F
$GPHDT,,T*1B
$GNGGA,100619.200,2500.7848331,N,12132.4695394,E,2,46,0.63,14.693,M,15.25,M,2,3335*43
$GNRMC,100619.200,A,2500.7848331,N,12132.4695394,E,0.00,56.47,260623,,,D,V*37
$GPHDT,,T*1B
$GNGGA,100619.400,2500.7848331,N,12132.4695454,E,2,46,0.63,14.688,M,15.25,M,2,3335*44
$GNRMC,100619.400,A,2500.7848331,N,12132.4695454,E,0.00,56.47,260623,,,D,V*3A
$GPHDT,,T*1B
$GNGGA,100619.600,2500.7848271,N,12132.4695454,E,2,46,0.63,14.678,M,15.25,M,2,3335*4C
$GNRMC,100619.600,A,2500.7848271,N,12132.4695454,E,0.00,56.47,260623,,,D,V*3D
$GPHDT,,T*1B
$GNGGA,100619.800,2500.7848331,N,12132.4695574,E,2,46,0.63,14.668,M,15.25,M,2,3335*45
$GNRMC,100619.800,A,2500.7848331,N,12132.4695574,E,0.00,56.47,260623,,,D,V*35
$GPHDT,,T*1B
$GNGSA,A,3,196,24,199,15,195,05,13,29,20,194,,,1.17,0.63,0.99,1*01
$GNGSA,A,3,84,69,79,,,,,,,,,,1.17,0.63,0.99,2*0D
$GNGSA,A,3,13,08,15,07,03,,,,,,,,1.17,0.63,0.99,3*0B
$GNGSA,A,3,38,39,16,06,20,29,37,46,30,32,,,1.17,0.63,0.99,4*0B
$GPGSV,4,1,14,196,72,049,40,24,60,175,45,199,60,167,37,15,57,002,23,1*62
$GPGSV,4,2,14,195,49,176,44,18,47,313,,05,39,081,23,41,38,242,34,1*56
$GPGSV,4,3,14,13,34,035,35,29,21,224,38,20,20,104,24,194,19,147,24,1*57
$GPGSV,4,4,14,11,09,148,,12,01,168,,1*68
$GPGSV,2,1,05,196,72,049,47,24,60,175,48,199,60,167,46,195,49,176,45,8*55
$GPGSV,2,2,05,194,19,147,25,8*69
$GLGSV,1,1,04,84,50,207,34,69,27,033,36,79,26,071,24,71,08,274,,1*7D
$GAGSV,2,1,08,13,62,302,37,08,61,344,26,15,55,169,42,07,35,264,21,7*7D
$GAGSV,2,2,08,03,27,042,25,26,12,324,,02,12,115,,34,07,152,,7*7C
$GAGSV,2,1,05,13,62,302,44,08,61,344,38,15,55,169,44,07,35,264,18,1*71
$GAGSV,2,2,05,03,27,042,20,1*42
$GBGSV,3,1,12,38,71,031,46,39,70,219,41,16,61,211,40,08,61,004,,1*75
$GBGSV,3,2,12,06,58,211,41,20,49,016,27,29,43,242,37,37,34,081,31,1*71
$GBGSV,3,3,12,46,34,152,43,35,21,304,,30,20,183,25,32,16,070,29,1*75
$GBGSV,2,1,08,38,71,031,43,39,70,219,43,20,49,016,33,29,43,242,39,4*7A
$GBGSV,2,2,08,37,34,081,33,46,34,152,45,30,20,183,21,32,16,070,15,4*7E
$GNGGA,100620.000,2500.7848211,N,12132.4695574,E,2,46,0.63,14.664,M,15.25,M,3,3335*49
$GNRMC,100620.000,A,2500.7848211,N,12132.4695574,E,0.00,56.47,260623,,,D,V*34
$GPHDT,,T*1B
$GNGGA,100620.200,2500.7848151,N,12132.4695634,E,2,46,0.63,14.668,M,15.25,M,3,3335*47
$GNRMC,100620.200,A,2500.7848151,N,12132.4695634,E,0.00,56.47,260623,,,D,V*36
$GPHDT,,T*1B
$GNGGA,100620.400,2500.7848091,N,12132.4695634,E,2,45,0.63,14.667,M,15.25,M,3,3335*40
$GNRMC,100620.400,A,2500.7848091,N,12132.4695634,E,0.00,56.47,260623,,,D,V*3D
$GPHDT,,T*1B
$GNGGA,100620.600,2500.7847971,N,12132.4695694,E,2,46,0.63,14.675,M,15.25,M,3,3335*40
$GNRMC,100620.600,A,2500.7847971,N,12132.4695694,E,0.00,56.47,260623,,,D,V*3D
$GPHDT,,T*1B
$GNGGA,100620.800,2500.7847851,N,12132.4695634,E,2,46,0.63,14.680,M,15.25,M,3,3335*4D
$GNRMC,100620.800,A,2500.7847851,N,12132.4695634,E,0.00,56.47,260623,,,D,V*3A
$GPHDT,,T*1B
$GNGSA,A,3,196,24,199,15,195,05,13,29,20,194,,,1.17,0.63,0.99,1*01
$GNGSA,A,3,84,69,79,,,,,,,,,,1.17,0.63,0.99,2*0D
$GNGSA,A,3,13,08,15,07,03,,,,,,,,1.17,0.63,0.99,3*0B
$GNGSA,A,3,38,39,16,06,20,29,37,46,30,32,,,1.17,0.63,0.99,4*0B
$GPGSV,4,1,14,196,72,049,40,24,60,175,45,199,60,167,37,15,57,002,23,1*62
$GPGSV,4,2,14,195,49,176,43,18,47,313,,05,39,081,23,41,38,242,34,1*51
$GPGSV,4,3,14,13,34,035,35,29,21,224,39,20,20,104,22,194,19,147,24,1*50
$GPGSV,4,4,14,11,09,148,,12,01,168,,1*68
$GPGSV,2,1,05,196,72,049,47,24,60,175,48,199,60,167,46,195,49,176,45,8*55
$GPGSV,2,2,05,194,19,147,27,8*6B
$GLGSV,1,1,03,84,50,207,34,69,27,033,36,79,26,071,23,1*42
$GAGSV,2,1,08,13,62,302,37,08,61,344,27,15,55,169,42,07,35,264,21,7*7C
$GAGSV,2,2,08,03,27,042,26,26,12,324,,02,12,115,,34,06,152,,7*7E
$GAGSV,2,1,05,13,62,302,44,08,61,344,37,15,55,169,43,07,35,264,18,1*79
$GAGSV,2,2,05,03,27,042,20,1*42
$GBGSV,3,1,11,38,71,031,46,39,70,219,41,08,61,004,,16,61,211,40,1*76
$GBGSV,3,2,11,06,58,211,41,20,49,016,27,29,43,242,31,37,34,081,32,1*77
$GBGSV,3,3,11,46,34,152,43,30,20,183,26,32,16,070,27,1*49
$GBGSV,2,1,08,38,71,031,43,39,70,219,43,20,49,016,33,29,43,242,38,4*7B
$GBGSV,2,2,08,37,34,081,32,46,34,152,44,30,20,183,24,32,16,070,17,4*79
$GNGGA,100621.000,2500.7847671,N,12132.4695634,E,2,46,0.63,14.689,M,15.25,M,4,3335*46
$GNRMC,100621.000,A,2500.7847671,N,12132.4695634,E,0.00,56.47,260623,,,D,V*3F
$GPHDT,,T*1B
$GNGGA,100621.200,2500.7847491,N,12132.4695634,E,2,46,0.63,14.702,M,15.25,M,2,3335*4C
$GNRMC,100621.200,A,2500.7847491,N,12132.4695634,E,0.00,56.47,260623,,,D,V*31
$GPHDT,,T*1B
$GNGGA,100621.400,2500.7847551,N,12132.4695694,E,2,46,0.63,14.688,M,15.25,M,1,3335*4D
$GNRMC,100621.400,A,2500.7847551,N,12132.4695694,E,0.00,56.47,260623,,,D,V*30
$GPHDT,,T*1B
$GNGGA,100621.600,2500.7847431,N,12132.4695754,E,2,46,0.63,14.691,M,15.25,M,0,3335*4C
$GNRMC,100621.600,A,2500.7847431,N,12132.4695754,E,0.00,56.47,260623,,,D,V*38
$GPHDT,,T*1B
$GNGGA,100621.800,2500.7847251,N,12132.4695754,E,2,45,0.63,14.697,M,15.25,M,0,3335*47
$GNRMC,100621.800,A,2500.7847251,N,12132.4695754,E,0.00,56.47,260623,,,D,V*36
$GPHDT,,T*1B
$GNGSA,A,3,196,24,199,15,195,05,13,29,20,194,,,1.17,0.63,0.99,1*01
$GNGSA,A,3,84,69,79,,,,,,,,,,1.17,0.63,0.99,2*0D
$GNGSA,A,3,13,08,15,07,03,,,,,,,,1.17,0.63,0.99,3*0B
$GNGSA,A,3,38,39,16,06,20,29,46,37,30,32,,,1.17,0.63,0.99,4*0B
$GPGSV,4,1,14,196,72,049,40,24,60,175,45,199,60,167,37,15,57,002,24,1*65
$GPGSV,4,2,14,195,49,176,43,18,47,313,18,05,39,081,22,41,38,242,30,1*5D
$GPGSV,4,3,14,13,34,035,35,29,21,224,40,20,20,104,19,194,19,147,24,1*56
$GPGSV,4,4,14,11,09,148,,12,01,168,,1*68
$GPGSV,2,1,05,196,72,049,47,24,60,175,48,199,60,167,46,195,49,176,45,8*55
$GPGSV,2,2,05,194,19,147,27,8*6B
$GLGSV,1,1,03,84,50,207,34,69,27,033,38,79,26,071,20,1*4F
$GAGSV,2,1,08,13,62,302,37,08,61,344,28,15,55,169,42,07,35,264,23,7*71
$GAGSV,2,2,08,03,27,042,25,26,12,324,,02,12,115,,34,06,152,,7*7D
$GAGSV,2,1,05,13,62,302,44,08,61,344,37,15,55,169,43,07,35,264,18,1*79
$GAGSV,2,2,05,03,27,042,19,1*48
$GBGSV,3,1,12,38,71,031,46,39,70,219,42,16,61,211,41,08,61,004,,1*77
$GBGSV,3,2,12,06,58,211,41,20,49,016,27,29,43,242,36,46,34,152,43,1*7C
$GBGSV,3,3,12,37,34,081,32,30,20,183,26,32,16,070,26,10,08,211,,1*7F
$GBGSV,2,1,08,38,71,031,43,39,70,219,43,20,49,016,33,29,43,242,37,4*74
$GBGSV,2,2,08,37,34,081,33,46,34,152,44,30,20,183,23,32,16,070,17,4*7F
$GNGGA,100622.000,2500.7847311,N,12132.4695874,E,2,46,0.63,14.687,M,15.25,M,1,3335*47
$GNRMC,100622.000,A,2500.7847311,N,12132.4695874,E,0.00,56.47,260623,,,D,V*35
$GPHDT,,T*1B
$GNGGA,100622.200,2500.7847371,N,12132.4695994,E,2,46,0.63,14.675,M,15.25,M,1,3335*41
$GNRMC,100622.200,A,2500.7847371,N,12132.4695994,E,0.00,56.47,260623,,,D,V*3E
$GPHDT,,T*1B
$GNGGA,100622.400,2500.7847371,N,12132.4696114,E,2,45,0.63,14.656,M,15.25,M,1,3335*46
$GNRMC,100622.400,A,2500.7847371,N,12132.4696114,E,0.00,56.47,260623,,,D,V*3B
$GPHDT,,T*1B
$GNGGA,100622.600,2500.7847431,N,12132.4696174,E,2,45,0.63,14.642,M,15.25,M,1,3335*44
$GNRMC,100622.600,A,2500.7847431,N,12132.4696174,E,0.00,56.47,260623,,,D,V*3C
$GPHDT,,T*1B
$GNGGA,100622.800,2500.7847131,N,12132.4696114,E,2,45,0.63,14.654,M,15.25,M,1,3335*4E
$GNRMC,100622.800,A,2500.7847131,N,12132.4696114,E,0.00,56.47,260623,,,D,V*31
$GPHDT,,T*1B
$GNGSA,A,3,196,24,199,15,195,05,13,29,20,194,,,1.17,0.63,0.99,1*01
$GNGSA,A,3,84,69,79,,,,,,,,,,1.17,0.63,0.99,2*0D
$GNGSA,A,3,13,08,15,07,03,,,,,,,,1.17,0.63,0.99,3*0B
$GNGSA,A,3,38,39,16,06,20,29,46,37,30,32,,,1.17,0.63,0.99,4*0B
$GPGSV,4,1,14,196,72,049,40,24,60,175,45,199,60,167,37,15,57,002,25,1*64
$GPGSV,4,2,14,195,49,176,43,18,47,313,19,05,39,081,23,41,38,242,30,1*5D
$GPGSV,4,3,14,13,34,035,35,29,21,224,40,20,20,104,19,194,19,147,24,1*56
$GPGSV,4,4,14,11,09,148,,12,01,168,,1*68
$GPGSV,2,1,05,196,72,049,47,24,60,175,48,199,60,167,46,195,49,176,45,8*55
$GPGSV,2,2,05,194,19,147,26,8*6A
$GLGSV,1,1,03,84,50,207,34,69,27,033,38,79,26,071,21,1*4E
$GAGSV,3,1,09,13,62,302,37,08,61,344,29,15,55,169,42,07,35,264,24,7*77
$GAGSV,3,2,09,03,27,042,25,26,12,324,,02,12,115,,30,06,163,,7*7B
$GAGSV,3,3,09,34,06,152,,7*4D
$GAGSV,2,1,05,13,62,302,44,08,61,344,37,15,55,169,43,07,35,264,18,1*79
$GAGSV,2,2,05,03,27,042,19,1*48
$GBGSV,3,1,11,38,71,031,46,39,70,219,43,08,61,004,,16,61,211,41,1*75
$GBGSV,3,2,11,06,58,211,41,20,49,016,27,29,43,242,35,46,34,152,43,1*7C
$GBGSV,3,3,11,37,34,081,31,30,20,183,26,32,16,070,25,1*47
$GBGSV,2,1,08,38,71,031,44,39,70,219,44,20,49,016,33,29,43,242,37,4*74
$GBGSV,2,2,08,37,34,081,32,46,34,152,44,30,20,183,23,32,16,070,15,4*7C
$GNGGA,100623.000,2500.7846771,N,12132.4695994,E,2,45,0.63,14.677,M,15.25,M,2,3335*45
$GNRMC,100623.000,A,2500.7846771,N,12132.4695994,E,0.00,56.47,260623,,,D,V*38
$GPHDT,,T*1B
$GNGGA,100623.200,2500.7846831,N,12132.4696114,E,2,45,0.63,14.668,M,15.25,M,2,3335*41
$GNRMC,100623.200,A,2500.7846831,N,12132.4696114,E,0.00,56.47,260623,,,D,V*32
$GPHDT,,T*1B
$GNGGA,100623.400,2500.7846831,N,12132.4696234,E,2,45,0.63,14.659,M,15.25,M,2,3335*44
$GNRMC,100623.400,A,2500.7846831,N,12132.4696234,E,0.00,56.47,260623,,,D,V*35
$GPHDT,,T*1B
$GNGGA,100623.600,2500.7846891,N,12132.4696354,E,2,45,0.63,14.642,M,15.25,M,2,3335*41
$GNRMC,100623.600,A,2500.7846891,N,12132.4696354,E,0.00,56.47,260623,,,D,V*3A
$GPHDT,,T*1B
$GNGGA,100623.800,2500.7846951,N,12132.4696534,E,2,45,0.63,14.631,M,15.25,M,2,3335*46
$GNRMC,100623.800,A,2500.7846951,N,12132.4696534,E,0.00,56.47,260623,,,D,V*39
$GPHDT,,T*1B
$GNGSA,A,3,196,24,199,15,195,05,13,29,20,194,,,1.17,0.63,0.99,1*01
$GNGSA,A,3,84,69,79,,,,,,,,,,1.17,0.63,0.99,2*0D
$GNGSA,A,3,13,08,15,07,03,,,,,,,,1.17,0.63,0.99,3*0B
$GNGSA,A,3,38,39,16,06,20,29,37,46,30,32,,,1.17,0.63,0.99,4*0B
$GPGSV,4,1,14,196,72,049,40,24,60,175,45,199,60,167,37,15,57,002,27,1*66
$GPGSV,4,2,14,195,49,176,43,18,47,313,22,05,39,081,23,41,38,242,28,1*5C
$GPGSV,4,3,14,13,34,035,36,29,21,224,41,20,20,104,19,194,19,147,24,1*54
$GPGSV,4,4,14,11,09,148,,12,01,168,,1*68
$GPGSV,2,1,05,196,72,049,47,24,60,175,49,199,60,167,46,195,49,176,46,8*57
$GPGSV,2,2,05,194,19,147,26,8*6A
$GLGSV,1,1,03,84,50,207,34,69,27,033,38,79,26,071,22,1*4D
$GAGSV,2,1,07,13,62,302,37,08,61,344,28,15,55,169,42,07,35,264,24,7*79
$GAGSV,2,2,07,03,27,042,25,02,12,115,,30,06,163,,7*46
$GAGSV,2,1,05,13,62,302,44,08,61,344,37,15,55,169,43,07,35,264,20,1*72
$GAGSV,2,2,05,03,27,042,20,1*42
$GBGSV,3,1,11,38,71,031,46,39,70,219,43,08,61,004,,16,61,211,41,1*75
$GBGSV,3,2,11,06,58,211,41,20,49,016,26,29,43,242,36,37,34,081,33,1*70
$GBGSV,3,3,11,46,34,152,43,30,20,183,26,32,16,070,24,1*4A
$GBGSV,2,1,08,38,71,031,44,39,70,219,44,20,49,016,33,29,43,242,38,4*7B
$GBGSV,2,2,08,37,34,081,33,46,34,152,44,30,20,183,23,32,16,070,14,4*7C
$GNGGA,100624.000,2500.7846471,N,12132.4696354,E,2,45,0.63,14.666,M,15.25,M,3,3335*45
$GNRMC,100624.000,A,2500.7846471,N,12132.4696354,E,0.00,56.47,260623,,,D,V*39
$GPHDT,,T*1B
$GNGGA,100624.200,2500.7846531,N,12132.4696414,E,2,45,0.63,14.648,M,15.25,M,3,3335*4D
$GNRMC,100624.200,A,2500.7846531,N,12132.4696414,E,0.00,56.47,260623,,,D,V*3D
$GPHDT,,T*1B
$GNGGA,100624.400,2500.7846591,N,12132.4696534,E,2,45,0.63,14.627,M,15.25,M,3,3335*4B
$GNRMC,100624.400,A,2500.7846591,N,12132.4696534,E,0.00,56.47,260623,,,D,V*32
$GPHDT,,T*1B
$GNGGA,100624.600,2500.7846591,N,12132.4696594,E,2,45,0.63,14.619,M,15.25,M,3,3335*4E
$GNRMC,100624.600,A,2500.7846591,N,12132.4696594,E,0.00,56.47,260623,,,D,V*3A
$GPHDT,,T*1B
$GNGGA,100624.800,2500.7846591,N,12132.4696654,E,2,45,0.63,14.605,M,15.25,M,3,3335*42
$GNRMC,100624.800,A,2500.7846591,N,12132.4696654,E,0.00,56.47,260623,,,D,V*3B
$GPHDT,,T*1B
$GNGSA,A,3,196,24,199,15,195,05,13,29,20,194,,,1.17,0.63,0.99,1*01
$GNGSA,A,3,84,69,79,,,,,,,,,,1.17,0.63,0.99,2*0D
$GNGSA,A,3,13,08,15,07,03,,,,,,,,1.17,0.63,0.99,3*0B
$GNGSA,A,3,38,39,16,06,20,29,46,37,30,32,,,1.17,0.63,0.99,4*0B
$GPGSV,4,1,14,196,72,049,40,24,60,175,45,199,60,167,37,15,57,002,28,1*69
$GPGSV,4,2,14,195,49,176,43,18,47,313,20,05,39,081,22,41,38,242,28,1*5F
$GPGSV,4,3,14,13,34,035,36,29,21,224,41,20,20,104,19,194,19,147,24,1*54
$GPGSV,4,4,14,11,09,148,,12,01,168,,1*68
$GPGSV,2,1,05,196,72,049,47,24,60,175,49,199,60,167,46,195,49,176,46,8*57
$GPGSV,2,2,05,194,19,147,25,8*69
$GLGSV,1,1,03,84,50,207,34,69,27,033,38,79,26,071,23,1*4C
$GAGSV,2,1,07,13,62,302,37,08,61,344,28,15,55,169,42,07,35,264,24,7*79
$GAGSV,2,2,07,03,27,042,25,02,12,115,,30,06,163,,7*46
$GAGSV,2,1,05,13,62,302,44,08,61,344,37,15,55,169,43,07,35,264,20,1*72
$GAGSV,2,2,05,03,27,042,20,1*42
$GBGSV,3,1,12,38,71,031,46,39,70,219,43,08,61,004,,16,61,211,41,1*76
$GBGSV,3,2,12,06,58,211,41,20,49,016,26,29,43,242,37,46,34,152,43,1*7C
$GBGSV,3,3,12,37,34,081,32,30,20,183,26,32,16,070,24,36,05,191,,1*7F
$GBGSV,2,1,08,38,71,031,44,39,70,219,44,20,49,016,32,29,43,242,38,4*7A
$GBGSV,2,2,08,37,34,081,31,46,34,152,43,30,20,183,23,32,16,070,12,4*7F
$GNGGA,100625.000,2500.7846651,N,12132.4696714,E,2,46,0.63,14.595,M,15.25,M,4,3335*4F
$GNRMC,100625.000,A,2500.7846651,N,12132.4696714,E,0.00,56.47,260623,,,D,V*38
$GPHDT,,T*1B
$GNGGA,100625.200,2500.7846651,N,12132.4696774,E,2,45,0.63,14.587,M,15.25,M,4,3335*4B
$GNRMC,100625.200,A,2500.7846651,N,12132.4696774,E,0.00,56.47,260623,,,D,V*3C
$GPHDT,,T*1B
$GNGGA,100625.400,2500.7846591,N,12132.4696894,E,2,46,0.63,14.577,M,15.25,M,4,3335*4F
$GNRMC,100625.400,A,2500.7846591,N,12132.4696894,E,0.00,56.47,260623,,,D,V*34
