$FW : RTK35X,V1.1X0314AS,Lib20210517,1*54
$Tool : LOCOSYS , GNSS Firebird , v1.0.0.19*39
$---------------------------------------------------*2D
$GPHDT,,T*1B
$GNGGA,100655.800,2500.7861891,N,12132.4695034,E,2,47,0.60,13.183,M,15.25,M,1,3335*42
$GNRMC,100655.800,A,2500.7861891,N,12132.4695034,E,0.02,56.47,260623,,,D,V*34
$GPHDT,,T*1B
$GNGSA,A,3,196,24,199,15,195,05,13,29,20,194,,,0.92,0.60,0.70,1*09
$GNGSA,A,3,84,69,79,,,,,,,,,,0.92,0.60,0.70,2*05
$GNGSA,A,3,13,08,15,07,03,,,,,,,,0.92,0.60,0.70,3*03
$GNGSA,A,3,38,39,08,16,06,20,29,37,46,30,32,,0.92,0.60,0.70,4*0B
$GPGSV,4,1,14,196,72,049,40,24,60,175,42,199,60,167,30,15,57,002,26,1*67
$GPGSV,4,2,14,195,48,176,36,18,47,313,20,41,38,242,39,05,38,081,27,1*58
$GPGSV,4,3,14,13,33,035,33,29,21,224,39,20,20,104,29,194,19,147,27,1*59
$GPGSV,4,4,14,11,08,148,,12,01,168,,1*69
$GPGSV,2,1,06,196,72,049,47,24,60,175,44,199,60,167,43,195,48,176,40,8*5B
$GPGSV,2,2,06,18,47,313,24,194,19,147,24,8*56
$GLGSV,1,1,04,84,49,207,30,85,42,306,25,69,27,033,38,79,26,071,25,1*78
$GAGSV,2,1,06,13,63,301,35,08,61,344,28,15,55,169,37,07,35,265,23,7*7C
$GAGSV,2,2,06,03,26,043,26,34,06,152,,7*76
$GAGSV,2,1,05,13,63,301,42,08,61,344,37,15,55,169,37,07,35,265,24,1*70
$GAGSV,2,2,05,03,26,043,20,1*42
$GBGSV,3,1,11,38,71,031,46,39,70,219,42,08,61,004,21,16,61,211,37,1*76
$GBGSV,3,2,11,06,58,211,39,20,49,016,23,29,43,242,37,37,34,081,34,1*7C
$GBGSV,3,3,11,46,34,151,44,30,19,183,28,32,16,070,29,1*47
$GBGSV,2,1,08,38,71,031,44,39,70,219,44,20,49,016,31,29,43,242,41,4*77
$GBGSV,2,2,08,37,34,081,28,46,34,151,43,30,19,183,26,32,16,070,26,4*7C
$GNGGA,100656.000,2500.7861891,N,12132.4695034,E,2,47,0.60,13.181,M,15.25,M,2,3335*48
$GNRMC,100656.000,A,2500.7861891,N,12132.4695034,E,0.03,56.47,260623,,,D,V*3E
$GPHDT,,T*1B
$GNGGA,100656.200,2500.7861891,N,12132.4695034,E,2,47,0.60,13.179,M,15.25,M,2,3335*4D
$GNRMC,100656.200,A,2500.7861891,N,12132.4695034,E,0.04,56.47,260623,,,D,V*3B
$GPHDT,,T*1B
$GNGGA,100656.400,2500.7861951,N,12132.4695034,E,2,47,0.60,13.177,M,15.25,M,2,3335*48
$GNRMC,100656.400,A,2500.7861951,N,12132.4695034,E,0.03,56.47,260623,,,D,V*37
$GPHDT,,T*1B
$GNGGA,100656.600,2500.7861951,N,12132.4695034,E,2,47,0.60,13.175,M,15.25,M,2,3335*48
$GNRMC,100656.600,A,2500.7861951,N,12132.4695034,E,0.04,56.47,260623,,,D,V*32
$GPHDT,,T*1B
$GNGGA,100656.800,2500.7861951,N,12132.4695034,E,2,47,0.60,13.174,M,15.25,M,2,3335*47
$GNRMC,100656.800,A,2500.7861951,N,12132.4695034,E,0.05,56.47,260623,,,D,V*3D
$GPHDT,,T*1B
$GNGSA,A,3,196,24,199,15,195,05,13,29,20,194,,,0.92,0.60,0.70,1*09
$GNGSA,A,3,84,69,79,,,,,,,,,,0.92,0.60,0.70,2*05
$GNGSA,A,3,13,08,15,07,03,,,,,,,,0.92,0.60,0.70,3*03
$GNGSA,A,3,38,39,08,16,06,20,29,37,46,30,32,,0.92,0.60,0.70,4*0B
$GPGSV,4,1,14,196,72,049,41,24,60,175,42,199,60,167,30,15,57,002,27,1*67
$GPGSV,4,2,14,195,48,176,36,18,47,313,20,41,38,242,39,05,38,081,30,1*5E
$GPGSV,4,3,14,13,33,035,33,29,21,224,39,20,20,104,29,194,19,147,27,1*59
$GPGSV,4,4,14,11,08,148,,12,01,168,,1*69
$GPGSV,2,1,06,196,72,049,47,24,60,175,44,199,60,167,43,195,48,176,40,8*5B
$GPGSV,2,2,06,18,47,313,25,194,19,147,25,8*56
$GLGSV,1,1,04,84,49,207,30,85,42,306,25,69,27,033,38,79,26,070,24,1*78
$GAGSV,2,1,06,13,63,301,36,08,61,344,28,15,55,169,37,07,35,265,23,7*7F
$GAGSV,2,2,06,03,26,043,26,34,06,152,,7*76
$GAGSV,2,1,05,13,63,301,42,08,61,344,37,15,55,169,38,07,35,265,24,1*7F
$GAGSV,2,2,05,03,26,043,21,1*43
$GBGSV,3,1,11,38,71,031,46,39,70,219,42,08,61,004,20,16,61,211,37,1*77
$GBGSV,3,2,11,06,58,211,39,20,49,016,22,29,43,242,36,37,34,081,35,1*7D
$GBGSV,3,3,11,46,34,151,44,30,19,183,28,32,16,070,29,1*47
$GBGSV,2,1,08,38,71,031,44,39,70,219,44,20,49,016,31,29,43,242,41,4*77
$GBGSV,2,2,08,37,34,081,29,46,34,151,43,30,19,183,26,32,16,070,26,4*7D
$GNGGA,100657.000,2500.7861951,N,12132.4695034,E,2,47,0.60,13.172,M,15.25,M,3,3335*49
$GNRMC,100657.000,A,2500.7861951,N,12132.4695034,E,0.04,56.47,260623,,,D,V*35
$GPHDT,,T*1B
$GNGGA,100657.200,2500.7862011,N,12132.4695034,E,2,47,0.60,13.171,M,15.25,M,3,3335*46
$GNRMC,100657.200,A,2500.7862011,N,12132.4695034,E,0.02,56.47,260623,,,D,V*3F
$GPHDT,,T*1B
$GNGGA,100657.400,2500.7862011,N,12132.4695034,E,2,47,0.60,13.170,M,15.25,M,3,3335*41
$GNRMC,100657.400,A,2500.7862011,N,12132.4695034,E,0.02,56.47,260623,,,D,V*39
$GPHDT,,T*1B
$GNGGA,100657.600,2500.7862011,N,12132.4695034,E,2,47,0.60,13.169,M,15.25,M,3,3335*4B
$GNRMC,100657.600,A,2500.7862011,N,12132.4695034,E,0.03,56.47,260623,,,D,V*3A
$GPHDT,,T*1B
$GNGGA,100657.800,2500.7862011,N,12132.4695034,E,2,47,0.60,13.168,M,15.25,M,3,3335*44
$GNRMC,100657.800,A,2500.7862011,N,12132.4695034,E,0.03,56.47,260623,,,D,V*34
$GPHDT,,T*1B
$GNGSA,A,3,196,24,199,15,195,05,13,29,20,194,,,0.92,0.60,0.70,1*09
$GNGSA,A,3,84,69,79,,,,,,,,,,0.92,0.60,0.70,2*05
$GNGSA,A,3,13,08,15,07,03,,,,,,,,0.92,0.60,0.70,3*03
$GNGSA,A,3,38,39,16,08,06,20,29,46,37,30,32,,0.92,0.60,0.70,4*0B
$GPGSV,4,1,14,196,72,049,41,24,60,175,42,199,60,167,30,15,57,002,28,1*68
$GPGSV,4,2,14,195,48,176,36,18,47,313,22,41,38,242,39,05,38,081,31,1*5D
$GPGSV,4,3,14,13,33,035,31,29,21,224,39,20,20,104,29,194,19,147,28,1*54
$GPGSV,4,4,14,11,08,148,,12,01,168,,1*69
$GPGSV,2,1,06,196,72,049,47,24,60,175,44,199,60,167,43,195,48,176,40,8*5B
$GPGSV,2,2,06,18,47,313,24,194,19,147,24,8*56
$GLGSV,1,1,04,84,49,207,30,85,42,306,25,69,27,033,37,79,26,070,24,1*77
$GAGSV,2,1,05,13,63,301,36,08,61,344,28,15,55,169,37,07,35,265,23,7*7C
$GAGSV,2,2,05,03,26,043,26,7*42
$GAGSV,2,1,05,13,63,301,42,08,61,344,37,15,55,169,38,07,35,265,23,1*78
$GAGSV,2,2,05,03,26,043,21,1*43
$GBGSV,3,1,11,38,71,031,46,39,70,219,42,16,61,211,37,08,61,004,21,1*76
$GBGSV,3,2,11,06,58,211,39,20,49,016,22,29,43,242,36,46,34,151,44,1*71
$GBGSV,3,3,11,37,34,081,35,30,19,183,28,32,16,070,29,1*4B
$GBGSV,2,1,08,38,71,031,44,39,70,219,43,20,49,016,31,29,43,242,41,4*70
$GBGSV,2,2,08,37,34,081,29,46,34,151,43,30,19,183,25,32,16,070,26,4*7E
$GNGGA,100658.000,2500.7862011,N,12132.4695094,E,2,47,0.60,13.167,M,15.25,M,4,3335*41
$GNRMC,100658.000,A,2500.7862011,N,12132.4695094,E,0.02,56.47,260623,,,D,V*38
$GPHDT,,T*1B
$GNGGA,100658.200,2500.7862011,N,12132.4695034,E,2,47,0.60,13.166,M,15.25,M,4,3335*48
$GNRMC,100658.200,A,2500.7862011,N,12132.4695034,E,0.02,56.47,260623,,,D,V*30
$GPHDT,,T*1B
$GNGGA,100658.400,2500.7862011,N,12132.4695094,E,2,47,0.60,13.165,M,15.25,M,4,3335*47
$GNRMC,100658.400,A,2500.7862011,N,12132.4695094,E,0.01,56.47,260623,,,D,V*3F
$GPHDT,,T*1B
$GNGGA,100658.600,2500.7862011,N,12132.4695034,E,2,47,0.60,13.164,M,15.25,M,4,3335*4E
$GNRMC,100658.600,A,2500.7862011,N,12132.4695034,E,0.01,56.47,260623,,,D,V*37
$GPHDT,,T*1B
$GNGGA,100658.800,2500.7862011,N,12132.4695034,E,2,47,0.60,13.163,M,15.25,M,4,3335*47
$GNRMC,100658.800,A,2500.7862011,N,12132.4695034,E,0.03,56.47,260623,,,D,V*3B
$GPHDT,,T*1B
$GNGSA,A,3,196,24,199,15,195,05,13,29,20,194,,,0.92,0.60,0.70,1*09
$GNGSA,A,3,84,69,79,,,,,,,,,,0.92,0.60,0.70,2*05
$GNGSA,A,3,13,08,15,07,03,,,,,,,,0.92,0.60,0.70,3*03
$GNGSA,A,3,38,39,16,08,06,20,29,46,37,30,32,,0.92,0.60,0.70,4*0B
$GPGSV,4,1,14,196,72,049,41,24,60,175,42,199,60,167,30,15,57,002,28,1*68
$GPGSV,4,2,14,195,48,176,36,18,47,313,24,41,38,242,39,05,38,081,31,1*5B
$GPGSV,4,3,14,13,33,035,30,29,21,224,39,20,20,104,29,194,19,147,28,1*55
$GPGSV,4,4,14,11,08,148,,12,01,168,,1*69
$GPGSV,2,1,06,196,72,049,47,24,60,175,44,199,60,167,43,195,48,176,40,8*5B
$GPGSV,2,2,06,18,47,313,25,194,19,147,24,8*57
$GLGSV,1,1,04,84,49,207,31,85,42,306,26,69,27,033,37,79,26,070,24,1*75
$GAGSV,2,1,05,13,63,301,36,08,61,344,28,15,55,169,37,07,35,265,23,7*7C
$GAGSV,2,2,05,03,26,043,26,7*42
$GAGSV,2,1,05,13,63,301,42,08,61,344,37,15,55,169,38,07,35,265,23,1*78
$GAGSV,2,2,05,03,26,043,22,1*40
$GBGSV,3,1,11,38,71,031,46,39,70,219,42,16,61,211,37,08,61,004,21,1*76
$GBGSV,3,2,11,06,58,211,39,20,49,016,24,29,43,242,35,46,34,151,44,1*74
$GBGSV,3,3,11,37,34,081,35,30,19,183,28,32,16,070,30,1*43
$GBGSV,2,1,08,38,71,031,44,39,70,219,43,20,49,016,31,29,43,242,40,4*71
$GBGSV,2,2,08,37,34,081,29,46,34,151,43,30,19,183,25,32,16,070,25,4*7D
$GNGGA,100659.000,2500.7862071,N,12132.4695034,E,2,47,0.60,13.164,M,15.25,M,5,3335*4E
$GNRMC,100659.000,A,2500.7862071,N,12132.4695034,E,0.03,56.47,260623,,,D,V*34
$GPHDT,,T*1B
$GNGGA,100659.200,2500.7862071,N,12132.4695094,E,2,47,0.60,13.165,M,15.25,M,5,3335*47
$GNRMC,100659.200,A,2500.7862071,N,12132.4695094,E,0.02,56.47,260623,,,D,V*3D
$GPHDT,,T*1B
$GNGGA,100659.400,2500.7862071,N,12132.4695094,E,2,47,0.60,13.165,M,15.25,M,5,3335*41
$GNRMC,100659.400,A,2500.7862071,N,12132.4695094,E,0.02,56.47,260623,,,D,V*3B
$GPHDT,,T*1B
$GNGGA,100659.600,2500.7862071,N,12132.4695034,E,2,47,0.60,13.165,M,15.25,M,5,3335*49
$GNRMC,100659.600,A,2500.7862071,N,12132.4695034,E,0.01,56.47,260623,,,D,V*30
$GPHDT,,T*1B
$GNGGA,100659.800,2500.7862071,N,12132.4695094,E,2,47,0.60,13.165,M,15.25,M,5,3335*4D
$GNRMC,100659.800,A,2500.7862071,N,12132.4695094,E,0.02,56.47,260623,,,D,V*37
$GPHDT,,T*1B
$GNGSA,A,3,196,24,199,15,195,05,13,29,20,194,,,0.92,0.60,0.70,1*09
$GNGSA,A,3,84,69,79,,,,,,,,,,0.92,0.60,0.70,2*05
$GNGSA,A,3,13,08,15,07,03,,,,,,,,0.92,0.60,0.70,3*03
$GNGSA,A,3,38,39,16,08,06,20,29,46,37,30,32,,0.92,0.60,0.70,4*0B
$GPGSV,4,1,14,196,72,049,41,24,60,175,42,199,60,167,30,15,57,002,29,1*69
$GPGSV,4,2,14,195,48,176,36,18,47,313,24,41,38,242,38,05,38,081,31,1*5A
$GPGSV,4,3,14,13,33,035,29,29,21,224,39,20,20,104,29,194,19,147,29,1*5C
$GPGSV,4,4,14,11,08,148,,12,01,168,,1*69
$GPGSV,2,1,06,196,72,049,47,24,60,175,44,199,60,167,43,195,48,176,40,8*5B
$GPGSV,2,2,06,18,47,313,25,194,19,147,24,8*57
$GLGSV,1,1,04,84,49,207,31,85,42,306,26,69,27,033,37,79,26,070,22,1*73
$GAGSV,2,1,05,13,63,301,36,08,61,344,28,15,55,169,37,07,35,265,23,7*7C
$GAGSV,2,2,05,03,26,043,26,7*42
$GAGSV,2,1,05,13,63,301,43,08,61,344,37,15,55,169,39,07,35,265,23,1*78
$GAGSV,2,2,05,03,26,043,21,1*43
$GBGSV,3,1,11,38,71,031,46,39,70,219,42,16,61,211,38,08,61,004,21,1*79
$GBGSV,3,2,11,06,58,211,39,20,49,016,24,29,43,242,35,46,34,151,44,1*74
$GBGSV,3,3,11,37,34,081,34,30,19,183,28,32,16,070,30,1*42
$GBGSV,2,1,08,38,71,031,44,39,70,219,43,20,49,016,31,29,43,242,40,4*71
$GBGSV,2,2,08,37,34,081,29,46,34,151,43,30,19,183,26,32,16,070,25,4*7E
$GNGGA,100700.000,2500.7862071,N,12132.4695034,E,2,47,0.60,13.166,M,15.25,M,6,3335*42
$GNRMC,100700.000,A,2500.7862071,N,12132.4695034,E,0.02,56.47,260623,,,D,V*38
$PAIR010,0,0,2268,122838*37
$PAIR010,0,1,2268,122838*36
$GPHDT,,T*1B
$GNGGA,100700.200,2500.7862071,N,12132.4695034,E,2,46,0.61,13.166,M,15.25,M,6,3335*40
$GNRMC,100700.200,A,2500.7862071,N,12132.4695034,E,0.02,56.47,260623,,,D,V*3A
$GPHDT,,T*1B
$GNGGA,100700.400,2500.7862011,N,12132.4695034,E,2,46,0.61,13.168,M,15.25,M,5,3335*4D
$GNRMC,100700.400,A,2500.7862011,N,12132.4695034,E,0.03,56.47,260623,,,D,V*3B
$GPHDT,,T*1B
$GNGGA,100700.600,2500.7862011,N,12132.4695034,E,2,46,0.61,13.169,M,15.25,M,5,3335*4E
$GNRMC,100700.600,A,2500.7862011,N,12132.4695034,E,0.01,56.47,260623,,,D,V*3B
$GPHDT,,T*1B
$GNGGA,100700.800,2500.7862011,N,12132.4695034,E,2,46,0.61,13.171,M,15.25,M,3,3335*4F
$GNRMC,100700.800,A,2500.7862011,N,12132.4695034,E,0.02,56.47,260623,,,D,V*36
$GPHDT,,T*1B
$GNGSA,A,3,196,24,199,15,195,05,29,20,194,,,,0.93,0.61,0.70,1*0B
$GNGSA,A,3,84,69,79,,,,,,,,,,0.93,0.61,0.70,2*05
$GNGSA,A,3,13,08,15,07,03,,,,,,,,0.93,0.61,0.70,3*03
$GNGSA,A,3,38,39,08,16,06,20,29,46,37,30,32,,0.93,0.61,0.70,4*0B
$GPGSV,4,1,14,196,72,049,41,24,60,175,42,199,60,167,30,15,57,002,29,1*69
$GPGSV,4,2,14,195,48,176,35,18,47,313,24,41,38,242,39,05,38,081,32,1*5B
$GPGSV,4,3,14,13,33,035,,29,21,224,39,20,20,104,28,194,19,147,29,1*56
$GPGSV,4,4,14,11,08,148,,12,01,168,,1*69
$GPGSV,2,1,06,196,72,049,47,24,60,175,44,199,60,167,43,195,48,176,39,8*55
$GPGSV,2,2,06,18,47,313,25,194,19,147,23,8*50
$GLGSV,1,1,04,84,49,207,30,85,42,306,26,69,27,033,37,79,26,070,21,1*71
$GAGSV,2,1,05,13,63,301,36,08,61,344,28,15,55,169,37,07,35,265,23,7*7C
$GAGSV,2,2,05,03,26,043,26,7*42
$GAGSV,2,1,05,13,63,301,43,08,61,344,37,15,55,169,39,07,35,265,23,1*78
$GAGSV,2,2,05,03,26,043,19,1*48
$GBGSV,3,1,11,38,71,031,46,39,70,219,42,08,62,004,22,16,61,211,38,1*79
$GBGSV,3,2,11,06,58,211,39,20,49,016,24,29,43,242,35,46,34,151,44,1*74
$GBGSV,3,3,11,37,34,081,34,30,19,183,28,32,16,070,29,1*4A
$GBGSV,2,1,08,38,71,031,44,39,70,219,43,20,49,016,31,29,43,242,40,4*71
$GBGSV,2,2,08,37,34,081,29,46,34,151,43,30,19,183,25,32,16,070,22,4*7A
$GNGGA,100701.000,2500.7862011,N,12132.4695034,E,2,46,0.61,13.172,M,15.25,M,1,3335*47
$GNRMC,100701.000,A,2500.7862011,N,12132.4695034,E,0.02,56.47,260623,,,D,V*3F
$GPHDT,,T*1B
$GNGGA,100701.200,2500.7862011,N,12132.4695034,E,2,46,0.61,13.173,M,15.25,M,1,3335*44
$GNRMC,100701.200,A,2500.7862011,N,12132.4695034,E,0.02,56.47,260623,,,D,V*3D
$GPHDT,,T*1B
$GNGGA,100701.400,2500.7862011,N,12132.4695034,E,2,46,0.61,13.174,M,15.25,M,1,3335*45
$GNRMC,100701.400,A,2500.7862011,N,12132.4695034,E,0.03,56.47,260623,,,D,V*3A
$GPHDT,,T*1B
$GNGGA,100701.600,2500.7862011,N,12132.4695034,E,2,46,0.61,13.175,M,15.25,M,1,3335*46
$GNRMC,100701.600,A,2500.7862011,N,12132.4695034,E,0.02,56.47,260623,,,D,V*39
$GPHDT,,T*1B
$GNGGA,100701.800,2500.7862011,N,12132.4695034,E,2,46,0.61,13.175,M,15.25,M,0,3335*49
$GNRMC,100701.800,A,2500.7862011,N,12132.4695034,E,0.02,56.47,260623,,,D,V*37
$GPHDT,,T*1B
$GNGSA,A,3,196,24,199,15,195,05,29,20,194,,,,0.93,0.61,0.70,1*0B
$GNGSA,A,3,84,69,79,,,,,,,,,,0.93,0.61,0.70,2*05
$GNGSA,A,3,13,08,15,07,03,,,,,,,,0.93,0.61,0.70,3*03
$GNGSA,A,3,38,39,08,16,06,20,29,46,37,30,32,,0.93,0.61,0.70,4*0B
$GPGSV,4,1,14,196,72,049,41,24,60,175,42,199,60,167,31,15,57,002,29,1*68
$GPGSV,4,2,14,195,48,176,35,18,47,313,24,41,38,242,39,05,38,081,32,1*5B
$GPGSV,4,3,14,13,33,035,,29,21,224,39,20,20,104,28,194,19,147,29,1*56
$GPGSV,4,4,14,11,08,148,,12,01,168,,1*69
$GPGSV,2,1,06,196,72,049,47,24,60,175,44,199,60,167,43,195,48,176,39,8*55
$GPGSV,2,2,06,18,47,313,24,194,19,147,23,8*51
$GLGSV,1,1,04,84,49,207,30,85,42,306,26,69,27,033,37,79,26,070,19,1*7A
$GAGSV,2,1,05,13,63,301,36,08,61,344,29,15,55,169,37,07,35,265,23,7*7D
$GAGSV,2,2,05,03,26,043,26,7*42
$GAGSV,2,1,05,13,63,301,43,08,61,344,37,15,55,169,39,07,35,265,23,1*78
$GAGSV,2,2,05,03,26,043,19,1*48
$GBGSV,3,1,11,38,71,031,46,39,70,219,41,08,62,004,23,16,61,212,38,1*78
$GBGSV,3,2,11,06,58,211,39,20,49,016,25,29,43,242,34,46,34,151,44,1*74
$GBGSV,3,3,11,37,34,081,34,30,19,183,29,32,16,070,29,1*4B
$GBGSV,2,1,08,38,71,031,44,39,70,219,43,20,49,016,30,29,43,242,40,4*70
$GBGSV,2,2,08,37,34,081,31,46,34,151,43,30,19,183,25,32,16,070,22,4*73
$GNGGA,100702.000,2500.7862011,N,12132.4695034,E,2,46,0.61,13.176,M,15.25,M,1,3335*40
$GNRMC,100702.000,A,2500.7862011,N,12132.4695034,E,0.02,56.47,260623,,,D,V*3C
$GPHDT,,T*1B
$GNGGA,100702.200,2500.7861951,N,12132.4695034,E,2,46,0.61,13.177,M,15.25,M,1,3335*4D
$GNRMC,100702.200,A,2500.7861951,N,12132.4695034,E,0.02,56.47,260623,,,D,V*30
$GPHDT,,T*1B
$GNGGA,100702.400,2500.7861951,N,12132.4695034,E,2,46,0.61,13.178,M,15.25,M,1,3335*44
$GNRMC,100702.400,A,2500.7861951,N,12132.4695034,E,0.02,56.47,260623,,,D,V*36
$GPHDT,,T*1B
$GNGGA,100702.600,2500.7861951,N,12132.4695034,E,2,46,0.61,13.178,M,15.25,M,1,3335*46
$GNRMC,100702.600,A,2500.7861951,N,12132.4695034,E,0.02,56.47,260623,,,D,V*34
$GPHDT,,T*1B
$GNGGA,100702.800,2500.7861951,N,12132.4695034,E,2,46,0.61,13.179,M,15.25,M,1,3335*49
$GNRMC,100702.800,A,2500.7861951,N,12132.4695034,E,0.02,56.47,260623,,,D,V*3A
$GPHDT,,T*1B
$GNGSA,A,3,196,24,199,15,195,05,29,20,194,,,,0.93,0.61,0.70,1*0B
$GNGSA,A,3,84,69,79,,,,,,,,,,0.93,0.61,0.70,2*05
$GNGSA,A,3,13,08,15,07,03,,,,,,,,0.93,0.61,0.70,3*03
$GNGSA,A,3,38,39,08,16,06,20,29,46,37,30,32,,0.93,0.61,0.70,4*0B
$GPGSV,4,1,14,196,72,049,41,24,60,175,41,199,60,167,32,15,57,002,29,1*68
$GPGSV,4,2,14,195,48,176,36,18,47,313,24,41,38,242,39,05,38,081,32,1*58
$GPGSV,4,3,14,13,33,035,,29,21,224,40,20,20,104,28,194,19,147,29,1*58
$GPGSV,4,4,14,11,08,148,,12,01,168,,1*69
$GPGSV,2,1,06,196,72,049,47,24,60,175,44,199,60,167,43,195,48,176,40,8*5B
$GPGSV,2,2,06,18,47,313,24,194,19,147,22,8*50
$GLGSV,1,1,04,84,49,207,30,85,42,306,26,69,27,033,37,79,26,070,17,1*74
$GAGSV,2,1,05,13,63,301,35,08,61,344,29,15,55,169,38,07,35,265,23,7*71
$GAGSV,2,2,05,03,26,043,26,7*42
$GAGSV,2,1,05,13,63,301,43,08,61,344,37,15,55,169,39,07,35,265,23,1*78
$GAGSV,2,2,05,03,26,043,18,1*49
$GBGSV,3,1,11,38,71,031,46,39,70,219,41,08,62,004,24,16,61,212,39,1*7E
$GBGSV,3,2,11,06,58,211,40,20,49,016,25,29,43,242,34,46,34,151,44,1*7A
$GBGSV,3,3,11,37,34,081,34,30,19,183,29,32,16,070,29,1*4B
$GBGSV,2,1,08,38,71,031,45,39,70,219,43,20,49,016,30,29,43,242,40,4*71
$GBGSV,2,2,08,37,34,081,31,46,34,151,43,30,19,183,25,32,16,070,24,4*75
$GNGGA,100703.000,2500.7861951,N,12132.4695034,E,2,46,0.61,13.179,M,15.25,M,2,3335*43
$GNRMC,100703.000,A,2500.7861951,N,12132.4695034,E,0.03,56.47,260623,,,D,V*32
$GPHDT,,T*1B
$GNGGA,100703.200,2500.7861951,N,12132.4695034,E,2,46,0.61,13.179,M,15.25,M,2,3335*41
$GNRMC,100703.200,A,2500.7861951,N,12132.4695034,E,0.02,56.47,260623,,,D,V*31
$GPHDT,,T*1B
$GNGGA,100703.400,2500.7861951,N,12132.4695094,E,2,46,0.61,13.179,M,15.25,M,2,3335*4D
$GNRMC,100703.400,A,2500.7861951,N,12132.4695094,E,0.06,56.47,260623,,,D,V*39
$GPHDT,,T*1B
$GNGGA,100703.600,2500.7861951,N,12132.4695034,E,2,46,0.61,13.179,M,15.25,M,2,3335*45
$GNRMC,100703.600,A,2500.7861951,N,12132.4695034,E,0.01,56.47,260623,,,D,V*36
$GPHDT,,T*1B
$GNGGA,100703.800,2500.7861951,N,12132.4695034,E,2,45,0.61,13.180,M,15.25,M,2,3335*4E
$GNRMC,100703.800,A,2500.7861951,N,12132.4695034,E,0.03,56.47,260623,,,D,V*3A
$GPHDT,,T*1B
$GNGSA,A,3,196,24,199,15,195,05,29,20,194,,,,0.93,0.61,0.70,1*0B
$GNGSA,A,3,84,69,79,,,,,,,,,,0.93,0.61,0.70,2*05
$GNGSA,A,3,13,08,15,07,03,,,,,,,,0.93,0.61,0.70,3*03
$GNGSA,A,3,38,39,08,16,06,29,46,37,30,32,20,,0.93,0.61,0.70,4*0B
$GPGSV,4,1,14,196,72,049,41,24,60,175,41,199,60,167,33,15,57,002,29,1*69
$GPGSV,4,2,14,195,48,176,36,18,47,313,24,41,38,242,39,05,38,081,31,1*5B
$GPGSV,4,3,14,13,33,035,,29,21,224,40,20,20,104,28,194,19,147,29,1*58
$GPGSV,4,4,14,11,08,148,,12,01,168,,1*69
$GPGSV,2,1,06,196,72,049,47,24,60,175,44,199,60,167,43,195,48,176,40,8*5B
$GPGSV,2,2,06,18,47,313,24,194,19,147,21,8*53
$GLGSV,1,1,04,84,49,207,29,85,42,306,24,69,27,033,37,79,26,070,16,1*7F
$GAGSV,2,1,05,13,63,301,35,08,61,344,28,15,55,169,38,07,35,265,25,7*76
$GAGSV,2,2,05,03,26,043,26,7*42
$GAGSV,2,1,05,13,63,301,42,08,61,344,37,15,55,169,39,07,35,265,23,1*79
$GAGSV,2,2,05,03,26,043,16,1*47
$GBGSV,3,1,11,38,71,031,46,39,70,219,42,08,62,004,24,16,61,212,39,1*7D
$GBGSV,3,2,11,06,58,211,39,20,49,016,,29,43,242,33,46,34,151,44,1*74
$GBGSV,3,3,11,37,34,081,33,30,19,183,29,32,16,070,29,1*4C
$GBGSV,2,1,08,38,71,031,45,39,70,219,43,20,49,016,30,29,43,242,40,4*71
$GBGSV,2,2,08,37,34,081,31,46,34,151,43,30,19,183,25,32,16,070,24,4*75
$GNGGA,100704.000,2500.7861951,N,12132.4695034,E,2,45,0.61,13.180,M,15.25,M,3,3335*40
$GNRMC,100704.000,A,2500.7861951,N,12132.4695034,E,0.02,56.47,260623,,,D,V*34
$GPHDT,,T*1B
$GNGGA,100704.200,2500.7861951,N,12132.4695034,E,2,45,0.61,13.180,M,15.25,M,2,3335*43
$GNRMC,100704.200,A,2500.7861951,N,12132.4695034,E,0.01,56.47,260623,,,D,V*35
$GPHDT,,T*1B
$GNGGA,100704.400,2500.7861951,N,12132.4695034,E,2,45,0.61,13.179,M,15.25,M,1,3335*40
$GNRMC,100704.400,A,2500.7861951,N,12132.4695034,E,0.01,56.47,260623,,,D,V*33
$GPHDT,,T*1B
$GNGGA,100704.600,2500.7861951,N,12132.4695034,E,2,45,0.61,13.179,M,15.25,M,0,3335*43
$GNRMC,100704.600,A,2500.7861951,N,12132.4695034,E,0.02,56.47,260623,,,D,V*32
$GPHDT,,T*1B
$GNGGA,100704.800,2500.7861951,N,12132.4695094,E,2,45,0.61,13.178,M,15.25,M,0,3335*46
$GNRMC,100704.800,A,2500.7861951,N,12132.4695094,E,0.12,56.47,260623,,,D,V*37
$GPHDT,,T*1B
$GNGSA,A,3,196,24,199,15,195,05,29,20,194,,,,0.93,0.61,0.70,1*0B
$GNGSA,A,3,84,69,79,,,,,,,,,,0.93,0.61,0.70,2*05
$GNGSA,A,3,13,08,15,07,03,,,,,,,,0.93,0.61,0.70,3*03
$GNGSA,A,3,38,39,08,16,06,29,46,37,30,32,20,,0.93,0.61,0.70,4*0B
$GPGSV,4,1,14,196,72,049,41,24,60,175,40,199,60,167,32,15,57,002,29,1*69
$GPGSV,4,2,14,195,48,176,36,18,47,313,22,41,38,242,38,05,38,081,31,1*5C
$GPGSV,4,3,14,13,33,035,,29,21,224,40,20,20,104,26,194,19,147,29,1*56
$GPGSV,4,4,14,11,08,148,,12,01,168,,1*69
$GPGSV,2,1,06,196,72,049,47,24,60,175,44,199,60,167,43,195,48,176,40,8*5B
$GPGSV,2,2,06,18,47,313,25,194,19,147,22,8*51
$GLGSV,1,1,04,84,49,207,29,85,42,306,24,69,27,033,37,79,26,070,16,1*7F
$GAGSV,2,1,05,13,63,301,35,08,61,344,28,15,55,169,38,07,35,265,24,7*77
$GAGSV,2,2,05,03,26,043,26,7*42
$GAGSV,2,1,05,13,63,301,42,08,61,344,37,15,55,169,39,07,35,265,23,1*79
$GAGSV,2,2,05,03,26,043,15,1*44
$GBGSV,3,1,11,38,71,031,46,39,70,219,42,08,62,004,24,16,61,212,39,1*7D
$GBGSV,3,2,11,06,58,211,39,20,49,016,,29,42,241,33,46,34,151,44,1*76
$GBGSV,3,3,11,37,34,081,33,30,19,182,29,32,16,070,29,1*4D
$GBGSV,2,1,08,38,71,031,45,39,70,219,43,20,49,016,29,29,42,241,40,4*7B
$GBGSV,2,2,08,37,34,081,31,46,34,151,43,30,19,182,25,32,16,070,24,4*74
$GNGGA,100705.000,2500.7861951,N,12132.4695094,E,2,45,0.61,13.181,M,15.25,M,1,3335*48
$GNRMC,100705.000,A,2500.7861951,N,12132.4695094,E,0.05,56.47,260623,,,D,V*38
$GPHDT,,T*1B
$GNGGA,100705.200,2500.7861951,N,12132.4695094,E,2,46,0.61,13.185,M,15.25,M,1,3335*4D
$GNRMC,100705.200,A,2500.7861951,N,12132.4695094,E,0.04,56.47,260623,,,D,V*3B
$GPHDT,,T*1B
$GNGGA,100705.400,2500.7861951,N,12132.4695094,E,2,46,0.61,13.188,M,15.25,M,1,3335*46
$GNRMC,100705.400,A,2500.7861951,N,12132.4695094,E,0.03,56.47,260623,,,D,V*3A
$GPHDT,,T*1B
$GNGGA,100705.600,2500.7861951,N,12132.4695154,E,2,46,0.64,13.189,M,15.25,M,0,3335*4C
$GNRMC,100705.600,A,2500.7861951,N,12132.4695154,E,0.14,56.47,260623,,,D,V*33
$GPHDT,,T*1B
$GNGGA,100705.800,2500.7861951,N,12132.4695094,E,2,46,0.64,13.189,M,15.25,M,0,3335*4F
$GNRMC,100705.800,A,2500.7861951,N,12132.4695094,E,0.10,56.47,260623,,,D,V*34
$GPHDT,,T*1B
$GNGSA,A,3,196,24,199,15,195,05,29,20,194,,,,1.17,0.64,0.98,1*05
$GNGSA,A,3,84,69,79,,,,,,,,,,1.17,0.64,0.98,2*0B
$GNGSA,A,3,13,08,15,07,03,,,,,,,,1.17,0.64,0.98,3*0D
$GNGSA,A,3,38,39,08,16,06,20,29,37,46,30,32,,1.17,0.64,0.98,4*05
$GPGSV,4,1,14,196,72,049,41,24,60,175,40,199,60,167,32,15,57,002,29,1*69
$GPGSV,4,2,14,195,48,176,36,18,47,313,22,41,38,242,38,05,38,081,31,1*5C
$GPGSV,4,3,14,13,33,035,,29,21,224,40,20,20,104,26,194,19,147,29,1*56
$GPGSV,4,4,14,11,08,148,,12,01,168,,1*69
$GPGSV,2,1,06,196,72,049,47,24,60,175,44,199,60,167,43,195,48,176,40,8*5B
$GPGSV,2,2,06,18,47,313,25,194,19,147,23,8*50
$GLGSV,2,1,05,84,49,207,28,85,42,306,24,70,36,318,,69,27,033,37,1*7E
$GLGSV,2,2,05,79,26,070,16,1*47
$GAGSV,2,1,05,13,63,301,36,08,61,344,28,15,55,169,38,07,35,265,24,7*74
$GAGSV,2,2,05,03,26,043,26,7*42
$GAGSV,2,1,05,13,63,301,42,08,61,344,37,15,55,169,39,07,35,265,24,1*7E
$GAGSV,2,2,05,03,26,043,15,1*44
$GBGSV,3,1,12,38,71,031,46,39,70,219,42,08,62,004,24,16,61,212,38,1*7F
$GBGSV,3,2,12,06,58,211,39,20,49,016,28,29,42,241,32,09,42,211,,1*73
$GBGSV,3,3,12,37,34,081,33,46,34,151,44,30,19,182,29,32,16,070,29,1*7E
$GBGSV,2,1,08,38,71,031,45,39,70,219,43,20,49,016,29,29,42,241,40,4*7B
$GBGSV,2,2,08,37,34,081,31,46,34,151,43,30,19,182,26,32,16,070,24,4*77
$GNGGA,100706.000,2500.7861891,N,12132.4695154,E,2,46,0.64,13.194,M,15.25,M,1,3335*49
$GNRMC,100706.000,A,2500.7861891,N,12132.4695154,E,0.11,56.47,260623,,,D,V*3E
$GPHDT,,T*1B
$GNGGA,100706.200,2500.7861951,N,12132.4695154,E,2,46,0.64,13.198,M,15.25,M,1,3335*4A
$GNRMC,100706.200,A,2500.7861951,N,12132.4695154,E,0.08,56.47,260623,,,D,V*39
$GPHDT,,T*1B
$GNGGA,100706.400,2500.7861891,N,12132.4695154,E,2,46,0.64,13.203,M,15.25,M,1,3335*40
$GNRMC,100706.400,A,2500.7861891,N,12132.4695154,E,0.06,56.47,260623,,,D,V*3C
