$FW : RTK35X,V1.1X0314AS,Lib20210517,1*54
$Tool : LOCOSYS , GNSS Firebird , v1.0.0.19*39
$---------------------------------------------------*2D
$GNGSA,A,3,196,24,199,15,195,05,13,29,20,194,,,0.92,0.60,0.70,1*09
$GNGSA,A,3,84,69,79,,,,,,,,,,0.92,0.60,0.70,2*05
$GNGSA,A,3,13,08,15,07,03,,,,,,,,0.92,0.60,0.70,3*03
$GNGSA,A,3,38,39,08,16,06,20,29,46,37,30,32,,0.92,0.60,0.70,4*0B
$GPGSV,4,1,14,196,72,049,41,24,60,174,38,199,60,167,35,15,57,003,34,1*6D
$GPGSV,4,2,14,18,48,313,21,195,48,176,25,41,38,242,34,05,38,082,35,1*59
$GPGSV,4,3,14,13,33,035,34,29,20,223,40,20,20,105,17,194,19,147,28,1*55
$GPGSV,4,4,14,11,08,148,,12,01,167,,1*66
$GPGSV,2,1,06,196,72,049,47,24,60,174,44,199,60,167,43,18,48,313,23,8*6A
$GPGSV,2,2,06,195,48,176,40,194,19,147,16,8*6F
$GLGSV,2,1,05,84,49,207,26,85,42,306,28,69,27,033,34,79,26,070,30,1*79
$GLGSV,2,2,05,73,02,176,,1*4B
$GAGSV,2,1,07,13,63,301,37,08,61,345,31,15,54,169,42,07,35,265,24,7*72
$GAGSV,2,2,07,03,26,043,19,34,06,152,,25,04,069,,7*47
$GAGSV,2,1,05,13,63,301,42,08,61,345,36,15,54,169,42,07,35,265,25,1*72
$GAGSV,2,2,05,03,26,043,19,1*48
$GBGSV,4,1,14,38,71,032,46,39,70,220,45,08,62,004,25,16,61,212,40,1*7E
$GBGSV,4,2,14,06,58,211,38,20,49,016,27,29,42,241,45,09,42,211,26,1*78
$GBGSV,4,3,14,46,34,151,35,37,34,081,29,30,19,182,30,32,16,070,32,1*70
$GBGSV,4,4,14,10,07,210,,23,03,040,,1*70
$GBGSV,2,1,08,38,71,032,44,39,70,220,45,20,49,016,27,29,42,241,44,4*7F
$GBGSV,2,2,08,37,34,081,29,46,34,151,29,30,19,182,25,32,16,070,22,4*77
$GNGGA,100725.000,2500.7861711,N,12132.4695334,E,2,47,0.60,13.206,M,15.25,M,2,3335*45
$GNRMC,100725.000,A,2500.7861711,N,12132.4695334,E,0.03,78.22,260623,,,D,V*30
$GPHDT,,T*1B
$GNGGA,100725.200,2500.7861711,N,12132.4695334,E,2,47,0.60,13.207,M,15.25,M,2,3335*46
$GNRMC,100725.200,A,2500.7861711,N,12132.4695334,E,0.04,78.22,260623,,,D,V*35
$GPHDT,,T*1B
$GNGGA,100725.400,2500.7861711,N,12132.4695334,E,2,47,0.60,13.209,M,15.25,M,2,3335*4E
$GNRMC,100725.400,A,2500.7861711,N,12132.4695334,E,0.03,78.22,260623,,,D,V*34
$GPHDT,,T*1B
$GNGGA,100725.600,2500.7861711,N,12132.4695274,E,2,47,0.60,13.210,M,15.25,M,2,3335*41
$GNRMC,100725.600,A,2500.7861711,N,12132.4695274,E,0.06,78.22,260623,,,D,V*36
$GPHDT,,T*1B
$GNGGA,100725.800,2500.7861711,N,12132.4695334,E,2,46,0.60,13.215,M,15.25,M,2,3335*4E
$GNRMC,100725.800,A,2500.7861711,N,12132.4695334,E,0.17,78.22,260623,,,D,V*3D
$GPHDT,,T*1B
$GNGSA,A,3,196,24,199,15,195,05,13,29,20,194,,,0.92,0.60,0.70,1*09
$GNGSA,A,3,84,69,79,,,,,,,,,,0.92,0.60,0.70,2*05
$GNGSA,A,3,13,08,15,07,03,,,,,,,,0.92,0.60,0.70,3*03
$GNGSA,A,3,38,39,08,16,06,20,29,37,46,30,32,,0.92,0.60,0.70,4*0B
$GPGSV,4,1,14,196,72,049,41,24,60,174,40,199,60,167,35,15,57,003,34,1*62
$GPGSV,4,2,14,18,48,313,21,195,48,176,26,41,38,242,37,05,38,082,35,1*59
$GPGSV,4,3,14,13,33,035,35,29,20,223,40,20,20,105,17,194,19,147,28,1*54
$GPGSV,4,4,14,11,08,148,,12,01,167,,1*66
$GPGSV,2,1,06,196,72,049,47,24,60,174,43,199,60,167,43,18,48,313,23,8*6D
$GPGSV,2,2,06,195,48,176,40,194,19,147,17,8*6E
$GLGSV,1,1,04,84,49,207,26,85,42,306,29,69,27,033,35,79,26,070,29,1*73
$GAGSV,2,1,07,13,63,301,37,08,61,345,29,15,54,169,41,07,35,265,24,7*78
$GAGSV,2,2,07,03,26,043,,34,06,152,,25,04,069,,7*4F
$GAGSV,2,1,05,13,63,301,42,08,61,345,36,15,54,169,42,07,35,265,26,1*71
$GAGSV,2,2,05,03,26,043,19,1*48
$GBGSV,3,1,12,38,71,032,46,39,70,220,45,08,62,004,26,16,61,212,42,1*7E
$GBGSV,3,2,12,06,58,211,39,20,49,016,28,29,42,241,44,09,42,211,25,1*75
$GBGSV,3,3,12,37,34,081,29,46,34,151,36,30,19,182,29,32,16,070,32,1*7A
$GBGSV,2,1,08,38,71,032,44,39,70,220,45,20,49,016,27,29,42,241,44,4*7F
$GBGSV,2,2,08,37,34,081,27,46,34,151,31,30,19,182,23,32,16,070,20,4*74
$GNGGA,100726.000,2500.7861651,N,12132.4695334,E,2,46,0.60,13.222,M,15.25,M,3,3335*45
$GNRMC,100726.000,A,2500.7861651,N,12132.4695334,E,0.12,78.22,260623,,,D,V*36
$GPHDT,,T*1B
$GNGGA,100726.200,2500.7861651,N,12132.4695334,E,2,46,0.60,13.225,M,15.25,M,3,3335*40
$GNRMC,100726.200,A,2500.7861651,N,12132.4695334,E,0.05,78.22,260623,,,D,V*32
$GPHDT,,T*1B
$GNGGA,100726.400,2500.7861591,N,12132.4695334,E,2,46,0.60,13.230,M,15.25,M,3,3335*4D
$GNRMC,100726.400,A,2500.7861591,N,12132.4695334,E,0.03,78.22,260623,,,D,V*3D
$GPHDT,,T*1B
$GNGGA,100726.600,2500.7861591,N,12132.4695334,E,2,46,0.60,13.233,M,15.25,M,3,3335*4C
$GNRMC,100726.600,A,2500.7861591,N,12132.4695334,E,0.12,78.22,260623,,,D,V*3F
$GPHDT,,T*1B
$GNGGA,100726.800,2500.7861591,N,12132.4695334,E,2,46,0.60,13.238,M,15.25,M,3,3335*49
$GNRMC,100726.800,A,2500.7861591,N,12132.4695334,E,0.02,78.22,260623,,,D,V*30
$GPHDT,,T*1B
$GNGSA,A,3,196,24,199,15,195,05,13,29,20,194,,,0.92,0.60,0.70,1*09
$GNGSA,A,3,84,69,79,,,,,,,,,,0.92,0.60,0.70,2*05
$GNGSA,A,3,13,08,15,07,03,,,,,,,,0.92,0.60,0.70,3*03
$GNGSA,A,3,38,39,08,16,06,20,29,37,46,30,32,,0.92,0.60,0.70,4*0B
$GPGSV,4,1,14,196,72,049,40,24,60,174,40,199,60,167,34,15,57,003,34,1*62
$GPGSV,4,2,14,18,48,313,19,195,48,176,26,41,38,242,35,05,38,082,35,1*50
$GPGSV,4,3,14,13,33,035,36,29,20,223,38,20,20,105,16,194,19,147,29,1*58
$GPGSV,4,4,14,11,08,148,,12,01,167,,1*66
$GPGSV,2,1,06,196,72,049,47,24,60,174,43,199,60,167,44,18,48,313,25,8*6C
$GPGSV,2,2,06,195,48,176,40,194,19,147,20,8*6A
$GLGSV,1,1,04,84,49,207,26,85,42,306,29,69,27,033,34,79,26,070,30,1*7A
$GAGSV,2,1,07,13,63,301,36,08,61,345,29,15,54,169,41,07,35,265,24,7*79
$GAGSV,2,2,07,03,26,043,18,34,06,152,,25,04,069,,7*46
$GAGSV,2,1,05,13,63,301,41,08,61,345,38,15,54,169,44,07,35,265,26,1*7A
$GAGSV,2,2,05,03,26,043,21,1*43
$GBGSV,4,1,14,38,71,032,46,39,70,220,43,08,62,004,26,16,61,212,42,1*79
$GBGSV,4,2,14,06,58,211,40,20,49,016,28,09,42,211,29,29,42,241,43,1*71
$GBGSV,4,3,14,19,35,307,,37,34,081,30,46,34,151,34,35,21,303,,1*75
$GBGSV,4,4,14,30,19,182,28,32,16,070,30,1*7B
$GBGSV,2,1,08,38,71,032,44,39,70,220,45,20,49,016,28,29,42,241,44,4*70
$GBGSV,2,2,08,37,34,081,31,46,34,151,34,30,19,182,23,32,16,070,21,4*77
$GNGGA,100727.000,2500.7861591,N,12132.4695394,E,2,46,0.60,13.243,M,15.25,M,4,3335*41
$GNRMC,100727.000,A,2500.7861591,N,12132.4695394,E,0.03,78.22,260623,,,D,V*32
$GPHDT,,T*1B
$GNGGA,100727.200,2500.7861591,N,12132.4695394,E,2,46,0.60,13.247,M,15.25,M,4,3335*47
$GNRMC,100727.200,A,2500.7861591,N,12132.4695394,E,0.03,78.22,260623,,,D,V*30
$GPHDT,,T*1B
$GNGGA,100727.400,2500.7861591,N,12132.4695394,E,2,46,0.60,13.251,M,15.25,M,4,3335*46
$GNRMC,100727.400,A,2500.7861591,N,12132.4695394,E,0.03,78.22,260623,,,D,V*36
$GPHDT,,T*1B
$GNGGA,100727.600,2500.7861591,N,12132.4695394,E,2,46,0.60,13.255,M,15.25,M,4,3335*40
$GNRMC,100727.600,A,2500.7861591,N,12132.4695394,E,0.02,78.22,260623,,,D,V*35
$GPHDT,,T*1B
$GNGGA,100727.800,2500.7861531,N,12132.4695394,E,2,46,0.60,13.258,M,15.25,M,4,3335*49
$GNRMC,100727.800,A,2500.7861531,N,12132.4695394,E,0.05,78.22,260623,,,D,V*36
$GPHDT,,T*1B
$GNGSA,A,3,196,24,199,15,195,05,13,29,20,194,,,0.92,0.60,0.70,1*09
$GNGSA,A,3,84,69,79,,,,,,,,,,0.92,0.60,0.70,2*05
$GNGSA,A,3,13,08,15,07,03,,,,,,,,0.92,0.60,0.70,3*03
$GNGSA,A,3,38,39,08,16,06,20,29,37,46,30,32,,0.92,0.60,0.70,4*0B
$GPGSV,4,1,14,196,72,049,40,24,60,174,43,199,60,167,33,15,57,003,34,1*66
$GPGSV,4,2,14,18,48,313,18,195,48,176,41,41,38,242,33,05,38,082,33,1*50
$GPGSV,4,3,14,13,33,035,38,29,20,223,37,20,20,105,16,194,19,147,29,1*59
$GPGSV,4,4,14,11,08,148,,12,01,167,,1*66
$GPGSV,2,1,06,196,72,049,47,24,60,174,44,199,60,167,43,18,48,313,25,8*6C
$GPGSV,2,2,06,195,48,176,45,194,19,147,22,8*6D
$GLGSV,1,1,04,84,49,207,27,85,42,306,29,69,27,034,34,79,26,070,29,1*74
$GAGSV,2,1,06,13,63,301,36,08,61,345,29,15,54,169,42,07,35,265,24,7*7B
$GAGSV,2,2,06,03,26,043,,34,06,152,,7*72
$GAGSV,2,1,05,13,63,301,41,08,61,345,38,15,54,169,42,07,35,265,23,1*79
$GAGSV,2,2,05,03,26,043,22,1*40
$GBGSV,3,1,12,38,71,032,46,39,70,220,43,08,62,004,26,16,61,212,42,1*78
$GBGSV,3,2,12,06,58,211,40,20,49,016,27,29,42,241,43,09,42,211,31,1*76
$GBGSV,3,3,12,37,34,081,30,46,34,151,32,30,19,182,27,32,16,070,30,1*7A
$GBGSV,2,1,08,38,71,032,44,39,70,220,45,20,49,016,26,29,42,241,44,4*7E
$GBGSV,2,2,08,37,34,081,30,46,34,151,31,30,19,182,21,32,16,070,22,4*72
$GNGGA,100728.000,2500.7861531,N,12132.4695394,E,2,46,0.60,13.262,M,15.25,M,5,3335*46
$GNRMC,100728.000,A,2500.7861531,N,12132.4695394,E,0.05,78.22,260623,,,D,V*31
$GPHDT,,T*1B
$GNGGA,100728.200,2500.7861531,N,12132.4695334,E,2,46,0.60,13.267,M,15.25,M,5,3335*4B
$GNRMC,100728.200,A,2500.7861531,N,12132.4695334,E,0.01,78.22,260623,,,D,V*3D
$GPHDT,,T*1B
$GNGGA,100728.400,2500.7861531,N,12132.4695394,E,2,46,0.60,13.270,M,15.25,M,5,3335*41
$GNRMC,100728.400,A,2500.7861531,N,12132.4695394,E,0.02,78.22,260623,,,D,V*32
$GPHDT,,T*1B
$GNGGA,100728.600,2500.7861531,N,12132.4695334,E,2,46,0.60,13.273,M,15.25,M,5,3335*4A
$GNRMC,100728.600,A,2500.7861531,N,12132.4695334,E,0.02,78.22,260623,,,D,V*3A
$GPHDT,,T*1B
$GNGGA,100728.800,2500.7861531,N,12132.4695334,E,2,45,0.62,13.277,M,15.25,M,5,3335*41
$GNRMC,100728.800,A,2500.7861531,N,12132.4695334,E,0.04,78.22,260623,,,D,V*32
$GPHDT,,T*1B
$GNGSA,A,3,196,24,199,15,195,05,13,29,20,194,,,0.92,0.60,0.70,1*09
$GNGSA,A,3,84,69,79,,,,,,,,,,0.92,0.60,0.70,2*05
$GNGSA,A,3,13,08,15,07,03,,,,,,,,0.92,0.60,0.70,3*03
$GNGSA,A,3,38,39,08,16,06,20,29,46,37,30,32,,0.92,0.60,0.70,4*0B
$GPGSV,4,1,14,196,72,049,40,24,60,174,43,199,60,167,35,15,57,003,34,1*60
$GPGSV,4,2,14,18,48,313,18,195,48,176,42,41,38,242,34,05,38,082,32,1*55
$GPGSV,4,3,14,13,33,035,37,29,20,223,35,20,20,105,13,194,19,147,30,1*59
$GPGSV,4,4,14,11,08,148,,12,01,167,,1*66
$GPGSV,2,1,06,196,72,049,47,24,60,174,46,199,60,167,43,18,48,313,26,8*6D
$GPGSV,2,2,06,195,48,176,46,194,19,147,21,8*6D
$GLGSV,1,1,04,84,49,207,26,85,42,306,29,69,27,034,35,79,26,070,28,1*75
$GAGSV,2,1,05,13,63,301,37,08,61,345,30,15,54,169,42,07,35,265,23,7*76
$GAGSV,2,2,05,03,26,043,,7*46
$GAGSV,2,1,05,13,63,301,41,08,61,345,37,15,54,169,43,07,35,265,23,1*77
$GAGSV,2,2,05,03,26,043,22,1*40
$GBGSV,3,1,12,38,71,032,46,39,70,220,43,08,62,004,24,16,61,212,42,1*7A
$GBGSV,3,2,12,06,58,211,40,20,49,016,27,29,42,241,43,09,42,211,31,1*76
$GBGSV,3,3,12,46,34,151,31,37,34,081,32,30,19,182,26,32,16,070,30,1*7A
$GBGSV,2,1,08,38,71,032,44,39,70,220,44,20,49,016,26,29,42,241,44,4*7F
$GBGSV,2,2,08,37,34,081,28,46,34,151,31,30,19,182,21,32,16,070,22,4*7B
$GNGGA,100729.000,2500.7861531,N,12132.4695334,E,2,46,0.60,13.276,M,15.25,M,6,3335*4B
$GNRMC,100729.000,A,2500.7861531,N,12132.4695334,E,0.03,78.22,260623,,,D,V*3C
$GPHDT,,T*1B
$GNGGA,100729.200,2500.7861531,N,12132.4695334,E,2,46,0.60,13.272,M,15.25,M,6,3335*4D
$GNRMC,100729.200,A,2500.7861531,N,12132.4695334,E,0.03,78.22,260623,,,D,V*3E
$GPHDT,,T*1B
$GNGGA,100729.400,2500.7861531,N,12132.4695334,E,2,45,0.62,13.272,M,15.25,M,6,3335*4A
$GNRMC,100729.400,A,2500.7861531,N,12132.4695334,E,0.03,78.22,260623,,,D,V*38
$GPHDT,,T*1B
$GNGGA,100729.600,2500.7861531,N,12132.4695334,E,2,45,0.62,13.270,M,15.25,M,5,3335*49
$GNRMC,100729.600,A,2500.7861531,N,12132.4695334,E,0.03,78.22,260623,,,D,V*3A
$GPHDT,,T*1B
$GNGGA,100729.800,2500.7861531,N,12132.4695274,E,2,44,0.62,13.268,M,15.25,M,3,3335*4C
$GNRMC,100729.800,A,2500.7861531,N,12132.4695274,E,0.04,78.22,260623,,,D,V*36
$GPHDT,,T*1B
$GNGSA,A,3,196,24,199,15,195,05,13,29,194,,,,0.93,0.62,0.70,1*08
$GNGSA,A,3,84,69,79,,,,,,,,,,0.93,0.62,0.70,2*06
$GNGSA,A,3,13,08,15,07,03,,,,,,,,0.93,0.62,0.70,3*00
$GNGSA,A,3,38,39,08,16,06,20,29,46,37,30,32,,0.93,0.62,0.70,4*08
$GPGSV,4,1,14,196,72,049,40,24,60,174,43,199,60,167,36,15,57,003,34,1*63
$GPGSV,4,2,14,18,48,313,20,195,48,176,42,41,38,242,32,05,38,082,32,1*58
$GPGSV,4,3,14,13,33,035,37,29,20,223,36,20,20,105,12,194,19,147,29,1*53
$GPGSV,4,4,14,11,08,148,,12,01,167,,1*66
$GPGSV,2,1,06,196,72,049,46,24,60,174,46,199,60,167,43,18,48,313,26,8*6C
$GPGSV,2,2,06,195,48,176,46,194,19,147,19,8*66
$GLGSV,1,1,04,84,49,207,29,85,42,306,29,69,27,034,36,79,26,070,28,1*79
$GAGSV,2,1,05,13,63,301,38,08,61,345,30,15,54,169,42,07,35,265,24,7*7E
$GAGSV,2,2,05,03,26,043,,7*46
$GAGSV,2,1,05,13,63,301,41,08,61,345,37,15,54,169,43,07,35,265,22,1*76
$GAGSV,2,2,05,03,26,043,23,1*41
$GBGSV,3,1,12,38,71,032,46,39,70,220,43,08,62,004,24,16,61,212,42,1*7A
$GBGSV,3,2,12,06,58,211,42,20,49,016,28,29,42,241,43,09,42,211,31,1*7B
$GBGSV,3,3,12,46,34,151,34,37,34,081,32,30,19,182,25,32,16,070,30,1*7C
$GBGSV,2,1,08,38,71,032,44,39,70,220,43,20,49,016,24,29,42,241,44,4*7A
$GBGSV,2,2,08,37,34,081,25,46,34,151,35,30,19,182,22,32,16,070,21,4*72
$GNGGA,100730.000,2500.7861531,N,12132.4695274,E,2,45,0.62,13.270,M,15.25,M,1,3335*46
$GNRMC,100730.000,A,2500.7861531,N,12132.4695274,E,0.03,78.22,260623,,,D,V*31
$GPHDT,,T*1B
$GNGGA,100730.200,2500.7861531,N,12132.4695274,E,2,45,0.62,13.273,M,15.25,M,1,3335*47
$GNRMC,100730.200,A,2500.7861531,N,12132.4695274,E,0.02,78.22,260623,,,D,V*32
$GPHDT,,T*1B
$GNGGA,100730.400,2500.7861531,N,12132.4695274,E,2,45,0.62,13.276,M,15.25,M,1,3335*44
$GNRMC,100730.400,A,2500.7861531,N,12132.4695274,E,0.02,78.22,260623,,,D,V*34
$GPHDT,,T*1B
$GNGGA,100730.600,2500.7861531,N,12132.4695274,E,2,45,0.62,13.277,M,15.25,M,0,3335*46
$GNRMC,100730.600,A,2500.7861531,N,12132.4695274,E,0.01,78.22,260623,,,D,V*35
$GPHDT,,T*1B
$GNGGA,100730.800,2500.7861531,N,12132.4695274,E,2,45,0.62,13.279,M,15.25,M,0,3335*46
$GNRMC,100730.800,A,2500.7861531,N,12132.4695274,E,0.01,78.22,260623,,,D,V*3B
$GPHDT,,T*1B
$GNGSA,A,3,196,24,199,15,195,05,13,29,194,,,,0.93,0.62,0.70,1*08
$GNGSA,A,3,84,69,79,,,,,,,,,,0.93,0.62,0.70,2*06
$GNGSA,A,3,13,08,15,07,03,,,,,,,,0.93,0.62,0.70,3*00
$GNGSA,A,3,38,39,08,16,06,20,29,46,37,30,32,,0.93,0.62,0.70,4*08
$GPGSV,4,1,14,196,72,049,39,24,60,174,44,199,60,167,37,15,57,003,34,1*6B
$GPGSV,4,2,14,18,48,313,20,195,48,176,42,41,38,242,31,05,38,082,29,1*51
$GPGSV,4,3,14,13,33,035,36,29,20,223,37,20,20,105,14,194,19,147,29,1*55
$GPGSV,4,4,14,11,08,148,,12,01,167,,1*66
$GPGSV,2,1,06,196,72,049,46,24,60,174,46,199,60,167,43,18,48,313,26,8*6C
$GPGSV,2,2,06,195,48,176,46,194,19,147,20,8*6C
$GLGSV,1,1,04,84,49,206,29,85,43,305,29,69,27,034,36,79,26,070,28,1*7A
$GAGSV,2,1,05,13,63,301,39,08,61,345,31,15,54,169,42,07,35,265,23,7*79
$GAGSV,2,2,05,03,26,043,,7*46
$GAGSV,2,1,05,13,63,301,41,08,61,345,37,15,54,169,43,07,35,265,22,1*76
$GAGSV,2,2,05,03,26,043,24,1*46
$GBGSV,3,1,12,38,71,032,46,39,70,220,43,08,62,004,22,16,61,212,43,1*7D
$GBGSV,3,2,12,06,58,211,42,20,49,016,26,29,42,241,43,09,42,211,32,1*76
$GBGSV,3,3,12,46,34,151,34,37,34,081,32,30,19,182,25,32,16,070,30,1*7C
$GBGSV,2,1,08,38,71,032,44,39,70,220,43,20,49,016,24,29,42,241,44,4*7A
$GBGSV,2,2,08,37,34,081,25,46,34,151,35,30,19,182,22,32,16,070,21,4*72
$GNGGA,100731.000,2500.7861531,N,12132.4695274,E,2,45,0.62,13.280,M,15.25,M,1,3335*48
$GNRMC,100731.000,A,2500.7861531,N,12132.4695274,E,0.00,78.22,260623,,,D,V*33
$GPHDT,,T*1B
$GNGGA,100731.200,2500.7861531,N,12132.4695274,E,2,45,0.62,13.281,M,15.25,M,1,3335*4B
$GNRMC,100731.200,A,2500.7861531,N,12132.4695274,E,0.03,78.22,260623,,,D,V*32
$GPHDT,,T*1B
$GNGGA,100731.400,2500.7861531,N,12132.4695274,E,2,45,0.62,13.282,M,15.25,M,1,3335*4E
$GNRMC,100731.400,A,2500.7861531,N,12132.4695274,E,0.06,78.22,260623,,,D,V*31
$GPHDT,,T*1B
$GNGGA,100731.600,2500.7861471,N,12132.4695274,E,2,45,0.62,13.284,M,15.25,M,1,3335*4F
$GNRMC,100731.600,A,2500.7861471,N,12132.4695274,E,0.02,78.22,260623,,,D,V*32
$GPHDT,,T*1B
$GNGGA,100731.800,2500.7861471,N,12132.4695274,E,2,45,0.62,13.284,M,15.25,M,1,3335*41
$GNRMC,100731.800,A,2500.7861471,N,12132.4695274,E,0.01,78.22,260623,,,D,V*3F
$GPHDT,,T*1B
$GNGSA,A,3,196,24,199,15,195,05,13,29,194,,,,0.93,0.62,0.70,1*08
$GNGSA,A,3,84,69,79,,,,,,,,,,0.93,0.62,0.70,2*06
$GNGSA,A,3,13,08,15,07,03,,,,,,,,0.93,0.62,0.70,3*00
$GNGSA,A,3,38,39,08,16,06,20,29,46,37,30,32,,0.93,0.62,0.70,4*08
$GPGSV,4,1,14,196,72,049,39,24,60,174,46,199,60,167,37,15,57,003,34,1*69
$GPGSV,4,2,14,18,48,313,21,195,48,176,42,41,38,242,34,05,38,082,27,1*5B
$GPGSV,4,3,14,13,33,035,36,29,20,223,36,20,20,105,13,194,19,147,29,1*53
$GPGSV,4,4,14,11,08,148,,12,01,167,,1*66
$GPGSV,2,1,06,196,72,049,46,24,60,174,46,199,60,167,43,18,48,313,26,8*6C
$GPGSV,2,2,06,195,48,176,46,194,19,147,20,8*6C
$GLGSV,1,1,04,84,49,206,26,85,43,305,28,69,27,034,36,79,26,070,28,1*74
$GAGSV,2,1,05,13,63,301,38,08,61,345,30,15,54,169,42,07,35,265,23,7*79
$GAGSV,2,2,05,03,26,043,,7*46
$GAGSV,2,1,05,13,63,301,41,08,61,345,37,15,54,169,43,07,35,265,22,1*76
$GAGSV,2,2,05,03,26,043,22,1*40
$GBGSV,3,1,12,38,71,032,46,39,70,220,43,08,62,004,23,16,61,212,43,1*7C
$GBGSV,3,2,12,06,58,211,42,20,49,016,25,29,42,241,43,09,42,211,31,1*76
$GBGSV,3,3,12,46,34,151,36,37,34,081,32,30,19,182,25,32,16,070,28,1*77
$GBGSV,2,1,08,38,71,032,44,39,70,220,43,20,49,016,24,29,42,241,44,4*7A
$GBGSV,2,2,08,37,34,081,28,46,34,151,30,30,19,182,20,32,16,070,22,4*7B
$GNGGA,100732.000,2500.7861471,N,12132.4695274,E,2,45,0.62,13.285,M,15.25,M,2,3335*48
$GNRMC,100732.000,A,2500.7861471,N,12132.4695274,E,0.03,78.22,260623,,,D,V*36
$GPHDT,,T*1B
$GNGGA,100732.200,2500.7861471,N,12132.4695274,E,2,45,0.62,13.286,M,15.25,M,2,3335*49
$GNRMC,100732.200,A,2500.7861471,N,12132.4695274,E,0.04,78.22,260623,,,D,V*33
$GPHDT,,T*1B
$GNGGA,100732.400,2500.7861471,N,12132.4695334,E,2,45,0.62,13.286,M,15.25,M,2,3335*4A
$GNRMC,100732.400,A,2500.7861471,N,12132.4695334,E,0.04,78.22,260623,,,D,V*30
$GPHDT,,T*1B
$GNGGA,100732.600,2500.7861531,N,12132.4695334,E,2,45,0.62,13.286,M,15.25,M,2,3335*4D
$GNRMC,100732.600,A,2500.7861531,N,12132.4695334,E,0.03,78.22,260623,,,D,V*30
$GPHDT,,T*1B
$GNGGA,100732.800,2500.7861531,N,12132.4695334,E,2,45,0.62,13.287,M,15.25,M,2,3335*42
$GNRMC,100732.800,A,2500.7861531,N,12132.4695334,E,0.02,78.22,260623,,,D,V*3F
$GPHDT,,T*1B
$GNGSA,A,3,196,24,199,15,195,05,13,29,194,,,,0.93,0.62,0.70,1*08
$GNGSA,A,3,84,69,79,,,,,,,,,,0.93,0.62,0.70,2*06
$GNGSA,A,3,13,08,15,07,03,,,,,,,,0.93,0.62,0.70,3*00
$GNGSA,A,3,38,39,08,16,06,20,29,46,37,30,32,,0.93,0.62,0.70,4*08
$GPGSV,4,1,14,196,72,049,38,24,60,174,46,199,60,167,37,15,57,003,33,1*6F
$GPGSV,4,2,14,18,48,313,22,195,48,176,43,41,38,242,35,05,38,082,27,1*58
$GPGSV,4,3,14,13,33,035,36,29,20,223,36,20,20,105,15,194,19,147,29,1*55
$GPGSV,4,4,14,11,08,148,,12,01,167,,1*66
$GPGSV,2,1,06,196,72,049,46,24,60,174,46,199,60,167,44,18,48,313,26,8*6B
$GPGSV,2,2,06,195,48,176,46,194,19,147,21,8*6D
$GLGSV,1,1,04,84,49,206,26,85,43,305,28,69,27,034,36,79,26,070,28,1*74
$GAGSV,2,1,05,13,63,301,38,08,61,345,28,15,54,169,42,07,35,265,24,7*77
$GAGSV,2,2,05,03,26,043,16,7*41
$GAGSV,2,1,05,13,63,301,40,08,61,345,37,15,54,169,43,07,35,265,24,1*71
$GAGSV,2,2,05,03,26,043,23,1*41
$GBGSV,3,1,12,38,71,032,46,39,70,220,43,08,62,004,24,16,61,212,43,1*7B
$GBGSV,3,2,12,06,59,212,42,20,49,016,25,29,42,241,43,09,42,211,30,1*75
$GBGSV,3,3,12,46,34,151,36,37,34,081,33,30,19,182,24,32,16,070,27,1*78
$GBGSV,2,1,08,38,71,032,44,39,70,220,44,20,49,016,26,29,42,241,44,4*7F
$GBGSV,2,2,08,37,34,081,28,46,34,151,30,30,19,182,21,32,16,070,22,4*7A
$GNGGA,100733.000,2500.7861531,N,12132.4695334,E,2,45,0.62,13.285,M,15.25,M,3,3335*48
$GNRMC,100733.000,A,2500.7861531,N,12132.4695334,E,0.04,78.22,260623,,,D,V*30
$GPHDT,,T*1B
$GNGGA,100733.200,2500.7861531,N,12132.4695334,E,2,45,0.62,13.283,M,15.25,M,3,3335*4C
$GNRMC,100733.200,A,2500.7861531,N,12132.4695334,E,0.06,78.22,260623,,,D,V*30
$GPHDT,,T*1B
$GNGGA,100733.400,2500.7861531,N,12132.4695334,E,2,45,0.62,13.283,M,15.25,M,3,3335*4A
$GNRMC,100733.400,A,2500.7861531,N,12132.4695334,E,0.05,78.22,260623,,,D,V*35
$GPHDT,,T*1B
$GNGGA,100733.600,2500.7861471,N,12132.4695334,E,2,45,0.62,13.285,M,15.25,M,3,3335*4B
$GNRMC,100733.600,A,2500.7861471,N,12132.4695334,E,0.03,78.22,260623,,,D,V*34
$GPHDT,,T*1B
$GNGGA,100733.800,2500.7861471,N,12132.4695334,E,2,45,0.62,13.287,M,15.25,M,3,3335*47
$GNRMC,100733.800,A,2500.7861471,N,12132.4695334,E,0.09,78.22,260623,,,D,V*30
$GPHDT,,T*1B
$GNGSA,A,3,196,24,199,15,195,05,13,29,194,,,,0.93,0.62,0.70,1*08
$GNGSA,A,3,84,69,79,,,,,,,,,,0.93,0.62,0.70,2*06
$GNGSA,A,3,13,08,15,07,03,,,,,,,,0.93,0.62,0.70,3*00
$GNGSA,A,3,38,39,08,16,06,20,29,46,37,30,32,,0.93,0.62,0.70,4*08
$GPGSV,4,1,14,196,72,049,38,24,60,174,46,199,60,167,37,15,57,003,33,1*6F
$GPGSV,4,2,14,18,48,313,22,195,48,176,43,41,38,242,35,05,38,082,27,1*58
$GPGSV,4,3,14,13,33,035,36,29,20,223,36,20,20,105,16,194,19,147,29,1*56
$GPGSV,4,4,14,11,08,148,,12,01,167,,1*66
$GPGSV,2,1,06,196,72,049,46,24,60,174,46,199,60,167,44,18,48,313,26,8*6B
$GPGSV,2,2,06,195,48,176,46,194,19,147,21,8*6D
$GLGSV,1,1,04,84,49,206,25,85,43,305,28,69,27,034,36,79,26,070,28,1*77
$GAGSV,2,1,05,13,63,301,38,08,61,345,28,15,54,169,42,07,35,265,24,7*77
$GAGSV,2,2,05,03,26,043,17,7*40
$GAGSV,2,1,05,13,63,301,40,08,61,345,37,15,54,169,43,07,35,265,24,1*71
$GAGSV,2,2,05,03,26,043,23,1*41
$GBGSV,3,1,12,38,71,032,46,39,70,220,43,08,62,004,24,16,61,212,43,1*7B
$GBGSV,3,2,12,06,59,212,42,20,49,016,25,29,42,241,43,09,42,211,29,1*7D
$GBGSV,3,3,12,46,34,151,36,37,34,081,33,30,19,182,25,32,16,070,26,1*78
$GBGSV,2,1,08,38,71,032,44,39,70,220,44,20,49,016,25,29,42,241,44,4*7C
$GBGSV,2,2,08,37,34,081,29,46,34,151,30,30,19,182,21,32,16,070,21,4*78
$GNGGA,100734.000,2500.7861471,N,12132.4695334,E,2,45,0.62,13.288,M,15.25,M,4,3335*40
$GNRMC,100734.000,A,2500.7861471,N,12132.4695334,E,0.03,78.22,260623,,,D,V*35
$GPHDT,,T*1B
$GNGGA,100734.200,2500.7861471,N,12132.4695334,E,2,45,0.62,13.288,M,15.25,M,4,3335*42
$GNRMC,100734.200,A,2500.7861471,N,12132.4695334,E,0.03,78.22,260623,,,D,V*37
$GPHDT,,T*1B
$GNGGA,100734.400,2500.7861471,N,12132.4695274,E,2,45,0.62,13.288,M,15.25,M,4,3335*41
$GNRMC,100734.400,A,2500.7861471,N,12132.4695274,E,0.03,78.22,260623,,,D,V*34
$GPHDT,,T*1B
$GNGGA,100734.600,2500.7861471,N,12132.4695274,E,2,45,0.62,13.287,M,15.25,M,4,3335*4C
$GNRMC,100734.600,A,2500.7861471,N,12132.4695274,E,0.06,78.22,260623,,,D,V*33
$GPHDT,,T*1B
$GNGGA,100734.800,2500.7861471,N,12132.4695274,E,2,44,0.62,13.287,M,15.25,M,4,3335*43
$GNRMC,100734.800,A,2500.7861471,N,12132.4695274,E,0.04,78.22,260623,,,D,V*3F
$GPHDT,,T*1B
$GNGSA,A,3,196,24,199,15,195,05,13,29,194,,,,0.93,0.62,0.70,1*08
$GNGSA,A,3,84,69,79,,,,,,,,,,0.93,0.62,0.70,2*06
$GNGSA,A,3,13,08,15,07,03,,,,,,,,0.93,0.62,0.70,3*00
$GNGSA,A,3,38,39,08,16,06,20,29,46,37,30,32,,0.93,0.62,0.70,4*08
$GPGSV,4,1,14,196,72,049,38,24,60,174,46,199,60,167,37,15,57,003,33,1*6F
$GPGSV,4,2,14,18,48,313,22,195,48,176,43,41,38,242,35,05,38,082,27,1*58
$GPGSV,4,3,14,13,33,035,36,29,20,223,36,20,20,105,15,194,19,147,28,1*54
$GPGSV,4,4,14,11,08,148,,12,01,167,,1*66
$GPGSV,2,1,06,196,72,049,46,24,60,174,46,199,60,167,44,18,48,313,25,8*68
$GPGSV,2,2,06,195,48,176,46,194,19,147,21,8*6D
$GLGSV,1,1,04,84,49,206,26,85,43,305,27,69,27,034,36,79,26,070,28,1*7B
$GAGSV,2,1,05,13,63,301,38,08,61,345,28,15,54,169,42,07,35,265,24,7*77
$GAGSV,2,2,05,03,26,043,14,7*43
$GAGSV,2,1,05,13,63,301,40,08,61,345,37,15,54,169,43,07,35,265,24,1*71
$GAGSV,2,2,05,03,26,043,23,1*41
$GBGSV,4,1,13,38,71,032,46,39,70,220,43,08,62,004,24,16,61,212,43,1*7D
$GBGSV,4,2,13,06,59,212,42,13,55,343,,20,49,017,24,29,42,241,43,1*7B
$GBGSV,4,3,13,09,42,211,29,46,34,151,36,37,34,081,34,30,19,182,24,1*7B
$GBGSV,4,4,13,32,16,070,24,1*43
$GBGSV,2,1,08,38,71,032,44,39,70,220,44,20,49,017,25,29,42,241,44,4*7D
$GBGSV,2,2,08,37,34,081,29,46,34,151,30,30,19,182,21,32,16,070,21,4*78
$GNGGA,100735.000,2500.7861471,N,12132.4695274,E,2,46,0.62,13.289,M,15.25,M,5,3335*47
$GNRMC,100735.000,A,2500.7861471,N,12132.4695274,E,0.05,78.22,260623,,,D,V*37
$GPHDT,,T*1B
$GNGGA,100735.200,2500.7861471,N,12132.4695274,E,2,46,0.60,13.290,M,15.25,M,5,3335*4F
$GNRMC,100735.200,A,2500.7861471,N,12132.4695274,E,0.04,78.22,260623,,,D,V*34
$GPHDT,,T*1B
$GNGGA,100735.400,2500.7861411,N,12132.4695214,E,2,46,0.60,13.290,M,15.25,M,5,3335*49
$GNRMC,100735.400,A,2500.7861411,N,12132.4695214,E,0.03,78.22,260623,,,D,V*35
$GPHDT,,T*1B
$GNGGA,100735.600,2500.7861411,N,12132.4695214,E,2,46,0.60,13.293,M,15.25,M,5,3335*48
$GNRMC,100735.600,A,2500.7861411,N,12132.4695214,E,0.04,78.22,260623,,,D,V*30
$GPHDT,,T*1B
