$FW : RTK35X,V1.1X0314AS,Lib20210517,1*54
$Tool : LOCOSYS , GNSS Firebird , v1.0.0.19*39
$---------------------------------------------------*2D
$GPHDT,,T*1B
$GNGSA,A,3,196,24,199,15,195,05,13,29,20,194,,,0.90,0.57,0.70,1*0F
$GNGSA,A,3,84,85,69,79,,,,,,,,,0.90,0.57,0.70,2*0E
$GNGSA,A,3,13,08,15,07,03,,,,,,,,0.90,0.57,0.70,3*05
$GNGSA,A,3,39,38,08,16,06,20,29,09,37,46,30,,0.90,0.57,0.70,4*05
$GPGSV,4,1,14,196,72,049,37,24,61,174,46,199,60,167,38,15,57,003,30,1*6D
$GPGSV,4,2,14,18,48,312,20,195,48,176,39,41,38,242,35,05,38,082,31,1*51
$GPGSV,4,3,14,13,33,035,30,29,20,223,38,20,20,105,17,194,19,147,26,1*50
$GPGSV,4,4,14,11,08,148,,12,01,167,,1*66
$GPGSV,2,1,06,196,72,049,45,24,61,174,47,199,60,167,46,18,48,312,21,8*6C
$GPGSV,2,2,06,195,48,176,45,194,19,147,24,8*6B
$GLGSV,1,1,04,84,48,206,31,85,43,305,18,69,27,034,32,79,26,070,30,1*7D
$GAGSV,2,1,08,13,63,300,38,08,61,345,27,15,54,169,42,07,35,265,24,7*74
$GAGSV,2,2,08,03,26,043,23,26,12,323,20,34,06,152,,25,04,068,,7*77
$GAGSV,2,1,05,13,63,300,41,08,61,345,35,15,54,169,46,07,35,265,18,1*79
$GAGSV,2,2,05,03,26,043,25,1*47
$GBGSV,3,1,12,39,71,221,44,38,71,032,43,08,62,004,29,16,61,212,43,1*74
$GBGSV,3,2,12,06,59,212,42,20,49,017,30,29,42,241,45,09,42,212,32,1*77
$GBGSV,3,3,12,37,34,080,37,46,34,151,38,30,19,182,21,32,16,070,,1*73
$GBGSV,2,1,06,38,71,032,44,39,71,221,45,20,49,017,27,29,42,241,44,4*70
$GBGSV,2,2,06,37,34,080,31,46,34,151,47,4*7F
$GNGGA,100818.000,2500.7859200,N,12132.4701600,E,2,46,0.57,34.41,M,15.25,M,11,3335*47
$GNRMC,100818.000,A,2500.7859200,N,12132.4701600,E,0.03,78.22,260623,,,D,V*31
$GPHDT,,T*1B
$GNGGA,100818.200,2500.7859200,N,12132.4701600,E,2,46,0.57,34.41,M,15.25,M,11,3335*45
$GNRMC,100818.200,A,2500.7859200,N,12132.4701600,E,0.04,78.22,260623,,,D,V*34
$GPHDT,,T*1B
$GNGGA,100818.400,2500.7859200,N,12132.4701600,E,2,45,0.57,34.41,M,15.25,M,11,3335*40
$GNRMC,100818.400,A,2500.7859200,N,12132.4701600,E,0.04,78.22,260623,,,D,V*32
$GPHDT,,T*1B
$GNGGA,100818.600,2500.7859200,N,12132.4701600,E,2,45,0.57,34.41,M,15.25,M,9,3335*7B
$GNRMC,100818.600,A,2500.7859200,N,12132.4701600,E,0.02,78.22,260623,,,D,V*36
$GPHDT,,T*1B
$GNGGA,100818.800,2500.7859200,N,12132.4701600,E,2,45,0.57,34.41,M,15.25,M,8,3335*74
$GNRMC,100818.800,A,2500.7859200,N,12132.4701600,E,0.02,78.22,260623,,,D,V*38
$GPHDT,,T*1B
$GNGSA,A,3,196,24,199,15,195,05,13,29,20,194,,,0.90,0.57,0.70,1*0F
$GNGSA,A,3,84,85,69,79,,,,,,,,,0.90,0.57,0.70,2*0E
$GNGSA,A,3,13,08,15,07,03,,,,,,,,0.90,0.57,0.70,3*05
$GNGSA,A,3,39,38,08,16,06,20,29,09,46,37,30,,0.90,0.57,0.70,4*05
$GPGSV,4,1,14,196,72,049,38,24,61,174,46,199,60,167,38,15,56,003,30,1*63
$GPGSV,4,2,14,18,48,312,19,195,48,176,40,41,38,242,34,05,38,082,33,1*56
$GPGSV,4,3,14,13,33,035,31,29,20,223,38,20,20,105,19,194,19,147,25,1*5C
$GPGSV,4,4,14,11,08,148,,12,01,167,,1*66
$GPGSV,2,1,06,196,72,049,45,24,61,174,47,199,60,167,46,18,48,312,19,8*67
$GPGSV,2,2,06,195,48,176,45,194,19,147,24,8*6B
$GLGSV,2,1,05,84,48,206,31,85,43,305,19,69,27,034,31,79,26,070,30,1*7D
$GLGSV,2,2,05,73,02,176,,1*4B
$GAGSV,2,1,08,13,63,300,38,08,61,345,27,15,54,169,42,07,35,265,24,7*74
$GAGSV,2,2,08,03,26,043,22,26,12,323,20,34,06,152,,25,04,068,,7*76
$GAGSV,1,1,04,13,63,300,41,08,61,345,35,15,54,169,46,03,26,043,26,1*76
$GBGSV,3,1,12,39,71,221,44,38,71,032,43,08,62,004,28,16,61,212,43,1*75
$GBGSV,3,2,12,06,59,212,42,20,49,017,31,29,42,241,45,09,42,212,33,1*77
$GBGSV,3,3,12,46,34,151,38,37,34,080,37,30,19,182,22,32,16,070,,1*70
$GBGSV,2,1,06,38,71,032,44,39,71,221,45,20,49,017,27,29,42,241,44,4*70
$GBGSV,2,2,06,37,34,080,30,46,34,151,47,4*7E
$GNGGA,100819.000,2500.7859200,N,12132.4701600,E,2,45,0.57,34.41,M,15.25,M,7,3335*72
$GNRMC,100819.000,A,2500.7859200,N,12132.4701600,E,0.02,78.22,260623,,,D,V*31
$GPHDT,,T*1B
$GNGGA,100819.200,2500.7859100,N,12132.4701600,E,2,45,0.57,34.41,M,15.25,M,5,3335*71
$GNRMC,100819.200,A,2500.7859100,N,12132.4701600,E,0.03,78.22,260623,,,D,V*31
$GPHDT,,T*1B
$GNGGA,100819.400,2500.7859100,N,12132.4701600,E,2,45,0.57,34.41,M,15.25,M,3,3335*71
$GNRMC,100819.400,A,2500.7859100,N,12132.4701600,E,0.01,78.22,260623,,,D,V*35
$GPHDT,,T*1B
$GNGGA,100819.600,2500.7859100,N,12132.4701600,E,2,44,0.59,34.41,M,15.25,M,1,3335*7E
$GNRMC,100819.600,A,2500.7859100,N,12132.4701600,E,0.01,78.22,260623,,,D,V*37
$GPHDT,,T*1B
$GNGGA,100819.800,2500.7859100,N,12132.4701600,E,2,44,0.59,34.41,M,15.25,M,1,3335*70
$GNRMC,100819.800,A,2500.7859100,N,12132.4701600,E,0.09,78.22,260623,,,D,V*31
$GPHDT,,T*1B
$GNGSA,A,3,196,24,199,15,195,05,13,29,194,,,,0.92,0.59,0.71,1*00
$GNGSA,A,3,84,85,69,79,,,,,,,,,0.92,0.59,0.71,2*03
$GNGSA,A,3,13,08,15,07,03,,,,,,,,0.92,0.59,0.71,3*08
$GNGSA,A,3,39,38,08,16,06,20,29,09,37,46,30,,0.92,0.59,0.71,4*08
$GPGSV,4,1,14,196,72,049,38,24,61,174,46,199,60,167,38,15,56,003,30,1*63
$GPGSV,4,2,14,18,48,312,19,195,48,176,40,41,38,242,34,05,38,082,33,1*56
$GPGSV,4,3,14,13,33,035,33,29,20,223,38,20,20,105,17,194,19,147,25,1*50
$GPGSV,4,4,14,11,08,148,,12,01,167,,1*66
$GPGSV,2,1,06,196,72,049,45,24,61,174,47,199,60,167,46,18,48,312,19,8*67
$GPGSV,2,2,06,195,48,176,45,194,19,147,24,8*6B
$GLGSV,1,1,04,84,48,206,32,85,43,305,19,69,27,034,33,79,26,070,31,1*7F
$GAGSV,2,1,08,13,63,300,39,08,61,345,28,15,54,169,42,07,35,265,24,7*7A
$GAGSV,2,2,08,03,26,043,22,26,12,323,21,34,06,152,,25,04,068,,7*77
$GAGSV,1,1,04,13,63,300,41,08,61,345,36,15,54,169,46,03,26,043,26,1*75
$GBGSV,3,1,12,39,71,221,44,38,71,032,43,08,62,004,28,16,61,212,43,1*75
$GBGSV,3,2,12,06,59,212,42,20,49,017,31,29,42,241,45,09,42,212,32,1*76
$GBGSV,3,3,12,37,34,080,36,46,34,151,39,30,19,182,22,32,16,070,,1*70
$GBGSV,2,1,06,38,71,032,44,39,71,221,45,20,49,017,24,29,42,241,44,4*73
$GBGSV,2,2,06,37,34,080,31,46,34,151,47,4*7F
$GNGGA,100820.000,2500.7859100,N,12132.4701600,E,2,44,0.59,34.41,M,15.25,M,2,3335*71
$GNRMC,100820.000,A,2500.7859100,N,12132.4701600,E,0.14,78.22,260623,,,D,V*3F
$GPHDT,,T*1B
$GNGGA,100820.200,2500.7859200,N,12132.4701500,E,2,44,0.59,34.41,M,15.25,M,2,3335*73
$GNRMC,100820.200,A,2500.7859200,N,12132.4701500,E,0.08,78.22,260623,,,D,V*30
$GPHDT,,T*1B
$GNGGA,100820.400,2500.7859200,N,12132.4701500,E,2,44,0.59,34.41,M,15.25,M,2,3335*75
$GNRMC,100820.400,A,2500.7859200,N,12132.4701500,E,0.09,78.22,260623,,,D,V*37
$GPHDT,,T*1B
$GNGGA,100820.600,2500.7859200,N,12132.4701500,E,2,44,0.59,34.41,M,15.25,M,2,3335*77
$GNRMC,100820.600,A,2500.7859200,N,12132.4701500,E,0.03,78.22,260623,,,D,V*3F
$GPHDT,,T*1B
$GNGGA,100820.800,2500.7859200,N,12132.4701500,E,2,44,0.59,34.41,M,15.25,M,2,3335*79
$GNRMC,100820.800,A,2500.7859200,N,12132.4701500,E,0.04,78.22,260623,,,D,V*36
$GPHDT,,T*1B
$GNGSA,A,3,196,24,199,15,195,05,13,29,194,,,,0.92,0.59,0.71,1*00
$GNGSA,A,3,84,85,69,79,,,,,,,,,0.92,0.59,0.71,2*03
$GNGSA,A,3,13,08,15,07,03,,,,,,,,0.92,0.59,0.71,3*08
$GNGSA,A,3,39,38,08,16,06,20,29,09,37,46,30,,0.92,0.59,0.71,4*08
$GPGSV,4,1,14,196,72,049,37,24,61,174,46,199,60,167,38,15,56,003,29,1*64
$GPGSV,4,2,14,18,48,312,19,195,48,176,40,41,38,242,34,05,38,082,31,1*54
$GPGSV,4,3,14,13,33,035,33,29,20,223,37,20,20,105,12,194,19,147,25,1*5A
$GPGSV,4,4,14,11,08,148,,12,01,167,,1*66
$GPGSV,2,1,06,196,72,049,44,24,61,174,47,199,60,167,46,18,48,312,18,8*67
$GPGSV,2,2,06,195,48,176,45,194,19,147,23,8*6C
$GLGSV,1,1,04,84,48,206,32,85,43,305,18,69,27,034,32,79,26,070,30,1*7E
$GAGSV,2,1,08,13,63,300,39,08,61,345,28,15,54,169,42,07,35,265,22,7*7C
$GAGSV,2,2,08,03,26,043,22,26,12,323,21,34,06,152,,25,04,068,,7*77
$GAGSV,1,1,04,13,63,300,40,08,61,345,36,15,54,169,46,03,26,043,26,1*74
$GBGSV,3,1,12,39,71,221,44,38,71,032,42,08,62,004,27,16,61,212,43,1*7B
$GBGSV,3,2,12,06,59,212,42,20,49,017,33,29,42,241,45,09,42,212,31,1*77
$GBGSV,3,3,12,37,34,080,36,46,34,151,39,30,19,182,24,32,16,070,,1*76
$GBGSV,2,1,06,38,71,032,43,39,71,221,44,20,49,017,24,29,42,241,44,4*75
$GBGSV,2,2,06,37,34,080,31,46,34,151,47,4*7F
$GNGGA,100821.000,2500.7859100,N,12132.4701500,E,2,44,0.59,34.42,M,15.25,M,3,3335*71
$GNRMC,100821.000,A,2500.7859100,N,12132.4701500,E,0.04,78.22,260623,,,D,V*3C
$GPHDT,,T*1B
$GNGGA,100821.200,2500.7859100,N,12132.4701500,E,2,44,0.59,34.42,M,15.25,M,3,3335*73
$GNRMC,100821.200,A,2500.7859100,N,12132.4701500,E,0.03,78.22,260623,,,D,V*39
$GPHDT,,T*1B
$GNGGA,100821.400,2500.7859100,N,12132.4701500,E,2,44,0.59,34.42,M,15.25,M,3,3335*75
$GNRMC,100821.400,A,2500.7859100,N,12132.4701500,E,0.02,78.22,260623,,,D,V*3E
$GPHDT,,T*1B
$GNGGA,100821.600,2500.7859100,N,12132.4701500,E,2,44,0.59,34.42,M,15.25,M,3,3335*77
$GNRMC,100821.600,A,2500.7859100,N,12132.4701500,E,0.00,78.22,260623,,,D,V*3E
$GPHDT,,T*1B
$GNGGA,100821.800,2500.7859000,N,12132.4701500,E,2,44,0.59,34.43,M,15.25,M,3,3335*79
$GNRMC,100821.800,A,2500.7859000,N,12132.4701500,E,0.14,78.22,260623,,,D,V*34
$GPHDT,,T*1B
$GNGSA,A,3,196,24,199,15,195,05,13,29,194,,,,0.92,0.59,0.71,1*00
$GNGSA,A,3,84,85,69,79,,,,,,,,,0.92,0.59,0.71,2*03
$GNGSA,A,3,13,08,15,07,03,,,,,,,,0.92,0.59,0.71,3*08
$GNGSA,A,3,39,38,08,16,06,20,29,09,37,46,30,,0.92,0.59,0.71,4*08
$GPGSV,4,1,14,196,72,049,36,24,61,174,46,199,60,167,38,15,56,003,29,1*65
$GPGSV,4,2,14,18,48,312,19,195,48,176,40,41,38,242,34,05,38,082,29,1*5D
$GPGSV,4,3,14,13,33,035,33,29,20,223,37,20,20,105,13,194,19,147,25,1*5B
$GPGSV,4,4,14,11,08,148,,12,01,167,,1*66
$GPGSV,2,1,06,196,72,049,44,24,61,174,47,199,60,167,46,18,48,312,17,8*68
$GPGSV,2,2,06,195,48,176,46,194,19,147,21,8*6D
$GLGSV,1,1,04,84,48,206,32,85,43,305,16,69,27,034,32,79,26,070,31,1*71
$GAGSV,2,1,07,13,63,300,39,08,61,345,28,15,54,169,42,07,35,265,22,7*73
$GAGSV,2,2,07,03,26,043,24,26,12,323,20,34,06,152,,7*42
$GAGSV,1,1,04,13,63,300,40,08,61,345,36,15,54,169,46,03,26,043,26,1*74
$GBGSV,3,1,12,39,71,221,44,38,71,032,42,08,62,004,27,16,61,212,43,1*7B
$GBGSV,3,2,12,06,59,212,42,20,49,017,33,29,42,241,45,09,42,212,30,1*76
$GBGSV,3,3,12,37,34,080,36,46,34,151,38,30,19,182,24,32,16,070,,1*77
$GBGSV,2,1,06,38,71,032,42,39,71,221,44,20,49,017,24,29,42,241,44,4*74
$GBGSV,2,2,06,37,34,080,31,46,34,151,47,4*7F
$GNGGA,100822.000,2500.7859000,N,12132.4701500,E,2,44,0.59,34.43,M,15.25,M,4,3335*75
$GNRMC,100822.000,A,2500.7859000,N,12132.4701500,E,0.08,78.22,260623,,,D,V*32
$GPHDT,,T*1B
$GNGGA,100822.200,2500.7859000,N,12132.4701500,E,2,44,0.59,34.43,M,15.25,M,1,3335*72
$GNRMC,100822.200,A,2500.7859000,N,12132.4701500,E,0.02,78.22,260623,,,D,V*3A
$GPHDT,,T*1B
$GNGGA,100822.400,2500.7859000,N,12132.4701500,E,2,44,0.59,34.42,M,15.25,M,1,3335*75
$GNRMC,100822.400,A,2500.7859000,N,12132.4701500,E,0.03,78.22,260623,,,D,V*3D
$GPHDT,,T*1B
$GNGGA,100822.600,2500.7859000,N,12132.4701600,E,2,44,0.59,34.43,M,15.25,M,0,3335*74
$GNRMC,100822.600,A,2500.7859000,N,12132.4701600,E,0.03,78.22,260623,,,D,V*3C
$GPHDT,,T*1B
$GNGGA,100822.800,2500.7859000,N,12132.4701600,E,2,44,0.59,34.42,M,15.25,M,0,3335*7B
$GNRMC,100822.800,A,2500.7859000,N,12132.4701600,E,0.09,78.22,260623,,,D,V*38
$GPHDT,,T*1B
$GNGSA,A,3,196,24,199,15,195,05,13,29,194,,,,0.92,0.59,0.71,1*00
$GNGSA,A,3,84,85,69,79,,,,,,,,,0.92,0.59,0.71,2*03
$GNGSA,A,3,13,08,15,07,03,,,,,,,,0.92,0.59,0.71,3*08
$GNGSA,A,3,39,38,08,16,06,20,29,09,37,46,30,,0.92,0.59,0.71,4*08
$GPGSV,4,1,15,196,72,049,36,24,61,174,46,199,60,167,37,15,56,003,29,1*6B
$GPGSV,4,2,15,18,48,312,20,195,48,176,40,05,38,082,31,41,38,242,34,1*5F
$GPGSV,4,3,15,13,33,035,34,20,20,105,15,29,20,223,37,194,19,147,25,1*5B
$GPGSV,4,4,15,11,08,148,,12,01,167,,22,,,19,1*6F
$GPGSV,2,1,05,196,72,049,44,24,61,174,46,199,60,167,46,195,48,176,46,8*5A
$GPGSV,2,2,05,194,19,147,21,8*6D
$GLGSV,1,1,04,84,48,206,32,85,43,305,16,69,27,034,32,79,26,070,31,1*71
$GAGSV,2,1,06,13,63,300,39,08,61,345,28,15,54,169,42,07,35,265,21,7*71
$GAGSV,2,2,06,03,26,043,24,26,12,323,20,7*74
$GAGSV,1,1,04,13,63,300,40,08,61,345,36,15,54,169,46,03,26,043,25,1*77
$GBGSV,3,1,12,39,71,221,45,38,71,032,42,08,62,004,27,16,61,212,43,1*7A
$GBGSV,3,2,12,06,59,212,42,20,49,017,33,29,42,241,45,09,42,212,31,1*77
$GBGSV,3,3,12,37,34,080,37,46,34,151,37,30,19,182,24,32,16,070,,1*79
$GBGSV,2,1,06,38,71,032,42,39,71,221,43,20,49,017,24,29,42,241,44,4*73
$GBGSV,2,2,06,37,34,080,32,46,34,151,47,4*7C
$GNGGA,100823.000,2500.7859000,N,12132.4701600,E,2,44,0.59,34.42,M,15.25,M,1,3335*73
$GNRMC,100823.000,A,2500.7859000,N,12132.4701600,E,0.04,78.22,260623,,,D,V*3C
$GPHDT,,T*1B
$GNGGA,100823.200,2500.7858900,N,12132.4701600,E,2,44,0.59,34.42,M,15.25,M,1,3335*79
$GNRMC,100823.200,A,2500.7858900,N,12132.4701600,E,0.05,78.22,260623,,,D,V*37
$GPHDT,,T*1B
$GNGGA,100823.400,2500.7858900,N,12132.4701600,E,2,43,0.60,34.42,M,15.25,M,1,3335*72
$GNRMC,100823.400,A,2500.7858900,N,12132.4701600,E,0.03,78.22,260623,,,D,V*37
$GPHDT,,T*1B
$GNGGA,100823.600,2500.7858900,N,12132.4701600,E,2,45,0.59,34.42,M,15.25,M,1,3335*7C
$GNRMC,100823.600,A,2500.7858900,N,12132.4701600,E,0.12,78.22,260623,,,D,V*35
$GPHDT,,T*1B
$GNGGA,100823.800,2500.7858900,N,12132.4701600,E,2,45,0.59,34.41,M,15.25,M,1,3335*71
$GNRMC,100823.800,A,2500.7858900,N,12132.4701600,E,0.16,78.22,260623,,,D,V*3F
$GPHDT,,T*1B
$GNGSA,A,3,196,24,199,15,195,05,13,29,194,,,,0.92,0.59,0.71,1*00
$GNGSA,A,3,84,85,69,79,,,,,,,,,0.92,0.59,0.71,2*03
$GNGSA,A,3,13,08,15,07,03,,,,,,,,0.92,0.59,0.71,3*08
$GNGSA,A,3,39,38,08,16,06,20,29,09,37,46,30,,0.92,0.59,0.71,4*08
$GPGSV,4,1,15,196,72,049,38,24,61,174,46,199,60,167,38,15,56,003,31,1*63
$GPGSV,4,2,15,18,48,312,20,195,48,176,40,05,38,082,30,41,38,242,34,1*5E
$GPGSV,4,3,15,13,33,035,35,20,20,105,15,29,20,223,36,194,19,147,26,1*58
$GPGSV,4,4,15,11,08,148,,12,01,167,,22,,,21,1*64
$GPGSV,2,1,06,196,72,049,44,24,61,174,46,199,60,167,46,18,48,312,19,8*67
$GPGSV,2,2,06,195,48,176,45,194,19,147,22,8*6D
$GLGSV,1,1,04,84,48,206,33,85,43,305,17,69,27,034,30,79,26,070,29,1*7A
$GAGSV,2,1,06,13,63,300,39,08,61,345,27,15,54,169,42,07,35,265,22,7*7D
$GAGSV,2,2,06,03,26,043,23,26,12,323,19,7*79
$GAGSV,2,1,05,13,63,300,40,08,61,345,36,15,54,169,46,07,35,265,20,1*70
$GAGSV,2,2,05,03,26,043,25,1*47
$GBGSV,3,1,12,39,71,221,44,38,71,032,44,08,62,004,28,16,61,212,43,1*72
$GBGSV,3,2,12,06,59,212,42,20,49,017,33,29,42,241,45,09,42,212,32,1*74
$GBGSV,3,3,12,37,34,080,36,46,34,151,38,30,19,182,24,32,16,070,,1*77
$GBGSV,2,1,06,38,71,032,44,39,71,221,44,20,49,017,25,29,42,241,44,4*73
$GBGSV,2,2,06,37,34,080,30,46,34,151,47,4*7E
$GNGGA,100824.000,2500.7858800,N,12132.4701600,E,2,45,0.59,34.42,M,15.25,M,2,3335*7F
$GNRMC,100824.000,A,2500.7858800,N,12132.4701600,E,0.11,78.22,260623,,,D,V*36
$GPHDT,,T*1B
$GNGGA,100824.200,2500.7858800,N,12132.4701600,E,2,45,0.59,34.42,M,15.25,M,2,3335*7D
$GNRMC,100824.200,A,2500.7858800,N,12132.4701600,E,0.09,78.22,260623,,,D,V*3D
$GPHDT,,T*1B
$GNGGA,100824.400,2500.7858800,N,12132.4701600,E,2,46,0.59,34.43,M,15.25,M,2,3335*79
$GNRMC,100824.400,A,2500.7858800,N,12132.4701600,E,0.04,78.22,260623,,,D,V*36
$GPHDT,,T*1B
$GNGGA,100824.600,2500.7858800,N,12132.4701600,E,2,46,0.59,34.43,M,15.25,M,2,3335*7B
$GNRMC,100824.600,A,2500.7858800,N,12132.4701600,E,0.05,78.22,260623,,,D,V*35
$GPHDT,,T*1B
$GNGGA,100824.800,2500.7858800,N,12132.4701500,E,2,46,0.59,34.43,M,15.25,M,2,3335*76
$GNRMC,100824.800,A,2500.7858800,N,12132.4701500,E,0.05,78.22,260623,,,D,V*38
$GPHDT,,T*1B
$GNGSA,A,3,196,24,199,15,195,05,13,29,194,,,,0.92,0.59,0.71,1*00
$GNGSA,A,3,84,85,69,79,,,,,,,,,0.92,0.59,0.71,2*03
$GNGSA,A,3,13,08,15,07,03,,,,,,,,0.92,0.59,0.71,3*08
$GNGSA,A,3,39,38,08,16,06,20,29,09,37,46,30,,0.92,0.59,0.71,4*08
$GPGSV,4,1,14,196,72,049,39,24,61,174,46,199,60,167,38,15,56,003,31,1*63
$GPGSV,4,2,14,18,48,312,20,195,48,176,40,41,38,242,34,05,38,082,29,1*57
$GPGSV,4,3,14,13,33,035,36,29,20,223,36,20,20,105,17,194,19,147,25,1*5B
$GPGSV,4,4,14,11,08,148,,12,01,167,,1*66
$GPGSV,2,1,06,196,72,049,44,24,61,174,46,199,60,167,46,18,48,312,17,8*69
$GPGSV,2,2,06,195,48,176,45,194,19,147,23,8*6C
$GLGSV,1,1,04,84,48,206,33,85,43,305,17,69,27,034,28,79,26,070,29,1*73
$GAGSV,2,1,06,13,63,300,39,08,61,345,26,15,54,169,42,07,35,265,21,7*7F
$GAGSV,2,2,06,03,26,043,23,26,12,323,19,7*79
$GAGSV,2,1,05,13,63,300,40,08,61,345,36,15,54,169,46,07,35,265,20,1*70
$GAGSV,2,2,05,03,26,043,27,1*45
$GBGSV,3,1,12,39,71,221,44,38,71,032,44,08,62,004,28,16,61,212,43,1*72
$GBGSV,3,2,12,06,59,212,42,20,49,017,33,29,42,241,45,09,42,212,32,1*74
$GBGSV,3,3,12,37,34,080,36,46,34,151,38,30,19,182,26,32,16,070,,1*75
$GBGSV,2,1,07,38,71,032,44,39,71,221,44,20,49,017,25,29,42,241,44,4*72
$GBGSV,2,2,07,37,34,080,30,46,34,151,47,30,19,182,23,4*4E
$GNGGA,100825.000,2500.7858700,N,12132.4701600,E,2,46,0.59,34.43,M,15.25,M,3,3335*72
$GNRMC,100825.000,A,2500.7858700,N,12132.4701600,E,0.06,78.22,260623,,,D,V*3E
$GPHDT,,T*1B
$GNGGA,100825.200,2500.7858700,N,12132.4701600,E,2,46,0.59,34.44,M,15.25,M,3,3335*77
$GNRMC,100825.200,A,2500.7858700,N,12132.4701600,E,0.05,78.22,260623,,,D,V*3F
$GPHDT,,T*1B
$GNGGA,100825.400,2500.7858700,N,12132.4701600,E,2,46,0.59,34.44,M,15.25,M,3,3335*71
$GNRMC,100825.400,A,2500.7858700,N,12132.4701600,E,0.05,78.22,260623,,,D,V*39
$GPHDT,,T*1B
$GNGGA,100825.600,2500.7858700,N,12132.4701600,E,2,46,0.59,34.44,M,15.25,M,3,3335*73
$GNRMC,100825.600,A,2500.7858700,N,12132.4701600,E,0.08,78.22,260623,,,D,V*36
$GPHDT,,T*1B
$GNGGA,100825.800,2500.7858600,N,12132.4701600,E,2,46,0.59,34.44,M,15.25,M,3,3335*7C
$GNRMC,100825.800,A,2500.7858600,N,12132.4701600,E,0.08,78.22,260623,,,D,V*39
$GPHDT,,T*1B
$GNGSA,A,3,196,24,199,15,195,05,13,29,194,,,,0.92,0.59,0.71,1*00
$GNGSA,A,3,84,85,69,79,,,,,,,,,0.92,0.59,0.71,2*03
$GNGSA,A,3,13,08,15,07,03,,,,,,,,0.92,0.59,0.71,3*08
$GNGSA,A,3,39,38,08,16,06,20,29,09,37,46,30,,0.92,0.59,0.71,4*08
$GPGSV,4,1,14,196,72,049,39,24,61,174,46,199,60,167,38,15,56,003,30,1*62
$GPGSV,4,2,14,18,48,312,20,195,48,176,40,41,38,242,31,05,38,082,30,1*5A
$GPGSV,4,3,14,13,33,035,33,29,20,223,37,20,20,105,15,194,19,147,27,1*5F
$GPGSV,4,4,14,11,08,148,,12,01,167,,1*66
$GPGSV,2,1,06,196,72,049,45,24,61,174,46,199,60,167,46,18,48,312,20,8*6C
$GPGSV,2,2,06,195,48,176,45,194,19,147,24,8*6B
$GLGSV,1,1,04,84,48,206,33,85,43,305,17,69,27,034,28,79,26,070,29,1*73
$GAGSV,2,1,06,13,63,300,39,08,61,346,26,15,54,169,42,07,35,265,22,7*7F
$GAGSV,2,2,06,03,26,043,24,26,12,323,19,7*7E
$GAGSV,2,1,05,13,63,300,40,08,61,346,36,15,54,169,46,07,35,265,20,1*73
$GAGSV,2,2,05,03,26,043,26,1*44
$GBGSV,3,1,12,39,71,221,44,38,71,032,45,08,62,004,27,16,61,212,43,1*7C
$GBGSV,3,2,12,06,59,212,42,20,49,017,32,29,42,241,45,09,42,212,32,1*75
$GBGSV,3,3,12,37,34,080,37,46,34,151,38,30,19,182,27,32,16,070,,1*75
$GBGSV,2,1,07,38,71,032,45,39,71,221,44,20,49,017,25,29,42,241,44,4*73
$GBGSV,2,2,07,37,34,080,30,46,34,151,47,30,19,182,23,4*4E
$GNGGA,100826.000,2500.7858600,N,12132.4701600,E,2,46,0.59,34.45,M,15.25,M,4,3335*71
$GNRMC,100826.000,A,2500.7858600,N,12132.4701600,E,0.08,78.22,260623,,,D,V*32
$GPHDT,,T*1B
$GNGGA,100826.200,2500.7858600,N,12132.4701600,E,2,46,0.59,34.45,M,15.25,M,4,3335*73
$GNRMC,100826.200,A,2500.7858600,N,12132.4701600,E,0.04,78.22,260623,,,D,V*3C
$GPHDT,,T*1B
$GNGGA,100826.400,2500.7858500,N,12132.4701600,E,2,46,0.59,34.45,M,15.25,M,4,3335*76
$GNRMC,100826.400,A,2500.7858500,N,12132.4701600,E,0.07,78.22,260623,,,D,V*3A
$GPHDT,,T*1B
$GNGGA,100826.600,2500.7858500,N,12132.4701600,E,2,46,0.59,34.45,M,15.25,M,4,3335*74
$GNRMC,100826.600,A,2500.7858500,N,12132.4701600,E,0.06,78.22,260623,,,D,V*39
$GPHDT,,T*1B
$GNGGA,100826.800,2500.7858500,N,12132.4701600,E,2,46,0.59,34.45,M,15.25,M,4,3335*7A
$GNRMC,100826.800,A,2500.7858500,N,12132.4701600,E,0.05,78.22,260623,,,D,V*34
$GPHDT,,T*1B
$GNGSA,A,3,196,24,199,15,195,05,13,29,194,,,,0.92,0.59,0.71,1*00
$GNGSA,A,3,84,85,69,79,,,,,,,,,0.92,0.59,0.71,2*03
$GNGSA,A,3,13,08,15,07,03,,,,,,,,0.92,0.59,0.71,3*08
$GNGSA,A,3,39,38,08,16,06,20,29,09,37,46,30,,0.92,0.59,0.71,4*08
$GPGSV,4,1,14,196,72,049,40,24,61,174,46,199,60,167,38,15,56,003,30,1*6C
$GPGSV,4,2,14,18,48,312,19,195,48,176,40,41,38,242,30,05,38,082,31,1*50
$GPGSV,4,3,14,13,33,035,31,29,20,223,37,20,20,105,14,194,19,147,27,1*5C
$GPGSV,4,4,14,11,08,148,,12,01,167,,1*66
$GPGSV,2,1,06,196,72,049,45,24,61,174,46,199,60,167,46,18,48,312,18,8*67
$GPGSV,2,2,06,195,48,176,45,194,19,147,25,8*6A
$GLGSV,1,1,04,84,48,206,33,85,43,305,15,69,27,034,28,79,26,070,29,1*71
$GAGSV,2,1,06,13,63,300,39,08,61,346,26,15,54,169,42,07,35,265,21,7*7C
$GAGSV,2,2,06,03,26,043,25,26,12,323,,7*77
$GAGSV,2,1,05,13,63,300,40,08,61,346,36,15,54,169,46,07,35,265,20,1*73
$GAGSV,2,2,05,03,26,043,27,1*45
$GBGSV,3,1,12,39,71,221,44,38,71,032,45,08,62,004,27,16,61,212,43,1*7C
$GBGSV,3,2,12,06,59,212,42,20,49,017,32,29,42,241,45,09,42,212,32,1*75
$GBGSV,3,3,12,37,34,080,37,46,34,151,37,30,19,182,27,32,16,070,,1*7A
$GBGSV,2,1,07,38,71,032,45,39,71,221,44,20,49,017,25,29,42,241,44,4*73
$GBGSV,2,2,07,37,34,080,30,46,34,151,47,30,19,182,23,4*4E
$GNGGA,100827.000,2500.7858400,N,12132.4701600,E,2,46,0.59,34.45,M,15.25,M,5,3335*73
$GNRMC,100827.000,A,2500.7858400,N,12132.4701600,E,0.05,78.22,260623,,,D,V*3C
$GPHDT,,T*1B
$GNGGA,100827.200,2500.7858400,N,12132.4701600,E,2,46,0.59,34.45,M,15.25,M,5,3335*71
$GNRMC,100827.200,A,2500.7858400,N,12132.4701600,E,0.07,78.22,260623,,,D,V*3C
$GPHDT,,T*1B
$GNGGA,100827.400,2500.7858400,N,12132.4701600,E,2,46,0.59,34.46,M,15.25,M,5,3335*74
$GNRMC,100827.400,A,2500.7858400,N,12132.4701600,E,0.05,78.22,260623,,,D,V*38
$GPHDT,,T*1B
$GNGGA,100827.600,2500.7858300,N,12132.4701700,E,2,46,0.59,34.46,M,15.25,M,5,3335*70
$GNRMC,100827.600,A,2500.7858300,N,12132.4701700,E,0.05,78.22,260623,,,D,V*3C
$GPHDT,,T*1B
$GNGGA,100827.800,2500.7858300,N,12132.4701700,E,2,46,0.59,34.46,M,15.25,M,5,3335*7E
$GNRMC,100827.800,A,2500.7858300,N,12132.4701700,E,0.04,78.22,260623,,,D,V*33
$GPHDT,,T*1B
$GNGSA,A,3,196,24,199,15,195,05,13,29,194,,,,0.92,0.59,0.71,1*00
$GNGSA,A,3,84,85,69,79,,,,,,,,,0.92,0.59,0.71,2*03
$GNGSA,A,3,13,08,15,07,03,,,,,,,,0.92,0.59,0.71,3*08
$GNGSA,A,3,39,38,08,16,06,20,29,09,37,46,30,,0.92,0.59,0.71,4*08
$GPGSV,4,1,14,196,72,049,40,24,61,174,46,199,60,167,38,15,56,003,30,1*6C
$GPGSV,4,2,14,18,48,312,19,195,48,176,40,41,38,242,31,05,38,082,31,1*51
$GPGSV,4,3,14,13,33,035,32,29,20,223,37,20,20,105,14,194,19,147,28,1*50
$GPGSV,4,4,14,11,08,148,,12,01,167,,1*66
$GPGSV,2,1,06,196,72,049,45,24,61,174,46,199,60,167,46,18,48,312,17,8*68
$GPGSV,2,2,06,195,48,176,45,194,19,147,26,8*69
$GLGSV,1,1,04,84,48,206,33,85,43,305,15,69,27,034,26,79,26,070,30,1*77
$GAGSV,2,1,06,13,63,300,38,08,61,346,26,15,54,169,42,07,35,265,19,7*76
$GAGSV,2,2,06,03,26,043,26,26,12,323,18,7*7D
$GAGSV,2,1,05,13,63,300,39,08,61,346,36,15,54,169,46,07,35,265,20,1*7D
$GAGSV,2,2,05,03,26,043,27,1*45
$GBGSV,3,1,12,39,71,221,44,38,71,032,45,08,62,004,26,16,61,212,43,1*7D
$GBGSV,3,2,12,06,59,212,42,20,49,017,32,29,42,241,45,09,42,212,32,1*75
$GBGSV,3,3,12,37,34,080,37,46,34,151,37,30,19,182,26,32,16,070,,1*7B
$GBGSV,2,1,07,38,71,032,45,39,71,221,44,20,49,017,25,29,42,241,44,4*73
$GBGSV,2,2,07,37,34,080,30,46,34,151,47,30,19,182,23,4*4E
$GNGGA,100828.000,2500.7858300,N,12132.4701700,E,2,46,0.59,34.46,M,15.25,M,6,3335*7A
$GNRMC,100828.000,A,2500.7858300,N,12132.4701700,E,0.06,78.22,260623,,,D,V*36
$GPHDT,,T*1B
$GNGGA,100828.200,2500.7858300,N,12132.4701700,E,2,46,0.59,34.46,M,15.25,M,6,3335*78
$GNRMC,100828.200,A,2500.7858300,N,12132.4701700,E,0.06,78.22,260623,,,D,V*34
$GPHDT,,T*1B
$GNGGA,100828.400,2500.7858200,N,12132.4701700,E,2,46,0.59,34.46,M,15.25,M,6,3335*7F
$GNRMC,100828.400,A,2500.7858200,N,12132.4701700,E,0.05,78.22,260623,,,D,V*30
$GPHDT,,T*1B
$GNGGA,100828.600,2500.7858200,N,12132.4701700,E,2,46,0.59,34.46,M,15.25,M,6,3335*7D
$GNRMC,100828.600,A,2500.7858200,N,12132.4701700,E,0.03,78.22,260623,,,D,V*34
