$FW : RTK35X,V1.1X0314AS,Lib20210517,1*54
$Tool : LOCOSYS , GNSS Firebird , v1.0.0.19*39
$---------------------------------------------------*2D
$GNGSA,A,3,196,24,199,15,195,05,20,29,194,,,,0.90,0.57,0.69,1*05
$GNGSA,A,3,84,85,79,69,,,,,,,,,0.90,0.57,0.69,2*06
$GNGSA,A,3,13,08,15,07,03,,,,,,,,0.90,0.57,0.69,3*0D
$GNGSA,A,3,39,38,08,16,06,20,09,29,46,37,30,32,0.90,0.57,0.69,4*0C
$GPGSV,4,1,15,196,72,049,40,24,61,174,46,199,60,167,38,15,56,004,19,1*61
$GPGSV,4,2,15,18,48,312,22,195,48,176,43,05,38,082,28,41,38,242,36,1*54
$GPGSV,4,3,15,13,33,035,26,23,24,315,18,20,20,105,19,29,20,223,35,1*6E
$GPGSV,4,4,15,194,19,147,16,11,07,148,,12,01,167,,1*69
$GPGSV,2,1,05,196,72,049,45,24,61,174,46,199,60,167,46,18,48,312,22,8*6D
$GPGSV,2,2,05,195,48,176,46,8*6B
$GLGSV,2,1,05,84,48,206,34,85,43,304,23,79,26,069,28,69,26,035,25,1*74
$GLGSV,2,2,05,86,05,333,,1*45
$GAGSV,3,1,09,13,63,300,38,08,61,346,20,15,54,169,42,07,35,266,22,7*75
$GAGSV,3,2,09,03,26,043,26,02,13,114,,26,12,323,,30,06,163,,7*7F
$GAGSV,3,3,09,25,04,068,,7*47
$GAGSV,2,1,05,13,63,300,33,08,61,346,31,15,54,169,45,07,35,266,25,1*75
$GAGSV,2,2,05,03,26,043,26,1*44
$GBGSV,3,1,12,39,71,221,46,38,71,032,42,08,62,004,19,16,61,212,42,1*75
$GBGSV,3,2,12,06,59,212,40,20,49,017,22,09,42,212,29,29,42,241,44,1*7D
$GBGSV,3,3,12,46,35,151,45,37,34,080,39,30,19,182,26,32,15,071,29,1*78
$GBGSV,2,1,08,38,71,032,44,39,71,221,46,20,49,017,17,29,42,241,44,4*7E
$GBGSV,2,2,08,46,35,151,42,37,34,080,35,30,19,182,26,32,15,071,31,4*74
$GNGGA,100908.000,2500.7850300,N,12132.4696400,E,2,47,0.57,34.40,M,15.25,M,2,3335*70
$GNRMC,100908.000,A,2500.7850300,N,12132.4696400,E,0.05,198.73,260623,,,D,V*09
$GPHDT,,T*1B
$GNGGA,100908.200,2500.7850300,N,12132.4696400,E,2,47,0.57,34.40,M,15.25,M,2,3335*72
$GNRMC,100908.200,A,2500.7850300,N,12132.4696400,E,0.06,198.73,260623,,,D,V*08
$GPHDT,,T*1B
$GNGGA,100908.400,2500.7850200,N,12132.4696400,E,2,48,0.56,34.40,M,15.25,M,2,3335*7B
$GNRMC,100908.400,A,2500.7850200,N,12132.4696400,E,0.08,198.73,260623,,,D,V*01
$GPHDT,,T*1B
$GNGGA,100908.600,2500.7850200,N,12132.4696400,E,2,48,0.56,34.40,M,15.25,M,2,3335*79
$GNRMC,100908.600,A,2500.7850200,N,12132.4696400,E,0.05,198.73,260623,,,D,V*0E
$GPHDT,,T*1B
$GNGGA,100908.800,2500.7850200,N,12132.4696500,E,2,48,0.56,34.40,M,15.25,M,2,3335*76
$GNRMC,100908.800,A,2500.7850200,N,12132.4696500,E,0.11,198.73,260623,,,D,V*04
$GPHDT,,T*1B
$GNGSA,A,3,196,24,199,15,195,05,13,20,29,194,,,0.89,0.56,0.69,1*0E
$GNGSA,A,3,84,85,79,69,,,,,,,,,0.89,0.56,0.69,2*0F
$GNGSA,A,3,13,08,15,07,03,,,,,,,,0.89,0.56,0.69,3*04
$GNGSA,A,3,39,38,08,16,06,20,29,09,46,37,30,32,0.89,0.56,0.69,4*05
$GPGSV,4,1,15,196,72,049,40,24,61,174,46,199,60,167,38,15,56,004,25,1*6E
$GPGSV,4,2,15,18,48,312,22,195,48,176,43,41,38,242,37,05,38,082,28,1*55
$GPGSV,4,3,15,13,33,035,29,23,24,315,18,20,20,105,18,29,20,223,36,1*63
$GPGSV,4,4,15,194,19,147,17,11,07,148,,12,01,167,,1*68
$GPGSV,2,1,05,196,72,049,46,24,61,174,47,199,60,167,46,18,48,312,21,8*6C
$GPGSV,2,2,05,195,48,176,46,8*6B
$GLGSV,1,1,04,84,48,206,33,85,43,304,21,79,26,069,30,69,26,035,26,1*79
$GAGSV,3,1,09,13,63,300,31,08,61,346,18,15,54,169,42,07,35,266,23,7*76
$GAGSV,3,2,09,03,26,043,24,02,13,114,,26,12,323,,30,06,163,,7*7D
$GAGSV,3,3,09,25,04,068,,7*47
$GAGSV,2,1,05,13,63,300,25,08,61,346,30,15,54,169,45,07,35,266,25,1*73
$GAGSV,2,2,05,03,26,043,26,1*44
$GBGSV,3,1,12,39,71,221,46,38,71,032,44,08,62,004,18,16,61,212,42,1*72
$GBGSV,3,2,12,06,59,212,40,20,49,017,28,29,42,241,44,09,42,212,28,1*76
$GBGSV,3,3,12,46,35,151,44,37,34,080,38,30,19,182,25,32,15,071,29,1*7B
$GBGSV,2,1,08,38,71,032,45,39,71,221,46,20,49,017,17,29,42,241,43,4*78
$GBGSV,2,2,08,46,35,151,42,37,34,080,35,30,19,182,27,32,15,071,31,4*75
$GNGGA,100909.000,2500.7850200,N,12132.4696400,E,2,48,0.56,34.40,M,15.25,M,3,3335*7F
$GNRMC,100909.000,A,2500.7850200,N,12132.4696400,E,0.03,198.73,260623,,,D,V*0F
$GPHDT,,T*1B
$GNGGA,100909.200,2500.7850100,N,12132.4696400,E,2,48,0.56,34.41,M,15.25,M,3,3335*7F
$GNRMC,100909.200,A,2500.7850100,N,12132.4696400,E,0.02,198.73,260623,,,D,V*0F
$GPHDT,,T*1B
$GNGGA,100909.400,2500.7850200,N,12132.4696400,E,2,48,0.56,34.40,M,15.25,M,3,3335*7B
$GNRMC,100909.400,A,2500.7850200,N,12132.4696400,E,0.10,198.73,260623,,,D,V*09
$GPHDT,,T*1B
$GNGGA,100909.600,2500.7850200,N,12132.4696400,E,2,47,0.57,34.40,M,15.25,M,3,3335*77
$GNRMC,100909.600,A,2500.7850200,N,12132.4696400,E,0.04,198.73,260623,,,D,V*0E
$GPHDT,,T*1B
$GNGGA,100909.800,2500.7850200,N,12132.4696400,E,2,47,0.57,34.39,M,15.25,M,3,3335*77
$GNRMC,100909.800,A,2500.7850200,N,12132.4696400,E,0.08,198.73,260623,,,D,V*0C
$GPHDT,,T*1B
$GNGSA,A,3,196,24,199,15,195,05,20,29,194,,,,1.12,0.59,0.95,1*03
$GNGSA,A,3,84,85,79,69,,,,,,,,,1.12,0.59,0.95,2*00
$GNGSA,A,3,13,08,15,07,03,,,,,,,,1.12,0.59,0.95,3*0B
$GNGSA,A,3,39,38,08,16,06,20,29,09,46,37,30,32,1.12,0.59,0.95,4*0A
$GPGSV,4,1,15,196,72,049,40,24,61,174,46,199,60,167,38,15,56,004,26,1*6D
$GPGSV,4,2,15,18,48,312,22,195,48,176,42,41,38,242,36,05,38,082,30,1*5C
$GPGSV,4,3,15,13,33,035,29,23,24,315,19,20,20,105,17,29,20,223,36,1*6D
$GPGSV,4,4,15,194,19,147,20,11,07,148,,12,01,167,,1*6C
$GPGSV,2,1,05,196,72,049,47,24,61,174,47,199,60,167,46,18,48,312,23,8*6F
$GPGSV,2,2,05,195,48,176,46,8*6B
$GLGSV,1,1,04,84,48,206,32,85,43,304,24,79,26,069,30,69,26,035,22,1*79
$GAGSV,3,1,09,13,63,300,36,08,61,346,21,15,54,169,42,07,35,266,21,7*79
$GAGSV,3,2,09,03,26,043,23,02,13,114,,26,12,323,,30,06,163,,7*7A
$GAGSV,3,3,09,25,04,068,,7*47
$GAGSV,2,1,05,13,63,300,37,08,61,346,32,15,54,169,45,07,35,266,25,1*72
$GAGSV,2,2,05,03,26,043,26,1*44
$GBGSV,3,1,12,39,71,221,46,38,71,032,44,08,62,004,18,16,61,212,42,1*72
$GBGSV,3,2,12,06,59,212,40,20,49,017,26,29,42,241,44,09,42,212,28,1*78
$GBGSV,3,3,12,46,35,151,44,37,34,080,38,30,19,182,23,32,15,071,29,1*7D
$GBGSV,2,1,08,38,71,032,45,39,71,221,45,20,49,017,16,29,42,241,45,4*7C
$GBGSV,2,2,08,46,35,151,43,37,34,080,36,30,19,182,26,32,15,071,31,4*76
$GNGGA,100910.000,2500.7850200,N,12132.4696400,E,2,47,0.59,34.39,M,15.25,M,4,3335*7E
$GNRMC,100910.000,A,2500.7850200,N,12132.4696400,E,0.03,198.73,260623,,,D,V*07
$GPHDT,,T*1B
$GNGGA,100910.200,2500.7850200,N,12132.4696400,E,2,47,0.59,34.40,M,15.25,M,2,3335*74
$GNRMC,100910.200,A,2500.7850200,N,12132.4696400,E,0.06,198.73,260623,,,D,V*00
$GPHDT,,T*1B
$GNGGA,100910.400,2500.7850200,N,12132.4696400,E,2,48,0.58,34.39,M,15.25,M,2,3335*72
$GNRMC,100910.400,A,2500.7850200,N,12132.4696400,E,0.02,198.73,260623,,,D,V*02
$GPHDT,,T*1B
$GNGGA,100910.600,2500.7850200,N,12132.4696400,E,2,48,0.58,34.39,M,15.25,M,0,3335*72
$GNRMC,100910.600,A,2500.7850200,N,12132.4696400,E,0.03,198.73,260623,,,D,V*01
$GPHDT,,T*1B
$GNGGA,100910.800,2500.7850200,N,12132.4696400,E,2,48,0.58,34.39,M,15.25,M,0,3335*7C
$GNRMC,100910.800,A,2500.7850200,N,12132.4696400,E,0.05,198.73,260623,,,D,V*09
$GPHDT,,T*1B
$GNGSA,A,3,196,24,199,15,195,05,13,20,29,194,,,1.11,0.58,0.95,1*03
$GNGSA,A,3,84,85,79,69,,,,,,,,,1.11,0.58,0.95,2*02
$GNGSA,A,3,13,08,15,07,03,,,,,,,,1.11,0.58,0.95,3*09
$GNGSA,A,3,39,38,08,16,06,20,29,09,46,37,30,32,1.11,0.58,0.95,4*08
$GPGSV,4,1,15,196,72,049,40,24,61,174,46,199,60,167,38,15,56,004,25,1*6E
$GPGSV,4,2,15,18,48,312,20,195,48,176,42,41,38,242,37,05,38,082,32,1*5D
$GPGSV,4,3,15,13,33,035,29,23,24,315,20,20,20,105,21,29,20,223,36,1*62
$GPGSV,4,4,15,194,19,147,21,11,07,148,,12,01,167,,1*6D
$GPGSV,2,1,05,196,72,049,47,24,61,174,46,199,60,167,45,18,48,312,21,8*6F
$GPGSV,2,2,05,195,48,176,46,8*6B
$GLGSV,1,1,04,84,48,206,32,85,43,304,24,79,26,069,30,69,26,035,18,1*70
$GAGSV,3,1,09,13,63,300,38,08,61,346,22,15,54,169,42,07,35,266,21,7*74
$GAGSV,3,2,09,03,26,043,23,02,13,114,,26,12,323,,30,06,163,,7*7A
$GAGSV,3,3,09,25,04,068,,7*47
$GAGSV,2,1,05,13,63,300,39,08,61,346,32,15,54,169,45,07,35,266,25,1*7C
$GAGSV,2,2,05,03,26,043,25,1*47
$GBGSV,3,1,12,39,71,221,46,38,71,032,44,08,62,004,18,16,61,212,42,1*72
$GBGSV,3,2,12,06,59,212,40,20,49,017,25,29,42,241,44,09,42,212,29,1*7A
$GBGSV,3,3,12,46,35,151,44,37,34,080,39,30,19,182,24,32,15,071,29,1*7B
$GBGSV,2,1,08,38,71,032,45,39,71,221,45,20,49,017,15,29,42,241,45,4*7F
$GBGSV,2,2,08,46,35,151,43,37,34,080,36,30,19,182,26,32,15,071,31,4*76
$GNGGA,100911.000,2500.7850200,N,12132.4696500,E,2,48,0.58,34.39,M,15.25,M,1,3335*75
$GNRMC,100911.000,A,2500.7850200,N,12132.4696500,E,0.03,198.73,260623,,,D,V*07
$GPHDT,,T*1B
$GNGGA,100911.200,2500.7850200,N,12132.4696500,E,2,48,0.58,34.39,M,15.25,M,1,3335*77
$GNRMC,100911.200,A,2500.7850200,N,12132.4696500,E,0.01,198.73,260623,,,D,V*07
$GPHDT,,T*1B
$GNGGA,100911.400,2500.7850200,N,12132.4696500,E,2,49,0.58,34.40,M,15.25,M,1,3335*7E
$GNRMC,100911.400,A,2500.7850200,N,12132.4696500,E,0.01,198.73,260623,,,D,V*01
$GPHDT,,T*1B
$GNGGA,100911.600,2500.7850200,N,12132.4696500,E,2,49,0.58,34.39,M,15.25,M,1,3335*72
$GNRMC,100911.600,A,2500.7850200,N,12132.4696500,E,0.05,198.73,260623,,,D,V*07
$GPHDT,,T*1B
$GNGGA,100911.800,2500.7850100,N,12132.4696500,E,2,49,0.58,34.40,M,15.25,M,1,3335*71
$GNRMC,100911.800,A,2500.7850100,N,12132.4696500,E,0.04,198.73,260623,,,D,V*0B
$GPHDT,,T*1B
$GNGSA,A,3,196,24,199,15,195,05,13,20,29,194,,,1.11,0.58,0.95,1*03
$GNGSA,A,3,84,85,79,69,,,,,,,,,1.11,0.58,0.95,2*02
$GNGSA,A,3,13,08,15,07,03,,,,,,,,1.11,0.58,0.95,3*09
$GNGSA,A,3,39,38,08,16,06,20,29,09,46,37,30,32,1.11,0.58,0.95,4*08
$GPGSV,4,1,15,196,72,049,40,24,61,174,46,199,60,167,37,15,56,004,24,1*60
$GPGSV,4,2,15,18,48,312,20,195,48,176,42,41,38,242,37,05,38,082,31,1*5E
$GPGSV,4,3,15,13,33,035,30,23,24,315,21,20,20,105,21,29,20,223,36,1*6B
$GPGSV,4,4,15,194,19,147,20,11,07,148,,12,01,167,,1*6C
$GPGSV,2,1,06,196,72,049,47,24,61,174,46,199,60,167,45,18,48,312,22,8*6F
$GPGSV,2,2,06,195,48,176,46,194,19,147,18,8*67
$GLGSV,1,1,04,84,48,206,32,85,43,304,25,79,26,069,29,69,26,035,18,1*79
$GAGSV,2,1,07,13,63,300,38,08,61,346,23,15,54,169,42,07,35,266,21,7*7A
$GAGSV,2,2,07,03,26,043,23,26,12,323,,25,04,068,,7*4D
$GAGSV,2,1,05,13,63,300,39,08,61,346,33,15,54,169,45,07,35,266,24,1*7C
$GAGSV,2,2,05,03,26,043,25,1*47
$GBGSV,3,1,12,39,71,221,46,38,71,032,44,08,62,004,19,16,61,213,42,1*72
$GBGSV,3,2,12,06,59,212,40,20,49,017,26,29,42,241,44,09,42,212,29,1*79
$GBGSV,3,3,12,46,35,151,44,37,34,080,39,30,19,182,24,32,15,071,29,1*7B
$GBGSV,2,1,08,38,71,032,45,39,71,221,44,20,49,017,13,29,42,241,45,4*78
$GBGSV,2,2,08,46,35,151,43,37,34,080,36,30,19,182,27,32,15,071,31,4*77
$GNGGA,100912.000,2500.7850100,N,12132.4696500,E,2,49,0.58,34.40,M,15.25,M,2,3335*79
$GNRMC,100912.000,A,2500.7850100,N,12132.4696500,E,0.01,198.73,260623,,,D,V*05
$GPHDT,,T*1B
$GNGGA,100912.200,2500.7850100,N,12132.4696500,E,2,49,0.58,34.40,M,15.25,M,2,3335*7B
$GNRMC,100912.200,A,2500.7850100,N,12132.4696500,E,0.05,198.73,260623,,,D,V*03
$GPHDT,,T*1B
$GNGGA,100912.400,2500.7850100,N,12132.4696600,E,2,48,0.58,34.40,M,15.25,M,2,3335*7F
$GNRMC,100912.400,A,2500.7850100,N,12132.4696600,E,0.00,198.73,260623,,,D,V*03
$GPHDT,,T*1B
$GNGGA,100912.600,2500.7850100,N,12132.4696600,E,2,48,0.58,34.40,M,15.25,M,2,3335*7D
$GNRMC,100912.600,A,2500.7850100,N,12132.4696600,E,0.04,198.73,260623,,,D,V*05
$GPHDT,,T*1B
$GNGGA,100912.800,2500.7850100,N,12132.4696600,E,2,47,0.59,34.40,M,15.25,M,2,3335*7D
$GNRMC,100912.800,A,2500.7850100,N,12132.4696600,E,0.11,198.73,260623,,,D,V*0F
$GPHDT,,T*1B
$GNGSA,A,3,196,24,199,15,195,05,20,29,194,,,,1.12,0.59,0.95,1*03
$GNGSA,A,3,84,85,69,79,,,,,,,,,1.12,0.59,0.95,2*00
$GNGSA,A,3,13,08,15,07,03,,,,,,,,1.12,0.59,0.95,3*0B
$GNGSA,A,3,38,39,08,16,06,20,09,29,46,37,30,32,1.12,0.59,0.95,4*0A
$GPGSV,4,1,15,196,72,049,40,24,61,174,46,199,60,167,37,15,56,004,23,1*67
$GPGSV,4,2,15,18,48,312,21,195,48,176,42,05,38,082,31,41,38,242,37,1*5F
$GPGSV,4,3,15,13,33,035,,23,24,315,22,20,20,105,20,29,20,223,36,1*6A
$GPGSV,4,4,15,194,19,147,20,11,07,148,,12,01,167,,1*6C
$GPGSV,2,1,06,196,72,049,47,24,61,174,45,199,60,167,45,18,48,312,22,8*6C
$GPGSV,2,2,06,195,48,176,46,194,19,147,19,8*66
$GLGSV,2,1,06,84,48,206,33,85,43,304,25,69,26,035,18,79,26,069,27,1*77
$GLGSV,2,2,06,71,08,276,,73,02,175,,1*76
$GAGSV,2,1,08,13,63,300,38,08,61,346,23,15,54,169,42,07,35,266,21,7*75
$GAGSV,2,2,08,03,26,043,24,26,12,323,,34,06,152,,25,04,068,,7*72
$GAGSV,2,1,05,13,63,300,39,08,61,346,32,15,54,169,45,07,35,266,24,1*7D
$GAGSV,2,2,05,03,26,043,25,1*47
$GBGSV,4,1,16,38,71,032,44,39,71,221,46,08,62,004,20,16,61,213,42,1*7B
$GBGSV,4,2,16,06,59,212,40,20,49,018,25,09,42,212,28,29,42,241,44,1*77
$GBGSV,4,3,16,19,36,308,,46,35,151,44,37,34,080,39,30,19,182,24,1*76
$GBGSV,4,4,16,32,15,071,29,10,07,210,,40,03,192,,23,02,040,,1*76
$GBGSV,2,1,07,38,71,032,45,39,71,221,44,29,42,241,45,46,35,151,43,4*7A
$GBGSV,2,2,07,37,34,080,36,30,19,182,27,32,15,071,31,4*4E
$GNGGA,100913.000,2500.7850100,N,12132.4696600,E,2,47,0.59,34.40,M,15.25,M,3,3335*75
$GNRMC,100913.000,A,2500.7850100,N,12132.4696600,E,0.05,198.73,260623,,,D,V*03
$GPHDT,,T*1B
$GNGGA,100913.200,2500.7850100,N,12132.4696700,E,2,47,0.59,34.40,M,15.25,M,3,3335*76
$GNRMC,100913.200,A,2500.7850100,N,12132.4696700,E,0.00,198.73,260623,,,D,V*05
$GPHDT,,T*1B
$GNGGA,100913.400,2500.7850100,N,12132.4696700,E,2,47,0.59,34.40,M,15.25,M,3,3335*70
$GNRMC,100913.400,A,2500.7850100,N,12132.4696700,E,0.09,198.73,260623,,,D,V*0A
$GPHDT,,T*1B
$GNGGA,100913.600,2500.7850100,N,12132.4696700,E,2,47,0.59,34.39,M,15.25,M,3,3335*7C
$GNRMC,100913.600,A,2500.7850100,N,12132.4696700,E,0.07,198.73,260623,,,D,V*06
$GPHDT,,T*1B
$GNGGA,100913.800,2500.7850100,N,12132.4696700,E,2,47,0.59,34.39,M,15.25,M,3,3335*72
$GNRMC,100913.800,A,2500.7850100,N,12132.4696700,E,0.07,198.73,260623,,,D,V*08
$GPHDT,,T*1B
$GNGSA,A,3,196,24,199,15,195,05,13,20,29,194,,,1.11,0.58,0.95,1*03
$GNGSA,A,3,84,85,69,79,,,,,,,,,1.11,0.58,0.95,2*02
$GNGSA,A,3,13,08,15,07,03,,,,,,,,1.11,0.58,0.95,3*09
$GNGSA,A,3,38,39,08,16,06,20,09,29,46,37,30,32,1.11,0.58,0.95,4*08
$GPGSV,4,1,15,196,72,049,40,24,61,174,46,199,60,167,37,15,56,004,23,1*67
$GPGSV,4,2,15,18,48,312,19,195,48,176,42,05,38,082,32,41,38,242,37,1*57
$GPGSV,4,3,15,13,33,035,35,23,24,315,24,20,20,105,19,29,20,223,36,1*60
$GPGSV,4,4,15,194,19,147,20,11,07,148,,12,01,167,,1*6C
$GPGSV,2,1,06,196,72,049,47,24,61,174,45,199,60,167,45,18,48,312,22,8*6C
$GPGSV,2,2,06,195,48,176,46,194,19,147,19,8*66
$GLGSV,2,1,05,84,48,206,33,85,43,304,26,69,26,035,17,79,26,069,26,1*79
$GLGSV,2,2,05,71,08,276,,1*40
$GAGSV,3,1,09,13,63,300,39,08,61,346,23,15,54,169,42,07,35,266,21,7*74
$GAGSV,3,2,09,03,26,043,24,26,12,323,,30,06,163,,34,06,152,,7*7E
$GAGSV,3,3,09,25,04,068,,7*47
$GAGSV,2,1,05,13,63,300,39,08,61,346,32,15,54,169,45,07,35,266,25,1*7C
$GAGSV,2,2,05,03,26,043,24,1*46
$GBGSV,4,1,13,38,71,032,44,39,71,221,46,08,62,004,19,16,61,213,42,1*74
$GBGSV,4,2,13,06,59,212,40,20,49,018,22,09,42,212,29,29,42,240,44,1*75
$GBGSV,4,3,13,19,36,308,,46,35,151,44,37,34,080,39,30,19,182,24,1*73
$GBGSV,4,4,13,32,15,071,29,1*4C
$GBGSV,2,1,07,38,71,032,45,39,71,221,44,29,42,240,44,46,35,151,43,4*7A
$GBGSV,2,2,07,37,34,080,35,30,19,182,26,32,15,071,31,4*4C
$GNGGA,100914.000,2500.7850100,N,12132.4696700,E,2,48,0.58,34.39,M,15.25,M,4,3335*74
$GNRMC,100914.000,A,2500.7850100,N,12132.4696700,E,0.02,198.73,260623,,,D,V*02
$GPHDT,,T*1B
$GNGGA,100914.200,2500.7850100,N,12132.4696700,E,2,48,0.58,34.38,M,15.25,M,4,3335*77
$GNRMC,100914.200,A,2500.7850100,N,12132.4696700,E,0.02,198.73,260623,,,D,V*00
$GPHDT,,T*1B
$GNGGA,100914.400,2500.7850100,N,12132.4696800,E,2,48,0.58,34.38,M,15.25,M,4,3335*7E
$GNRMC,100914.400,A,2500.7850100,N,12132.4696800,E,0.04,198.73,260623,,,D,V*0F
$GPHDT,,T*1B
$GNGGA,100914.600,2500.7850000,N,12132.4696800,E,2,48,0.58,34.39,M,15.25,M,4,3335*7C
$GNRMC,100914.600,A,2500.7850000,N,12132.4696800,E,0.06,198.73,260623,,,D,V*0E
$GPHDT,,T*1B
$GNGGA,100914.800,2500.7850100,N,12132.4696800,E,2,48,0.58,34.38,M,15.25,M,4,3335*72
$GNRMC,100914.800,A,2500.7850100,N,12132.4696800,E,0.07,198.73,260623,,,D,V*00
$GPHDT,,T*1B
$GNGSA,A,3,196,24,199,15,195,05,13,20,29,194,,,1.11,0.58,0.95,1*03
$GNGSA,A,3,84,85,79,69,,,,,,,,,1.11,0.58,0.95,2*02
$GNGSA,A,3,13,08,15,07,03,,,,,,,,1.11,0.58,0.95,3*09
$GNGSA,A,3,39,38,08,16,06,20,29,09,46,37,30,32,1.11,0.58,0.95,4*08
$GPGSV,4,1,15,196,72,049,40,24,61,174,46,199,60,167,37,15,56,004,23,1*67
$GPGSV,4,2,15,18,48,312,19,195,48,176,42,41,38,242,36,05,38,082,32,1*56
$GPGSV,4,3,15,13,33,035,39,23,24,315,24,20,20,105,18,29,20,223,36,1*6D
$GPGSV,4,4,15,194,19,147,20,11,07,148,,12,01,167,,1*6C
$GPGSV,2,1,06,196,72,049,47,24,61,174,45,199,60,167,45,18,48,312,22,8*6C
$GPGSV,2,2,06,195,48,176,46,194,19,147,20,8*6C
$GLGSV,1,1,04,84,48,206,33,85,43,304,27,79,26,069,25,69,26,035,16,1*78
$GAGSV,3,1,09,13,63,300,40,08,61,346,23,15,54,169,42,07,35,266,20,7*7B
$GAGSV,3,2,09,03,26,043,24,26,12,323,,34,06,152,,30,06,163,,7*7E
$GAGSV,3,3,09,25,04,068,,7*47
$GAGSV,2,1,05,13,63,300,40,08,61,346,32,15,54,169,45,07,35,266,25,1*72
$GAGSV,2,2,05,03,26,043,25,1*47
$GBGSV,3,1,12,39,71,221,46,38,71,032,44,08,62,004,20,16,61,213,42,1*78
$GBGSV,3,2,12,06,59,212,40,20,49,018,23,29,42,240,44,09,42,212,29,1*72
$GBGSV,3,3,12,46,35,151,44,37,34,080,39,30,18,182,24,32,15,071,29,1*7A
$GBGSV,2,1,07,38,71,032,45,39,71,221,45,29,42,240,44,46,35,151,42,4*7A
$GBGSV,2,2,07,37,34,080,35,30,18,182,26,32,15,071,30,4*4C
$GNGGA,100915.000,2500.7850100,N,12132.4696800,E,2,48,0.58,34.38,M,15.25,M,5,3335*7A
$GNRMC,100915.000,A,2500.7850100,N,12132.4696800,E,0.01,198.73,260623,,,D,V*0F
$GPHDT,,T*1B
$GNGGA,100915.200,2500.7850100,N,12132.4696800,E,2,48,0.58,34.37,M,15.25,M,5,3335*77
$GNRMC,100915.200,A,2500.7850100,N,12132.4696800,E,0.00,198.73,260623,,,D,V*0C
$GPHDT,,T*1B
$GNGGA,100915.400,2500.7850100,N,12132.4696800,E,2,48,0.58,34.37,M,15.25,M,5,3335*71
$GNRMC,100915.400,A,2500.7850100,N,12132.4696800,E,0.04,198.73,260623,,,D,V*0E
$GPHDT,,T*1B
$GNGGA,100915.600,2500.7850100,N,12132.4696900,E,2,48,0.58,34.37,M,15.25,M,5,3335*72
$GNRMC,100915.600,A,2500.7850100,N,12132.4696900,E,0.08,198.73,260623,,,D,V*01
$GPHDT,,T*1B
$GNGGA,100915.800,2500.7850100,N,12132.4696900,E,2,48,0.58,34.37,M,15.25,M,5,3335*7C
$GNRMC,100915.800,A,2500.7850100,N,12132.4696900,E,0.02,198.73,260623,,,D,V*05
$GPHDT,,T*1B
$GNGSA,A,3,196,24,199,15,195,05,13,20,29,194,,,1.11,0.58,0.95,1*03
$GNGSA,A,3,84,85,79,69,,,,,,,,,1.11,0.58,0.95,2*02
$GNGSA,A,3,13,08,15,07,03,,,,,,,,1.11,0.58,0.95,3*09
$GNGSA,A,3,39,38,08,16,06,20,29,09,46,37,30,32,1.11,0.58,0.95,4*08
$GPGSV,4,1,15,196,72,049,40,24,61,174,45,199,60,167,37,15,56,004,23,1*64
$GPGSV,4,2,15,18,48,312,19,195,48,176,42,41,38,242,36,05,38,082,31,1*55
$GPGSV,4,3,15,13,33,035,40,23,24,315,24,20,20,105,16,29,20,223,36,1*6D
$GPGSV,4,4,15,194,19,147,20,11,07,148,,12,01,167,,1*6C
$GPGSV,2,1,06,196,72,049,47,24,61,174,45,199,60,167,45,18,48,312,23,8*6D
$GPGSV,2,2,06,195,48,176,46,194,19,147,21,8*6D
$GLGSV,1,1,04,84,48,206,34,85,43,304,27,79,26,069,21,69,26,035,16,1*7B
$GAGSV,3,1,09,13,63,300,40,08,61,346,24,15,54,169,42,07,35,266,19,7*76
$GAGSV,3,2,09,03,26,043,21,26,12,323,,34,06,152,,30,06,163,,7*7B
$GAGSV,3,3,09,25,04,068,,7*47
$GAGSV,2,1,05,13,63,300,41,08,61,346,32,15,54,169,45,07,35,266,25,1*73
$GAGSV,2,2,05,03,26,043,25,1*47
$GBGSV,3,1,12,39,71,221,46,38,71,032,44,08,62,004,22,16,61,213,42,1*7A
$GBGSV,3,2,12,06,59,212,40,20,49,018,24,29,42,240,44,09,42,212,28,1*74
$GBGSV,3,3,12,46,35,151,44,37,34,080,39,30,18,182,24,32,15,071,29,1*7A
$GBGSV,2,1,07,38,71,032,45,39,71,221,45,29,42,240,44,46,35,151,42,4*7A
$GBGSV,2,2,07,37,34,080,35,30,18,182,25,32,15,071,31,4*4E
$GNGGA,100916.000,2500.7850000,N,12132.4697000,E,2,48,0.58,34.37,M,15.25,M,6,3335*7D
$GNRMC,100916.000,A,2500.7850000,N,12132.4697000,E,0.04,198.73,260623,,,D,V*01
$GPHDT,,T*1B
$GNGGA,100916.200,2500.7850000,N,12132.4697000,E,2,48,0.58,34.37,M,15.25,M,6,3335*7F
$GNRMC,100916.200,A,2500.7850000,N,12132.4697000,E,0.01,198.73,260623,,,D,V*06
$GPHDT,,T*1B
$GNGGA,100916.400,2500.7850000,N,12132.4697000,E,2,48,0.58,34.37,M,15.25,M,6,3335*79
$GNRMC,100916.400,A,2500.7850000,N,12132.4697000,E,0.01,198.73,260623,,,D,V*00
$GPHDT,,T*1B
$GNGGA,100916.600,2500.7850000,N,12132.4697000,E,2,48,0.58,34.37,M,15.25,M,6,3335*7B
$GNRMC,100916.600,A,2500.7850000,N,12132.4697000,E,0.01,198.73,260623,,,D,V*02
$GPHDT,,T*1B
$GNGGA,100916.800,2500.7850000,N,12132.4697000,E,2,48,0.58,34.37,M,15.25,M,4,3335*77
$GNRMC,100916.800,A,2500.7850000,N,12132.4697000,E,0.00,198.73,260623,,,D,V*0D
$GPHDT,,T*1B
$GNGSA,A,3,196,24,199,15,195,05,13,20,29,194,,,1.11,0.58,0.95,1*03
$GNGSA,A,3,84,85,79,69,,,,,,,,,1.11,0.58,0.95,2*02
$GNGSA,A,3,13,08,15,07,03,,,,,,,,1.11,0.58,0.95,3*09
$GNGSA,A,3,39,38,08,16,06,20,29,09,46,37,30,32,1.11,0.58,0.95,4*08
$GPGSV,4,1,15,196,72,049,40,24,61,174,45,199,60,167,37,15,56,004,23,1*64
$GPGSV,4,2,15,18,48,312,19,195,48,176,42,41,38,242,36,05,38,082,31,1*55
$GPGSV,4,3,15,13,33,035,40,23,24,315,24,20,20,105,16,29,20,223,37,1*6C
$GPGSV,4,4,15,194,19,147,20,11,07,148,,12,01,167,,1*6C
$GPGSV,2,1,06,196,72,049,47,24,61,174,45,199,60,167,45,18,48,312,24,8*6A
$GPGSV,2,2,06,195,48,176,46,194,19,147,20,8*6C
$GLGSV,1,1,04,84,48,206,34,85,43,304,27,79,26,069,21,69,26,035,16,1*7B
$GAGSV,2,1,07,13,63,300,40,08,61,346,24,15,54,169,42,07,35,266,19,7*79
$GAGSV,2,2,07,03,26,043,20,34,06,152,,30,06,163,,7*40
$GAGSV,2,1,05,13,63,300,41,08,61,346,32,15,54,169,46,07,35,266,25,1*70
$GAGSV,2,2,05,03,26,043,25,1*47
$GBGSV,3,1,12,39,71,221,46,38,71,032,44,08,62,004,22,16,61,213,42,1*7A
$GBGSV,3,2,12,06,59,212,40,20,49,018,24,29,42,240,44,09,42,212,28,1*74
$GBGSV,3,3,12,46,35,151,44,37,34,080,39,30,18,182,24,32,15,071,29,1*7A
$GBGSV,2,1,07,38,71,032,45,39,71,221,45,29,42,240,44,46,35,151,42,4*7A
$GBGSV,2,2,07,37,34,080,35,30,18,182,25,32,15,071,31,4*4E
$GNGGA,100917.000,2500.7850000,N,12132.4697100,E,2,48,0.58,34.37,M,15.25,M,4,3335*7F
$GNRMC,100917.000,A,2500.7850000,N,12132.4697100,E,0.02,198.73,260623,,,D,V*07
$GPHDT,,T*1B
$GNGGA,100917.200,2500.7850000,N,12132.4697100,E,2,48,0.58,34.37,M,15.25,M,1,3335*78
$GNRMC,100917.200,A,2500.7850000,N,12132.4697100,E,0.11,198.73,260623,,,D,V*07
$GPHDT,,T*1B
$GNGGA,100917.400,2500.7850000,N,12132.4697100,E,2,48,0.58,34.37,M,15.25,M,1,3335*7E
$GNRMC,100917.400,A,2500.7850000,N,12132.4697100,E,0.05,198.73,260623,,,D,V*04
$GPHDT,,T*1B
$GNGGA,100917.600,2500.7850000,N,12132.4697100,E,2,48,0.58,34.37,M,15.25,M,0,3335*7D
$GNRMC,100917.600,A,2500.7850000,N,12132.4697100,E,0.05,198.73,260623,,,D,V*06
$GPHDT,,T*1B
$GNGGA,100917.800,2500.7850000,N,12132.4697200,E,2,48,0.58,34.36,M,15.25,M,0,3335*71
$GNRMC,100917.800,A,2500.7850000,N,12132.4697200,E,0.05,198.73,260623,,,D,V*0B
$GPHDT,,T*1B
$GNGSA,A,3,196,24,199,15,195,05,13,20,29,194,,,1.11,0.58,0.95,1*03
$GNGSA,A,3,84,85,79,69,,,,,,,,,1.11,0.58,0.95,2*02
$GNGSA,A,3,13,08,15,07,03,,,,,,,,1.11,0.58,0.95,3*09
$GNGSA,A,3,39,38,08,16,06,20,29,09,46,37,30,32,1.11,0.58,0.95,4*08
$GPGSV,4,1,15,196,72,049,40,24,61,174,45,199,60,167,37,15,56,004,24,1*63
$GPGSV,4,2,15,18,48,312,20,195,48,176,42,41,38,242,36,05,38,082,32,1*5C
$GPGSV,4,3,15,13,33,035,40,23,24,315,24,20,20,105,15,29,20,223,37,1*6F
$GPGSV,4,4,15,194,19,147,20,11,07,148,,12,01,167,,1*6C
$GPGSV,2,1,06,196,72,049,47,24,61,174,45,199,60,167,45,18,48,312,24,8*6A
$GPGSV,2,2,06,195,48,176,46,194,19,147,20,8*6C
$GLGSV,1,1,04,84,48,206,34,85,43,304,26,79,26,069,21,69,26,035,16,1*7A
$GAGSV,2,1,07,13,63,300,40,08,61,346,24,15,54,169,42,07,35,266,19,7*79
$GAGSV,2,2,07,03,26,043,20,34,06,152,,30,06,163,,7*40
$GAGSV,2,1,05,13,63,300,41,08,61,346,32,15,54,169,46,07,35,266,25,1*70
$GAGSV,2,2,05,03,26,043,25,1*47
$GBGSV,3,1,12,39,71,221,46,38,71,032,44,08,62,004,22,16,61,213,42,1*7A
$GBGSV,3,2,12,06,59,212,40,20,49,018,24,29,42,240,44,09,42,212,28,1*74
$GBGSV,3,3,12,46,35,151,44,37,34,080,39,30,18,182,23,32,15,071,28,1*7C
$GBGSV,2,1,07,38,71,032,45,39,71,221,45,29,42,240,44,46,35,151,42,4*7A
$GBGSV,2,2,07,37,34,080,35,30,18,182,25,32,15,071,31,4*4E
$GNGGA,100918.000,2500.7850000,N,12132.4697200,E,2,48,0.58,34.36,M,15.25,M,1,3335*77
$GNRMC,100918.000,A,2500.7850000,N,12132.4697200,E,0.03,198.73,260623,,,D,V*0A
$GPHDT,,T*1B
$GNGGA,100918.200,2500.7850000,N,12132.4697200,E,2,48,0.58,34.36,M,15.25,M,1,3335*75
$GNRMC,100918.200,A,2500.7850000,N,12132.4697200,E,0.05,198.73,260623,,,D,V*0E
$GPHDT,,T*1B
$GNGGA,100918.400,2500.7850000,N,12132.4697200,E,2,48,0.58,34.36,M,15.25,M,1,3335*73
$GNRMC,100918.400,A,2500.7850000,N,12132.4697200,E,0.03,198.73,260623,,,D,V*0E
$GPHDT,,T*1B
$GNGGA,100918.600,2500.7850000,N,12132.4697300,E,2,48,0.58,34.35,M,15.25,M,1,3335*73
$GNRMC,100918.600,A,2500.7850000,N,12132.4697300,E,0.05,198.73,260623,,,D,V*0B
$GPHDT,,T*1B
$GNGGA,100918.800,2500.7850000,N,12132.4697300,E,2,48,0.58,34.35,M,15.25,M,1,3335*7D
$GNRMC,100918.800,A,2500.7850000,N,12132.4697300,E,0.09,198.73,260623,,,D,V*09
