$FW : RTK35X,V1.1X0314AS,Lib20210517,1*54
$Tool : LOCOSYS , GNSS Firebird , v1.0.0.19*39
$---------------------------------------------------*2D
$GNACCURACY,4.0*12
$GNGGA,040201.900,2500.7834227,N,12132.4499063,E,4,51,0.54,16.798,M,15.25,M,0,3335*46
$GNRMC,040201.900,A,2500.7834227,N,12132.4499063,E,0.01,163.17,090324,,,R,V*16
$GPHDT,,T*1B
$GNACCURACY,4.0*12
$GNGGA,040202.000,2500.7834225,N,12132.4499065,E,4,51,0.54,16.801,M,15.25,M,1,3335*46
$GNRMC,040202.000,A,2500.7834225,N,12132.4499065,E,0.01,163.17,090324,,,R,V*18
$GPHDT,180.181,T*34
$GNACCURACY,4.0*12
$GNGGA,040202.100,2500.7834240,N,12132.4499138,E,4,51,0.54,16.786,M,15.25,M,1,3335*4D
$GNRMC,040202.100,A,2500.7834240,N,12132.4499138,E,0.01,163.17,090324,,,R,V*13
$GPHDT,,T*1B
$GNGSA,A,3,08,194,195,199,21,02,07,27,16,04,26,,0.85,0.54,0.65,1*32
$GNGSA,A,3,81,88,78,77,79,,,,,,,,0.85,0.54,0.65,2*05
$GNGSA,A,3,13,21,26,27,15,,,,,,,,0.85,0.54,0.65,3*08
$GNGSA,A,3,09,06,23,16,43,07,40,39,28,10,25,37,0.85,0.54,0.65,4*04
$GPGSV,4,1,16,08,65,349,41,194,64,051,31,195,63,116,43,50,60,167,31,1*66
$GPGSV,4,2,16,199,60,167,28,21,56,159,42,02,45,177,41,07,39,318,44,1*53
$GPGSV,4,3,16,27,36,034,31,16,29,072,27,09,25,250,19,04,20,205,24,1*6B
$GPGSV,4,4,16,196,20,170,24,26,10,097,19,30,08,320,19,18,,,18,1*6E
$GPGSV,2,1,07,08,65,349,43,194,64,051,35,195,63,116,45,199,60,167,41,8*5A
$GPGSV,2,2,07,27,36,034,26,04,20,205,22,26,10,097,17,8*55
$GLGSV,2,1,06,81,61,197,42,88,59,035,26,78,55,031,33,77,25,106,20,1*7B
$GLGSV,2,2,06,79,23,331,43,87,06,026,14,1*7F
$GAGSV,2,1,05,13,54,086,22,21,54,007,38,26,41,172,32,27,30,076,22,7*75
$GAGSV,2,2,05,15,15,040,16,7*45
$GAGSV,2,1,05,13,54,086,21,21,54,007,39,26,41,172,27,27,30,076,29,1*7E
$GAGSV,2,2,05,15,15,040,26,1*40
$GBGSV,4,1,13,09,74,271,44,06,73,215,41,23,72,022,42,16,70,198,41,1*79
$GBGSV,4,2,13,43,61,038,36,07,61,306,38,40,61,327,43,39,59,186,41,1*7C
$GBGSV,4,3,13,28,53,218,34,10,51,287,39,25,39,114,38,37,28,320,44,1*7C
$GBGSV,4,4,13,34,14,040,16,1*45
$GBGSV,2,1,07,23,72,022,43,40,61,327,42,43,61,038,30,39,59,186,37,4*72
$GBGSV,2,2,07,28,53,218,38,25,39,114,44,37,28,320,44,4*4E
$GNACCURACY,4.1*13
$PAIRSAT,1,31,2,0,201,3,0,200,4,0,221,5,0,200,6,0,200,7,0,201,8,0,221,9,0,200,10,0,200,11,0,200,12,0,200,13,0,200,14,0,200,16,0,1,20,0,200,21,0,201,22,0,200,23,0,200,24,0,200,25,0,200,26,0,220,27,0,221,28,0,200,29,0,200,30,0,200,31,0,200,32,0,200,194,0,221,195,0,621,196,0,600,199,0,621*58
$PAIRSAT,2,24,65,0,200,66,0,200,67,0,200,68,0,200,69,0,200,70,0,200,71,0,200,72,0,200,73,0,200,74,0,200,75,0,200,76,0,200,77,0,1,78,0,201,79,0,201,80,0,200,81,0,201,82,0,200,83,0,200,84,0,200,85,0,200,86,0,200,87,0,201,88,0,201*78
$PAIRSAT,3,23,2,0,1200,3,0,1200,4,0,1200,5,0,200,7,0,1200,8,0,1200,9,0,1200,10,0,200,11,0,200,12,0,200,13,0,221,15,0,220,19,0,200,21,0,221,24,0,200,25,0,1200,26,0,1021,27,0,1021,30,0,1000,31,0,1000,33,0,1200,34,0,1000,36,0,1200*6A
$PAIRSAT,4,44,1,0,200,2,0,200,3,0,600,4,0,200,6,0,1,7,0,1,9,0,201,10,0,201,11,0,200,12,0,200,13,0,200,14,0,200,16,0,201,19,0,600,20,0,600,21,0,600,22,0,600,23,0,621,24,0,600,25,0,621,26,0,600,27,0,600,28,0,621,29,0,400,30,0,400,32,0,400,33,0,400,34,0,421,35,0,400,36,0,400,37,0,421,38,0,400,39,0,421,40,0,421,41,0,400,42,0,400,43,0,421,44,0,400,45,0,400,46,0,400,59,0,400,60,0,400,61,0,400,62,0,400*45
$PAIRDGP,7,2,7,8,16,21,26,27*56
$GNGGA,040202.200,2500.7834222,N,12132.4499086,E,4,51,0.54,16.789,M,15.25,M,1,3335*41
$GNRMC,040202.200,A,2500.7834222,N,12132.4499086,E,0.01,163.17,090324,,,R,V*10
$GPHDT,180.787,T*34
$GNACCURACY,4.1*13
$GNGGA,040202.300,2500.7834180,N,12132.4498980,E,4,51,0.54,16.798,M,15.25,M,1,3335*45
$GNRMC,040202.300,A,2500.7834180,N,12132.4498980,E,0.00,163.17,090324,,,R,V*15
$GPHDT,,T*1B
$GNACCURACY,4.1*13
$GNGGA,040202.400,2500.7834220,N,12132.4499023,E,4,51,0.54,16.804,M,15.25,M,1,3335*40
$GNRMC,040202.400,A,2500.7834220,N,12132.4499023,E,0.01,163.17,090324,,,R,V*1B
$GPHDT,179.655,T*3C
$GNACCURACY,4.1*13
$GNGGA,040202.500,2500.7834200,N,12132.4499110,E,4,51,0.54,16.769,M,15.25,M,0,3335*47
$GNRMC,040202.500,A,2500.7834200,N,12132.4499110,E,0.01,163.17,090324,,,R,V*19
$GPHDT,,T*1B
$GNACCURACY,4.1*13
$GNGGA,040202.600,2500.7834189,N,12132.4499069,E,4,51,0.54,16.756,M,15.25,M,0,3335*45
$GNRMC,040202.600,A,2500.7834189,N,12132.4499069,E,0.01,163.17,090324,,,R,V*17
$GPHDT,180.071,T*3A
$GNACCURACY,4.1*13
$GNGGA,040202.700,2500.7834195,N,12132.4499068,E,4,51,0.54,16.763,M,15.25,M,0,3335*4E
$GNRMC,040202.700,A,2500.7834195,N,12132.4499068,E,0.01,163.17,090324,,,R,V*1A
$GPHDT,,T*1B
$GNACCURACY,4.1*13
$GNGGA,040202.800,2500.7834201,N,12132.4499098,E,4,51,0.54,16.757,M,15.25,M,0,3335*47
$GNRMC,040202.800,A,2500.7834201,N,12132.4499098,E,0.01,163.17,090324,,,R,V*14
$GPHDT,180.411,T*38
$GNACCURACY,4.1*13
$GNGGA,040202.900,2500.7834215,N,12132.4499045,E,4,51,0.54,16.780,M,15.25,M,0,3335*49
$GNRMC,040202.900,A,2500.7834215,N,12132.4499045,E,0.00,163.17,090324,,,R,V*11
$GPHDT,,T*1B
$GNACCURACY,4.1*13
$GNGGA,040203.000,2500.7834200,N,12132.4499063,E,4,51,0.54,16.767,M,15.25,M,1,3335*49
$GNRMC,040203.000,A,2500.7834200,N,12132.4499063,E,0.01,163.17,090324,,,R,V*18
$GPHDT,180.706,T*3D
$GNACCURACY,4.1*13
$GNGGA,040203.100,2500.7834192,N,12132.4499049,E,4,51,0.54,16.768,M,15.25,M,1,3335*47
$GNRMC,040203.100,A,2500.7834192,N,12132.4499049,E,0.01,163.17,090324,,,R,V*19
$GPHDT,,T*1B
$GNGSA,A,3,08,194,195,199,21,02,07,27,16,04,26,,0.85,0.54,0.65,1*32
$GNGSA,A,3,81,88,78,77,79,,,,,,,,0.85,0.54,0.65,2*05
$GNGSA,A,3,13,21,26,27,15,,,,,,,,0.85,0.54,0.65,3*08
$GNGSA,A,3,09,06,23,16,43,07,40,39,28,10,25,37,0.85,0.54,0.65,4*04
$GPGSV,4,1,16,08,65,349,41,194,64,051,35,195,63,116,42,50,60,167,29,1*6A
$GPGSV,4,2,16,199,60,167,26,21,56,159,43,02,45,177,42,07,39,318,45,1*5E
$GPGSV,4,3,16,27,36,034,30,16,29,072,31,09,25,249,19,04,20,205,22,1*63
$GPGSV,4,4,16,196,20,170,23,26,10,097,19,30,08,320,19,18,,,18,1*69
$GPGSV,2,1,07,08,65,349,45,194,64,051,37,195,63,116,45,199,60,167,42,8*5D
$GPGSV,2,2,07,27,36,034,26,04,20,205,24,26,10,097,17,8*53
$GLGSV,2,1,06,81,61,197,42,88,59,035,26,78,55,031,35,77,25,106,20,1*7D
$GLGSV,2,2,06,79,23,331,43,87,06,026,14,1*7F
$GAGSV,2,1,05,13,54,086,19,21,54,007,38,26,41,172,31,27,30,076,19,7*76
$GAGSV,2,2,05,15,15,040,15,7*46
$GAGSV,2,1,05,13,54,086,21,21,54,007,40,26,41,172,30,27,30,076,29,1*76
$GAGSV,2,2,05,15,15,040,27,1*41
$GBGSV,4,1,13,09,74,271,44,06,73,215,42,23,72,022,42,16,70,198,41,1*7A
$GBGSV,4,2,13,43,61,038,38,07,61,306,38,40,61,327,43,39,59,186,42,1*71
$GBGSV,4,3,13,28,53,218,34,10,51,287,40,25,39,114,39,37,28,320,43,1*74
$GBGSV,4,4,13,34,14,040,17,1*44
$GBGSV,2,1,07,23,72,022,44,40,61,327,42,43,61,038,31,39,59,186,37,4*74
$GBGSV,2,2,07,28,53,218,37,25,39,114,44,37,28,320,44,4*41
$GNACCURACY,4.1*13
$PAIRSAT,1,31,2,0,201,3,0,200,4,0,221,5,0,200,6,0,200,7,0,201,8,0,221,9,0,200,10,0,200,11,0,200,12,0,200,13,0,200,14,0,200,16,0,1,20,0,200,21,0,201,22,0,200,23,0,200,24,0,200,25,0,200,26,0,220,27,0,221,28,0,200,29,0,200,30,0,200,31,0,200,32,0,200,194,0,221,195,0,621,196,0,600,199,0,621*58
$PAIRSAT,2,24,65,0,200,66,0,200,67,0,200,68,0,200,69,0,200,70,0,200,71,0,200,72,0,200,73,0,200,74,0,200,75,0,200,76,0,200,77,0,1,78,0,201,79,0,201,80,0,200,81,0,201,82,0,200,83,0,200,84,0,200,85,0,200,86,0,200,87,0,201,88,0,201*78
$PAIRSAT,3,23,2,0,1200,3,0,1200,4,0,1200,5,0,200,7,0,1200,8,0,1200,9,0,1200,10,0,200,11,0,200,12,0,200,13,0,221,15,0,220,19,0,200,21,0,221,24,0,200,25,0,1200,26,0,1021,27,0,1021,30,0,1000,31,0,1000,33,0,1200,34,0,1000,36,0,1200*6A
$PAIRSAT,4,44,1,0,200,2,0,200,3,0,600,4,0,200,6,0,1,7,0,1,9,0,201,10,0,201,11,0,200,12,0,200,13,0,200,14,0,200,16,0,201,19,0,600,20,0,600,21,0,600,22,0,600,23,0,621,24,0,600,25,0,621,26,0,600,27,0,600,28,0,621,29,0,400,30,0,400,32,0,400,33,0,400,34,0,421,35,0,400,36,0,400,37,0,421,38,0,400,39,0,421,40,0,421,41,0,400,42,0,400,43,0,421,44,0,400,45,0,400,46,0,400,59,0,400,60,0,400,61,0,400,62,0,400*45
$PAIRDGP,7,2,7,8,16,21,26,27*56
$GNGGA,040203.200,2500.7834214,N,12132.4499063,E,4,51,0.54,16.778,M,15.25,M,1,3335*40
$GNRMC,040203.200,A,2500.7834214,N,12132.4499063,E,0.01,163.17,090324,,,R,V*1F
$GPHDT,180.028,T*36
$GNACCURACY,4.1*13
$GNGGA,040203.300,2500.7834249,N,12132.4499133,E,4,51,0.54,16.768,M,15.25,M,1,3335*4C
$GNRMC,040203.300,A,2500.7834249,N,12132.4499133,E,0.01,163.17,090324,,,R,V*12
$GPHDT,,T*1B
$GNACCURACY,4.1*13
$GNGGA,040203.400,2500.7834225,N,12132.4499139,E,4,51,0.54,16.763,M,15.25,M,1,3335*40
$GNRMC,040203.400,A,2500.7834225,N,12132.4499139,E,0.02,163.17,090324,,,R,V*16
$GPHDT,180.592,T*32
$GNACCURACY,4.1*13
$GNGGA,040203.500,2500.7834238,N,12132.4499097,E,4,51,0.54,16.770,M,15.25,M,1,3335*4A
$GNRMC,040203.500,A,2500.7834238,N,12132.4499097,E,0.02,163.17,090324,,,R,V*1E
$GPHDT,,T*1B
$GNACCURACY,4.1*13
$GNGGA,040203.600,2500.7834234,N,12132.4499149,E,4,51,0.54,16.755,M,15.25,M,1,3335*40
$GNRMC,040203.600,A,2500.7834234,N,12132.4499149,E,0.03,163.17,090324,,,R,V*12
$GPHDT,181.081,T*34
$GNACCURACY,4.1*13
$GNGGA,040203.700,2500.7834261,N,12132.4499185,E,4,51,0.54,16.750,M,15.25,M,0,3335*45
$GNRMC,040203.700,A,2500.7834261,N,12132.4499185,E,0.03,163.17,090324,,,R,V*13
$GPHDT,,T*1B
$GNACCURACY,4.1*13
$GNGGA,040203.800,2500.7834258,N,12132.4499169,E,4,51,0.54,16.748,M,15.25,M,0,3335*4B
$GNRMC,040203.800,A,2500.7834258,N,12132.4499169,E,0.04,163.17,090324,,,R,V*13
$GPHDT,181.532,T*39
$GNACCURACY,4.2*10
$GNGGA,040203.900,2500.7834241,N,12132.4499186,E,4,51,0.54,16.748,M,15.25,M,0,3335*43
$GNRMC,040203.900,A,2500.7834241,N,12132.4499186,E,0.03,163.17,090324,,,R,V*1C
$GPHDT,,T*1B
$GNACCURACY,4.2*10
$GNGGA,040204.000,2500.7834236,N,12132.4499187,E,4,51,0.54,16.734,M,15.25,M,1,3335*46
$GNRMC,040204.000,A,2500.7834236,N,12132.4499187,E,0.03,163.17,090324,,,R,V*13
$GPHDT,182.709,T*30
$GNACCURACY,4.2*10
$GNGGA,040204.100,2500.7834233,N,12132.4499204,E,4,50,0.54,16.741,M,15.25,M,1,3335*49
$GNRMC,040204.100,A,2500.7834233,N,12132.4499204,E,0.02,163.17,090324,,,R,V*1E
$GPHDT,,T*1B
$GNGSA,A,3,08,194,195,199,21,02,07,27,16,04,,,0.88,0.56,0.68,1*34
$GNGSA,A,3,81,88,78,77,79,,,,,,,,0.88,0.56,0.68,2*07
$GNGSA,A,3,21,26,27,15,13,,,,,,,,0.88,0.56,0.68,3*0A
$GNGSA,A,3,09,06,23,16,43,40,07,39,28,10,25,37,0.88,0.56,0.68,4*06
$GPGSV,4,1,16,08,65,349,41,194,64,051,33,195,63,116,41,50,60,167,31,1*66
$GPGSV,4,2,16,199,60,167,28,21,57,159,43,02,45,177,43,07,39,318,45,1*50
$GPGSV,4,3,16,27,36,034,30,16,29,072,31,09,25,249,17,04,20,205,21,1*6E
$GPGSV,4,4,16,196,20,170,22,26,09,097,19,30,08,320,21,18,,,15,1*66
$GPGSV,2,1,07,08,65,349,45,194,64,051,35,195,63,116,45,199,60,167,42,8*5F
$GPGSV,2,2,07,27,36,034,27,04,20,205,22,26,09,097,14,8*5F
$GLGSV,2,1,06,81,61,197,42,88,59,035,28,78,55,031,33,77,25,106,20,1*75
$GLGSV,2,2,06,79,23,331,43,87,06,026,16,1*7D
$GAGSV,2,1,06,13,54,086,,21,54,007,37,26,41,172,31,27,30,076,16,7*7D
$GAGSV,2,2,06,19,29,243,,15,15,040,17,7*71
$GAGSV,2,1,05,13,54,086,18,21,54,007,39,26,41,172,30,27,30,076,31,1*7B
$GAGSV,2,2,05,15,15,040,27,1*41
$GBGSV,4,1,13,09,74,271,44,06,73,215,42,23,72,022,43,16,70,198,41,1*7B
$GBGSV,4,2,13,43,61,038,37,40,61,327,43,07,61,306,38,39,59,186,42,1*7E
$GBGSV,4,3,13,28,53,218,34,10,51,287,39,25,39,114,39,37,28,320,44,1*7D
$GBGSV,4,4,13,34,14,040,19,1*4A
$GBGSV,2,1,07,23,72,022,44,40,61,327,43,43,61,038,31,39,59,186,39,4*7B
$GBGSV,2,2,07,28,53,218,37,25,39,114,44,37,28,320,43,4*46
$GNACCURACY,4.2*10
$PAIRSAT,1,31,2,0,201,3,0,200,4,0,221,5,0,200,6,0,200,7,0,201,8,0,221,9,0,200,10,0,200,11,0,200,12,0,200,13,0,200,14,0,200,16,0,1,20,0,200,21,0,201,22,0,200,23,0,200,24,0,200,25,0,200,26,0,220,27,0,221,28,0,200,29,0,200,30,0,200,31,0,200,32,0,200,194,0,221,195,0,621,196,0,600,199,0,621*58
$PAIRSAT,2,24,65,0,200,66,0,200,67,0,200,68,0,200,69,0,200,70,0,200,71,0,200,72,0,200,73,0,200,74,0,200,75,0,200,76,0,200,77,0,1,78,0,201,79,0,201,80,0,200,81,0,201,82,0,200,83,0,200,84,0,200,85,0,200,86,0,200,87,0,201,88,0,201*78
$PAIRSAT,3,23,2,0,1200,3,0,1200,4,0,1200,5,0,200,7,0,1200,8,0,1200,9,0,1200,10,0,200,11,0,200,12,0,200,13,0,221,15,0,220,19,0,200,21,0,221,24,0,200,25,0,1200,26,0,1021,27,0,1021,30,0,1000,31,0,1000,33,0,1200,34,0,1000,36,0,1200*6A
$PAIRSAT,4,44,1,0,200,2,0,200,3,0,600,4,0,200,6,0,1,7,0,1,9,0,201,10,0,201,11,0,200,12,0,200,13,0,200,14,0,200,16,0,201,19,0,600,20,0,600,21,0,600,22,0,600,23,0,621,24,0,600,25,0,621,26,0,600,27,0,600,28,0,621,29,0,400,30,0,400,32,0,400,33,0,400,34,0,421,35,0,400,36,0,400,37,0,421,38,0,400,39,0,421,40,0,421,41,0,400,42,0,400,43,0,421,44,0,400,45,0,400,46,0,400,59,0,400,60,0,400,61,0,400,62,0,400*45
$PAIRDGP,7,2,7,8,16,21,26,27*56
$GNGGA,040204.200,2500.7834251,N,12132.4499216,E,4,49,0.56,16.735,M,15.25,M,1,3335*44
$GNRMC,040204.200,A,2500.7834251,N,12132.4499216,E,0.02,163.17,090324,,,R,V*1A
$GPHDT,182.920,T*35
$GNACCURACY,4.2*10
$GNGGA,040204.300,2500.7834266,N,12132.4499214,E,4,49,0.56,16.750,M,15.25,M,1,3335*40
$GNRMC,040204.300,A,2500.7834266,N,12132.4499214,E,0.03,163.17,090324,,,R,V*1C
$GPHDT,,T*1B
$GNACCURACY,4.2*10
$GNGGA,040204.400,2500.7834268,N,12132.4499227,E,4,49,0.56,16.746,M,15.25,M,1,3335*4E
$GNRMC,040204.400,A,2500.7834268,N,12132.4499227,E,0.03,163.17,090324,,,R,V*15
$GPHDT,182.799,T*39
$GNACCURACY,4.0*12
$GNGGA,040204.500,2500.7834273,N,12132.4499225,E,4,49,0.56,16.751,M,15.25,M,1,3335*41
$GNRMC,040204.500,A,2500.7834273,N,12132.4499225,E,0.10,163.17,090324,,,R,V*1E
$GPHDT,,T*1B
$GNACCURACY,4.0*12
$GNGGA,040204.600,2500.7834276,N,12132.4499236,E,4,49,0.56,16.757,M,15.25,M,1,3335*43
$GNRMC,040204.600,A,2500.7834276,N,12132.4499236,E,0.14,163.17,090324,,,R,V*1E
$GPHDT,182.958,T*3A
$GNACCURACY,4.0*12
$GNGGA,040204.700,2500.7834260,N,12132.4499220,E,4,49,0.56,16.757,M,15.25,M,1,3335*42
$GNRMC,040204.700,A,2500.7834260,N,12132.4499220,E,0.07,163.17,090324,,,R,V*1D
$GPHDT,,T*1B
$GNACCURACY,4.0*12
$GNGGA,040204.800,2500.7834290,N,12132.4499244,E,4,49,0.56,16.758,M,15.25,M,0,3335*4E
$GNRMC,040204.800,A,2500.7834290,N,12132.4499244,E,0.07,163.17,090324,,,R,V*1F
$GPHDT,183.124,T*38
$GNACCURACY,4.0*12
$GNGGA,040204.900,2500.7834283,N,12132.4499234,E,4,49,0.56,16.752,M,15.25,M,0,3335*40
$GNRMC,040204.900,A,2500.7834283,N,12132.4499234,E,0.05,163.17,090324,,,R,V*19
$GPHDT,,T*1B
$GNACCURACY,4.0*12
$GNGGA,040205.000,2500.7834300,N,12132.4499262,E,4,49,0.56,16.761,M,15.25,M,1,3335*40
$GNRMC,040205.000,A,2500.7834300,N,12132.4499262,E,0.06,163.17,090324,,,R,V*1B
$GPHDT,182.915,T*33
$GNACCURACY,4.0*12
$GNGGA,040205.100,2500.7834292,N,12132.4499209,E,4,49,0.56,16.761,M,15.25,M,1,3335*46
$GNRMC,040205.100,A,2500.7834292,N,12132.4499209,E,0.02,163.17,090324,,,R,V*19
$GPHDT,,T*1B
$GNGSA,A,3,08,194,195,199,21,02,07,27,16,04,,,0.88,0.56,0.68,1*34
$GNGSA,A,3,81,88,78,77,79,,,,,,,,0.88,0.56,0.68,2*07
$GNGSA,A,3,21,26,27,15,13,,,,,,,,0.88,0.56,0.68,3*0A
$GNGSA,A,3,09,06,23,16,43,40,07,39,28,10,25,37,0.88,0.56,0.68,4*06
$GPGSV,4,1,16,08,65,349,43,194,64,051,31,195,63,116,40,50,60,167,32,1*64
$GPGSV,4,2,16,199,60,167,29,21,57,159,43,02,45,177,44,07,39,318,45,1*56
$GPGSV,4,3,16,27,36,034,29,16,29,072,30,09,25,249,17,04,20,205,22,1*64
$GPGSV,4,4,16,196,20,170,23,26,09,097,19,30,08,320,22,18,,,16,1*67
$GPGSV,2,1,06,08,65,349,44,194,64,051,33,195,63,116,45,199,60,167,42,8*59
$GPGSV,2,2,06,27,36,034,27,04,20,205,20,8*6A
$GLGSV,2,1,06,81,61,197,42,88,59,035,28,78,55,031,31,77,25,106,22,1*75
$GLGSV,2,2,06,79,23,331,43,87,06,026,15,1*7E
$GAGSV,2,1,06,13,54,086,,21,54,007,37,26,41,172,31,27,30,076,16,7*7D
$GAGSV,2,2,06,19,29,243,,15,15,040,17,7*71
$GAGSV,2,1,05,13,54,086,18,21,54,007,38,26,41,172,31,27,30,076,31,1*7B
$GAGSV,2,2,05,15,15,040,30,1*47
$GBGSV,4,1,13,09,74,271,44,06,73,215,42,23,72,022,42,16,70,198,41,1*7A
$GBGSV,4,2,13,43,61,038,37,40,61,327,42,07,61,306,37,39,59,186,42,1*70
$GBGSV,4,3,13,28,53,218,34,10,51,287,37,25,39,114,41,37,28,320,44,1*7C
$GBGSV,4,4,13,34,14,040,16,1*45
$GBGSV,2,1,07,23,72,022,43,40,61,327,45,43,61,038,30,39,59,186,39,4*7B
$GBGSV,2,2,07,28,53,218,37,25,39,114,44,37,28,320,44,4*41
$GNACCURACY,4.0*12
$PAIRSAT,1,31,2,0,201,3,0,200,4,0,221,5,0,200,6,0,200,7,0,201,8,0,221,9,0,200,10,0,200,11,0,200,12,0,200,13,0,200,14,0,200,16,0,1,20,0,200,21,0,201,22,0,200,23,0,200,24,0,200,25,0,200,26,0,220,27,0,221,28,0,200,29,0,200,30,0,200,31,0,200,32,0,200,194,0,221,195,0,621,196,0,600,199,0,621*58
$PAIRSAT,2,24,65,0,200,66,0,200,67,0,200,68,0,200,69,0,200,70,0,200,71,0,200,72,0,200,73,0,200,74,0,200,75,0,200,76,0,200,77,0,1,78,0,201,79,0,201,80,0,200,81,0,201,82,0,200,83,0,200,84,0,200,85,0,200,86,0,200,87,0,201,88,0,201*78
$PAIRSAT,3,23,2,0,1200,3,0,1200,4,0,1200,5,0,200,7,0,1200,8,0,1200,9,0,1200,10,0,200,11,0,200,12,0,200,13,0,221,15,0,220,19,0,200,21,0,221,24,0,200,25,0,1200,26,0,1021,27,0,1021,30,0,1000,31,0,1000,33,0,1200,34,0,1000,36,0,1200*6A
$PAIRSAT,4,44,1,0,200,2,0,200,3,0,600,4,0,200,6,0,1,7,0,1,9,0,201,10,0,201,11,0,200,12,0,200,13,0,200,14,0,200,16,0,201,19,0,600,20,0,600,21,0,600,22,0,600,23,0,621,24,0,600,25,0,621,26,0,600,27,0,600,28,0,621,29,0,400,30,0,400,32,0,400,33,0,400,34,0,421,35,0,400,36,0,400,37,0,421,38,0,400,39,0,421,40,0,421,41,0,400,42,0,400,43,0,421,44,0,400,45,0,400,46,0,400,59,0,400,60,0,400,61,0,400,62,0,400*45
$PAIRDGP,7,2,7,8,16,21,26,27*56
$GNGGA,040205.200,2500.7834302,N,12132.4499260,E,4,49,0.56,16.762,M,15.25,M,1,3335*41
$GNRMC,040205.200,A,2500.7834302,N,12132.4499260,E,0.05,163.17,090324,,,R,V*1A
$GPHDT,183.486,T*35
$GNACCURACY,4.0*12
$GNGGA,040205.300,2500.7834283,N,12132.4499246,E,4,49,0.56,16.761,M,15.25,M,1,3335*4F
$GNRMC,040205.300,A,2500.7834283,N,12132.4499246,E,0.04,163.17,090324,,,R,V*16
$GPHDT,,T*1B
$GNACCURACY,4.0*12
$GNGGA,040205.400,2500.7834282,N,12132.4499215,E,4,48,0.57,16.759,M,15.25,M,1,3335*44
$GNRMC,040205.400,A,2500.7834282,N,12132.4499215,E,0.02,163.17,090324,,,R,V*10
$GPHDT,182.410,T*3B
$GNACCURACY,4.1*13
$GNGGA,040205.500,2500.7834280,N,12132.4499249,E,4,48,0.57,16.766,M,15.25,M,0,3335*43
$GNRMC,040205.500,A,2500.7834280,N,12132.4499249,E,0.02,163.17,090324,,,R,V*1A
$GPHDT,,T*1B
$GNACCURACY,4.0*12
$GNGGA,040205.600,2500.7834279,N,12132.4499203,E,4,48,0.57,16.766,M,15.25,M,0,3335*48
$GNRMC,040205.600,A,2500.7834279,N,12132.4499203,E,0.07,163.17,090324,,,R,V*14
$GPHDT,182.641,T*3D
$GNACCURACY,4.0*12
$GNGGA,040205.700,2500.7834264,N,12132.4499171,E,4,48,0.57,16.759,M,15.25,M,0,3335*4F
$GNRMC,040205.700,A,2500.7834264,N,12132.4499171,E,0.02,163.17,090324,,,R,V*1A
$GPHDT,,T*1B
$GNACCURACY,4.0*12
$GNGGA,040205.800,2500.7834277,N,12132.4499226,E,4,47,0.57,16.758,M,15.25,M,0,3335*4D
$GNRMC,040205.800,A,2500.7834277,N,12132.4499226,E,0.02,163.17,090324,,,R,V*16
$GPHDT,182.357,T*3F
$GNACCURACY,4.0*12
$GNGGA,040205.900,2500.7834264,N,12132.4499197,E,4,47,0.57,16.757,M,15.25,M,0,3335*48
$GNRMC,040205.900,A,2500.7834264,N,12132.4499197,E,0.01,163.17,090324,,,R,V*1F
$GPHDT,,T*1B
$GNACCURACY,4.0*12
$GNGGA,040206.000,2500.7834234,N,12132.4499161,E,4,48,0.57,16.746,M,15.25,M,1,3335*40
$GNRMC,040206.000,A,2500.7834234,N,12132.4499161,E,0.01,163.17,090324,,,R,V*19
$GPHDT,181.764,T*38
$GNACCURACY,4.0*12
$GNGGA,040206.100,2500.7834244,N,12132.4499129,E,4,48,0.57,16.752,M,15.25,M,1,3335*4F
$GNRMC,040206.100,A,2500.7834244,N,12132.4499129,E,0.02,163.17,090324,,,R,V*10
$GPHDT,,T*1B
$GNGSA,A,3,08,194,195,199,21,02,07,27,04,,,,0.89,0.57,0.68,1*33
$GNGSA,A,3,81,88,78,77,79,,,,,,,,0.89,0.57,0.68,2*07
$GNGSA,A,3,21,26,27,15,13,,,,,,,,0.89,0.57,0.68,3*0A
$GNGSA,A,3,09,06,23,16,40,43,07,39,28,10,25,37,0.89,0.57,0.68,4*06
$GPGSV,4,1,16,08,65,349,42,194,64,051,35,195,63,116,40,50,60,167,30,1*63
$GPGSV,4,2,16,199,60,167,28,21,57,159,43,02,45,177,44,07,39,318,45,1*57
$GPGSV,4,3,16,27,36,034,29,16,29,072,32,09,25,249,,04,20,205,22,1*60
$GPGSV,4,4,16,196,20,170,21,26,09,097,20,30,08,320,21,18,,,18,1*62
$GPGSV,2,1,06,08,65,349,44,194,64,051,35,195,63,116,45,199,60,167,42,8*5F
$GPGSV,2,2,06,27,36,034,27,04,20,205,19,8*60
$GLGSV,2,1,07,81,61,197,42,88,59,035,28,78,55,031,33,77,25,106,23,1*77
$GLGSV,2,2,07,79,23,331,43,82,12,203,,87,06,026,16,1*44
$GAGSV,2,1,06,21,54,007,37,13,54,086,14,26,41,172,32,27,30,076,17,7*7A
$GAGSV,2,2,06,19,29,243,,15,15,040,18,7*7E
$GAGSV,2,1,05,13,54,086,18,21,54,007,39,26,41,172,31,27,30,076,30,1*7B
$GAGSV,2,2,05,15,15,040,29,1*4F
$GBGSV,4,1,13,09,74,271,44,06,73,215,42,23,72,022,43,16,70,198,41,1*7B
$GBGSV,4,2,13,40,61,327,42,43,61,038,36,07,61,306,37,39,59,186,43,1*70
$GBGSV,4,3,13,28,53,218,33,10,51,287,37,25,39,114,41,37,28,320,44,1*7B
$GBGSV,4,4,13,34,14,040,17,1*44
$GBGSV,2,1,07,23,72,022,42,40,61,327,43,43,61,038,30,39,59,186,39,4*7C
$GBGSV,2,2,07,28,53,218,37,25,39,114,43,37,28,320,44,4*46
$GNACCURACY,4.0*12
$PAIRSAT,1,31,2,0,201,3,0,200,4,0,221,5,0,200,6,0,200,7,0,201,8,0,221,9,0,200,10,0,200,11,0,200,12,0,200,13,0,200,14,0,200,16,0,1,20,0,200,21,0,201,22,0,200,23,0,200,24,0,200,25,0,200,26,0,220,27,0,221,28,0,200,29,0,200,30,0,200,31,0,200,32,0,200,194,0,221,195,0,621,196,0,600,199,0,621*58
$PAIRSAT,2,24,65,0,200,66,0,200,67,0,200,68,0,200,69,0,200,70,0,200,71,0,200,72,0,200,73,0,200,74,0,200,75,0,200,76,0,200,77,0,1,78,0,201,79,0,201,80,0,200,81,0,201,82,0,200,83,0,200,84,0,200,85,0,200,86,0,200,87,0,201,88,0,201*78
$PAIRSAT,3,23,2,0,1200,3,0,1200,4,0,1200,5,0,200,7,0,1200,8,0,1200,9,0,1200,10,0,200,11,0,200,12,0,200,13,0,221,15,0,220,19,0,200,21,0,221,24,0,200,25,0,1200,26,0,1021,27,0,1021,30,0,1000,31,0,1000,33,0,1200,34,0,1000,36,0,1200*6A
$PAIRSAT,4,44,1,0,200,2,0,200,3,0,600,4,0,200,6,0,1,7,0,1,9,0,201,10,0,201,11,0,200,12,0,200,13,0,200,14,0,200,16,0,201,19,0,600,20,0,600,21,0,600,22,0,600,23,0,621,24,0,600,25,0,621,26,0,600,27,0,600,28,0,621,29,0,400,30,0,400,32,0,400,33,0,400,34,0,421,35,0,400,36,0,400,37,0,421,38,0,400,39,0,421,40,0,421,41,0,400,42,0,400,43,0,421,44,0,400,45,0,400,46,0,400,59,0,400,60,0,400,61,0,400,62,0,400*45
$PAIRDGP,7,2,7,8,16,21,26,27*56
$GNGGA,040206.200,2500.7834254,N,12132.4499092,E,4,48,0.57,16.764,M,15.25,M,1,3335*49
$GNRMC,040206.200,A,2500.7834254,N,12132.4499092,E,0.02,163.17,090324,,,R,V*13
$GPHDT,181.456,T*3A
$GNACCURACY,4.0*12
$GNGGA,040206.300,2500.7834249,N,12132.4499074,E,4,49,0.56,16.764,M,15.25,M,1,3335*4C
$GNRMC,040206.300,A,2500.7834249,N,12132.4499074,E,0.02,163.17,090324,,,R,V*16
$GPHDT,,T*1B
$GNACCURACY,4.0*12
$GNGGA,040206.400,2500.7834238,N,12132.4499120,E,4,49,0.56,16.754,M,15.25,M,1,3335*4E
$GNRMC,040206.400,A,2500.7834238,N,12132.4499120,E,0.02,163.17,090324,,,R,V*17
$GPHDT,181.120,T*3E
$GNACCURACY,4.0*12
$GNGGA,040206.500,2500.7834212,N,12132.4499079,E,4,49,0.56,16.752,M,15.25,M,1,3335*4C
$GNRMC,040206.500,A,2500.7834212,N,12132.4499079,E,0.01,163.17,090324,,,R,V*10
$GPHDT,,T*1B
$GNACCURACY,4.0*12
$GNGGA,040206.600,2500.7834202,N,12132.4499078,E,4,49,0.56,16.764,M,15.25,M,0,3335*4B
$GNRMC,040206.600,A,2500.7834202,N,12132.4499078,E,0.01,163.17,090324,,,R,V*13
$GPHDT,181.097,T*33
$GNACCURACY,4.0*12
$GNGGA,040206.700,2500.7834217,N,12132.4499129,E,4,49,0.56,16.758,M,15.25,M,0,3335*44
$GNRMC,040206.700,A,2500.7834217,N,12132.4499129,E,0.00,163.17,090324,,,R,V*12
$GPHDT,,T*1B
$GNACCURACY,4.0*12
$GNGGA,040206.800,2500.7834239,N,12132.4499118,E,4,49,0.56,16.774,M,15.25,M,0,3335*4B
$GNRMC,040206.800,A,2500.7834239,N,12132.4499118,E,0.01,163.17,090324,,,R,V*12
$GPHDT,181.674,T*38
$GNACCURACY,4.0*12
$GNGGA,040206.900,2500.7834224,N,12132.4499107,E,4,49,0.56,16.769,M,15.25,M,0,3335*44
$GNRMC,040206.900,A,2500.7834224,N,12132.4499107,E,0.01,163.17,090324,,,R,V*11
$GPHDT,,T*1B
$GNACCURACY,4.0*12
$GNGGA,040207.000,2500.7834238,N,12132.4499153,E,4,49,0.56,16.766,M,15.25,M,1,3335*4E
$GNRMC,040207.000,A,2500.7834238,N,12132.4499153,E,0.02,163.17,090324,,,R,V*16
$GPHDT,182.323,T*3C
$GNACCURACY,4.1*13
$GNGGA,040207.100,2500.7834229,N,12132.4499124,E,4,49,0.56,16.760,M,15.25,M,1,3335*49
$GNRMC,040207.100,A,2500.7834229,N,12132.4499124,E,0.02,163.17,090324,,,R,V*17
$GPHDT,,T*1B
$GNGSA,A,3,08,194,195,199,21,02,07,27,16,04,,,0.88,0.56,0.68,1*34
$GNGSA,A,3,81,88,78,77,79,,,,,,,,0.88,0.56,0.68,2*07
$GNGSA,A,3,21,26,27,15,13,,,,,,,,0.88,0.56,0.68,3*0A
$GNGSA,A,3,09,06,23,16,40,43,07,39,28,10,25,37,0.88,0.56,0.68,4*06
$GPGSV,4,1,16,08,65,349,42,194,64,051,35,195,63,116,40,50,60,167,31,1*62
$GPGSV,4,2,16,199,60,167,28,21,57,159,43,02,45,177,44,07,39,318,45,1*57
$GPGSV,4,3,16,27,36,034,27,16,29,072,31,09,25,249,18,04,20,205,23,1*65
$GPGSV,4,4,16,196,20,170,23,26,09,097,19,30,08,320,21,18,,,18,1*6A
$GPGSV,2,1,07,08,65,349,43,194,64,051,38,195,63,116,46,199,60,167,42,8*57
$GPGSV,2,2,07,27,36,034,28,04,20,205,23,196,20,170,22,8*6D
$GLGSV,2,1,07,81,61,197,43,88,59,035,26,78,55,031,32,77,25,106,23,1*79
$GLGSV,2,2,07,79,23,331,43,82,12,203,,87,06,026,17,1*45
$GAGSV,2,1,06,21,54,007,37,13,54,086,14,26,41,172,31,27,30,076,13,7*7D
$GAGSV,2,2,06,19,29,243,,15,15,040,15,7*73
$GAGSV,2,1,05,13,54,086,20,21,54,007,39,26,41,172,33,27,30,076,30,1*72
$GAGSV,2,2,05,15,15,040,28,1*4E
$GBGSV,4,1,13,09,74,271,44,06,73,215,42,23,72,022,42,16,70,198,41,1*7A
$GBGSV,4,2,13,40,61,327,42,43,61,038,36,07,61,306,38,39,59,186,43,1*7F
$GBGSV,4,3,13,28,53,218,36,10,51,287,39,25,39,114,41,37,28,320,44,1*70
$GBGSV,4,4,13,34,14,040,17,1*44
$GBGSV,2,1,07,23,72,022,44,40,61,327,44,43,61,038,30,39,59,186,39,4*7D
$GBGSV,2,2,07,28,53,218,37,25,39,114,44,37,28,320,44,4*41
$GNACCURACY,4.1*13
$PAIRSAT,1,31,2,0,201,3,0,200,4,0,221,5,0,200,6,0,200,7,0,201,8,0,221,9,0,200,10,0,200,11,0,200,12,0,200,13,0,200,14,0,200,16,0,1,20,0,200,21,0,201,22,0,200,23,0,200,24,0,200,25,0,200,26,0,220,27,0,221,28,0,200,29,0,200,30,0,200,31,0,200,32,0,200,194,0,221,195,0,621,196,0,600,199,0,621*58
$PAIRSAT,2,24,65,0,200,66,0,200,67,0,200,68,0,200,69,0,200,70,0,200,71,0,200,72,0,200,73,0,200,74,0,200,75,0,200,76,0,200,77,0,1,78,0,201,79,0,201,80,0,200,81,0,201,82,0,200,83,0,200,84,0,200,85,0,200,86,0,200,87,0,201,88,0,201*78
$PAIRSAT,3,23,2,0,1200,3,0,1200,4,0,1200,5,0,200,7,0,1200,8,0,1200,9,0,1200,10,0,200,11,0,200,12,0,200,13,0,221,15,0,220,19,0,200,21,0,221,24,0,200,25,0,1200,26,0,1021,27,0,1021,30,0,1000,31,0,1000,33,0,1200,34,0,1000,36,0,1200*6A
$PAIRSAT,4,44,1,0,200,2,0,200,3,0,600,4,0,200,6,0,1,7,0,1,9,0,201,10,0,201,11,0,200,12,0,200,13,0,200,14,0,200,16,0,201,19,0,600,20,0,600,21,0,600,22,0,600,23,0,621,24,0,600,25,0,621,26,0,600,27,0,600,28,0,621,29,0,400,30,0,400,32,0,400,33,0,400,34,0,421,35,0,400,36,0,400,37,0,421,38,0,400,39,0,421,40,0,421,41,0,400,42,0,400,43,0,421,44,0,400,45,0,400,46,0,400,59,0,400,60,0,400,61,0,400,62,0,400*45
$PAIRDGP,7,2,7,8,16,21,26,27*56
$GNGGA,040207.200,2500.7834223,N,12132.4499102,E,4,49,0.56,16.766,M,15.25,M,1,3335*42
$GNRMC,040207.200,A,2500.7834223,N,12132.4499102,E,0.02,163.17,090324,,,R,V*1A
$GPHDT,181.540,T*3C
$GNACCURACY,4.1*13
$GNGGA,040207.300,2500.7834224,N,12132.4499086,E,4,49,0.56,16.763,M,15.25,M,1,3335*4C
$GNRMC,040207.300,A,2500.7834224,N,12132.4499086,E,0.02,163.17,090324,,,R,V*11
$GPHDT,,T*1B
$GNACCURACY,4.1*13
$GNGGA,040207.400,2500.7834234,N,12132.4499082,E,4,49,0.56,16.768,M,15.25,M,1,3335*45
$GNRMC,040207.400,A,2500.7834234,N,12132.4499082,E,0.03,163.17,090324,,,R,V*12
$GPHDT,181.204,T*3B
$GNACCURACY,4.1*13
$GNGGA,040207.500,2500.7834246,N,12132.4499097,E,4,49,0.56,16.761,M,15.25,M,1,3335*4C
$GNRMC,040207.500,A,2500.7834246,N,12132.4499097,E,0.03,163.17,090324,,,R,V*12
$GPHDT,,T*1B
$GNACCURACY,4.1*13
$GNGGA,040207.600,2500.7834233,N,12132.4499081,E,4,49,0.56,16.756,M,15.25,M,1,3335*4E
$GNRMC,040207.600,A,2500.7834233,N,12132.4499081,E,0.03,163.17,090324,,,R,V*14
$GPHDT,180.735,T*3D
$GNACCURACY,4.1*13
$GNGGA,040207.700,2500.7834237,N,12132.4499069,E,4,49,0.56,16.746,M,15.25,M,0,3335*4D
$GNRMC,040207.700,A,2500.7834237,N,12132.4499069,E,0.03,163.17,090324,,,R,V*17
$GPHDT,,T*1B
$GNACCURACY,4.1*13
$GNGGA,040207.800,2500.7834238,N,12132.4499035,E,4,48,0.56,16.766,M,15.25,M,0,3335*47
$GNRMC,040207.800,A,2500.7834238,N,12132.4499035,E,0.03,163.17,090324,,,R,V*1E
$GPHDT,180.868,T*3A
$GNACCURACY,4.1*13
$GNGGA,040207.900,2500.7834234,N,12132.4499064,E,4,49,0.56,16.752,M,15.25,M,0,3335*48
$GNRMC,040207.900,A,2500.7834234,N,12132.4499064,E,0.03,163.17,090324,,,R,V*17
$GPHDT,,T*1B
$GNACCURACY,4.1*13
$GNGGA,040208.000,2500.7834224,N,12132.4499056,E,4,48,0.56,16.749,M,15.25,M,1,3335*44
$GNRMC,040208.000,A,2500.7834224,N,12132.4499056,E,0.03,163.17,090324,,,R,V*11
$GPHDT,181.175,T*3E
$GNACCURACY,4.1*13
$GNGGA,040208.100,2500.7834225,N,12132.4499058,E,4,48,0.56,16.751,M,15.25,M,1,3335*43
$GNRMC,040208.100,A,2500.7834225,N,12132.4499058,E,0.03,163.17,090324,,,R,V*1F
$GPHDT,,T*1B
$GNGSA,A,3,08,194,195,199,21,02,07,27,16,04,,,0.88,0.56,0.68,1*34
$GNGSA,A,3,81,88,78,77,79,,,,,,,,0.88,0.56,0.68,2*07
$GNGSA,A,3,13,21,26,27,15,,,,,,,,0.88,0.56,0.68,3*0A
$GNGSA,A,3,09,06,23,16,43,40,07,39,28,10,25,37,0.88,0.56,0.68,4*06
$GPGSV,4,1,16,08,65,349,41,194,64,051,35,195,63,116,40,50,60,167,32,1*62
$GPGSV,4,2,16,199,60,167,29,21,57,159,44,02,45,177,44,07,39,318,45,1*51
$GPGSV,4,3,16,27,36,034,27,16,29,072,30,09,25,249,18,04,20,205,20,1*67
$GPGSV,4,4,16,196,20,170,24,26,09,097,18,30,08,320,20,18,,,17,1*62
$GPGSV,2,1,06,08,65,349,44,194,64,051,38,195,63,116,46,199,60,167,42,8*51
$GPGSV,2,2,06,04,20,205,23,196,20,170,22,8*51
$GLGSV,2,1,06,81,61,197,43,88,59,035,29,78,55,031,32,77,25,106,22,1*76
$GLGSV,2,2,06,79,23,331,42,87,06,026,17,1*7D
$GAGSV,2,1,06,13,54,086,18,21,54,008,37,26,41,172,33,27,29,076,15,7*72
$GAGSV,2,2,06,19,29,243,,15,15,040,13,7*75
$GAGSV,2,1,05,13,54,086,20,21,54,008,39,26,41,172,30,27,29,076,28,1*7F
$GAGSV,2,2,05,15,15,040,28,1*4E
$GBGSV,4,1,13,09,74,271,44,06,73,215,42,23,72,022,42,16,70,198,41,1*7A
$GBGSV,4,2,13,43,61,038,36,40,61,327,43,07,61,306,38,39,59,186,43,1*7E
$GBGSV,4,3,13,28,53,218,36,10,51,287,39,25,39,114,39,37,28,320,44,1*7F
$GBGSV,4,4,13,34,14,040,,1*42
$GBGSV,2,1,07,23,72,022,44,40,61,327,44,43,61,038,30,39,59,186,39,4*7D
$GBGSV,2,2,07,28,53,218,38,25,39,114,44,37,28,320,44,4*4E
$GNACCURACY,4.2*10
$PAIRSAT,1,31,2,0,201,3,0,200,4,0,221,5,0,200,6,0,200,7,0,201,8,0,221,9,0,200,10,0,200,11,0,200,12,0,200,13,0,200,14,0,200,16,0,1,20,0,200,21,0,201,22,0,200,23,0,200,24,0,200,25,0,200,26,0,220,27,0,221,28,0,200,29,0,200,30,0,200,31,0,200,32,0,200,194,0,221,195,0,621,196,0,600,199,0,621*58
$PAIRSAT,2,24,65,0,200,66,0,200,67,0,200,68,0,200,69,0,200,70,0,200,71,0,200,72,0,200,73,0,200,74,0,200,75,0,200,76,0,200,77,0,1,78,0,201,79,0,201,80,0,200,81,0,201,82,0,200,83,0,200,84,0,200,85,0,200,86,0,200,87,0,201,88,0,201*78
$PAIRSAT,3,23,2,0,1200,3,0,1200,4,0,1200,5,0,200,7,0,1200,8,0,1200,9,0,1200,10,0,200,11,0,200,12,0,200,13,0,221,15,0,220,19,0,200,21,0,221,24,0,200,25,0,1200,26,0,1021,27,0,1021,30,0,1000,31,0,1000,33,0,1200,34,0,1000,36,0,1200*6A
$PAIRSAT,4,44,1,0,200,2,0,200,3,0,600,4,0,200,6,0,1,7,0,1,9,0,201,10,0,201,11,0,200,12,0,200,13,0,200,14,0,200,16,0,201,19,0,600,20,0,600,21,0,600,22,0,600,23,0,621,24,0,600,25,0,621,26,0,600,27,0,600,28,0,621,29,0,400,30,0,400,32,0,400,33,0,400,34,0,421,35,0,400,36,0,400,37,0,421,38,0,400,39,0,421,40,0,421,41,0,400,42,0,400,43,0,421,44,0,400,45,0,400,46,0,400,59,0,400,60,0,400,61,0,400,62,0,400*45
$PAIRDGP,7,2,7,8,16,21,26,27*56
$GNGGA,040208.200,2500.7834236,N,12132.4499052,E,4,49,0.56,16.762,M,15.25,M,1,3335*49
$GNRMC,040208.200,A,2500.7834236,N,12132.4499052,E,0.03,163.17,090324,,,R,V*14
$GPHDT,181.359,T*32
$GNACCURACY,4.1*13
$GNGGA,040208.300,2500.7834197,N,12132.4499029,E,4,49,0.56,16.760,M,15.25,M,1,3335*4E
$GNRMC,040208.300,A,2500.7834197,N,12132.4499029,E,0.03,163.17,090324,,,R,V*11
$GPHDT,,T*1B
$GNACCURACY,4.2*10
$GNGGA,040208.400,2500.7834230,N,12132.4499034,E,4,49,0.56,16.778,M,15.25,M,1,3335*42
$GNRMC,040208.400,A,2500.7834230,N,12132.4499034,E,0.03,163.17,090324,,,R,V*14
$GPHDT,181.961,T*33
$GNACCURACY,4.1*13
$GNGGA,040208.500,2500.7834243,N,12132.4499141,E,4,49,0.56,16.761,M,15.25,M,1,3335*4C
$GNRMC,040208.500,A,2500.7834243,N,12132.4499141,E,0.05,163.17,090324,,,R,V*14
$GPHDT,,T*1B
$GNACCURACY,4.1*13
$GNGGA,040208.600,2500.7834211,N,12132.4499063,E,4,49,0.55,16.755,M,15.25,M,0,3335*4C
$GNRMC,040208.600,A,2500.7834211,N,12132.4499063,E,0.04,163.17,090324,,,R,V*10
$GPHDT,181.654,T*3A
$GNACCURACY,4.1*13
$GNGGA,040208.700,2500.7834254,N,12132.4499110,E,4,49,0.55,16.771,M,15.25,M,0,3335*4F
$GNRMC,040208.700,A,2500.7834254,N,12132.4499110,E,0.04,163.17,090324,,,R,V*15
$GPHDT,,T*1B
$GNACCURACY,4.1*13
$GNGGA,040208.800,2500.7834223,N,12132.4499112,E,4,48,0.56,16.760,M,15.25,M,0,3335*40
$GNRMC,040208.800,A,2500.7834223,N,12132.4499112,E,0.04,163.17,090324,,,R,V*18
$GPHDT,182.098,T*3F
$GNACCURACY,4.1*13
$GNGGA,040208.900,2500.7834229,N,12132.4499058,E,4,48,0.56,16.774,M,15.25,M,0,3335*41
$GNRMC,040208.900,A,2500.7834229,N,12132.4499058,E,0.03,163.17,090324,,,R,V*1B
$GPHDT,,T*1B
$GNACCURACY,4.1*13
$GNGGA,040209.000,2500.7834218,N,12132.4499065,E,4,48,0.56,16.766,M,15.25,M,1,3335*47
$GNRMC,040209.000,A,2500.7834218,N,12132.4499065,E,0.03,163.17,090324,,,R,V*1F
$GPHDT,181.783,T*31
$GNACCURACY,4.1*13
$GNGGA,040209.100,2500.7834243,N,12132.4499107,E,4,48,0.56,16.762,M,15.25,M,1,3335*49
$GNRMC,040209.100,A,2500.7834243,N,12132.4499107,E,0.04,163.17,090324,,,R,V*12
$GPHDT,,T*1B
$GNGSA,A,3,08,194,195,199,21,02,07,27,16,04,,,0.88,0.56,0.68,1*34
$GNGSA,A,3,81,88,78,77,79,,,,,,,,0.88,0.56,0.68,2*07
$GNGSA,A,3,21,13,26,27,15,,,,,,,,0.88,0.56,0.68,3*0A
$GNGSA,A,3,09,06,23,16,07,40,43,39,28,10,25,37,0.88,0.56,0.68,4*06
$GPGSV,4,1,16,08,65,349,41,194,64,051,35,195,63,116,41,50,60,167,34,1*65
$GPGSV,4,2,16,199,60,167,31,21,57,159,44,02,45,177,44,07,39,318,45,1*58
$GPGSV,4,3,16,27,36,034,29,16,29,072,30,09,25,249,20,04,20,205,25,1*67
$GPGSV,4,4,16,196,20,170,24,26,09,097,18,30,08,320,20,18,,,18,1*6D
$GPGSV,2,1,06,08,65,349,44,194,64,051,38,195,63,116,46,199,60,167,42,8*51
$GPGSV,2,2,06,04,20,205,22,196,20,170,22,8*50
$GLGSV,2,1,07,81,61,197,43,88,59,035,27,78,55,031,31,77,25,106,24,1*7C
$GLGSV,2,2,07,79,23,331,42,87,06,026,17,69,05,284,,1*48
$GAGSV,2,1,07,21,54,008,37,13,54,086,22,26,41,172,31,19,29,243,,7*75
$GAGSV,2,2,07,27,29,076,15,15,15,040,12,04,12,302,,7*4E
$GAGSV,1,1,04,21,54,008,39,26,41,172,30,27,29,076,29,15,15,040,27,1*72
$GBGSV,4,1,14,09,74,271,44,06,73,215,42,23,72,022,43,16,70,198,42,1*7F
$GBGSV,4,2,14,07,61,306,38,40,61,327,43,43,61,038,36,39,59,186,44,1*7E
$GBGSV,4,3,14,28,53,218,36,10,51,287,39,25,39,114,41,37,28,320,43,1*70
$GBGSV,4,4,14,34,14,040,21,27,07,219,,1*7E
$GBGSV,2,1,07,23,72,022,44,40,61,327,43,43,61,038,29,39,59,186,39,4*72
$GBGSV,2,2,07,28,53,218,36,25,39,114,44,37,28,320,44,4*40
$GNACCURACY,4.1*13
$PAIRSAT,1,31,2,0,201,3,0,200,4,0,221,5,0,200,6,0,200,7,0,201,8,0,221,9,0,200,10,0,200,11,0,200,12,0,200,13,0,200,14,0,200,16,0,1,20,0,200,21,0,201,22,0,200,23,0,200,24,0,200,25,0,200,26,0,220,27,0,221,28,0,200,29,0,200,30,0,200,31,0,200,32,0,200,194,0,221,195,0,621,196,0,600,199,0,621*58
$PAIRSAT,2,24,65,0,200,66,0,200,67,0,200,68,0,200,69,0,200,70,0,200,71,0,200,72,0,200,73,0,200,74,0,200,75,0,200,76,0,200,77,0,1,78,0,201,79,0,201,80,0,200,81,0,201,82,0,200,83,0,200,84,0,200,85,0,200,86,0,200,87,0,201,88,0,201*78
$PAIRSAT,3,23,2,0,1200,3,0,1200,4,0,1200,5,0,200,7,0,1200,8,0,1200,9,0,1200,10,0,200,11,0,200,12,0,200,13,0,221,15,0,220,19,0,200,21,0,221,24,0,200,25,0,1200,26,0,1021,27,0,1021,30,0,1000,31,0,1000,33,0,1200,34,0,1000,36,0,1200*6A
$PAIRSAT,4,44,1,0,200,2,0,200,3,0,600,4,0,200,6,0,1,7,0,1,9,0,201,10,0,201,11,0,200,12,0,200,13,0,200,14,0,200,16,0,201,19,0,600,20,0,600,21,0,600,22,0,600,23,0,621,24,0,600,25,0,621,26,0,600,27,0,600,28,0,621,29,0,400,30,0,400,32,0,400,33,0,400,34,0,421,35,0,400,36,0,400,37,0,421,38,0,400,39,0,421,40,0,421,41,0,400,42,0,400,43,0,421,44,0,400,45,0,400,46,0,400,59,0,400,60,0,400,61,0,400,62,0,400*45
$PAIRDGP,7,2,7,8,16,21,26,27*56
$GNGGA,040209.200,2500.7834225,N,12132.4499081,E,4,48,0.56,16.761,M,15.25,M,1,3335*46
$GNRMC,040209.200,A,2500.7834225,N,12132.4499081,E,0.03,163.17,090324,,,R,V*19
$GPHDT,181.802,T*37
$GNACCURACY,4.2*10
$GNGGA,040209.300,2500.7834236,N,12132.4499085,E,4,48,0.56,16.766,M,15.25,M,1,3335*46
$GNRMC,040209.300,A,2500.7834236,N,12132.4499085,E,0.03,163.17,090324,,,R,V*1E
$GPHDT,,T*1B
$GNACCURACY,4.2*10
$GNGGA,040209.400,2500.7834261,N,12132.4499096,E,4,48,0.56,16.771,M,15.25,M,1,3335*47
$GNRMC,040209.400,A,2500.7834261,N,12132.4499096,E,0.02,163.17,090324,,,R,V*18
$GPHDT,182.109,T*36
$GNACCURACY,4.1*13
$GNGGA,040209.500,2500.7834235,N,12132.4499093,E,4,48,0.56,16.765,M,15.25,M,1,3335*47
$GNRMC,040209.500,A,2500.7834235,N,12132.4499093,E,0.02,163.17,090324,,,R,V*1D
$GPHDT,,T*1B
$GNACCURACY,4.1*13
$GNGGA,040209.600,2500.7834218,N,12132.4499112,E,4,48,0.56,16.755,M,15.25,M,0,3335*41
$GNRMC,040209.600,A,2500.7834218,N,12132.4499112,E,0.06,163.17,090324,,,R,V*1D
$GPHDT,182.274,T*3F
$GNACCURACY,4.1*13
$GNGGA,040209.700,2500.7834244,N,12132.4499136,E,4,48,0.56,16.774,M,15.25,M,0,3335*4C
$GNRMC,040209.700,A,2500.7834244,N,12132.4499136,E,0.02,163.17,090324,,,R,V*17
$GPHDT,,T*1B
$GNACCURACY,4.1*13
$GNGGA,040209.800,2500.7834205,N,12132.4499073,E,4,48,0.56,16.774,M,15.25,M,0,3335*46
$GNRMC,040209.800,A,2500.7834205,N,12132.4499073,E,0.07,163.17,090324,,,R,V*18
$GPHDT,181.777,T*3A
$GNACCURACY,4.1*13
$GNGGA,040209.900,2500.7834215,N,12132.4499041,E,4,48,0.56,16.773,M,15.25,M,0,3335*40
$GNRMC,040209.900,A,2500.7834215,N,12132.4499041,E,0.01,163.17,090324,,,R,V*1F
$GPHDT,,T*1B
$GNACCURACY,4.1*13
$GNGGA,040210.000,2500.7834214,N,12132.4499075,E,4,48,0.56,16.765,M,15.25,M,1,3335*41
$GNRMC,040210.000,A,2500.7834214,N,12132.4499075,E,0.14,163.17,090324,,,R,V*1C
$GPHDT,182.099,T*3E
$GNACCURACY,4.2*10
$GNGGA,040210.100,2500.7834189,N,12132.4499033,E,4,48,0.56,16.763,M,15.25,M,1,3335*43
$GNRMC,040210.100,A,2500.7834189,N,12132.4499033,E,0.06,163.17,090324,,,R,V*1B
$GPHDT,,T*1B
$GNGSA,A,3,08,194,195,199,21,02,07,27,16,04,,,0.88,0.56,0.68,1*34
$GNGSA,A,3,81,88,78,77,79,,,,,,,,0.88,0.56,0.68,2*07
$GNGSA,A,3,21,13,26,27,15,,,,,,,,0.88,0.56,0.68,3*0A
$GNGSA,A,3,09,06,23,16,40,43,07,39,28,10,25,37,0.88,0.56,0.68,4*06
$GPGSV,4,1,16,08,65,349,41,194,64,051,35,195,63,116,41,50,60,167,33,1*62
$GPGSV,4,2,16,199,60,167,30,21,57,159,44,02,45,177,44,07,39,318,45,1*59
$GPGSV,4,3,16,27,36,034,28,16,29,072,31,09,25,249,19,04,20,205,23,1*6B
$GPGSV,4,4,16,196,20,170,25,26,09,097,19,30,08,320,19,18,,,17,1*68
$GPGSV,2,1,06,08,65,349,42,194,64,051,38,195,63,116,45,199,60,167,42,8*54
$GPGSV,2,2,06,04,20,205,22,196,20,170,20,8*52
$GLGSV,2,1,06,81,61,197,42,88,59,035,30,78,55,031,30,77,25,106,24,1*7B
$GLGSV,2,2,06,79,23,331,42,87,06,026,17,1*7D
$GAGSV,2,1,07,21,54,008,37,13,54,086,18,26,41,172,29,27,29,076,15,7*78
$GAGSV,2,2,07,19,29,243,,15,15,040,12,04,12,302,,7*43
$GAGSV,1,1,04,21,54,008,39,26,41,172,29,27,29,076,29,15,15,040,27,1*7A
$GBGSV,4,1,13,09,74,271,44,06,73,215,42,23,72,022,42,16,70,198,42,1*79
$GBGSV,4,2,13,40,61,327,43,43,61,038,37,07,61,306,38,39,59,186,44,1*78
$GBGSV,4,3,13,28,53,218,38,10,51,287,39,25,39,114,38,37,28,320,43,1*77
$GBGSV,4,4,13,34,14,040,24,1*44
$GBGSV,2,1,07,23,72,022,44,40,61,327,43,43,61,038,30,39,59,186,39,4*7A
$GBGSV,2,2,07,28,53,218,37,25,39,114,43,37,28,320,43,4*41
$GNACCURACY,4.2*10
$PAIRSAT,1,31,2,0,201,3,0,200,4,0,221,5,0,200,6,0,200,7,0,201,8,0,221,9,0,200,10,0,200,11,0,200,12,0,200,13,0,200,14,0,200,16,0,1,20,0,200,21,0,201,22,0,200,23,0,200,24,0,200,25,0,200,26,0,220,27,0,221,28,0,200,29,0,200,30,0,200,31,0,200,32,0,200,194,0,221,195,0,621,196,0,600,199,0,621*58
$PAIRSAT,2,24,65,0,200,66,0,200,67,0,200,68,0,200,69,0,200,70,0,200,71,0,200,72,0,200,73,0,200,74,0,200,75,0,200,76,0,200,77,0,1,78,0,201,79,0,201,80,0,200,81,0,201,82,0,200,83,0,200,84,0,200,85,0,200,86,0,200,87,0,201,88,0,201*78
$PAIRSAT,3,23,2,0,1200,3,0,1200,4,0,1200,5,0,200,7,0,1200,8,0,1200,9,0,1200,10,0,200,11,0,200,12,0,200,13,0,221,15,0,220,19,0,200,21,0,221,24,0,200,25,0,1200,26,0,1021,27,0,1021,30,0,1000,31,0,1000,33,0,1200,34,0,1000,36,0,1200*6A
$PAIRSAT,4,44,1,0,200,2,0,200,3,0,600,4,0,200,6,0,1,7,0,1,9,0,201,10,0,201,11,0,200,12,0,200,13,0,200,14,0,200,16,0,201,19,0,600,20,0,600,21,0,600,22,0,600,23,0,621,24,0,600,25,0,621,26,0,600,27,0,600,28,0,621,29,0,400,30,0,400,32,0,400,33,0,400,34,0,421,35,0,400,36,0,400,37,0,421,38,0,400,39,0,421,40,0,421,41,0,400,42,0,400,43,0,421,44,0,400,45,0,400,46,0,400,59,0,400,60,0,400,61,0,400,62,0,400*45
$PAIRDGP,7,2,7,8,16,21,26,27*56
$GNGGA,040210.200,2500.7834216,N,12132.4499053,E,4,48,0.56,16.780,M,15.25,M,1,3335*4E
$GNRMC,040210.200,A,2500.7834216,N,12132.4499053,E,0.04,163.17,090324,,,R,V*19
$GPHDT,181.683,T*30
$GNACCURACY,4.2*10
$GNGGA,040210.300,2500.7834218,N,12132.4499086,E,4,48,0.56,16.770,M,15.25,M,1,3335*46
$GNRMC,040210.300,A,2500.7834218,N,12132.4499086,E,0.04,163.17,090324,,,R,V*1E
$GPHDT,,T*1B
$GNACCURACY,4.2*10
$GNGGA,040210.400,2500.7834180,N,12132.4499037,E,4,48,0.56,16.755,M,15.25,M,1,3335*4E
$GNRMC,040210.400,A,2500.7834180,N,12132.4499037,E,0.03,163.17,090324,,,R,V*16
$GPHDT,181.485,T*34
$GNACCURACY,4.2*10
$GNGGA,040210.500,2500.7834228,N,12132.4499097,E,4,48,0.56,16.794,M,15.25,M,1,3335*49
$GNRMC,040210.500,A,2500.7834228,N,12132.4499097,E,0.02,163.17,090324,,,R,V*1D
$GPHDT,,T*1B
$GNACCURACY,4.2*10
$GNGGA,040210.600,2500.7834248,N,12132.4499152,E,4,48,0.56,16.770,M,15.25,M,0,3335*4F
$GNRMC,040210.600,A,2500.7834248,N,12132.4499152,E,0.03,163.17,090324,,,R,V*11
$GPHDT,182.261,T*3B
$GNACCURACY,4.2*10
$GNGGA,040210.700,2500.7834247,N,12132.4499125,E,4,47,0.57,16.764,M,15.25,M,0,3335*4A
$GNRMC,040210.700,A,2500.7834247,N,12132.4499125,E,0.10,163.17,090324,,,R,V*1D
$GPHDT,,T*1B
$GNACCURACY,4.2*10
$GNGGA,040210.800,2500.7834264,N,12132.4499104,E,4,47,0.57,16.780,M,15.25,M,0,3335*4D
$GNRMC,040210.800,A,2500.7834264,N,12132.4499104,E,0.06,163.17,090324,,,R,V*17
$GPHDT,181.306,T*38
$GNACCURACY,4.2*10
$GNGGA,040210.900,2500.7834279,N,12132.4499103,E,4,47,0.57,16.794,M,15.25,M,0,3335*42
$GNRMC,040210.900,A,2500.7834279,N,12132.4499103,E,0.02,163.17,090324,,,R,V*19
$GPHDT,,T*1B
$GNACCURACY,4.2*10
$GNGGA,040211.000,2500.7834264,N,12132.4499105,E,4,47,0.57,16.786,M,15.25,M,1,3335*42
$GNRMC,040211.000,A,2500.7834264,N,12132.4499105,E,0.11,163.17,090324,,,R,V*19
$GPHDT,181.698,T*3A
$GNACCURACY,4.2*10
$GNGGA,040211.100,2500.7834253,N,12132.4499074,E,4,47,0.57,16.779,M,15.25,M,1,3335*40
$GNRMC,040211.100,A,2500.7834253,N,12132.4499074,E,0.04,163.17,090324,,,R,V*1F
$GPHDT,,T*1B
$GNGSA,A,3,08,194,195,199,21,02,07,16,04,,,,0.89,0.57,0.68,1*31
$GNGSA,A,3,81,88,78,77,79,,,,,,,,0.89,0.57,0.68,2*07
$GNGSA,A,3,21,13,26,27,15,,,,,,,,0.89,0.57,0.68,3*0A
$GNGSA,A,3,09,06,23,16,40,43,07,39,28,10,25,37,0.89,0.57,0.68,4*06
$GPGSV,4,1,16,08,65,349,40,194,64,051,36,195,63,116,41,50,60,167,32,1*61
$GPGSV,4,2,16,199,60,167,29,21,57,159,44,02,45,177,44,07,39,318,45,1*51
$GPGSV,4,3,16,27,36,034,25,16,29,072,30,09,25,249,20,04,20,205,23,1*6D
$GPGSV,4,4,16,196,20,170,25,26,09,097,19,30,08,320,18,18,,,15,1*6B
$GPGSV,2,1,05,08,65,349,44,194,64,051,38,195,63,116,46,199,60,167,42,8*52
$GPGSV,2,2,05,04,20,205,23,8*58
$GLGSV,2,1,06,81,61,197,42,88,59,035,30,78,55,031,32,77,25,107,24,1*78
$GLGSV,2,2,06,79,23,331,42,87,06,026,17,1*7D
$GAGSV,2,1,07,21,54,008,38,13,54,086,18,26,41,172,30,27,29,076,13,7*79
$GAGSV,2,2,07,19,29,243,,15,15,040,12,04,12,302,,7*43
$GAGSV,1,1,04,21,54,008,40,26,41,172,29,27,29,076,29,15,15,040,27,1*74
$GBGSV,4,1,13,09,74,271,44,06,73,215,42,23,72,022,43,16,70,198,42,1*78
$GBGSV,4,2,13,40,61,327,42,43,61,038,38,07,61,306,38,39,59,186,44,1*76
$GBGSV,4,3,13,28,53,218,36,10,51,287,39,25,39,114,40,37,28,320,43,1*76
$GBGSV,4,4,13,34,14,040,19,1*4A
$GBGSV,2,1,07,23,72,022,44,40,61,327,43,43,61,038,30,39,59,186,39,4*7A
$GBGSV,2,2,07,28,53,218,37,25,39,114,43,37,28,320,43,4*41
$GNACCURACY,4.2*10
$PAIRSAT,1,31,2,0,201,3,0,200,4,0,221,5,0,200,6,0,200,7,0,201,8,0,221,9,0,200,10,0,200,11,0,200,12,0,200,13,0,200,14,0,200,16,0,1,20,0,200,21,0,201,22,0,200,23,0,200,24,0,200,25,0,200,26,0,220,27,0,221,28,0,200,29,0,200,30,0,200,31,0,200,32,0,200,194,0,221,195,0,621,196,0,600,199,0,621*58
$PAIRSAT,2,24,65,0,200,66,0,200,67,0,200,68,0,200,69,0,200,70,0,200,71,0,200,72,0,200,73,0,200,74,0,200,75,0,200,76,0,200,77,0,1,78,0,201,79,0,201,80,0,200,81,0,201,82,0,200,83,0,200,84,0,200,85,0,200,86,0,200,87,0,201,88,0,201*78
$PAIRSAT,3,23,2,0,1200,3,0,1200,4,0,1200,5,0,200,7,0,1200,8,0,1200,9,0,1200,10,0,200,11,0,200,12,0,200,13,0,221,15,0,220,19,0,200,21,0,221,24,0,200,25,0,1200,26,0,1021,27,0,1021,30,0,1000,31,0,1000,33,0,1200,34,0,1000,36,0,1200*6A
$PAIRSAT,4,44,1,0,200,2,0,200,3,0,600,4,0,200,6,0,1,7,0,1,9,0,201,10,0,201,11,0,200,12,0,200,13,0,200,14,0,200,16,0,201,19,0,600,20,0,600,21,0,600,22,0,600,23,0,621,24,0,600,25,0,621,26,0,600,27,0,600,28,0,621,29,0,400,30,0,400,32,0,400,33,0,400,34,0,421,35,0,400,36,0,400,37,0,421,38,0,400,39,0,421,40,0,421,41,0,400,42,0,400,43,0,421,44,0,400,45,0,400,46,0,400,59,0,400,60,0,400,61,0,400,62,0,400*45
$PAIRDGP,7,2,7,8,16,21,26,27*56
$GNGGA,040211.200,2500.7834269,N,12132.4499111,E,4,47,0.57,16.779,M,15.25,M,1,3335*48
$GNRMC,040211.200,A,2500.7834269,N,12132.4499111,E,0.05,163.17,090324,,,R,V*16
$GPHDT,182.186,T*31
$GNACCURACY,3.9*1C
$GNGGA,040211.300,2500.7834258,N,12132.4499121,E,4,47,0.57,16.780,M,15.25,M,1,3335*4E
$GNRMC,040211.300,A,2500.7834258,N,12132.4499121,E,0.04,163.17,090324,,,R,V*17
$GPHDT,,T*1B
$GNACCURACY,3.9*1C
$GNGGA,040211.400,2500.7834265,N,12132.4499117,E,4,47,0.57,16.772,M,15.25,M,0,3335*4E
$GNRMC,040211.400,A,2500.7834265,N,12132.4499117,E,0.03,163.17,090324,,,R,V*1C
$GPHDT,182.387,T*32
$GNACCURACY,3.9*1C
$GNGGA,040211.500,2500.7834267,N,12132.4499138,E,4,47,0.57,16.766,M,15.25,M,0,3335*45
$GNRMC,040211.500,A,2500.7834267,N,12132.4499138,E,0.01,163.17,090324,,,R,V*10
$GPHDT,,T*1B
$GNACCURACY,3.9*1C
$GNGGA,040211.600,2500.7834228,N,12132.4499145,E,4,47,0.57,16.749,M,15.25,M,0,3335*4A
$GNRMC,040211.600,A,2500.7834228,N,12132.4499145,E,0.02,163.17,090324,,,R,V*11
$GPHDT,182.471,T*3C
$GNACCURACY,3.9*1C
$GNGGA,040211.700,2500.7834200,N,12132.4499101,E,4,47,0.57,16.762,M,15.25,M,0,3335*48
$GNRMC,040211.700,A,2500.7834200,N,12132.4499101,E,0.03,163.17,090324,,,R,V*1B
$GPHDT,,T*1B
$GNACCURACY,3.9*1C
$GNGGA,040211.800,2500.7834179,N,12132.4499022,E,4,47,0.57,16.758,M,15.25,M,0,3335*43
$GNRMC,040211.800,A,2500.7834179,N,12132.4499022,E,0.01,163.17,090324,,,R,V*1B
$GPHDT,181.214,T*3A
$GNACCURACY,3.9*1C
$GNGGA,040211.900,2500.7834199,N,12132.4499072,E,4,47,0.57,16.742,M,15.25,M,0,3335*42
$GNRMC,040211.900,A,2500.7834199,N,12132.4499072,E,0.01,163.17,090324,,,R,V*11
$GPHDT,,T*1B
$GNACCURACY,3.9*1C
$GNGGA,040212.000,2500.7834222,N,12132.4499075,E,4,47,0.57,16.747,M,15.25,M,1,3335*48
$GNRMC,040212.000,A,2500.7834222,N,12132.4499075,E,0.01,163.17,090324,,,R,V*1F
$GPHDT,181.523,T*39
$GNACCURACY,3.9*1C
$GNGGA,040212.100,2500.7834222,N,12132.4499048,E,4,47,0.57,16.748,M,15.25,M,1,3335*48
$GNRMC,040212.100,A,2500.7834222,N,12132.4499048,E,0.01,163.17,090324,,,R,V*10
$GPHDT,,T*1B
$GNGSA,A,3,08,194,195,199,21,02,07,27,16,04,,,0.88,0.56,0.68,1*34
$GNGSA,A,3,81,88,78,77,79,,,,,,,,0.88,0.56,0.68,2*07
$GNGSA,A,3,21,13,26,27,15,,,,,,,,0.88,0.56,0.68,3*0A
$GNGSA,A,3,09,06,23,16,07,40,43,39,28,10,25,37,0.88,0.56,0.68,4*06
$GPGSV,4,1,16,08,65,349,42,194,64,051,34,195,63,116,41,50,60,167,33,1*60
$GPGSV,4,2,16,199,60,167,30,21,57,159,44,02,45,177,44,07,39,318,44,1*58
$GPGSV,4,3,16,27,36,034,25,16,29,072,31,09,25,249,21,04,20,205,22,1*6C
$GPGSV,4,4,16,196,20,170,24,26,09,097,19,30,08,320,16,18,,,17,1*66
$GPGSV,2,1,05,08,65,349,42,194,64,051,37,195,63,116,44,199,60,167,42,8*59
$GPGSV,2,2,05,04,20,205,23,8*58
$GLGSV,2,1,07,81,61,197,41,88,59,035,29,78,55,031,31,77,25,107,21,1*74
$GLGSV,2,2,07,79,23,331,42,87,06,026,16,68,04,239,,1*4F
$GAGSV,2,1,07,21,54,008,39,13,54,086,15,26,41,172,31,27,29,076,18,7*7F
$GAGSV,2,2,07,15,15,040,14,04,12,302,,33,02,199,,7*40
$GAGSV,1,1,04,21,54,008,39,26,41,172,29,27,29,076,26,15,15,040,27,1*75
$GBGSV,4,1,13,09,74,271,44,06,73,215,42,23,72,022,41,16,70,198,42,1*7A
$GBGSV,4,2,13,07,61,306,38,40,61,327,42,43,61,038,38,39,59,186,44,1*76
$GBGSV,4,3,13,28,53,218,36,10,51,287,39,25,39,114,40,37,28,320,44,1*71
$GBGSV,4,4,13,34,14,040,20,1*40
$GBGSV,2,1,07,23,72,022,44,40,61,327,43,43,61,038,29,39,59,186,40,4*7C
$GBGSV,2,2,07,28,53,218,37,25,39,114,41,37,28,320,43,4*43
$GNACCURACY,3.9*1C
$PAIRSAT,1,32,2,0,201,3,0,200,4,0,221,5,0,200,6,0,200,7,0,201,8,0,221,9,0,200,10,0,200,11,0,200,12,0,200,13,0,200,14,0,200,15,0,200,16,0,1,20,0,200,21,0,201,22,0,200,23,0,200,24,0,200,25,0,200,26,0,220,27,0,221,28,0,200,29,0,200,30,0,200,31,0,200,32,0,200,194,0,221,195,0,621,196,0,600,199,0,621*71
$PAIRSAT,2,24,65,0,200,66,0,200,67,0,200,68,0,200,69,0,200,70,0,200,71,0,200,72,0,200,73,0,200,74,0,200,75,0,200,76,0,200,77,0,1,78,0,201,79,0,201,80,0,200,81,0,201,82,0,200,83,0,200,84,0,200,85,0,200,86,0,200,87,0,201,88,0,201*78
$PAIRSAT,3,23,2,0,1200,3,0,1200,4,0,1200,5,0,200,7,0,1200,8,0,1200,9,0,1200,10,0,200,11,0,200,12,0,200,13,0,221,15,0,220,19,0,200,21,0,221,24,0,200,25,0,1200,26,0,1021,27,0,1021,30,0,1000,31,0,1000,33,0,1200,34,0,1000,36,0,1200*6A
$PAIRSAT,4,44,1,0,200,2,0,200,3,0,600,4,0,200,6,0,1,7,0,1,9,0,201,10,0,201,11,0,200,12,0,200,13,0,200,14,0,200,16,0,201,19,0,600,20,0,600,21,0,600,22,0,600,23,0,621,24,0,600,25,0,621,26,0,600,27,0,600,28,0,621,29,0,400,30,0,400,32,0,400,33,0,400,34,0,421,35,0,400,36,0,400,37,0,421,38,0,400,39,0,421,40,0,421,41,0,400,42,0,400,43,0,421,44,0,400,45,0,400,46,0,400,59,0,400,60,0,400,61,0,400,62,0,400*45
$PAIRDGP,7,2,7,8,16,21,26,27*56
$GNGGA,040212.200,2500.7834211,N,12132.4499077,E,4,48,0.56,16.748,M,15.25,M,1,3335*49
$GNRMC,040212.200,A,2500.7834211,N,12132.4499077,E,0.01,163.17,090324,,,R,V*1F
$GPHDT,181.887,T*3A
$GNACCURACY,3.6*13
$GNGGA,040212.300,2500.7834221,N,12132.4499071,E,4,47,0.57,16.749,M,15.25,M,1,3335*42
$GNRMC,040212.300,A,2500.7834221,N,12132.4499071,E,0.02,163.17,090324,,,R,V*18
$GPHDT,,T*1B
$GNACCURACY,3.6*13
$GNGGA,040212.400,2500.7834181,N,12132.4499054,E,4,47,0.57,16.743,M,15.25,M,1,3335*41
$GNRMC,040212.400,A,2500.7834181,N,12132.4499054,E,0.02,163.17,090324,,,R,V*11
$GPHDT,181.746,T*38
$GNACCURACY,3.6*13
$GNGGA,040212.500,2500.7834196,N,12132.4499102,E,4,47,0.57,16.744,M,15.25,M,1,3335*43
$GNRMC,040212.500,A,2500.7834196,N,12132.4499102,E,0.02,163.17,090324,,,R,V*14
$GPHDT,,T*1B
$GNACCURACY,3.6*13
$GNGGA,040212.600,2500.7834214,N,12132.4499102,E,4,47,0.57,16.748,M,15.25,M,1,3335*45
$GNRMC,040212.600,A,2500.7834214,N,12132.4499102,E,0.02,163.17,090324,,,R,V*1E
$GPHDT,182.219,T*34
$GNACCURACY,3.6*13
$GNGGA,040212.700,2500.7834191,N,12132.4499061,E,4,47,0.57,16.761,M,15.25,M,0,3335*44
$GNRMC,040212.700,A,2500.7834191,N,12132.4499061,E,0.02,163.17,090324,,,R,V*15
$GPHDT,,T*1B
$GNACCURACY,3.6*13
$GNGGA,040212.800,2500.7834223,N,12132.4499073,E,4,47,0.57,16.753,M,15.25,M,0,3335*43
$GNRMC,040212.800,A,2500.7834223,N,12132.4499073,E,0.01,163.17,090324,,,R,V*10
$GPHDT,181.736,T*3F
$GNACCURACY,3.6*13
$GNGGA,040212.900,2500.7834217,N,12132.4499055,E,4,47,0.57,16.768,M,15.25,M,0,3335*49
$GNRMC,040212.900,A,2500.7834217,N,12132.4499055,E,0.02,163.17,090324,,,R,V*11
$GPHDT,,T*1B
$GNACCURACY,3.6*13
$GNGGA,040213.000,2500.7834201,N,12132.4499041,E,4,47,0.57,16.759,M,15.25,M,1,3335*40
$GNRMC,040213.000,A,2500.7834201,N,12132.4499041,E,0.02,163.17,090324,,,R,V*1B
$GPHDT,181.543,T*3F
$GNACCURACY,3.6*13
$GNGGA,040213.100,2500.7834235,N,12132.4499084,E,4,47,0.57,16.766,M,15.25,M,1,3335*43
$GNRMC,040213.100,A,2500.7834235,N,12132.4499084,E,0.02,163.17,090324,,,R,V*14
$GPHDT,,T*1B
$GNGSA,A,3,08,194,195,199,21,02,07,27,16,04,,,0.88,0.56,0.68,1*34
$GNGSA,A,3,81,88,78,77,79,,,,,,,,0.88,0.56,0.68,2*07
$GNGSA,A,3,21,13,26,27,15,,,,,,,,0.88,0.56,0.68,3*0A
$GNGSA,A,3,09,06,23,16,40,43,07,39,28,10,25,37,0.88,0.56,0.68,4*06
$GPGSV,4,1,16,08,65,349,42,194,64,051,35,195,63,116,41,50,60,167,33,1*61
$GPGSV,4,2,16,199,60,167,30,21,57,159,44,02,45,177,43,07,39,318,44,1*5F
$GPGSV,4,3,16,27,36,034,22,16,29,072,3