$FW : RTK35X,V1.1X0314AS,Lib20210517,1*54
$Tool : LOCOSYS , GNSS Firebird , v1.0.0.19*39
$---------------------------------------------------*2D
2.4499044,E,4,49,0.55,16.800,M,15.25,M,1,3335*4C
$GNRMC,040238.300,A,2500.7834359,N,12132.4499044,E,0.03,163.17,090324,,,R,V*19
$GPHDT,,T*1B
$GNACCURACY,4.1*13
$GNGGA,040238.400,2500.7834363,N,12132.4499015,E,4,49,0.55,16.795,M,15.25,M,1,3335*45
$GNRMC,040238.400,A,2500.7834363,N,12132.4499015,E,0.03,163.17,090324,,,R,V*13
$GPHDT,4.850,T*3C
$GNACCURACY,4.1*13
$GNGGA,040238.500,2500.7834358,N,12132.4499148,E,4,49,0.55,16.742,M,15.25,M,0,3335*4E
$GNRMC,040238.500,A,2500.7834358,N,12132.4499148,E,0.02,163.17,090324,,,R,V*12
$GPHDT,,T*1B
$GNACCURACY,4.1*13
$GNGGA,040238.600,2500.7834364,N,12132.4499135,E,4,49,0.55,16.750,M,15.25,M,0,3335*4B
$GNRMC,040238.600,A,2500.7834364,N,12132.4499135,E,0.02,163.17,090324,,,R,V*14
$GPHDT,3.140,T*33
$GNACCURACY,4.1*13
$GNGGA,040238.700,2500.7834401,N,12132.4499139,E,4,49,0.55,16.748,M,15.25,M,0,3335*4B
$GNRMC,040238.700,A,2500.7834401,N,12132.4499139,E,0.02,163.17,090324,,,R,V*1D
$GPHDT,,T*1B
$GNACCURACY,4.2*10
$GNGGA,040238.800,2500.7834371,N,12132.4499166,E,4,49,0.55,16.742,M,15.25,M,0,3335*44
$GNRMC,040238.800,A,2500.7834371,N,12132.4499166,E,0.02,163.17,090324,,,R,V*18
$GPHDT,2.267,T*34
$GNACCURACY,4.2*10
$GNGGA,040238.900,2500.7834367,N,12132.4499140,E,4,49,0.55,16.747,M,15.25,M,0,3335*43
$GNRMC,040238.900,A,2500.7834367,N,12132.4499140,E,0.01,163.17,090324,,,R,V*19
$GPHDT,,T*1B
$GNACCURACY,4.2*10
$GNGGA,040239.000,2500.7834361,N,12132.4499115,E,4,49,0.55,16.755,M,15.25,M,1,3335*4F
$GNRMC,040239.000,A,2500.7834361,N,12132.4499115,E,0.01,163.17,090324,,,R,V*17
$GPHDT,2.756,T*33
$GNACCURACY,4.2*10
$GNGGA,040239.100,2500.7834371,N,12132.4499148,E,4,49,0.55,16.753,M,15.25,M,1,3335*41
$GNRMC,040239.100,A,2500.7834371,N,12132.4499148,E,0.01,163.17,090324,,,R,V*1F
$GPHDT,,T*1B
$GNGSA,A,3,194,08,195,199,21,02,07,27,16,04,,,0.86,0.55,0.66,1*37
$GNGSA,A,3,81,88,78,77,79,,,,,,,,0.86,0.55,0.66,2*04
$GNGSA,A,3,21,13,26,15,27,,,,,,,,0.86,0.55,0.66,3*09
$GNGSA,A,3,09,06,23,16,07,40,43,39,28,10,25,37,0.86,0.55,0.66,4*05
$GNGSA,A,3,34,,,,,,,,,,,,0.86,0.55,0.66,4*0D
$GPGSV,4,1,15,194,64,051,32,08,64,349,40,195,63,116,37,50,60,167,31,1*65
$GPGSV,4,2,15,199,60,167,28,21,57,159,39,02,45,177,47,07,39,318,39,1*51
$GPGSV,4,3,15,27,35,034,32,16,28,072,26,09,25,249,14,04,20,205,21,1*68
$GPGSV,4,4,15,196,20,170,15,30,09,320,19,26,09,097,16,1*69
$GPGSV,2,1,07,194,64,051,39,08,64,349,40,195,63,116,45,199,60,167,39,8*5B
$GPGSV,2,2,07,27,35,034,26,09,25,249,24,04,20,205,20,8*5E
$GLGSV,2,1,07,81,61,197,36,88,59,035,33,78,55,031,30,77,25,107,29,1*76
$GLGSV,2,2,07,79,23,332,43,87,06,026,17,69,05,284,,1*4A
$GAGSV,2,1,08,21,54,008,37,13,54,085,22,26,41,172,33,19,29,243,,7*7B
$GAGSV,2,2,08,27,29,077,,15,15,040,17,04,12,301,,33,02,199,,7*71
$GAGSV,1,1,04,13,54,085,29,21,54,008,38,26,41,172,24,27,29,077,26,1*7C
$GBGSV,4,1,14,09,74,271,37,06,73,215,39,23,72,023,42,16,70,198,40,1*75
$GBGSV,4,2,14,07,61,306,34,40,61,327,42,43,61,038,35,39,59,186,41,1*75
$GBGSV,4,3,14,28,53,218,34,10,51,287,31,25,39,115,42,37,28,321,41,1*7B
$GBGSV,4,4,14,34,14,040,27,27,07,219,,1*78
$GBGSV,2,1,07,23,72,023,44,40,61,327,41,43,61,038,34,39,59,186,38,4*7C
$GBGSV,2,2,07,28,53,218,37,25,39,115,43,37,28,321,42,4*40
$GNACCURACY,4.2*10
$PAIRSAT,1,32,2,0,201,3,0,200,4,0,221,5,0,200,6,0,200,7,0,201,8,0,221,9,0,200,10,0,200,11,0,200,12,0,200,13,0,200,14,0,200,15,0,200,16,0,1,20,0,200,21,0,201,22,0,200,23,0,200,24,0,200,25,0,200,26,0,220,27,0,221,28,0,200,29,0,200,30,0,200,31,0,200,32,0,200,194,0,221,195,0,621,196,0,600,199,0,621*71
$PAIRSAT,2,24,65,0,200,66,0,200,67,0,200,68,0,200,69,0,200,70,0,200,71,0,200,72,0,200,73,0,200,74,0,200,75,0,200,76,0,200,77,0,1,78,0,201,79,0,201,80,0,200,81,0,201,82,0,200,83,0,200,84,0,200,85,0,200,86,0,200,87,0,201,88,0,201*78
$PAIRSAT,3,23,2,0,1200,3,0,1200,4,0,1200,5,0,200,7,0,1200,8,0,1200,9,0,1200,10,0,200,11,0,200,12,0,200,13,0,221,15,0,220,19,0,200,21,0,221,24,0,200,25,0,1200,26,0,1221,27,0,1221,30,0,1000,31,0,1000,33,0,1200,34,0,1000,36,0,1200*6A
$PAIRSAT,4,45,1,0,200,2,0,200,3,0,600,4,0,200,5,0,200,6,0,1,7,0,1,9,0,201,10,0,201,11,0,200,12,0,200,13,0,200,14,0,200,16,0,201,19,0,600,20,0,600,21,0,600,22,0,600,23,0,621,24,0,600,25,0,621,26,0,600,27,0,600,28,0,621,29,0,600,30,0,400,32,0,400,33,0,400,34,0,421,35,0,400,36,0,400,37,0,421,38,0,400,39,0,421,40,0,421,41,0,400,42,0,400,43,0,421,44,0,400,45,0,400,46,0,400,59,0,400,60,0,400,61,0,400,62,0,400*5D
$PAIRDGP,7,2,7,8,16,21,26,27*56
$GNGGA,040239.200,2500.7834357,N,12132.4499146,E,4,49,0.55,16.742,M,15.25,M,1,3335*48
$GNRMC,040239.200,A,2500.7834357,N,12132.4499146,E,0.01,163.17,090324,,,R,V*16
$GPHDT,2.829,T*34
$GNACCURACY,4.2*10
$GNGGA,040239.300,2500.7834336,N,12132.4499099,E,4,49,0.55,16.743,M,15.25,M,1,3335*4C
$GNRMC,040239.300,A,2500.7834336,N,12132.4499099,E,0.02,163.17,090324,,,R,V*10
$GPHDT,,T*1B
$GNACCURACY,4.2*10
$GNGGA,040239.400,2500.7834305,N,12132.4499075,E,4,49,0.55,16.724,M,15.25,M,1,3335*48
$GNRMC,040239.400,A,2500.7834305,N,12132.4499075,E,0.01,163.17,090324,,,R,V*16
$GPHDT,4.089,T*30
$GNACCURACY,4.1*13
$GNGGA,040239.500,2500.7834326,N,12132.4499124,E,4,49,0.55,16.733,M,15.25,M,1,3335*4B
$GNRMC,040239.500,A,2500.7834326,N,12132.4499124,E,0.01,163.17,090324,,,R,V*13
$GPHDT,,T*1B
$GNACCURACY,4.1*13
$GNGGA,040239.600,2500.7834336,N,12132.4499183,E,4,49,0.55,16.746,M,15.25,M,0,3335*47
$GNRMC,040239.600,A,2500.7834336,N,12132.4499183,E,0.01,163.17,090324,,,R,V*1C
$GPHDT,2.557,T*30
$GNACCURACY,4.0*12
$GNGGA,040239.700,2500.7834331,N,12132.4499115,E,4,49,0.55,16.750,M,15.25,M,0,3335*49
$GNRMC,040239.700,A,2500.7834331,N,12132.4499115,E,0.00,163.17,090324,,,R,V*14
$GPHDT,,T*1B
$GNACCURACY,3.9*1C
$GNGGA,040239.800,2500.7834328,N,12132.4499116,E,4,49,0.55,16.753,M,15.25,M,0,3335*4E
$GNRMC,040239.800,A,2500.7834328,N,12132.4499116,E,0.08,163.17,090324,,,R,V*18
$GPHDT,3.559,T*3F
$GNACCURACY,3.9*1C
$GNGGA,040239.900,2500.7834345,N,12132.4499162,E,4,48,0.56,16.747,M,15.25,M,0,3335*40
$GNRMC,040239.900,A,2500.7834345,N,12132.4499162,E,0.01,163.17,090324,,,R,V*18
$GPHDT,,T*1B
$GNACCURACY,3.9*1C
$GNGGA,040240.000,2500.7834319,N,12132.4499140,E,4,48,0.56,16.743,M,15.25,M,1,3335*4B
$GNRMC,040240.000,A,2500.7834319,N,12132.4499140,E,0.02,163.17,090324,,,R,V*15
$GPHDT,3.463,T*37
$GNACCURACY,3.9*1C
$GNGGA,040240.100,2500.7834328,N,12132.4499163,E,4,48,0.56,16.747,M,15.25,M,1,3335*4D
$GNRMC,040240.100,A,2500.7834328,N,12132.4499163,E,0.03,163.17,090324,,,R,V*16
$GPHDT,,T*1B
$GNGSA,A,3,194,08,195,199,21,02,07,27,04,,,,0.87,0.56,0.66,1*32
$GNGSA,A,3,81,88,78,77,79,,,,,,,,0.87,0.56,0.66,2*06
$GNGSA,A,3,13,21,26,15,27,,,,,,,,0.87,0.56,0.66,3*0B
$GNGSA,A,3,09,06,23,16,43,40,07,39,28,10,25,37,0.87,0.56,0.66,4*07
$GNGSA,A,3,34,,,,,,,,,,,,0.87,0.56,0.66,4*0F
$GPGSV,4,1,15,194,64,051,33,08,64,349,40,195,63,116,40,50,60,167,34,1*61
$GPGSV,4,2,15,199,60,167,31,21,57,159,40,02,45,177,47,07,39,318,42,1*5B
$GPGSV,4,3,15,27,35,034,34,16,28,072,21,09,25,249,16,04,20,205,27,1*6D
$GPGSV,4,4,15,196,20,170,17,30,09,320,25,26,09,097,17,1*65
$GPGSV,2,1,07,194,64,051,37,08,64,349,43,195,63,116,45,199,60,167,41,8*59
$GPGSV,2,2,07,27,35,034,27,09,25,249,26,04,20,205,24,8*59
$GLGSV,2,1,06,81,61,197,40,88,59,035,33,78,55,031,31,77,25,107,26,1*78
$GLGSV,2,2,06,79,23,332,43,87,06,026,16,1*7E
$GAGSV,2,1,08,13,54,085,22,21,54,008,37,26,41,172,32,19,29,243,,7*7A
$GAGSV,2,2,08,27,29,077,,15,15,040,17,04,12,301,,33,02,199,,7*71
$GAGSV,1,1,04,13,54,085,20,21,54,008,37,26,41,172,27,27,29,077,28,1*77
$GBGSV,4,1,13,09,74,271,43,06,73,215,42,23,72,023,40,16,70,198,43,1*7C
$GBGSV,4,2,13,43,61,038,35,40,61,327,43,07,61,306,40,39,59,186,42,1*73
$GBGSV,4,3,13,28,53,218,39,10,51,287,39,25,39,115,43,37,28,321,44,1*7D
$GBGSV,4,4,13,34,14,040,27,1*47
$GBGSV,2,1,07,23,72,023,43,40,61,327,43,43,61,038,31,39,59,186,40,4*73
$GBGSV,2,2,07,28,53,218,38,25,39,115,43,37,28,321,45,4*48
$GNACCURACY,3.9*1C
$PAIRSAT,1,32,2,0,201,3,0,200,4,0,221,5,0,200,6,0,200,7,0,201,8,0,221,9,0,200,10,0,200,11,0,200,12,0,200,13,0,200,14,0,200,15,0,200,16,0,1,20,0,200,21,0,201,22,0,200,23,0,200,24,0,200,25,0,200,26,0,220,27,0,221,28,0,200,29,0,200,30,0,200,31,0,200,32,0,200,194,0,221,195,0,621,196,0,600,199,0,621*71
$PAIRSAT,2,24,65,0,200,66,0,200,67,0,200,68,0,200,69,0,200,70,0,200,71,0,200,72,0,200,73,0,200,74,0,200,75,0,200,76,0,200,77,0,1,78,0,201,79,0,201,80,0,200,81,0,201,82,0,200,83,0,200,84,0,200,85,0,200,86,0,200,87,0,201,88,0,201*78
$PAIRSAT,3,23,2,0,1200,3,0,1200,4,0,1200,5,0,200,7,0,1200,8,0,1200,9,0,1200,10,0,200,11,0,200,12,0,200,13,0,221,15,0,220,19,0,200,21,0,221,24,0,200,25,0,1200,26,0,1221,27,0,1221,30,0,1000,31,0,1000,33,0,1200,34,0,1000,36,0,1200*6A
$PAIRSAT,4,45,1,0,200,2,0,200,3,0,600,4,0,200,5,0,200,6,0,1,7,0,1,9,0,201,10,0,201,11,0,200,12,0,200,13,0,200,14,0,200,16,0,201,19,0,600,20,0,600,21,0,600,22,0,600,23,0,621,24,0,600,25,0,621,26,0,600,27,0,600,28,0,621,29,0,600,30,0,400,32,0,400,33,0,400,34,0,421,35,0,400,36,0,400,37,0,421,38,0,400,39,0,421,40,0,421,41,0,400,42,0,400,43,0,421,44,0,400,45,0,400,46,0,400,59,0,400,60,0,400,61,0,400,62,0,400*5D
$PAIRDGP,7,2,7,8,16,21,26,27*56
$GNGGA,040240.200,2500.7834337,N,12132.4499141,E,4,48,0.56,16.750,M,15.25,M,1,3335*46
$GNRMC,040240.200,A,2500.7834337,N,12132.4499141,E,0.03,163.17,090324,,,R,V*1B
$GPHDT,3.723,T*30
$GNACCURACY,3.9*1C
$GNGGA,040240.300,2500.7834329,N,12132.4499151,E,4,48,0.56,16.737,M,15.25,M,1,3335*48
$GNRMC,040240.300,A,2500.7834329,N,12132.4499151,E,0.04,163.17,090324,,,R,V*13
$GPHDT,,T*1B
$GNACCURACY,3.9*1C
$GNGGA,040240.400,2500.7834348,N,12132.4499185,E,4,48,0.56,16.751,M,15.25,M,1,3335*41
$GNRMC,040240.400,A,2500.7834348,N,12132.4499185,E,0.03,163.17,090324,,,R,V*1D
$GPHDT,2.807,T*38
$GNACCURACY,3.9*1C
$GNGGA,040240.500,2500.7834340,N,12132.4499167,E,4,48,0.56,16.738,M,15.25,M,1,3335*4B
$GNRMC,040240.500,A,2500.7834340,N,12132.4499167,E,0.03,163.17,090324,,,R,V*18
$GPHDT,,T*1B
$GNACCURACY,3.9*1C
$GNGGA,040240.600,2500.7834331,N,12132.4499149,E,4,49,0.56,16.728,M,15.25,M,0,3335*43
$GNRMC,040240.600,A,2500.7834331,N,12132.4499149,E,0.03,163.17,090324,,,R,V*11
$GPHDT,4.157,T*32
$GNACCURACY,3.9*1C
$GNGGA,040240.700,2500.7834310,N,12132.4499085,E,4,49,0.56,16.724,M,15.25,M,0,3335*4C
$GNRMC,040240.700,A,2500.7834310,N,12132.4499085,E,0.03,163.17,090324,,,R,V*12
$GPHDT,,T*1B
$GNACCURACY,4.0*12
$GNGGA,040240.800,2500.7834288,N,12132.4499042,E,4,49,0.56,16.719,M,15.25,M,0,3335*46
$GNRMC,040240.800,A,2500.7834288,N,12132.4499042,E,0.03,163.17,090324,,,R,V*16
$GPHDT,4.101,T*31
$GNACCURACY,4.0*12
$GNGGA,040240.900,2500.7834255,N,12132.4498971,E,4,49,0.56,16.739,M,15.25,M,0,3335*4D
$GNRMC,040240.900,A,2500.7834255,N,12132.4498971,E,0.03,163.17,090324,,,R,V*1F
$GPHDT,,T*1B
$GNACCURACY,4.0*12
$GNGGA,040241.000,2500.7834281,N,12132.4499015,E,4,49,0.56,16.728,M,15.25,M,1,3335*47
$GNRMC,040241.000,A,2500.7834281,N,12132.4499015,E,0.03,163.17,090324,,,R,V*14
$GPHDT,4.809,T*30
$GNACCURACY,4.0*12
$GNGGA,040241.100,2500.7834305,N,12132.4499031,E,4,49,0.56,16.727,M,15.25,M,1,3335*42
$GNRMC,040241.100,A,2500.7834305,N,12132.4499031,E,0.02,163.17,090324,,,R,V*1F
$GPHDT,,T*1B
$GNGSA,A,3,194,08,195,199,21,02,07,27,04,,,,0.87,0.56,0.66,1*32
$GNGSA,A,3,81,88,78,77,79,,,,,,,,0.87,0.56,0.66,2*06
$GNGSA,A,3,21,13,26,27,15,,,,,,,,0.87,0.56,0.66,3*0B
$GNGSA,A,3,09,06,23,16,40,07,43,39,28,10,25,37,0.87,0.56,0.66,4*07
$GNGSA,A,3,34,,,,,,,,,,,,0.87,0.56,0.66,4*0F
$GPGSV,4,1,15,194,64,051,34,08,64,349,39,195,63,116,40,50,60,167,32,1*6E
$GPGSV,4,2,15,199,60,167,29,21,57,159,41,02,45,177,47,07,39,318,38,1*5E
$GPGSV,4,3,15,27,35,034,32,16,28,072,15,09,25,249,17,04,20,205,26,1*6C
$GPGSV,4,4,15,196,20,170,19,30,09,320,19,26,09,097,16,1*65
$GPGSV,2,1,08,194,64,051,35,08,64,349,44,195,63,116,45,199,60,167,42,8*50
$GPGSV,2,2,08,27,35,034,26,09,25,249,25,04,20,205,28,30,09,320,24,8*65
$GLGSV,2,1,06,81,61,197,39,88,59,035,34,78,55,031,33,77,25,107,30,1*74
$GLGSV,2,2,06,79,23,332,42,87,06,026,17,1*7E
$GAGSV,2,1,07,21,54,008,38,13,54,085,24,26,41,172,31,27,29,077,18,7*7E
$GAGSV,2,2,07,15,15,040,19,04,12,301,,33,02,199,,7*4E
$GAGSV,1,1,04,21,54,008,38,13,54,085,18,26,41,172,32,27,29,077,28,1*77
$GBGSV,4,1,13,09,74,271,43,06,73,215,42,23,72,023,39,16,70,198,44,1*75
$GBGSV,4,2,13,40,61,327,44,07,61,306,38,43,61,038,36,39,59,186,43,1*79
$GBGSV,4,3,13,28,53,218,39,10,51,287,34,25,39,115,42,37,28,321,38,1*7A
$GBGSV,4,4,13,34,14,040,26,1*46
$GBGSV,2,1,07,23,72,023,44,40,61,327,44,43,61,038,31,39,59,186,41,4*72
$GBGSV,2,2,07,28,53,218,37,25,39,115,43,37,28,321,43,4*41
$GNACCURACY,4.0*12
$PAIRSAT,1,32,2,0,201,3,0,200,4,0,221,5,0,200,6,0,200,7,0,201,8,0,221,9,0,200,10,0,200,11,0,200,12,0,200,13,0,200,14,0,200,15,0,200,16,0,1,20,0,200,21,0,201,22,0,200,23,0,200,24,0,200,25,0,200,26,0,220,27,0,221,28,0,200,29,0,200,30,0,200,31,0,200,32,0,200,194,0,221,195,0,621,196,0,600,199,0,621*71
$PAIRSAT,2,24,65,0,200,66,0,200,67,0,200,68,0,200,69,0,200,70,0,200,71,0,200,72,0,200,73,0,200,74,0,200,75,0,200,76,0,200,77,0,1,78,0,201,79,0,201,80,0,200,81,0,201,82,0,200,83,0,200,84,0,200,85,0,200,86,0,200,87,0,201,88,0,201*78
$PAIRSAT,3,23,2,0,1200,3,0,1200,4,0,1200,5,0,200,7,0,1200,8,0,1200,9,0,1200,10,0,200,11,0,200,12,0,200,13,0,221,15,0,220,19,0,200,21,0,221,24,0,200,25,0,1200,26,0,1221,27,0,1221,30,0,1000,31,0,1000,33,0,1200,34,0,1000,36,0,1200*6A
$PAIRSAT,4,45,1,0,200,2,0,200,3,0,600,4,0,200,5,0,200,6,0,1,7,0,1,9,0,201,10,0,201,11,0,200,12,0,200,13,0,200,14,0,200,16,0,201,19,0,600,20,0,600,21,0,600,22,0,600,23,0,621,24,0,600,25,0,621,26,0,600,27,0,600,28,0,621,29,0,600,30,0,400,32,0,400,33,0,400,34,0,421,35,0,400,36,0,400,37,0,421,38,0,400,39,0,421,40,0,421,41,0,400,42,0,400,43,0,421,44,0,400,45,0,400,46,0,400,59,0,400,60,0,400,61,0,400,62,0,400*5D
$PAIRDGP,7,2,7,8,16,21,26,27*56
$GNGGA,040241.200,2500.7834338,N,12132.4499098,E,4,49,0.56,16.741,M,15.25,M,1,3335*4C
$GNRMC,040241.200,A,2500.7834338,N,12132.4499098,E,0.02,163.17,090324,,,R,V*11
$GPHDT,3.518,T*3A
$GNACCURACY,4.0*12
$GNGGA,040241.300,2500.7834329,N,12132.4499085,E,4,49,0.56,16.729,M,15.25,M,1,3335*4F
$GNRMC,040241.300,A,2500.7834329,N,12132.4499085,E,0.02,163.17,090324,,,R,V*1C
$GPHDT,,T*1B
$GNACCURACY,4.0*12
$GNGGA,040241.400,2500.7834371,N,12132.4499188,E,4,49,0.56,16.747,M,15.25,M,1,3335*41
$GNRMC,040241.400,A,2500.7834371,N,12132.4499188,E,0.02,163.17,090324,,,R,V*1A
$GPHDT,2.791,T*38
$GNACCURACY,4.0*12
$GNGGA,040241.500,2500.7834340,N,12132.4499112,E,4,49,0.56,16.752,M,15.25,M,0,3335*44
$GNRMC,040241.500,A,2500.7834340,N,12132.4499112,E,0.03,163.17,090324,,,R,V*1B
$GPHDT,,T*1B
$GNACCURACY,4.0*12
$GNGGA,040241.600,2500.7834335,N,12132.4499123,E,4,48,0.56,16.741,M,15.25,M,0,3335*44
$GNRMC,040241.600,A,2500.7834335,N,12132.4499123,E,0.02,163.17,090324,,,R,V*19
$GPHDT,2.895,T*33
$GNACCURACY,4.0*12
$GNGGA,040241.700,2500.7834381,N,12132.4499164,E,4,48,0.56,16.738,M,15.25,M,0,3335*47
$GNRMC,040241.700,A,2500.7834381,N,12132.4499164,E,0.01,163.17,090324,,,R,V*17
$GPHDT,,T*1B
$GNACCURACY,4.0*12
$GNGGA,040241.800,2500.7834323,N,12132.4499074,E,4,48,0.56,16.740,M,15.25,M,0,3335*4F
$GNRMC,040241.800,A,2500.7834323,N,12132.4499074,E,0.01,163.17,090324,,,R,V*10
$GPHDT,3.821,T*3D
$GNACCURACY,4.0*12
$GNGGA,040241.900,2500.7834375,N,12132.4499141,E,4,49,0.56,16.743,M,15.25,M,0,3335*48
$GNRMC,040241.900,A,2500.7834375,N,12132.4499141,E,0.02,163.17,090324,,,R,V*16
$GPHDT,,T*1B
$GNACCURACY,4.0*12
$GNGGA,040242.000,2500.7834347,N,12132.4499125,E,4,49,0.56,16.743,M,15.25,M,1,3335*40
$GNRMC,040242.000,A,2500.7834347,N,12132.4499125,E,0.01,163.17,090324,,,R,V*1C
$GPHDT,3.692,T*3B
$GNACCURACY,4.0*12
$GNGGA,040242.100,2500.7834360,N,12132.4499105,E,4,49,0.56,16.750,M,15.25,M,1,3335*44
$GNRMC,040242.100,A,2500.7834360,N,12132.4499105,E,0.01,163.17,090324,,,R,V*1A
$GPHDT,,T*1B
$GNGSA,A,3,194,08,195,199,21,02,07,27,04,,,,0.87,0.56,0.66,1*32
$GNGSA,A,3,81,88,78,77,79,,,,,,,,0.87,0.56,0.66,2*06
$GNGSA,A,3,13,21,26,27,15,,,,,,,,0.87,0.56,0.66,3*0B
$GNGSA,A,3,09,06,23,16,43,40,07,39,28,10,25,37,0.87,0.56,0.66,4*07
$GNGSA,A,3,34,,,,,,,,,,,,0.87,0.56,0.66,4*0F
$GPGSV,4,1,16,194,64,051,32,08,64,349,39,195,63,116,41,50,60,167,32,1*6A
$GPGSV,4,2,16,199,60,167,30,21,57,159,41,02,45,177,47,07,39,318,40,1*5A
$GPGSV,4,3,16,27,35,034,30,16,28,072,13,09,25,249,19,04,20,205,25,1*66
$GPGSV,4,4,16,196,20,170,19,30,09,320,16,26,09,097,12,31,03,143,,1*5A
$GPGSV,2,1,08,194,64,051,38,08,64,349,44,195,63,116,45,199,60,167,43,8*5C
$GPGSV,2,2,08,27,35,034,27,09,25,249,21,04,20,205,28,30,09,320,23,8*67
$GLGSV,2,1,06,81,61,197,38,88,59,035,34,78,55,031,31,77,25,107,29,1*7F
$GLGSV,2,2,06,79,23,332,42,87,06,026,17,1*7E
$GAGSV,2,1,06,13,54,085,24,21,54,008,38,26,41,172,33,27,29,077,19,7*7C
$GAGSV,2,2,06,15,15,040,21,33,02,199,,7*71
$GAGSV,1,1,04,21,54,008,39,13,54,085,23,26,41,172,26,27,29,077,28,1*7B
$GBGSV,4,1,13,09,74,271,44,06,73,215,41,23,72,023,41,16,70,198,44,1*7E
$GBGSV,4,2,13,43,61,038,36,40,61,327,44,07,61,306,40,39,59,186,41,1*74
$GBGSV,4,3,13,28,53,218,42,10,51,287,37,25,39,115,42,37,28,321,40,1*7A
$GBGSV,4,4,13,34,14,040,30,1*41
$GBGSV,2,1,07,23,72,023,41,40,61,327,44,43,61,038,31,39,59,186,41,4*77
$GBGSV,2,2,07,28,53,218,38,25,39,115,44,37,28,321,40,4*4A
$GNACCURACY,4.0*12
$PAIRSAT,1,32,2,0,201,3,0,200,4,0,221,5,0,200,6,0,200,7,0,201,8,0,221,9,0,200,10,0,200,11,0,200,12,0,200,13,0,200,14,0,200,15,0,200,16,0,201,20,0,200,21,0,201,22,0,200,23,0,200,24,0,200,25,0,200,26,0,220,27,0,221,28,0,200,29,0,200,30,0,200,31,0,200,32,0,200,194,0,221,195,0,621,196,0,600,199,0,621*73
$PAIRSAT,2,24,65,0,200,66,0,200,67,0,200,68,0,200,69,0,200,70,0,200,71,0,200,72,0,200,73,0,200,74,0,200,75,0,200,76,0,200,77,0,1,78,0,201,79,0,201,80,0,200,81,0,201,82,0,200,83,0,200,84,0,200,85,0,200,86,0,200,87,0,201,88,0,201*78
$PAIRSAT,3,23,2,0,1200,3,0,1200,4,0,1200,5,0,200,7,0,1200,8,0,1200,9,0,1200,10,0,200,11,0,200,12,0,200,13,0,221,15,0,220,19,0,200,21,0,221,24,0,200,25,0,1200,26,0,1221,27,0,1221,30,0,1000,31,0,1000,33,0,1200,34,0,1000,36,0,1200*6A
$PAIRSAT,4,45,1,0,200,2,0,200,3,0,600,4,0,200,5,0,200,6,0,1,7,0,1,9,0,201,10,0,201,11,0,200,12,0,200,13,0,200,14,0,200,16,0,201,19,0,600,20,0,600,21,0,600,22,0,600,23,0,621,24,0,600,25,0,621,26,0,600,27,0,600,28,0,621,29,0,600,30,0,400,32,0,400,33,0,400,34,0,421,35,0,400,36,0,400,37,0,421,38,0,400,39,0,421,40,0,421,41,0,400,42,0,400,43,0,421,44,0,400,45,0,400,46,0,400,59,0,400,60,0,400,61,0,400,62,0,400*5D
$PAIRDGP,7,2,7,8,16,21,26,27*56
$GNGGA,040242.200,2500.7834340,N,12132.4499116,E,4,49,0.56,16.744,M,15.25,M,1,3335*42
$GNRMC,040242.200,A,2500.7834340,N,12132.4499116,E,0.02,163.17,090324,,,R,V*1A
$GPHDT,4.307,T*35
$GNACCURACY,4.0*12
$GNGGA,040242.300,2500.7834330,N,12132.4499123,E,4,49,0.56,16.740,M,15.25,M,1,3335*46
$GNRMC,040242.300,A,2500.7834330,N,12132.4499123,E,0.02,163.17,090324,,,R,V*1A
$GPHDT,,T*1B
$GNACCURACY,4.0*12
$GNGGA,040242.400,2500.7834332,N,12132.4499108,E,4,49,0.56,16.745,M,15.25,M,1,3335*4F
$GNRMC,040242.400,A,2500.7834332,N,12132.4499108,E,0.02,163.17,090324,,,R,V*16
$GPHDT,3.911,T*3F
$GNACCURACY,4.0*12
$GNGGA,040242.500,2500.7834329,N,12132.4499075,E,4,49,0.56,16.739,M,15.25,M,0,3335*45
$GNRMC,040242.500,A,2500.7834329,N,12132.4499075,E,0.02,163.17,090324,,,R,V*16
$GPHDT,,T*1B
$GNACCURACY,4.0*12
$GNGGA,040242.600,2500.7834328,N,12132.4499048,E,4,49,0.56,16.741,M,15.25,M,0,3335*46
$GNRMC,040242.600,A,2500.7834328,N,12132.4499048,E,0.01,163.17,090324,,,R,V*19
$GPHDT,3.809,T*37
$GNACCURACY,4.0*12
$GNGGA,040242.700,2500.7834318,N,12132.4499036,E,4,49,0.56,16.750,M,15.25,M,0,3335*4D
$GNRMC,040242.700,A,2500.7834318,N,12132.4499036,E,0.02,163.17,090324,,,R,V*11
$GPHDT,,T*1B
$GNACCURACY,4.0*12
$GNGGA,040242.800,2500.7834296,N,12132.4498990,E,4,49,0.56,16.729,M,15.25,M,0,3335*4F
$GNRMC,040242.800,A,2500.7834296,N,12132.4498990,E,0.01,163.17,090324,,,R,V*1E
$GPHDT,4.794,T*3B
$GNACCURACY,4.0*12
$GNGGA,040242.900,2500.7834296,N,12132.4498994,E,4,49,0.56,16.728,M,15.25,M,0,3335*4B
$GNRMC,040242.900,A,2500.7834296,N,12132.4498994,E,0.00,163.17,090324,,,R,V*1A
$GPHDT,,T*1B
$GNACCURACY,4.1*13
$GNGGA,040243.000,2500.7834260,N,12132.4498931,E,4,49,0.56,16.736,M,15.25,M,1,3335*4B
$GNRMC,040243.000,A,2500.7834260,N,12132.4498931,E,0.01,163.17,090324,,,R,V*15
$GPHDT,5.150,T*34
$GNACCURACY,4.1*13
$GNGGA,040243.100,2500.7834271,N,12132.4498983,E,4,49,0.56,16.738,M,15.25,M,1,3335*4D
$GNRMC,040243.100,A,2500.7834271,N,12132.4498983,E,0.01,163.17,090324,,,R,V*1D
$GPHDT,,T*1B
$GNGSA,A,3,194,08,195,199,21,02,07,27,04,,,,0.87,0.56,0.66,1*32
$GNGSA,A,3,81,88,78,77,79,,,,,,,,0.87,0.56,0.66,2*06
$GNGSA,A,3,21,13,26,27,15,,,,,,,,0.87,0.56,0.66,3*0B
$GNGSA,A,3,09,06,23,16,40,43,07,39,28,10,25,37,0.87,0.56,0.66,4*07
$GNGSA,A,3,34,,,,,,,,,,,,0.87,0.56,0.66,4*0F
$GPGSV,4,1,16,194,64,051,32,08,64,349,41,195,63,116,41,50,60,167,33,1*64
$GPGSV,4,2,16,199,60,167,30,21,57,159,41,02,45,177,46,07,39,318,37,1*5B
$GPGSV,4,3,16,27,35,034,30,16,28,072,16,09,25,249,20,04,20,205,24,1*68
$GPGSV,4,4,16,196,20,170,18,30,09,320,,26,09,097,14,31,03,143,,1*5A
$GPGSV,2,1,08,194,64,051,36,08,64,349,44,195,63,116,44,199,60,167,41,8*51
$GPGSV,2,2,08,27,35,034,26,09,25,249,20,04,20,205,27,30,09,320,24,8*6F
$GLGSV,2,1,07,81,61,197,38,88,59,035,33,78,55,031,33,77,25,107,29,1*7B
$GLGSV,2,2,07,79,24,332,40,87,06,026,17,68,03,239,,1*4F
$GAGSV,2,1,06,21,54,008,38,13,54,085,27,26,41,172,33,27,29,077,17,7*71
$GAGSV,2,2,06,15,15,040,19,33,02,199,,7*7A
$GAGSV,2,1,05,13,54,085,23,21,54,008,38,26,41,172,29,27,29,077,27,1*78
$GAGSV,2,2,05,15,15,040,21,1*47
$GBGSV,4,1,14,09,74,271,44,06,73,215,41,23,72,023,40,16,70,198,44,1*78
$GBGSV,4,2,14,40,61,327,44,43,61,038,33,07,61,306,36,39,59,186,42,1*74
$GBGSV,4,3,14,28,53,218,42,10,51,287,30,25,39,115,43,37,28,321,36,1*7A
$GBGSV,4,4,14,34,14,040,30,38,09,169,,1*7A
$GBGSV,2,1,07,23,72,023,42,40,61,327,44,43,61,038,31,39,59,186,39,4*7B
$GBGSV,2,2,07,28,53,218,38,25,39,115,43,37,28,321,41,4*4C
$GNACCURACY,4.1*13
$PAIRSAT,1,32,2,0,201,3,0,200,4,0,221,5,0,200,6,0,200,7,0,201,8,0,221,9,0,200,10,0,200,11,0,200,12,0,200,13,0,200,14,0,200,15,0,200,16,0,201,20,0,200,21,0,201,22,0,200,23,0,200,24,0,200,25,0,200,26,0,220,27,0,221,28,0,200,29,0,200,30,0,200,31,0,200,32,0,200,194,0,221,195,0,621,196,0,600,199,0,621*73
$PAIRSAT,2,24,65,0,200,66,0,200,67,0,200,68,0,200,69,0,200,70,0,200,71,0,200,72,0,200,73,0,200,74,0,200,75,0,200,76,0,200,77,0,1,78,0,201,79,0,201,80,0,200,81,0,201,82,0,200,83,0,200,84,0,200,85,0,200,86,0,200,87,0,201,88,0,201*78
$PAIRSAT,3,23,2,0,1200,3,0,1200,4,0,1200,5,0,200,7,0,1200,8,0,1200,9,0,1200,10,0,200,11,0,200,12,0,200,13,0,221,15,0,220,19,0,200,21,0,221,24,0,200,25,0,1200,26,0,1221,27,0,1221,30,0,1000,31,0,1000,33,0,1200,34,0,1000,36,0,1200*6A
$PAIRSAT,4,45,1,0,200,2,0,200,3,0,600,4,0,200,5,0,200,6,0,1,7,0,1,9,0,201,10,0,201,11,0,200,12,0,200,13,0,200,14,0,200,16,0,201,19,0,600,20,0,600,21,0,600,22,0,600,23,0,621,24,0,600,25,0,621,26,0,600,27,0,600,28,0,621,29,0,600,30,0,400,32,0,400,33,0,400,34,0,421,35,0,400,36,0,400,37,0,421,38,0,400,39,0,421,40,0,421,41,0,400,42,0,400,43,0,421,44,0,400,45,0,400,46,0,400,59,0,400,60,0,400,61,0,400,62,0,400*5D
$PAIRDGP,7,2,7,8,16,21,26,27*56
$GNGGA,040243.200,2500.7834273,N,12132.4498998,E,4,50,0.56,16.739,M,15.25,M,1,3335*4F
$GNRMC,040243.200,A,2500.7834273,N,12132.4498998,E,0.00,163.17,090324,,,R,V*17
$GPHDT,4.412,T*36
$GNACCURACY,4.1*13
$GNGGA,040243.300,2500.7834262,N,12132.4498985,E,4,50,0.56,16.754,M,15.25,M,1,3335*49
$GNRMC,040243.300,A,2500.7834262,N,12132.4498985,E,0.01,163.17,090324,,,R,V*1B
$GPHDT,,T*1B
$GNACCURACY,4.2*10
$GNGGA,040243.400,2500.7834267,N,12132.4498970,E,4,50,0.56,16.739,M,15.25,M,1,3335*4A
$GNRMC,040243.400,A,2500.7834267,N,12132.4498970,E,0.01,163.17,090324,,,R,V*13
$GPHDT,4.933,T*38
$GNACCURACY,4.1*13
$GNGGA,040243.500,2500.7834318,N,12132.4499069,E,4,50,0.56,16.744,M,15.25,M,0,3335*49
$GNRMC,040243.500,A,2500.7834318,N,12132.4499069,E,0.02,163.17,090324,,,R,V*18
$GPHDT,,T*1B
$GNACCURACY,4.1*13
$GNGGA,040243.600,2500.7834286,N,12132.4499092,E,4,50,0.56,16.732,M,15.25,M,0,3335*49
$GNRMC,040243.600,A,2500.7834286,N,12132.4499092,E,0.02,163.17,090324,,,R,V*19
$GPHDT,3.963,T*3A
$GNACCURACY,4.1*13
$GNGGA,040243.700,2500.7834325,N,12132.4499145,E,4,50,0.56,16.738,M,15.25,M,0,3335*41
$GNRMC,040243.700,A,2500.7834325,N,12132.4499145,E,0.02,163.17,090324,,,R,V*1B
$GPHDT,,T*1B
$GNACCURACY,4.1*13
$GNGGA,040243.800,2500.7834339,N,12132.4499118,E,4,51,0.55,16.735,M,15.25,M,0,3335*44
$GNRMC,040243.800,A,2500.7834339,N,12132.4499118,E,0.01,163.17,090324,,,R,V*12
$GPHDT,2.983,T*35
$GNACCURACY,4.1*13
$GNGGA,040243.900,2500.7834332,N,12132.4499118,E,4,51,0.55,16.737,M,15.25,M,0,3335*4C
$GNRMC,040243.900,A,2500.7834332,N,12132.4499118,E,0.01,163.17,090324,,,R,V*18
$GPHDT,,T*1B
$GNACCURACY,4.1*13
$GNGGA,040244.000,2500.7834339,N,12132.4499117,E,4,51,0.55,16.738,M,15.25,M,1,3335*48
$GNRMC,040244.000,A,2500.7834339,N,12132.4499117,E,0.01,163.17,090324,,,R,V*12
$GPHDT,3.216,T*33
$GNACCURACY,4.1*13
$GNGGA,040244.100,2500.7834335,N,12132.4499091,E,4,51,0.55,16.737,M,15.25,M,1,3335*45
$GNRMC,040244.100,A,2500.7834335,N,12132.4499091,E,0.02,163.17,090324,,,R,V*13
$GPHDT,,T*1B
$GNGSA,A,3,194,08,195,199,21,02,07,27,16,04,,,0.86,0.55,0.66,1*37
$GNGSA,A,3,81,88,78,77,79,,,,,,,,0.86,0.55,0.66,2*04
$GNGSA,A,3,13,21,26,27,15,,,,,,,,0.86,0.55,0.66,3*09
$GNGSA,A,3,09,06,23,16,43,40,07,39,28,10,25,37,0.86,0.55,0.66,4*05
$GNGSA,A,3,34,,,,,,,,,,,,0.86,0.55,0.66,4*0D
$GPGSV,4,1,16,194,64,051,35,08,64,349,41,195,63,116,41,50,60,167,33,1*63
$GPGSV,4,2,16,199,60,167,31,21,57,159,42,02,45,177,46,07,39,318,39,1*57
$GPGSV,4,3,16,27,35,034,30,16,28,072,19,09,25,249,22,04,20,205,26,1*67
$GPGSV,4,4,16,196,20,170,17,30,09,320,,26,09,097,15,31,03,143,,1*54
$GPGSV,2,1,08,194,64,051,37,08,64,349,44,195,63,116,44,199,60,167,41,8*50
$GPGSV,2,2,08,27,35,034,28,09,25,249,20,04,20,205,25,30,09,320,24,8*63
$GLGSV,2,1,06,81,61,197,37,88,58,034,35,78,55,031,32,77,25,107,29,1*72
$GLGSV,2,2,06,79,24,332,42,87,05,026,17,1*7A
$GAGSV,2,1,06,13,54,085,25,21,54,008,36,26,41,172,31,27,29,077,17,7*7F
$GAGSV,2,2,06,15,15,040,19,33,02,199,,7*7A
$GAGSV,2,1,05,13,54,085,24,21,54,008,39,26,41,172,27,27,29,077,27,1*70
$GAGSV,2,2,05,15,15,040,21,1*47
$GBGSV,4,1,13,09,74,271,44,06,73,215,41,23,72,023,40,16,70,198,43,1*78
$GBGSV,4,2,13,43,61,038,36,40,61,327,44,07,61,306,40,39,59,186,41,1*74
$GBGSV,4,3,13,28,53,218,42,10,51,287,38,25,39,115,44,37,28,321,39,1*7D
$GBGSV,4,4,13,34,14,040,30,1*41
$GBGSV,2,1,07,23,72,023,41,40,61,327,44,43,61,038,32,39,59,186,41,4*74
$GBGSV,2,2,07,28,53,218,38,25,39,115,43,37,28,321,41,4*4C
$GNACCURACY,4.1*13
$PAIRSAT,1,32,2,0,201,3,0,200,4,0,221,5,0,200,6,0,200,7,0,201,8,0,221,9,0,200,10,0,200,11,0,200,12,0,200,13,0,200,14,0,200,15,0,200,16,0,201,20,0,200,21,0,201,22,0,200,23,0,200,24,0,200,25,0,200,26,0,220,27,0,221,28,0,200,29,0,200,30,0,200,31,0,200,32,0,200,194,0,221,195,0,621,196,0,600,199,0,621*73
$PAIRSAT,2,24,65,0,200,66,0,200,67,0,200,68,0,200,69,0,200,70,0,200,71,0,200,72,0,200,73,0,200,74,0,200,75,0,200,76,0,200,77,0,1,78,0,201,79,0,201,80,0,200,81,0,201,82,0,200,83,0,200,84,0,200,85,0,200,86,0,200,87,0,201,88,0,201*78
$PAIRSAT,3,23,2,0,1200,3,0,1200,4,0,1200,5,0,200,7,0,1200,8,0,1200,9,0,1200,10,0,200,11,0,200,12,0,200,13,0,221,15,0,220,19,0,200,21,0,221,24,0,200,25,0,1200,26,0,1221,27,0,1221,30,0,1000,31,0,1000,33,0,1200,34,0,1000,36,0,1200*6A
$PAIRSAT,4,45,1,0,200,2,0,200,3,0,600,4,0,200,5,0,200,6,0,1,7,0,1,9,0,201,10,0,201,11,0,200,12,0,200,13,0,200,14,0,200,16,0,201,19,0,600,20,0,600,21,0,600,22,0,600,23,0,621,24,0,600,25,0,621,26,0,600,27,0,600,28,0,621,29,0,600,30,0,400,32,0,400,33,0,400,34,0,421,35,0,400,36,0,400,37,0,421,38,0,400,39,0,421,40,0,421,41,0,400,42,0,400,43,0,421,44,0,400,45,0,400,46,0,400,59,0,400,60,0,400,61,0,400,62,0,400*5D
$PAIRDGP,7,2,7,8,16,21,26,27*56
$GNGGA,040244.200,2500.7834336,N,12132.4499118,E,4,51,0.55,16.724,M,15.25,M,1,3335*47
$GNRMC,040244.200,A,2500.7834336,N,12132.4499118,E,0.01,163.17,090324,,,R,V*10
$GPHDT,2.499,T*33
$GNACCURACY,4.1*13
$GNGGA,040244.300,2500.7834336,N,12132.4499075,E,4,51,0.55,16.750,M,15.25,M,1,3335*4F
$GNRMC,040244.300,A,2500.7834336,N,12132.4499075,E,0.01,163.17,090324,,,R,V*1B
$GPHDT,,T*1B
$GNACCURACY,4.1*13
$GNGGA,040244.400,2500.7834311,N,12132.4499075,E,4,51,0.55,16.734,M,15.25,M,1,3335*4F
$GNRMC,040244.400,A,2500.7834311,N,12132.4499075,E,0.01,163.17,090324,,,R,V*19
$GPHDT,3.166,T*37
$GNACCURACY,4.1*13
$GNGGA,040244.500,2500.7834321,N,12132.4499054,E,4,51,0.55,16.736,M,15.25,M,0,3335*4D
$GNRMC,040244.500,A,2500.7834321,N,12132.4499054,E,0.02,163.17,090324,,,R,V*1B
$GPHDT,,T*1B
$GNACCURACY,4.1*13
$GNGGA,040244.600,2500.7834302,N,12132.4498967,E,4,51,0.55,16.750,M,15.25,M,0,3335*47
$GNRMC,040244.600,A,2500.7834302,N,12132.4498967,E,0.01,163.17,090324,,,R,V*12
$GPHDT,4.282,T*39
$GNACCURACY,4.1*13
$GNGGA,040244.700,2500.7834362,N,12132.4499039,E,4,51,0.55,16.747,M,15.25,M,0,3335*45
$GNRMC,040244.700,A,2500.7834362,N,12132.4499039,E,0.00,163.17,090324,,,R,V*17
$GPHDT,,T*1B
$GNACCURACY,4.1*13
$GNGGA,040244.800,2500.7834347,N,12132.4498976,E,4,51,0.55,16.722,M,15.25,M,0,3335*4D
$GNRMC,040244.800,A,2500.7834347,N,12132.4498976,E,0.01,163.17,090324,,,R,V*1D
$GPHDT,3.726,T*35
$GNACCURACY,4.1*13
$GNGGA,040244.900,2500.7834351,N,12132.4498983,E,4,51,0.55,16.731,M,15.25,M,0,3335*43
$GNRMC,040244.900,A,2500.7834351,N,12132.4498983,E,0.01,163.17,090324,,,R,V*11
$GPHDT,,T*1B
$GNACCURACY,4.1*13
$GNGGA,040245.000,2500.7834370,N,12132.4499048,E,4,51,0.55,16.751,M,15.25,M,1,3335*40
$GNRMC,040245.000,A,2500.7834370,N,12132.4499048,E,0.02,163.17,090324,,,R,V*16
$GPHDT,3.554,T*32
$GNACCURACY,4.1*13
$GNGGA,040245.100,2500.7834355,N,12132.4499019,E,4,51,0.55,16.729,M,15.25,M,1,3335*4D
$GNRMC,040245.100,A,2500.7834355,N,12132.4499019,E,0.02,163.17,090324,,,R,V*14
$GPHDT,,T*1B
$GNGSA,A,3,194,08,195,199,21,02,07,27,16,04,,,0.86,0.55,0.66,1*37
$GNGSA,A,3,81,88,78,77,79,,,,,,,,0.86,0.55,0.66,2*04
$GNGSA,A,3,13,21,26,27,15,,,,,,,,0.86,0.55,0.66,3*09
$GNGSA,A,3,09,06,23,16,43,40,07,39,28,10,25,37,0.86,0.55,0.66,4*05
$GNGSA,A,3,34,,,,,,,,,,,,0.86,0.55,0.66,4*0D
$GPGSV,4,1,16,194,64,051,36,08,64,349,41,195,63,116,41,50,60,167,33,1*60
$GPGSV,4,2,16,199,60,167,30,21,57,159,42,02,45,177,45,07,39,318,32,1*5E
$GPGSV,4,3,16,27,35,034,27,16,28,072,17,09,25,249,22,04,20,205,21,1*68
$GPGSV,4,4,16,196,20,170,17,30,09,320,,26,09,097,15,31,03,143,,1*54
$GPGSV,2,1,08,194,64,051,38,08,64,349,45,195,63,116,44,199,60,167,41,8*5E
$GPGSV,2,2,08,27,35,034,28,09,25,249,21,04,20,205,28,30,09,320,27,8*6C
$GLGSV,2,1,06,81,61,197,37,88,58,034,31,78,55,031,34,77,25,107,29,1*70
$GLGSV,2,2,06,79,24,332,41,87,05,026,17,1*79
$GAGSV,2,1,06,13,54,085,24,21,54,008,37,26,41,172,32,27,29,077,15,7*7E
$GAGSV,2,2,06,15,15,040,19,33,02,199,,7*7A
$GAGSV,2,1,05,13,54,085,29,21,54,008,38,26,41,172,28,27,29,077,28,1*7C
$GAGSV,2,2,05,15,15,040,20,1*46
$GBGSV,4,1,13,09,74,271,44,06,73,215,42,23,72,023,40,16,70,198,43,1*7B
$GBGSV,4,2,13,43,61,038,34,40,61,327,43,07,61,306,38,39,59,186,41,1*7E
$GBGSV,4,3,13,28,53,218,42,10,51,287,33,25,39,115,44,37,28,321,36,1*79
$GBGSV,4,4,13,34,14,040,29,1*49
$GBGSV,2,1,07,23,72,023,42,40,61,327,44,43,61,038,30,39,59,186,39,4*7A
$GBGSV,2,2,07,28,53,218,40,25,39,115,44,37,28,321,41,4*44
$GNACCURACY,4.2*10
$PAIRSAT,1,32,2,0,201,3,0,200,4,0,221,5,0,200,6,0,200,7,0,201,8,0,221,9,0,200,10,0,200,11,0,200,12,0,200,13,0,200,14,0,200,15,0,200,16,0,201,20,0,200,21,0,201,22,0,200,23,0,200,24,0,200,25,0,200,26,0,220,27,0,221,28,0,200,29,0,200,30,0,200,31,0,200,32,0,200,194,0,221,195,0,621,196,0,600,199,0,621*73
$PAIRSAT,2,24,65,0,200,66,0,200,67,0,200,68,0,200,69,0,200,70,0,200,71,0,200,72,0,200,73,0,200,74,0,200,75,0,200,76,0,200,77,0,1,78,0,201,79,0,201,80,0,200,81,0,201,82,0,200,83,0,200,84,0,200,85,0,200,86,0,200,87,0,201,88,0,201*78
$PAIRSAT,3,23,2,0,1200,3,0,1200,4,0,1200,5,0,200,7,0,1200,8,0,1200,9,0,1200,10,0,200,11,0,200,12,0,200,13,0,221,15,0,220,19,0,200,21,0,221,24,0,200,25,0,1200,26,0,1221,27,0,1221,30,0,1000,31,0,1000,33,0,1200,34,0,1000,36,0,1200*6A
$PAIRSAT,4,45,1,0,200,2,0,200,3,0,600,4,0,200,5,0,200,6,0,1,7,0,1,9,0,201,10,0,201,11,0,200,12,0,200,13,0,200,14,0,200,16,0,201,19,0,600,20,0,600,21,0,600,22,0,600,23,0,621,24,0,600,25,0,621,26,0,600,27,0,600,28,0,621,29,0,600,30,0,400,32,0,400,33,0,400,34,0,421,35,0,400,36,0,400,37,0,421,38,0,400,39,0,421,40,0,421,41,0,400,42,0,400,43,0,421,44,0,400,45,0,400,46,0,400,59,0,400,60,0,400,61,0,400,62,0,400*5D
$PAIRDGP,7,2,7,8,16,21,26,27*56
$GNGGA,040245.200,2500.7834355,N,12132.4499024,E,4,51,0.55,16.725,M,15.25,M,1,3335*4C
$GNRMC,040245.200,A,2500.7834355,N,12132.4499024,E,0.01,163.17,090324,,,R,V*1A
$GPHDT,2.878,T*30
$GNACCURACY,4.2*10
$GNGGA,040245.300,2500.7834325,N,12132.4498999,E,4,51,0.55,16.752,M,15.25,M,1,3335*44
$GNRMC,040245.300,A,2500.7834325,N,12132.4498999,E,0.01,163.17,090324,,,R,V*12
$GPHDT,,T*1B
$GNACCURACY,4.2*10
$GNGGA,040245.400,2500.7834349,N,12132.4499046,E,4,51,0.55,16.741,M,15.25,M,1,3335*41
$GNRMC,040245.400,A,2500.7834349,N,12132.4499046,E,0.00,163.17,090324,,,R,V*14
$GPHDT,3.113,T*35
$GNACCURACY,4.2*10
$GNGGA,040245.500,2500.7834324,N,12132.4499043,E,4,51,0.55,16.753,M,15.25,M,1,3335*4D
$GNRMC,040245.500,A,2500.7834324,N,12132.4499043,E,0.01,163.17,090324,,,R,V*1A
$GPHDT,,T*1B
$GNACCURACY,4.1*13
$GNGGA,040245.600,2500.7834338,N,12132.4499113,E,4,51,0.55,16.751,M,15.25,M,1,3335*45
$GNRMC,040245.600,A,2500.7834338,N,12132.4499113,E,0.13,163.17,090324,,,R,V*13
$GPHDT,1.957,T*3F
$GNACCURACY,4.1*13
$GNGGA,040245.700,2500.7834310,N,12132.4499076,E,4,51,0.55,16.748,M,15.25,M,0,3335*45
$GNRMC,040245.700,A,2500.7834310,N,12132.4499076,E,0.06,163.17,090324,,,R,V*1E
$GPHDT,,T*1B
$GNACCURACY,4.1*13
$GNGGA,040245.800,2500.7834309,N,12132.4499079,E,4,51,0.55,16.757,M,15.25,M,0,3335*43
$GNRMC,040245.800,A,2500.7834309,N,12132.4499079,E,0.02,163.17,090324,,,R,V*12
$GPHDT,2.740,T*34
$GNACCURACY,4.1*13
$GNGGA,040245.900,2500.7834333,N,12132.4499128,E,4,51,0.55,16.751,M,15.25,M,0,3335*48
$GNRMC,040245.900,A,2500.7834333,N,12132.4499128,E,0.09,163.17,090324,,,R,V*14
$GPHDT,,T*1B
$GNACCURACY,4.1*13
$GNGGA,040246.000,2500.7834312,N,12132.4499087,E,4,51,0.55,16.748,M,15.25,M,1,3335*4C
$GNRMC,040246.000,A,2500.7834312,N,12132.4499087,E,0.05,163.17,090324,,,R,V*15
$GPHDT,3.307,T*32
$GNACCURACY,4.1*13
$GNGGA,040246.100,2500.7834344,N,12132.4499069,E,4,51,0.55,16.774,M,15.25,M,1,3335*41
$GNRMC,040246.100,A,2500.7834344,N,12132.4499069,E,0.11,163.17,090324,,,R,V*12
$GPHDT,,T*1B
$GNGSA,A,3,194,08,195,199,21,02,07,27,16,04,,,0.86,0.55,0.66,1*37
$GNGSA,A,3,81,88,78,77,79,,,,,,,,0.86,0.55,0.66,2*04
$GNGSA,A,3,13,21,26,27,15,,,,,,,,0.86,0.55,0.66,3*09
$GNGSA,A,3,09,06,23,16,43,07,40,39,28,10,25,37,0.86,0.55,0.66,4*05
$GNGSA,A,3,34,,,,,,,,,,,,0.86,0.55,0.66,4*0D
$GPGSV,4,1,16,194,64,051,36,08,64,349,41,195,63,116,41,50,60,167,32,1*61
$GPGSV,4,2,16,199,60,167,29,21,57,159,42,02,45,177,45,07,39,318,39,1*5D
$GPGSV,4,3,16,27,35,034,27,16,28,072,19,09,25,249,22,04,20,205,24,1*63
$GPGSV,4,4,16,196,20,170,17,30,09,320,17,26,09,097,15,31,03,143,,1*52
$GPGSV,2,1,08,194,64,051,38,08,64,349,45,195,63,116,44,199,60,167,42,8*5D
$GPGSV,2,2,08,27,35,034,25,09,25,249,20,04,20,205,25,30,09,320,24,8*6E
$GLGSV,2,1,06,81,61,197,37,88,58,034,31,78,55,031,34,77,25,107,29,1*70
$GLGSV,2,2,06,79,24,332,41,87,05,026,16,1*78
$GAGSV,2,1,05,13,54,085,26,21,54,008,36,26,41,172,30,27,29,077,17,7*7E
$GAGSV,2,2,05,15,15,040,19,7*4A
$GAGSV,2,1,05,13,54,085,25,21,54,008,38,26,41,172,26,27,29,077,28,1*7E
$GAGSV,2,2,05,15,15,040,20,1*46
$GBGSV,4,1,13,09,74,271,45,06,73,215,42,23,72,023,41,16,70,198,43,1*7B
$GBGSV,4,2,13,43,61,038,33,07,61,306,39,40,61,327,43,39,59,186,41,1*78
$GBGSV,4,3,13,28,53,218,42,10,51,287,37,25,39,115,44,37,28,321,40,1*7C
$GBGSV,4,4,13,34,14,040,32,1*43
$GBGSV,2,1,07,23,72,023,42,40,61,327,44,43,61,038,31,39,59,186,40,4*75
$GBGSV,2,2,07,28,53,218,37,25,39,115,43,37,28,321,41,4*43
$GNACCURACY,4.1*13
$PAIRSAT,1,32,2,0,201,3,0,200,4,0,221,5,0,200,6,0,200,7,0,201,8,0,221,9,0,200,10,0,200,11,0,200,12,0,200,13,0,200,14,0,200,15,0,200,16,0,201,20,0,200,21,0,201,22,0,200,23,0,200,24,0,200,25,0,200,26,0,220,27,0,221,28,0,200,29,0,200,30,0,200,31,0,200,32,0,200,194,0,221,195,0,621,196,0,600,199,0,621*73
$PAIRSAT,2,24,65,0,200,66,0,200,67,0,200,68,0,200,69,0,200,70,0,200,71,0,200,72,0,200,73,0,200,74,0,200,75,0,200,76,0,200,77,0,1,78,0,201,79,0,201,80,0,200,81,0,201,82,0,200,83,0,200,84,0,200,85,0,200,86,0,200,87,0,201,88,0,201*78
$PAIRSAT,3,23,2,0,1200,3,0,1200,4,0,1200,5,0,200,7,0,1200,8,0,1200,9,0,1200,10,0,200,11,0,200,12,0,200,13,0,221,15,0,220,19,0,200,21,0,221,24,0,200,25,0,1200,26,0,1221,27,0,1221,30,0,1000,31,0,1000,33,0,1200,34,0,1000,36,0,1200*6A
$PAIRSAT,4,45,1,0,200,2,0,200,3,0,600,4,0,200,5,0,200,6,0,1,7,0,1,9,0,201,10,0,201,11,0,200,12,0,200,13,0,200,14,0,200,16,0,201,19,0,600,20,0,600,21,0,600,22,0,600,23,0,621,24,0,600,25,0,621,26,0,600,27,0,600,28,0,621,29,0,600,30,0,400,32,0,400,33,0,400,34,0,421,35,0,400,36,0,400,37,0,421,38,0,400,39,0,421,40,0,421,41,0,400,42,0,400,43,0,421,44,0,400,45,0,400,46,0,400,59,0,400,60,0,400,61,0,400,62,0,400*5D
$PAIRDGP,7,2,7,8,16,21,26,27*56
$GNGGA,040246.200,2500.7834296,N,12132.4499113,E,4,51,0.55,16.752,M,15.25,M,1,3335*44
$GNRMC,040246.200,A,2500.7834296,N,12132.4499113,E,0.04,163.17,090324,,,R,V*17
$GPHDT,2.998,T*3F
$GNACCURACY,4.1*13
$GNGGA,040246.300,2500.7834347,N,12132.4499145,E,4,51,0.55,16.764,M,15.25,M,1,3335*4E
$GNRMC,040246.300,A,2500.7834347,N,12132.4499145,E,0.05,163.17,090324,,,R,V*19
$GPHDT,,T*1B
$GNACCURACY,4.1*13
$GNGGA,040246.400,2500.7834297,N,12132.4499094,E,4,51,0.55,16.747,M,15.25,M,1,3335*49
$GNRMC,040246.400,A,2500.7834297,N,12132.4499094,E,0.03,163.17,090324,,,R,V*19
$GPHDT,3.153,T*31
$GNACCURACY,4.1*13
$GNGGA,040246.500,2500.7834287,N,12132.4499080,E,4,51,0.55,16.737,M,15.25,M,1,3335*4B
$GNRMC,040246.500,A,2500.7834287,N,12132.4499080,E,0.02,163.17,090324,,,R,V*1D
$GPHDT,,T*1B
$GNACCURACY,4.1*13
$GNGGA,040246.600,2500.7834338,N,12132.4499045,E,4,51,0.55,16.751,M,15.25,M,1,3335*44
$GNRMC,040246.600,A,2500.7834338,N,12132.4499045,E,0.02,163.17,090324,,,R,V*12
$GPHDT,3.913,T*3D
$GNACCURACY,4.1*13
$GNGGA,040246.700,2500.7834354,N,12132.4499093,E,4,51,0.55,16.751,M,15.25,M,0,3335*45
$GNRMC,040246.700,A,2500.7834354,N,12132.4499093,E,0.12,163.17,090324,,,R,V*13
$GPHDT,,T*1B
$GNACCURACY,4.1*13
$GNGGA,040246.800,2500.7834346,N,12132.4499077,E,4,51,0.55,16.753,M,15.25,M,0,3335*41
$GNRMC,040246.800,A,2500.7834346,N,12132.4499077,E,0.05,163.17,090324,,,R,V*13
$GPHDT,3.292,T*3F
$GNACCURACY,4.1*13
$GNGGA,040246.900,2500.7834306,N,12132.4499026,E,4,51,0.55,16.724,M,15.25,M,0,3335*40
$GNRMC,040246.900,A,2500.7834306,N,12132.4499026,E,0.09,163.17,090324,,,R,V*1E
$GPHDT,,T*1B
$GNACCURACY,4.2*10
$GNGGA,040247.000,2500.7834336,N,12132.4499058,E,4,51,0.55,16.741,M,15.25,M,1,3335*40
$GNRMC,040247.000,A,2500.7834336,N,12132.4499058,E,0.08,163.17,090324,,,R,V*1D
$GPHDT,3.871,T*38
$GNACCURACY,4.2*10
$GNGGA,040247.100,2500.7834360,N,12132.4499132,E,4,51,0.55,16.744,M,15.25,M,1,3335*4A
$GNRMC,040247.100,A,2500.7834360,N,12132.4499132,E,0.02,163.17,090324,,,R,V*18
$GPHDT,,T*1B
$GNGSA,A,3,194,08,195,199,21,02,07,27,16,04,,,0.86,0.55,0.66,1*37
$GNGSA,A,3,81,88,78,77,79,,,,,,,,0.86,0.55,0.66,2*04
$GNGSA,A,3,13,21,26,27,15,,,,,,,,0.86,0.55,0.66,3*09
$GNGSA,A,3,09,06,23,16,40,07,43,39,28,10,25,37,0.86,0.55,0.66,4*05
$GNGSA,A,3,34,,,,,,,,,,,,0.86,0.55,0.66,4*0D
$GPGSV,4,1,16,194,64,051,36,08,64,349,41,195,63,116,42,50,60,167,32,1*62
$GPGSV,4,2,16,199,60,167,30,21,57,159,42,02,45,177,44,07,39,318,36,1*5B
$GPGSV,4,3,16,27,35,034,24,16,28,072,20,09,25,249,20,04,20,205,24,1*68
$GPGSV,4,4,16,196,20,170,17,30,09,320,16,26,09,097,15,31,03,143,,1*53
$GPGSV,2,1,08,194,64,051,37,08,64,349,45,195,63,116,44,199,60,167,40,8*50
$GPGSV,2,2,08,27,35,034,25,09,25,249,18,04,20,205,28,30,09,320,26,8*6A
$GLGSV,2,1,06,81,61,197,37,88,58,034,32,78,55,031,34,77,25,107,29,1*73
$GLGSV,2,2,06,79,24,332,39,87,05,026,16,1*77
$GAGSV,2,1,05,13,54,085,24,21,54,008,37,26,41,172,28,27,29,077,15,7*76
$GAGSV,2,2,05,15,15,040,16,7*45
$GAGSV,2,1,05,13,54,085,21,21,54,008,38,26,41,172,30,27,29,077,27,1*72
$GAGSV,2,2,05,15,15,040,20,1*46
$GBGSV,4,1,14,09,74,271,43,06,73,215,42,23,72,023,40,16,70,198,43,1*7B
$GBGSV,4,2,14,40,61,327,43,07,61,306,37,43,61,038,34,39,59,186,41,1*76
$GBGSV,4,3,14,28,53,218,42,10,51,287,31,25,39,115,44,37,28,321,40,1*7D
$GBGSV,4,4,14,34,13,040,30,58,,,33,1*4C
$GBGSV,2,1,07,23,72,023,42,40,61,327,44,43,61,038,32,39,59,186,38,4*79
$GBGSV,2,2,07,28,53,218,39,25,39,115,44,37,28,321,42,4*49
$GNACCURACY,4.2*10
$PAIRSAT,1,32,2,0,201,3,0,200,4,0,221,5,0,200,6,0,200,7,0,201,8,0,221,9,0,200,10,0,200,11,0,200,12,0,200,13,0,200,14,0,200,15,0,200,16,0,201,20,0,200,21,0,201,22,0,200,23,0,200,24,0,200,25,0,200,26,0,220,27,0,221,28,0,200,29,0,200,30,0,200,31,0,200,32,0,200,194,0,221,195,0,621,196,0,600,199,0,621*73
$PAIRSAT,2,24,65,0,200,66,0,200,67,0,200,68,0,200,69,0,200,70,0,200,71,0,200,72,0,200,73,0,200,74,0,200,75,0,200,76,0,200,77,0,1,78,0,201,79,0,201,80,0,200,81,0,201,82,0,200,83,0,200,84,0,200,85,0,200,86,0,200,87,0,201,88,0,201*78
$PAIRSAT,3,23,2,0,1200,3,0,1200,4,0,1200,5,0,200,7,0,1200,8,0,1200,9,0,1200,10,0,200,11,0,200,12,0,200,13,0,221,15,0,220,19,0,200,21,0,221,24,0,200,25,0,1200,26,0,1221,27,0,1221,30,0,1000,31,0,1000,33,0,1200,34,0,1000,36,0,1200*6A
$PAIRSAT,4,45,1,0,200,2,0,200,3,0,600,4,0,200,5,0,200,6,0,1,7,0,1,9,0,201,10,0,201,11,0,200,12,0,200,13,0,200,14,0,200,16,0,201,19,0,600,20,0,600,21,0,600,22,0,600,23,0,621,24,0,600,25,0,621,26,0,600,27,0,600,28,0,621,29,0,600,30,0,400,32,0,400,33,0,400,34,0,421,35,0,400,36,0,400,37,0,421,38,0,400,39,0,421,40,0,421,41,0,400,42,0,400,43,0,421,44,0,400,45,0,400,46,0,400,59,0,400,60,0,400,61,0,400,62,0,400*5D
$PAIRDGP,7,2,7,8,16,21,26,27*56
$GNGGA,040247.200,2500.7834349,N,12132.4499105,E,4,51,0.55,16.740,M,15.25,M,1,3335*42
$GNRMC,040247.200,A,2500.7834349,N,12132.4499105,E,0.08,163.17,090324,,,R,V*1E
$GPHDT,3.363,T*30
$GNACCURACY,4.2*10
$GNGGA,040247.300,2500.7834369,N,12132.4499117,E,4,51,0.56,16.740,M,15.25,M,1,3335*41
$GNRMC,040247.300,A,2500.7834369,N,12132.4499117,E,0.02,163.17,090324,,,R,V*14
$GPHDT,,T*1B
$GNACCURACY,4.3*11
$GNGGA,040247.400,2500.7834337,N,12132.4499094,E,4,51,0.56,16.725,M,15.25,M,1,3335*44
$GNRMC,040247.400,A,2500.7834337,N,12132.4499094,E,0.06,163.17,090324,,,R,V*16
$GPHDT,3.556,T*30
$GNACCURACY,4.2*10
$GNGGA,040247.500,2500.7834311,N,12132.4499132,E,4,51,0.56,16.731,M,15.25,M,0,3335*48
$GNRMC,040247.500,A,2500.7834311,N,12132.4499132,E,0.02,163.17,090324,,,R,V*1A
$GPHDT,,T*1B
$GNACCURACY,4.2*10
$GNGGA,040247.600,2500.7834331,N,12132.4499081,E,4,51,0.56,16.752,M,15.25,M,0,3335*45
$GNRMC,040247.600,A,2500.7834331,N,12132.4499081,E,0.03,163.17,090324,,,R,V*13
$GPHDT,4.224,T*35
$GNACCURACY,4.2*10
$GNGGA,040247.700,2500.7834321,N,12132.4499082,E,4,51,0.56,16.743,M,15.25,M,0,3335*46
$GNRMC,040247.700,A,2500.7834321,N,12132.4499082,E,0.01,163.17,090324,,,R,V*12
$GPHDT,,T*1B
$GNACCURACY,4.2*10
$GNGGA,040247.800,2500.7834332,N,12132.4499102,E,4,51,0.56,16.738,M,15.25,M,0,3335*4E
$GNRMC,040247.800,A,2500.7834332,N,12132.4499102,E,0.04,163.17,090324,,,R,V*13
$GPHDT,4.403,T*36
$GNACCURACY,4.2*10
$GNGGA,040247.900,2500.7834343,N,12132.4499124,E,4,51,0.56,16.746,M,15.25,M,0,3335*44
$GNRMC,040247.900,A,2500.7834343,N,12132.4499124,E,0.08,163.17,090324,,,R,V*1C
$GPHDT,,T*1B
$GNACCURACY,4.2*10
$GNGGA,040248.000,2500.7834359,N,12132.4499140,E,4,50,0.56,16.753,M,15.25,M,1,3335*4F
$GNRMC,040248.000,A,2500.7834359,N,12132.4499140,E,0.03,163.17,090324,,,R,V*18
$GPHDT,4.413,T*37
$GNACCURACY,4.2*10
$GNGGA,040248.100,2500.7834329,N,12132.4499091,E,4,50,0.57,16.749,M,15.25,M,1,3335*4E
$GNRMC,040248.100,A,2500.7834329,N,12132.4499091,E,0.07,163.17,090324,,,R,V*17
$GPHDT,,T*1B
$GNGSA,A,3,194,08,195,199,21,02,07,27,04,,,,1.05,0.57,0.88,1*38
$GNGSA,A,3,81,88,78,77,79,,,,,,,,1.05,0.57,0.88,2*0C
$GNGSA,A,3,21,13,26,27,15,,,,,,,,1.05,0.57,0.88,3*01
$GNGSA,A,3,09,06,23,16,43,40,07,39,28,10,25,37,1.05,0.57,0.88,4*0D
$GNGSA,A,3,34,,,,,,,,,,,,1.05,0.57,0.88,4*05
$GPGSV,4,1,15,194,64,051,35,08,64,349,39,195,63,116,42,199,60,167,29,1*53
$GPGSV,4,2,15,50,60,167,32,21,57,159,42,02,45,177,45,07,39,318,40,1*6E
$GPGSV,4,3,15,27,35,034,28,16,28,072,27,09,25,249,20,196,20,170,16,1*5A
$GPGSV,4,4,15,04,20,205,25,26,09,097,14,30,09,320,18,1*52
$GPGSV,2,1,08,194,64,051,37,08,64,349,45,195,63,116,44,199,60,167,42,8*52
$GPGSV,2,2,08,27,35,034,26,09,25,249,19,04,20,205,24,30,09,320,24,8*66
$GLGSV,2,1,06,81,61,197,35,88,58,034,34,78,55,031,29,77,25,107,28,1*7A
$GLGSV,2,2,06,79,24,332,40,87,05,026,15,1*7A
$GAGSV,2,1,05,21,54,008,36,13,54,085,19,26,41,172,26,27,29,077,18,7*7A
$GAGSV,2,2,05,15,15,040,17,7*44
$GAGSV,2,1,05,13,54,085,19,21,54,008,38,26,41,172,27,27,29,077,28,1*70
$GAGSV,2,2,05,15,15,040,20,1*46
$GBGSV,4,1,14,09,74,271,44,06,73,215,42,23,72,023,41,16,70,198,43,1*7D
$GBGSV,4,2,14,43,61,038,34,40,61,327,44,07,61,306,40,39,59,186,40,1*70
$GBGSV,4,3,14,28,53,218,41,10,51,287,37,25,39,115,44,37,28,321,41,1*79
$GBGSV,4,4,14,34,13,040,31,58,,,30,1*4E
$GBGSV,2,1,07,23,72,023,42,40,61,327,44,43,61,038,31,39,59,186,41,4*74
$GBGSV,2,2,07,28,53,218,37,25,39,115,44,37,28,321,42,4*47
$GNACCURACY,4.2*10
$PAIRSAT,1,32,2,0,201,3,0,200,4,0,221,5,0,200,6,0,200,7,0,201,8,0,221,9,0,200,10,0,200,11,0,200,12,0,200,13,0,200,14,0,200,15,0,200,16,0,201,20,0,200,21,0,201,22,0,200,23,0,200,24,0,200,25,0,200,26,0,220,27,0,221,28,0,200,29,0,200,30,0,200,31,0,200,32,0,200,194,0,221,195,0,621,196,0,600,199,0,621*73
$PAIRSAT,2,24,65,0,200,66,0,200,67,0,200,68,0,200,69,0,200,70,0,200,71,0,200,72,0,200,73,0,200,74,0,200,75,0,200,76,0,200,77,0,1,78,0,201,79,0,201,80,0,200,81,0,201,82,0,200,83,0,200,84,0,200,85,0,200,86,0,200,87,0,201,88,0,201*78
$PAIRSAT,3,23,2,0,1200,3,0,1200,4,0,1200,5,0,200,7,0,1200,8,0,1200,9,0,1200,10,0,200,11,0,200,12,0,200,13,0,221,15,0,220,19,0,200,21,0,221,24,0,200,25,0,1200,26,0,1221,27,0,1221,30,0,1000,31,0,1000,33,0,1200,34,0,1000,36,0,1200*6A
$PAIRSAT,4,45,1,0,200,2,0,200,3,0,600,4,0,200,5,0,200,6,0,1,7,0,1,9,0,201,10,0,201,11,0,200,12,0,200,13,0,200,14,0,200,16,0,201,19,0,600,20,0,600,21,0,600,22,0,600,23,0,621,24,0,600,25,0,621,26,0,600,27,0,600,28,0,621,29,0,600,30,0,400,32,0,400,33,0,400,34,0,421,35,0,400,36,0,400,37,0,421,38,0,400,39,0,421,40,0,421,41,0,400,42,0,400,43,0,421,44,0,400,45,0,400,46,0,400,59,0,400,60,0,400,61,0,400,62,0,400*5D
$PAIRDGP,7,2,7,8,16,21,26,27*56
$GNGGA,040248.200,2500.7834361,N,12132.4499092,E,4,50,0.57,16.749,M,15.25,M,1,3335*42
$GNRMC,040248.200,A,2500.7834361,N,12132.4499092,E,0.05,163.17,090324,,,R,V*19
$GPHDT,4.157,T*32
$GNACCURACY,3.9*1C
$GNGGA,040248.300,2500.7834333,N,12132.4499109,E,4,50,0.57,16.744,M,15.25,M,1,3335*4A
$GNRMC,040248.300,A,2500.7834333,N,12132.4499109,E,0.05,163.17,090324,,,R,V*1C
$GPHDT,,T*1B
$GNACCURACY,3.9*1C
$GNGGA,040248.400,2500.7834368,N,12132.4499151,E,4,50,0.57,16.754,M,15.25,M,1,3335*4F
$GNRMC,040248.400,A,2500.7834368,N,12132.4499151,E,0.02,163.17,090324,,,R,V*1F
$GPHDT,4.338,T*39
$GNACCURACY,3.9*1C
$GNGGA,040248.500,2500.7834383,N,12132.4499184,E,4,51,0.56,16.754,M,15.25,M,1,3335*43
$GNRMC,040248.500,A,2500.7834383,N,12132.4499184,E,0.00,163.17,090324,,,R,V*11
$GPHDT,,T*1B
$GNACCURACY,3.9*1C
$GNGGA,040248.600,2500.7834388,N,12132.4499119,E,4,51,0.56,16.762,M,15.25,M,1,3335*4A
$GNRMC,040248.600,A,2500.7834388,N,12132.4499119,E,0.01,163.17,090324,,,R,V*1C
$GPHDT,4.257,T*31
$GNACCURACY,3.8*1D
$GNGGA,040248.700,2500.7834368,N,12132.4499149,E,4,51,0.56,16.760,M,15.25,M,0,3335*43
$GNRMC,040248.700,A,2500.7834368,N,12132.4499149,E,0.01,163.17,090324,,,R,V*16
$GPHDT,,T*1B
$GNACCURACY,3.8*1D
$GNGGA,040248.800,2500.7834356,N,12132.4499116,E,4,51,0.56,16.747,M,15.25,M,0,3335*4E
$GNRMC,040248.800,A,2500.7834356,N,12132.4499116,E,0.00,163.17,090324,,,R,V*1F
$GPHDT,3.819,T*36
$GNACCURACY,3.9*1C
$GNGGA,040248.900,2500.7834387,N,12132.4499199,E,4,51,0.56,16.752,M,15.25,M,0,3335*40
$GNRMC,040248.900,A,2500.7834387,N,12132.4499199,E,0.01,163.17,090324,,,R,V*14
$GPHDT,,T*1B
$GNACCURACY,3.9*1C
$GNGGA,040249.000,2500.7834353,N,12132.4499153,E,4,51,0.56,16.756,M,15.25,M,1,3335*42
$GNRMC,040249.000,A,2500.7834353,N,12132.4499153,E,0.01,163.17,090324,,,R,V*13
$GPHDT,2.320,T*36
$GNACCURACY,3.8*1D
$GNGGA,040249.100,2500.7834354,N,12132.4499109,E,4,51,0.56,16.741,M,15.25,M,1,3335*4D
$GNRMC,040249.100,A,2500.7834354,N,12132.4499109,E,0.00,163.17,090324,,,R,V*1B
$GPHDT,,T*1B
$GNGSA,A,3,194,08,195,199,21,02,07,27,16,04,,,1.03,0.56,0.87,1*37
$GNGSA,A,3,81,88,78,77,79,,,,,,,,1.03,0.56,0.87,2*04
$GNGSA,A,3,21,13,26,27,15,,,,,,,,1.03,0.56,0.87,3*09
$GNGSA,A,3,09,06,23,16,43,40,07,39,28,10,25,37,1.03,0.56,0.87,4*05
$GNGSA,A,3,34,,,,,,,,,,,,1.03,0.56,0.87,4*0D
$GPGSV,4,1,15,194,64,051,35,08,64,349,39,195,63,116,42,199,60,167,31,1*5A
$GPGSV,4,2,15,50,60,167,33,21,57,159,42,02,45,177,45,07,39,318,41,1*6E
$GPGSV,4,3,15,27,35,034,31,16,28,072,30,09,25,249,19,196,20,170,13,1*5B
$GPGSV,4,4,15,04,20,205,29,26,09,097,14,30,09,320,19,1*5F
$GPGSV,2,1,08,194,64,051,38,08,64,349,45,195,63,116,45,199,60,167,42,8*5C
$GPGSV,2,2,08,27,35,034,25,09,25,249,22,04,20,205,21,30,09,320,23,8*6F
$GLGSV,2,1,06,81,61,197,35,88,58,034,35,78,55,031,26,77,25,107,28,1*74
$GLGSV,2,2,06,79,24,332,40,87,05,026,13,1*7C
$GAGSV,2,1,05,21,54,008,36,13,54,085,17,26,41,172,27,27,29,077,19,7*74
$GAGSV,2,2,05,15,15,040,17,7*44
$GAGSV,2,1,05,13,54,085,22,21,54,008,39,26,41,172,27,27,29,077,28,1*79
$GAGSV,2,2,05,15,15,040,21,1*47
$GBGSV,4,1,14,09,74,271,44,06,73,215,42,23,72,023,41,16,70,198,43,1*7D
$GBGSV,4,2,14,43,61,038,36,40,61,327,44,07,61,306,41,39,59,186,40,1*73
$GBGSV,4,3,14,28,53,218,41,10,51,287,37,25,39,115,44,37,28,321,41,1*79
$GBGSV,4,4,14,34,13,040,29,58,,,32,1*45
$GBGSV,2,1,07,23,72,023,42,40,61,327,44,43,61,038,32,39,59,186,41,4*77
$GBGSV,2,2,07,28,53,218,37,25,39,115,44,37,28,321,42,4*47
$GNACCURACY,3.8*1D
$PAIRSAT,1,32,2,0,201,3,0,200,4,0,221,5,0,200,6,0,200,7,0,201,8,0,221,9,0,200,10,0,200,11,0,200,12,0,200,13,0,200,14,0,200,15,0,200,16,0,201,20,0,200,21,0,201,22,0,200,23,0,200,24,0,200,25,0,200,26,0,220,27,0,221,28,0,200,29,0,200,30,0,200,31,0,200,32,0,200,194,0,221,195,0,621,196,0,600,199,0,621*73
$PAIRSAT,2,24,65,0,200,66,0,200,67,0,200,68,0,200,69,0,200,70,0,200,71,0,200,72,0,200,73,0,200,74,0,200,75,0,200,76,0,200,77,0,1,78,0,201,79,0,201,80,0,200,81,0,201,82,0,200,83,0,200,84,0,200,85,0,200,86,0,200,87,0,201,88,0,201*78
$PAIRSAT,3,23,2,0,1200,3,0,1200,4,0,1200,5,0,200,7,0,1200,8,0,1200,9,0,1200,10,0,200,11,0,200,12,0,200,13,0,221,15,0,220,19,0,200,21,0,221,24,0,200,25,0,1200,26,0,1221,27,0,1221,30,0,1000,31,0,1000,33,0,1200,34,0,1000,36,0,1200*6A
$PAIRSAT,4,45,1,0,200,2,0,200,3,0,600,4,0,200,5,0,200,6,0,1,7,0,1,9,0,201,10,0,201,11,0,200,12,0,200,13,0,200,14,0,200,16,0,201,19,0,600,20,0,600,21,0,600,22,0,600,23,0,621,24,0,600,25,0,621,26,0,600,27,0,600,28,0,621,29,0,600,30,0,400,32,0,400,33,0,400,34,0,421,35,0,400,36,0,400,37,0,421,38,0,400,39,0,421,40,0,421,41,0,400,42,0,400,43,0,421,44,0,400,45,0,400,46,0,400,59,0,400,60,0,400,61,0,400,62,0,400*5D
$PAIRDGP,7,2,7,8,16,21,26,27*56
$GNGGA,040249.200,2500.7834336,N,12132.4499100,E,4,51,0.56,16.751,M,15.25,M,1,3335*42
$GNRMC,040249.200,A,2500.7834336,N,12132.4499100,E,0.01,163.17,090324,,,R,V*14
$GPHDT,2.309,T*3D
$GNACCURACY,3.8*1D
$GNGGA,040249.300,2500.7834365,N,12132.4499137,E,4,51,0.56,16.746,M,15.25,M,1,3335*47
$GNRMC,040249.300,A,2500.7834365,N,12132.4499137,E,0.00,163.17,090324,,,R,V*16
$GPHDT,,T*1B
$GNACCURACY,3.8*1D
$GNGGA,040249.400,2500.7834360,N,12132.4499094,E,4,51,0.56,16.756,M,15.25,M,1,3335*4C
$GNRMC,040249.400,A,2500.7834360,N,12132.4499094,E,0.01,163.17,090324,,,R,V*1D
$GPHDT,2.170,T*31
$GNACCURACY,3.9*1C
$GNGGA,040249.500,2500.7834324,N,12132.4499119,E,4,51,0.56,16.732,M,15.25,M,0,3335*4A
$GNRMC,040249.500,A,2500.7834324,N,12132.4499119,E,0.01,163.17,090324,,,R,V*18
$GPHDT,,T*1B
$GNACCURACY,3.9*1C
$GNGGA,040249.600,2500.7834344,N,12132.4499076,E,4,51,0.56,16.759,M,15.25,M,0,3335*4A
$GNRMC,040249.600,A,2500.7834344,N,12132.4499076,E,0.00,163.17,090324,,,R,V*14
$GPHDT,2.897,T*31
$GNACCURACY,3.9*1C
$GNGGA,040249.700,2500.7834348,N,12132.4499091,E,4,51,0.56,16.743,M,15.25,M,0,3335*45
$GNRMC,040249.700,A,2500.7834348,N,12132.4499091,E,0.01,163.17,090324,,,R,V*11
$GPHDT,,T*1B
$GNACCURACY,3.9*1C
$GNGGA,040249.800,2500.7834357,N,12132.4499071,E,4,51,0.56,16.744,M,15.25,M,0,3335*4D
$GNRMC,040249.800,A,2500.7834357,N,12132.4499071,E,0.01,163.17,090324,,,R,V*1E
$GPHDT,2.806,T*39
$GNACCURACY,3.9*1C
$GNGGA,040249.900,2500.7834351,N,12132.4499070,E,4,51,0.56,16.753,M,15.25,M,0,3335*4D
$GNRMC,040249.900,A,2500.7834351,N,12132.4499070,E,0.00,163.17,090324,,,R,V*19
$GPHDT,,T*1B
$GNACCURACY,3.9*1C
$GNGGA,040250.000,2500.7834344,N,12132.4499088,E,4,51,0.56,16.745,M,15.25,M,1,3335*49
$GNRMC,040250.000,A,2500.7834344,N,12132.4499088,E,0.00,163.17,090324,,,R,V*1B
$GPHDT,2.947,T*3D
$GNACCURACY,3.9*1C
$GNGGA,040250.100,2500.7834329,N,12132.4499032,E,4,51,0.56,16.752,M,15.25,M,1,3335*44
$GNRMC,040250.100,A,2500.7834329,N,12132.4499032,E,0.00,163.17,090324,,,R,V*10
$GPHDT,,T*1B
$GNGSA,A,3,194,08,195,199,21,02,07,27,16,04,,,1.03,0.56,0.87,1*37
$GNGSA,A,3,81,88,78,77,79,,,,,,,,1.03,0.56,0.87,2*04
$GNGSA,A,3,21,13,26,27,15,,,,,,,,1.03,0.56,0.87,3*09
$GNGSA,A,3,09,06,23,16,43,40,07,39,28,10,25,37,1.03,0.56,0.87,4*05
$GNGSA,A,3,34,,,,,,,,,,,,1.03,0.56,0.87,4*0D
$GPGSV,4,1,15,194,64,051,37,08,64,349,38,195,63,116,42,199,60,167,31,1*59
$GPGSV,4,2,15,50,60,167,34,21,57,159,42,02,45,177,45,07,39,318,40,1*68
$GPGSV,4,3,15,27,35,034,32,16,28,072,29,09,25,249,17,196,20,170,13,1*5E
$GPGSV,4,4,15,04,20,205,28,26,09,097,16,30,09,320,17,1*52
$GPGSV,2,1,08,194,64,051,38,08,64,349,44,195,63,116,45,199,60,167,42,8*5D
$GPGSV,2,2,08,27,35,034,26,09,25,249,21,04,20,205,21,30,09,320,23,8*6F
$GLGSV,2,1,06,81,61,197,35,88,58,034,34,78,55,031,32,77,25,107,28,1*70
$GLGSV,2,2,06,79,24,332,38,87,05,026,14,1*74
$GAGSV,2,1,05,21,54,008,37,13,54,085,18,26,41,172,28,27,29,077,19,7*75
$GAGSV,2,2,05,15,15,040,19,7*4A
$GAGSV,2,1,05,13,54,085,23,21,54,008,39,26,41,172,28,27,29,077,27,1*78
$GAGSV,2,2,05,15,15,040,19,1*4C
$GBGSV,4,1,14,09,74,271,44,06,73,215,42,23,72,023,41,16,70,198,43,1*7D
$GBGSV,4,2,14,43,61,038,36,40,61,327,44,07,61,306,41,39,59,186,40,1*73
$GBGSV,4,3,14,28,53,218,41,10,51,287,38,25,39,115,44,37,28,321,40,1*77
$GBGSV,4,4,14,34,13,040,30,58,,,30,1*4F
$GBGSV,2,1,07,23,72,023,42,40,61,327,44,43,61,038,31,39,59,186,41,4*74
$GBGSV,2,2,07,28,53,218,37,25,39,115,44,37,28,321,42,4*47
$GNACCURACY,3.9*1C
$PAIRSAT,1,32,2,0,201,3,0,200,4,0,221,5,0,200,6,0,200,7,0,201,8,0,221,9,0,200,10,0,200,11,0,200,12,0,200,13,0,200,14,0,200,15,0,200,16,0,201,20,0,200,21,0,201,22,0,200,23,0,200,24,0,200,25,0,200,26,0,220,27,0,221,28,0,200,29,0,200,30,0,200,31,0,200,32,0,200,194,0,221,195,0,621,196,0,600,199,0,621*73
$PAIRSAT,2,24,65,0,200,66,0,200,67,0,200,68,0,200,69,0,200,70,0,200,71,0,200,72,0,200,73,0,200,74,0,200,75,0,200,76,0,200,77,0,1,78,0,201,79,0,201,80,0,200,81,0,201,82,0,200,83,0,200,84,0,200,85,0,200,86,0,200,87,0,201,88,0,201*78
$PAIRSAT,3,23,2,0,1200,3,0,1200,4,0,1200,5,0,200,7,0,1200,8,0,1200,9,0,1200,10,0,200,11,0,200,12,0,200,13,0,221,15,0,220,19,0,200,21,0,221,24,0,200,25,0,1200,26,0,1221,27,0,1221,30,0,1000,31,0,1000,33,0,1200,34,0,1