$FW : RTK35X,V1.1X0314AS,Lib20210517,1*54
$Tool : LOCOSYS , GNSS Firebird , v1.0.0.19*39
$---------------------------------------------------*2D
,T*08
$GNACCURACY,3.8*1D
$GNGGA,040218.700,2500.7834312,N,12132.4499113,E,4,49,0.55,16.872,M,15.25,M,1,3335*43
$GNRMC,040218.700,A,2500.7834312,N,12132.4499113,E,0.01,163.17,090324,,,R,V*11
$GPHDT,,T*1B
$GNACCURACY,3.8*1D
$GNGGA,040218.800,2500.7834336,N,12132.4499135,E,4,49,0.55,16.873,M,15.25,M,0,3335*4E
$GNRMC,040218.800,A,2500.7834336,N,12132.4499135,E,0.00,163.17,090324,,,R,V*1D
$GPHDT,91.461,T*0E
$GNACCURACY,3.8*1D
$GNGGA,040218.900,2500.7834314,N,12132.4499124,E,4,49,0.55,16.863,M,15.25,M,0,3335*4E
$GNRMC,040218.900,A,2500.7834314,N,12132.4499124,E,0.01,163.17,090324,,,R,V*1D
$GPHDT,,T*1B
$GNACCURACY,3.8*1D
$GNGGA,040219.000,2500.7834332,N,12132.4499148,E,4,49,0.55,16.871,M,15.25,M,1,3335*4A
$GNRMC,040219.000,A,2500.7834332,N,12132.4499148,E,0.01,163.17,090324,,,R,V*1B
$GPHDT,89.876,T*0D
$GNACCURACY,3.8*1D
$GNGGA,040219.100,2500.7834350,N,12132.4499165,E,4,49,0.55,16.882,M,15.25,M,1,3335*4C
$GNRMC,040219.100,A,2500.7834350,N,12132.4499165,E,0.00,163.17,090324,,,R,V*10
$GPHDT,,T*1B
$GNGSA,A,3,08,194,195,199,21,02,07,27,16,04,,,0.86,0.55,0.66,1*37
$GNGSA,A,3,81,88,78,77,79,,,,,,,,0.86,0.55,0.66,2*04
$GNGSA,A,3,21,13,26,27,15,,,,,,,,0.86,0.55,0.66,3*09
$GNGSA,A,3,09,06,23,16,40,43,07,39,28,10,25,37,0.86,0.55,0.66,4*05
$GNGSA,A,3,34,,,,,,,,,,,,0.86,0.55,0.66,4*0D
$GPGSV,4,1,16,08,65,349,42,194,64,051,34,195,63,116,41,50,60,167,34,1*67
$GPGSV,4,2,16,199,60,167,30,21,57,159,42,02,45,177,46,07,39,318,37,1*58
$GPGSV,4,3,16,27,36,034,33,16,29,072,29,09,25,249,22,04,20,205,24,1*67
$GPGSV,4,4,16,196,20,170,26,26,09,097,20,30,08,320,20,31,03,143,,1*53
$GPGSV,2,1,08,08,65,349,35,194,64,051,39,195,63,116,44,199,60,167,43,8*5B
$GPGSV,2,2,08,27,36,034,26,09,25,249,24,04,20,205,29,196,20,170,20,8*53
$GLGSV,2,1,06,81,61,197,40,88,59,035,21,78,55,031,23,77,25,107,25,1*7B
$GLGSV,2,2,06,79,23,331,20,87,06,026,14,1*7A
$GAGSV,2,1,07,21,54,008,34,13,54,086,16,26,41,172,26,27,29,076,26,7*7A
$GAGSV,2,2,07,15,15,040,,04,12,302,,33,02,199,,7*45
$GAGSV,2,1,05,13,54,086,30,21,54,008,39,26,41,172,30,27,29,076,17,1*72
$GAGSV,2,2,05,15,15,040,23,1*45
$GBGSV,4,1,13,09,74,271,42,06,73,215,37,23,72,023,43,16,70,198,42,1*7D
$GBGSV,4,2,13,40,61,327,41,43,61,038,34,07,61,306,36,39,59,186,45,1*76
$GBGSV,4,3,13,28,53,218,44,10,51,287,32,25,39,114,40,37,28,321,29,1*75
$GBGSV,4,4,13,34,14,040,29,1*49
$GBGSV,2,1,07,23,72,023,44,40,61,327,34,43,61,038,31,39,59,186,41,4*75
$GBGSV,2,2,07,28,53,218,40,25,39,114,37,37,28,321,31,4*46
$GNACCURACY,3.8*1D
$PAIRSAT,1,32,2,0,201,3,0,200,4,0,221,5,0,200,6,0,200,7,0,201,8,0,221,9,0,200,10,0,200,11,0,200,12,0,200,13,0,200,14,0,200,15,0,200,16,0,1,20,0,200,21,0,201,22,0,200,23,0,200,24,0,200,25,0,200,26,0,220,27,0,221,28,0,200,29,0,200,30,0,200,31,0,200,32,0,200,194,0,221,195,0,621,196,0,600,199,0,621*71
$PAIRSAT,2,24,65,0,200,66,0,200,67,0,200,68,0,200,69,0,200,70,0,200,71,0,200,72,0,200,73,0,200,74,0,200,75,0,200,76,0,200,77,0,1,78,0,201,79,0,201,80,0,200,81,0,201,82,0,200,83,0,200,84,0,200,85,0,200,86,0,200,87,0,201,88,0,201*78
$PAIRSAT,3,23,2,0,1200,3,0,1200,4,0,1200,5,0,200,7,0,1200,8,0,1200,9,0,1200,10,0,200,11,0,200,12,0,200,13,0,221,15,0,220,19,0,200,21,0,221,24,0,200,25,0,1200,26,0,1021,27,0,1021,30,0,1000,31,0,1000,33,0,1200,34,0,1000,36,0,1200*6A
$PAIRSAT,4,44,1,0,200,2,0,200,3,0,600,4,0,200,6,0,1,7,0,1,9,0,201,10,0,201,11,0,200,12,0,200,13,0,200,14,0,200,16,0,201,19,0,600,20,0,600,21,0,600,22,0,600,23,0,621,24,0,600,25,0,621,26,0,600,27,0,600,28,0,621,29,0,400,30,0,400,32,0,400,33,0,400,34,0,421,35,0,400,36,0,400,37,0,421,38,0,400,39,0,421,40,0,421,41,0,400,42,0,400,43,0,421,44,0,400,45,0,400,46,0,400,59,0,400,60,0,400,61,0,400,62,0,400*45
$PAIRDGP,7,2,7,8,16,21,26,27*56
$GNGGA,040219.200,2500.7834351,N,12132.4499174,E,4,50,0.55,16.882,M,15.25,M,1,3335*46
$GNRMC,040219.200,A,2500.7834351,N,12132.4499174,E,0.00,163.17,090324,,,R,V*12
$GPHDT,92.260,T*0A
$GNACCURACY,3.8*1D
$GNGGA,040219.300,2500.7834361,N,12132.4499092,E,4,50,0.55,16.865,M,15.25,M,1,3335*44
$GNRMC,040219.300,A,2500.7834361,N,12132.4499092,E,0.01,163.17,090324,,,R,V*18
$GPHDT,,T*1B
$GNACCURACY,3.8*1D
$GNGGA,040219.400,2500.7834364,N,12132.4499097,E,4,50,0.55,16.884,M,15.25,M,1,3335*4C
$GNRMC,040219.400,A,2500.7834364,N,12132.4499097,E,0.01,163.17,090324,,,R,V*1F
$GPHDT,91.029,T*06
$GNACCURACY,3.8*1D
$GNGGA,040219.500,2500.7834377,N,12132.4499138,E,4,50,0.55,16.866,M,15.25,M,1,3335*47
$GNRMC,040219.500,A,2500.7834377,N,12132.4499138,E,0.01,163.17,090324,,,R,V*18
$GPHDT,,T*1B
$GNACCURACY,3.9*1C
$GNGGA,040219.600,2500.7834349,N,12132.4499113,E,4,50,0.55,16.884,M,15.25,M,1,3335*4C
$GNRMC,040219.600,A,2500.7834349,N,12132.4499113,E,0.01,163.17,090324,,,R,V*1F
$GPHDT,91.175,T*0E
$GNACCURACY,3.9*1C
$GNGGA,040219.700,2500.7834360,N,12132.4499124,E,4,50,0.55,16.892,M,15.25,M,0,3335*44
$GNRMC,040219.700,A,2500.7834360,N,12132.4499124,E,0.00,163.17,090324,,,R,V*10
$GPHDT,,T*1B
$GNACCURACY,3.8*1D
$GNGGA,040219.800,2500.7834362,N,12132.4499111,E,4,49,0.55,16.890,M,15.25,M,0,3335*45
$GNRMC,040219.800,A,2500.7834362,N,12132.4499111,E,0.01,163.17,090324,,,R,V*1A
$GPHDT,93.653,T*0F
$GNACCURACY,3.8*1D
$GNGGA,040219.900,2500.7834341,N,12132.4499103,E,4,49,0.55,16.874,M,15.25,M,0,3335*4C
$GNRMC,040219.900,A,2500.7834341,N,12132.4499103,E,0.01,163.17,090324,,,R,V*19
$GPHDT,,T*1B
$GNACCURACY,4.3*11
$GNGGA,040220.000,2500.7834366,N,12132.4499112,E,4,48,0.56,16.883,M,15.25,M,1,3335*41
$GNRMC,040220.000,A,2500.7834366,N,12132.4499112,E,0.02,163.17,090324,,,R,V*1C
$GPHDT,93.718,T*01
$GNACCURACY,4.3*11
$GNGGA,040220.100,2500.7834356,N,12132.4499056,E,4,49,0.56,16.894,M,15.25,M,1,3335*45
$GNRMC,040220.100,A,2500.7834356,N,12132.4499056,E,0.01,163.17,090324,,,R,V*1C
$GPHDT,,T*1B
$GNGSA,A,3,08,194,195,199,21,02,07,27,04,,,,0.87,0.56,0.66,1*32
$GNGSA,A,3,81,88,78,77,79,,,,,,,,0.87,0.56,0.66,2*06
$GNGSA,A,3,21,13,26,27,15,,,,,,,,0.87,0.56,0.66,3*0B
$GNGSA,A,3,09,06,23,16,43,07,40,39,28,10,25,37,0.87,0.56,0.66,4*07
$GNGSA,A,3,34,,,,,,,,,,,,0.87,0.56,0.66,4*0F
$GPGSV,4,1,15,08,65,349,42,194,64,051,35,195,63,116,41,50,60,167,33,1*62
$GPGSV,4,2,15,199,60,167,31,21,57,159,41,02,45,177,46,07,39,318,39,1*57
$GPGSV,4,3,15,27,36,034,31,16,29,072,,09,25,249,22,04,20,205,28,1*61
$GPGSV,4,4,15,196,20,170,27,26,09,097,19,30,08,320,22,1*6E
$GPGSV,2,1,08,08,65,349,35,194,64,051,40,195,63,116,44,199,60,167,43,8*55
$GPGSV,2,2,08,27,36,034,23,09,25,249,23,04,20,205,28,196,20,170,20,8*50
$GLGSV,2,1,06,81,61,197,39,88,59,035,28,78,55,031,29,77,25,107,25,1*76
$GLGSV,2,2,06,79,23,331,29,87,06,026,13,1*74
$GAGSV,2,1,06,21,54,008,36,13,54,086,13,26,41,172,21,27,29,076,26,7*7B
$GAGSV,2,2,06,15,15,040,,33,02,199,,7*72
$GAGSV,2,1,05,13,54,086,30,21,54,008,39,26,41,172,32,27,29,076,17,1*70
$GAGSV,2,2,05,15,15,040,22,1*44
$GBGSV,4,1,13,09,74,271,42,06,73,215,38,23,72,023,43,16,70,198,43,1*73
$GBGSV,4,2,13,43,61,038,33,07,61,306,36,40,61,327,42,39,59,186,45,1*72
$GBGSV,4,3,13,28,53,218,44,10,51,287,32,25,39,114,39,37,28,321,27,1*75
$GBGSV,4,4,13,34,14,040,31,1*40
$GBGSV,2,1,07,23,72,023,44,40,61,327,35,43,61,038,29,39,59,186,41,4*7D
$GBGSV,2,2,07,28,53,218,40,25,39,114,37,37,28,321,33,4*44
$GNACCURACY,4.3*11
$PAIRSAT,1,32,2,0,201,3,0,200,4,0,221,5,0,200,6,0,200,7,0,201,8,0,221,9,0,200,10,0,200,11,0,200,12,0,200,13,0,200,14,0,200,15,0,200,16,0,1,20,0,200,21,0,201,22,0,200,23,0,200,24,0,200,25,0,200,26,0,220,27,0,221,28,0,200,29,0,200,30,0,200,31,0,200,32,0,200,194,0,221,195,0,621,196,0,600,199,0,621*71
$PAIRSAT,2,24,65,0,200,66,0,200,67,0,200,68,0,200,69,0,200,70,0,200,71,0,200,72,0,200,73,0,200,74,0,200,75,0,200,76,0,200,77,0,1,78,0,201,79,0,201,80,0,200,81,0,201,82,0,200,83,0,200,84,0,200,85,0,200,86,0,200,87,0,201,88,0,201*78
$PAIRSAT,3,23,2,0,1200,3,0,1200,4,0,1200,5,0,200,7,0,1200,8,0,1200,9,0,1200,10,0,200,11,0,200,12,0,200,13,0,221,15,0,220,19,0,200,21,0,221,24,0,200,25,0,1200,26,0,1021,27,0,1021,30,0,1000,31,0,1000,33,0,1200,34,0,1000,36,0,1200*6A
$PAIRSAT,4,44,1,0,200,2,0,200,3,0,600,4,0,200,6,0,1,7,0,1,9,0,201,10,0,201,11,0,200,12,0,200,13,0,200,14,0,200,16,0,201,19,0,600,20,0,600,21,0,600,22,0,600,23,0,621,24,0,600,25,0,621,26,0,600,27,0,600,28,0,621,29,0,400,30,0,400,32,0,400,33,0,400,34,0,421,35,0,400,36,0,400,37,0,421,38,0,400,39,0,421,40,0,421,41,0,400,42,0,400,43,0,421,44,0,400,45,0,400,46,0,400,59,0,400,60,0,400,61,0,400,62,0,400*45
$PAIRDGP,7,2,7,8,16,21,26,27*56
$GNGGA,040220.200,2500.7834365,N,12132.4499086,E,4,49,0.56,16.890,M,15.25,M,1,3335*4F
$GNRMC,040220.200,A,2500.7834365,N,12132.4499086,E,0.01,163.17,090324,,,R,V*12
$GPHDT,93.504,T*0E
$GNACCURACY,4.3*11
$GNGGA,040220.300,2500.7834356,N,12132.4499047,E,4,49,0.56,16.891,M,15.25,M,1,3335*42
$GNRMC,040220.300,A,2500.7834356,N,12132.4499047,E,0.01,163.17,090324,,,R,V*1E
$GPHDT,,T*1B
$GNACCURACY,4.3*11
$GNGGA,040220.400,2500.7834355,N,12132.4499132,E,4,48,0.56,16.898,M,15.25,M,0,3335*4C
$GNRMC,040220.400,A,2500.7834355,N,12132.4499132,E,0.01,163.17,090324,,,R,V*19
$GPHDT,93.390,T*05
$GNACCURACY,4.3*11
$GNGGA,040220.500,2500.7834345,N,12132.4499061,E,4,48,0.56,16.892,M,15.25,M,0,3335*41
$GNRMC,040220.500,A,2500.7834345,N,12132.4499061,E,0.01,163.17,090324,,,R,V*1E
$GPHDT,,T*1B
$GNACCURACY,4.3*11
$GNGGA,040220.600,2500.7834373,N,12132.4499104,E,4,48,0.56,16.901,M,15.25,M,0,3335*4E
$GNRMC,040220.600,A,2500.7834373,N,12132.4499104,E,0.00,163.17,090324,,,R,V*1B
$GPHDT,93.718,T*01
$GNACCURACY,3.9*1C
$GNGGA,040220.700,2500.7834363,N,12132.4499106,E,4,49,0.55,16.881,M,15.25,M,0,3335*47
$GNRMC,040220.700,A,2500.7834363,N,12132.4499106,E,0.00,163.17,090324,,,R,V*19
$GPHDT,,T*1B
$GNACCURACY,3.9*1C
$GNGGA,040220.800,2500.7834350,N,12132.4499096,E,4,49,0.55,16.862,M,15.25,M,0,3335*4D
$GNRMC,040220.800,A,2500.7834350,N,12132.4499096,E,0.00,163.17,090324,,,R,V*1E
$GPHDT,93.440,T*0F
$GNACCURACY,3.9*1C
$GNGGA,040220.900,2500.7834361,N,12132.4499105,E,4,49,0.55,16.879,M,15.25,M,0,3335*4F
$GNRMC,040220.900,A,2500.7834361,N,12132.4499105,E,0.00,163.17,090324,,,R,V*16
$GPHDT,,T*1B
$GNACCURACY,3.9*1C
$GNGGA,040221.000,2500.7834343,N,12132.4499103,E,4,49,0.55,16.836,M,15.25,M,1,3335*4B
$GNRMC,040221.000,A,2500.7834343,N,12132.4499103,E,0.00,163.17,090324,,,R,V*18
$GPHDT,92.060,T*08
$GNACCURACY,3.9*1C
$GNGGA,040221.100,2500.7834334,N,12132.4499089,E,4,49,0.55,16.838,M,15.25,M,1,3335*47
$GNRMC,040221.100,A,2500.7834334,N,12132.4499089,E,0.00,163.17,090324,,,R,V*1A
$GPHDT,,T*1B
$GNGSA,A,3,08,194,195,199,21,02,07,27,16,04,,,0.86,0.55,0.66,1*37
$GNGSA,A,3,81,88,78,77,79,,,,,,,,0.86,0.55,0.66,2*04
$GNGSA,A,3,21,13,27,26,15,,,,,,,,0.86,0.55,0.66,3*09
$GNGSA,A,3,09,06,23,16,43,07,40,39,28,10,25,37,0.86,0.55,0.66,4*05
$GNGSA,A,3,34,,,,,,,,,,,,0.86,0.55,0.66,4*0D
$GPGSV,4,1,15,08,65,349,42,194,64,051,35,195,63,116,42,50,60,167,34,1*66
$GPGSV,4,2,15,199,60,167,31,21,57,159,41,02,45,177,46,07,39,318,40,1*59
$GPGSV,4,3,15,27,35,034,32,16,29,072,30,09,25,249,22,04,20,205,25,1*6F
$GPGSV,4,4,15,196,20,170,28,30,09,320,20,26,09,097,19,1*62
$GPGSV,2,1,08,08,65,349,42,194,64,051,40,195,63,116,43,199,60,167,43,8*52
$GPGSV,2,2,08,27,35,034,24,09,25,249,22,04,20,205,27,196,20,170,22,8*58
$GLGSV,2,1,06,81,61,197,37,88,59,035,31,78,55,031,29,77,25,107,24,1*71
$GLGSV,2,2,06,79,23,331,27,87,06,026,16,1*7F
$GAGSV,2,1,06,21,54,008,36,13,54,086,15,26,41,172,,27,29,076,25,7*7D
$GAGSV,2,2,06,15,15,040,,33,02,199,,7*72
$GAGSV,2,1,05,13,54,086,28,21,54,008,39,26,41,172,31,27,29,076,16,1*7B
$GAGSV,2,2,05,15,15,040,25,1*43
$GBGSV,4,1,13,09,74,271,42,06,73,215,38,23,72,023,43,16,70,198,43,1*73
$GBGSV,4,2,13,43,61,038,33,07,61,306,37,40,61,327,43,39,59,186,45,1*72
$GBGSV,4,3,13,28,53,218,43,10,51,287,37,25,39,114,38,37,28,321,28,1*79
$GBGSV,4,4,13,34,14,040,27,1*47
$GBGSV,2,1,07,23,72,023,44,40,61,327,38,43,61,038,31,39,59,186,41,4*79
$GBGSV,2,2,07,28,53,218,40,25,39,114,38,37,28,321,34,4*4C
$GNACCURACY,3.9*1C
$PAIRSAT,1,32,2,0,201,3,0,200,4,0,221,5,0,200,6,0,200,7,0,201,8,0,221,9,0,200,10,0,200,11,0,200,12,0,200,13,0,200,14,0,200,15,0,200,16,0,1,20,0,200,21,0,201,22,0,200,23,0,200,24,0,200,25,0,200,26,0,220,27,0,221,28,0,200,29,0,200,30,0,200,31,0,200,32,0,200,194,0,221,195,0,621,196,0,600,199,0,621*71
$PAIRSAT,2,24,65,0,200,66,0,200,67,0,200,68,0,200,69,0,200,70,0,200,71,0,200,72,0,200,73,0,200,74,0,200,75,0,200,76,0,200,77,0,1,78,0,201,79,0,201,80,0,200,81,0,201,82,0,200,83,0,200,84,0,200,85,0,200,86,0,200,87,0,201,88,0,201*78
$PAIRSAT,3,23,2,0,1200,3,0,1200,4,0,1200,5,0,200,7,0,1200,8,0,1200,9,0,1200,10,0,200,11,0,200,12,0,200,13,0,221,15,0,220,19,0,200,21,0,221,24,0,200,25,0,1200,26,0,1221,27,0,1021,30,0,1000,31,0,1000,33,0,1200,34,0,1000,36,0,1200*68
$PAIRSAT,4,45,1,0,200,2,0,200,3,0,600,4,0,200,5,0,200,6,0,1,7,0,1,9,0,201,10,0,201,11,0,200,12,0,200,13,0,200,14,0,200,16,0,201,19,0,600,20,0,600,21,0,600,22,0,600,23,0,621,24,0,600,25,0,621,26,0,600,27,0,600,28,0,621,29,0,400,30,0,400,32,0,400,33,0,400,34,0,421,35,0,400,36,0,400,37,0,421,38,0,400,39,0,421,40,0,421,41,0,400,42,0,400,43,0,421,44,0,400,45,0,400,46,0,400,59,0,400,60,0,400,61,0,400,62,0,400*5F
$PAIRDGP,7,2,7,8,16,21,26,27*56
$GNGGA,040221.200,2500.7834356,N,12132.4499139,E,4,49,0.55,16.850,M,15.25,M,1,3335*44
$GNRMC,040221.200,A,2500.7834356,N,12132.4499139,E,0.00,163.17,090324,,,R,V*17
$GPHDT,92.294,T*01
$GNACCURACY,3.9*1C
$GNGGA,040221.300,2500.7834357,N,12132.4499095,E,4,49,0.55,16.841,M,15.25,M,1,3335*43
$GNRMC,040221.300,A,2500.7834357,N,12132.4499095,E,0.01,163.17,090324,,,R,V*11
$GPHDT,,T*1B
$GNACCURACY,3.9*1C
$GNGGA,040221.400,2500.7834379,N,12132.4499085,E,4,49,0.55,16.831,M,15.25,M,1,3335*4E
$GNRMC,040221.400,A,2500.7834379,N,12132.4499085,E,0.01,163.17,090324,,,R,V*1B
$GPHDT,92.757,T*0B
$GNACCURACY,3.8*1D
$GNGGA,040221.500,2500.7834372,N,12132.4499082,E,4,49,0.55,16.828,M,15.25,M,1,3335*4B
$GNRMC,040221.500,A,2500.7834372,N,12132.4499082,E,0.01,163.17,090324,,,R,V*16
$GPHDT,,T*1B
$GNACCURACY,3.8*1D
$GNGGA,040221.600,2500.7834404,N,12132.4499092,E,4,49,0.55,16.806,M,15.25,M,1,3335*43
$GNRMC,040221.600,A,2500.7834404,N,12132.4499092,E,0.02,163.17,090324,,,R,V*11
$GPHDT,92.712,T*0A
$GNACCURACY,3.8*1D
$GNGGA,040221.700,2500.7834411,N,12132.4499089,E,4,49,0.55,16.810,M,15.25,M,0,3335*4A
$GNRMC,040221.700,A,2500.7834411,N,12132.4499089,E,0.02,163.17,090324,,,R,V*1E
$GPHDT,,T*1B
$GNACCURACY,3.8*1D
$GNGGA,040221.800,2500.7834378,N,12132.4499082,E,4,48,0.57,16.805,M,15.25,M,0,3335*41
$GNRMC,040221.800,A,2500.7834378,N,12132.4499082,E,0.02,163.17,090324,,,R,V*12
$GPHDT,92.418,T*03
$GNACCURACY,3.8*1D
$GNGGA,040221.900,2500.7834363,N,12132.4499120,E,4,48,0.57,16.812,M,15.25,M,0,3335*45
$GNRMC,040221.900,A,2500.7834363,N,12132.4499120,E,0.02,163.17,090324,,,R,V*10
$GPHDT,,T*1B
$GNACCURACY,3.8*1D
$GNGGA,040222.000,2500.7834368,N,12132.4499084,E,4,48,0.57,16.838,M,15.25,M,1,3335*42
$GNRMC,040222.000,A,2500.7834368,N,12132.4499084,E,0.02,163.17,090324,,,R,V*1E
$GPHDT,92.436,T*0F
$GNACCURACY,3.8*1D
$GNGGA,040222.100,2500.7834404,N,12132.4499084,E,4,48,0.57,16.879,M,15.25,M,1,3335*4B
$GNRMC,040222.100,A,2500.7834404,N,12132.4499084,E,0.02,163.17,090324,,,R,V*12
$GPHDT,,T*1B
$GNGSA,A,3,08,194,195,199,21,02,07,27,16,04,,,0.87,0.57,0.66,1*34
$GNGSA,A,3,81,88,78,77,79,,,,,,,,0.87,0.57,0.66,2*07
$GNGSA,A,3,21,13,27,15,,,,,,,,,0.87,0.57,0.66,3*0E
$GNGSA,A,3,09,06,23,16,43,07,40,39,28,10,25,37,0.87,0.57,0.66,4*06
$GNGSA,A,3,34,,,,,,,,,,,,0.87,0.57,0.66,4*0E
$GPGSV,4,1,15,08,65,349,42,194,64,051,36,195,63,116,42,50,60,167,35,1*64
$GPGSV,4,2,15,199,60,167,32,21,57,159,41,02,45,177,46,07,39,318,39,1*54
$GPGSV,4,3,15,27,35,034,30,16,29,072,29,09,25,249,21,04,20,205,25,1*66
$GPGSV,4,4,15,196,20,170,27,30,09,320,18,26,09,097,18,1*67
$GPGSV,2,1,08,08,65,349,39,194,64,051,40,195,63,116,43,199,60,167,43,8*5E
$GPGSV,2,2,08,27,35,034,23,09,25,249,24,04,20,205,29,196,20,170,23,8*56
$GLGSV,2,1,06,81,61,197,36,88,59,035,25,78,55,031,29,77,25,107,25,1*74
$GLGSV,2,2,06,79,23,331,33,87,06,026,16,1*7A
$GAGSV,2,1,06,21,54,008,33,13,54,086,17,26,41,172,20,27,29,076,25,7*78
$GAGSV,2,2,06,15,15,040,,33,02,199,,7*72
$GAGSV,1,1,04,21,54,008,38,13,54,086,23,27,29,076,15,15,15,040,25,1*74
$GBGSV,4,1,13,09,74,271,41,06,73,215,39,23,72,023,42,16,70,198,44,1*77
$GBGSV,4,2,13,43,61,038,31,07,61,306,39,40,61,327,43,39,59,186,46,1*7D
$GBGSV,4,3,13,28,53,218,41,10,51,287,38,25,39,114,38,37,28,321,32,1*7F
$GBGSV,4,4,13,34,14,040,30,1*41
$GBGSV,2,1,07,23,72,023,44,40,61,327,38,43,61,038,32,39,59,186,41,4*7A
$GBGSV,2,2,07,28,53,218,41,25,39,114,37,37,28,321,34,4*42
$GNACCURACY,3.8*1D
$PAIRSAT,1,32,2,0,201,3,0,200,4,0,221,5,0,200,6,0,200,7,0,201,8,0,221,9,0,200,10,0,200,11,0,200,12,0,200,13,0,200,14,0,200,15,0,200,16,0,1,20,0,200,21,0,201,22,0,200,23,0,200,24,0,200,25,0,200,26,0,220,27,0,221,28,0,200,29,0,200,30,0,200,31,0,200,32,0,200,194,0,221,195,0,621,196,0,600,199,0,621*71
$PAIRSAT,2,24,65,0,200,66,0,200,67,0,200,68,0,200,69,0,200,70,0,200,71,0,200,72,0,200,73,0,200,74,0,200,75,0,200,76,0,200,77,0,1,78,0,201,79,0,201,80,0,200,81,0,201,82,0,200,83,0,200,84,0,200,85,0,200,86,0,200,87,0,201,88,0,201*78
$PAIRSAT,3,23,2,0,1200,3,0,1200,4,0,1200,5,0,200,7,0,1200,8,0,1200,9,0,1200,10,0,200,11,0,200,12,0,200,13,0,221,15,0,220,19,0,200,21,0,221,24,0,200,25,0,1200,26,0,1221,27,0,1021,30,0,1000,31,0,1000,33,0,1200,34,0,1000,36,0,1200*68
$PAIRSAT,4,45,1,0,200,2,0,200,3,0,600,4,0,200,5,0,200,6,0,1,7,0,1,9,0,201,10,0,201,11,0,200,12,0,200,13,0,200,14,0,200,16,0,201,19,0,600,20,0,600,21,0,600,22,0,600,23,0,621,24,0,600,25,0,621,26,0,600,27,0,600,28,0,621,29,0,400,30,0,400,32,0,400,33,0,400,34,0,421,35,0,400,36,0,400,37,0,421,38,0,400,39,0,421,40,0,421,41,0,400,42,0,400,43,0,421,44,0,400,45,0,400,46,0,400,59,0,400,60,0,400,61,0,400,62,0,400*5F
$PAIRDGP,7,2,7,8,16,21,26,27*56
$GNGGA,040222.200,2500.7834415,N,12132.4499156,E,4,48,0.57,16.868,M,15.25,M,1,3335*46
$GNRMC,040222.200,A,2500.7834415,N,12132.4499156,E,0.02,163.17,090324,,,R,V*1F
$GPHDT,93.074,T*0C
$GNACCURACY,3.9*1C
$GNGGA,040222.300,2500.7834397,N,12132.4499147,E,4,49,0.55,16.861,M,15.25,M,1,3335*40
$GNRMC,040222.300,A,2500.7834397,N,12132.4499147,E,0.02,163.17,090324,,,R,V*13
$GPHDT,,T*1B
$GNACCURACY,3.9*1C
$GNGGA,040222.400,2500.7834393,N,12132.4499146,E,4,49,0.55,16.840,M,15.25,M,1,3335*41
$GNRMC,040222.400,A,2500.7834393,N,12132.4499146,E,0.02,163.17,090324,,,R,V*11
$GPHDT,92.470,T*0D
$GNACCURACY,3.9*1C
$GNGGA,040222.500,2500.7834444,N,12132.4499172,E,4,50,0.55,16.790,M,15.25,M,1,3335*40
$GNRMC,040222.500,A,2500.7834444,N,12132.4499172,E,0.01,163.17,090324,,,R,V*19
$GPHDT,,T*1B
$GNACCURACY,3.9*1C
$GNGGA,040222.600,2500.7834439,N,12132.4499189,E,4,50,0.55,16.794,M,15.25,M,1,3335*49
$GNRMC,040222.600,A,2500.7834439,N,12132.4499189,E,0.01,163.17,090324,,,R,V*14
$GPHDT,92.908,T*0F
$GNACCURACY,3.9*1C
$GNGGA,040222.700,2500.7834427,N,12132.4499183,E,4,51,0.55,16.783,M,15.25,M,1,3335*4A
$GNRMC,040222.700,A,2500.7834427,N,12132.4499183,E,0.01,163.17,090324,,,R,V*10
$GPHDT,,T*1B
$GNACCURACY,3.9*1C
$GNGGA,040222.800,2500.7834436,N,12132.4499196,E,4,50,0.55,16.796,M,15.25,M,0,3335*45
$GNRMC,040222.800,A,2500.7834436,N,12132.4499196,E,0.01,163.17,090324,,,R,V*1B
$GPHDT,93.373,T*08
$GNACCURACY,3.9*1C
$GNGGA,040222.900,2500.7834397,N,12132.4499102,E,4,50,0.55,16.791,M,15.25,M,0,3335*42
$GNRMC,040222.900,A,2500.7834397,N,12132.4499102,E,0.01,163.17,090324,,,R,V*1B
$GPHDT,,T*1B
$GNACCURACY,3.9*1C
$GNGGA,040223.000,2500.7834397,N,12132.4499135,E,4,50,0.55,16.784,M,15.25,M,1,3335*4B
$GNRMC,040223.000,A,2500.7834397,N,12132.4499135,E,0.01,163.17,090324,,,R,V*17
$GPHDT,93.121,T*0D
$GNACCURACY,3.8*1D
$GNGGA,040223.100,2500.7834396,N,12132.4499098,E,4,50,0.55,16.765,M,15.25,M,1,3335*42
$GNRMC,040223.100,A,2500.7834396,N,12132.4499098,E,0.01,163.17,090324,,,R,V*11
$GPHDT,,T*1B
$GNGSA,A,3,08,194,195,199,21,02,07,27,16,04,,,0.86,0.55,0.66,1*37
$GNGSA,A,3,81,88,78,77,79,,,,,,,,0.86,0.55,0.66,2*04
$GNGSA,A,3,21,13,26,27,15,,,,,,,,0.86,0.55,0.66,3*09
$GNGSA,A,3,09,06,23,16,43,07,40,39,28,10,25,37,0.86,0.55,0.66,4*05
$GNGSA,A,3,34,,,,,,,,,,,,0.86,0.55,0.66,4*0D
$GPGSV,4,1,15,08,65,349,42,194,64,051,35,195,63,116,42,50,60,167,34,1*66
$GPGSV,4,2,15,199,60,167,31,21,57,159,42,02,45,177,46,07,39,318,40,1*5A
$GPGSV,4,3,15,27,35,034,27,16,29,072,29,09,25,249,20,04,20,205,25,1*61
$GPGSV,4,4,15,196,20,170,24,30,09,320,18,26,09,097,18,1*64
$GPGSV,2,1,08,08,65,349,41,194,64,051,40,195,63,116,44,199,60,167,43,8*56
$GPGSV,2,2,08,27,35,034,25,09,25,249,24,04,20,205,28,196,20,170,21,8*53
$GLGSV,2,1,06,81,61,197,37,88,59,035,25,78,55,031,30,77,25,107,25,1*7D
$GLGSV,2,2,06,79,23,331,32,87,06,026,15,1*78
$GAGSV,2,1,06,21,54,008,31,13,54,085,19,26,41,172,21,27,29,076,24,7*77
$GAGSV,2,2,06,15,15,040,25,33,02,199,,7*75
$GAGSV,1,1,04,21,54,008,37,13,54,085,26,26,41,172,37,15,15,040,22,1*70
$GBGSV,4,1,13,09,74,271,42,06,73,215,40,23,72,023,42,16,70,198,45,1*7B
$GBGSV,4,2,13,43,61,038,34,07,61,306,37,40,61,327,41,39,59,186,46,1*74
$GBGSV,4,3,13,28,53,218,43,10,51,287,39,25,39,114,39,37,28,321,39,1*76
$GBGSV,4,4,13,34,14,040,31,1*40
$GBGSV,2,1,07,23,72,023,44,40,61,327,41,43,61,038,31,39,59,186,41,4*77
$GBGSV,2,2,07,28,53,218,41,25,39,114,37,37,28,321,29,4*4E
$GNACCURACY,3.8*1D
$PAIRSAT,1,32,2,0,201,3,0,200,4,0,221,5,0,200,6,0,200,7,0,201,8,0,221,9,0,200,10,0,200,11,0,200,12,0,200,13,0,200,14,0,200,15,0,200,16,0,1,20,0,200,21,0,201,22,0,200,23,0,200,24,0,200,25,0,200,26,0,220,27,0,221,28,0,200,29,0,200,30,0,200,31,0,200,32,0,200,194,0,221,195,0,621,196,0,600,199,0,621*71
$PAIRSAT,2,24,65,0,200,66,0,200,67,0,200,68,0,200,69,0,200,70,0,200,71,0,200,72,0,200,73,0,200,74,0,200,75,0,200,76,0,200,77,0,1,78,0,201,79,0,201,80,0,200,81,0,201,82,0,200,83,0,200,84,0,200,85,0,200,86,0,200,87,0,201,88,0,201*78
$PAIRSAT,3,23,2,0,1200,3,0,1200,4,0,1200,5,0,200,7,0,1200,8,0,1200,9,0,1200,10,0,200,11,0,200,12,0,200,13,0,221,15,0,220,19,0,200,21,0,221,24,0,200,25,0,1200,26,0,1221,27,0,1221,30,0,1000,31,0,1000,33,0,1200,34,0,1000,36,0,1200*6A
$PAIRSAT,4,45,1,0,200,2,0,200,3,0,600,4,0,200,5,0,200,6,0,1,7,0,1,9,0,201,10,0,201,11,0,200,12,0,200,13,0,200,14,0,200,16,0,201,19,0,600,20,0,600,21,0,600,22,0,600,23,0,621,24,0,600,25,0,621,26,0,600,27,0,600,28,0,621,29,0,400,30,0,400,32,0,400,33,0,400,34,0,421,35,0,400,36,0,400,37,0,421,38,0,400,39,0,421,40,0,421,41,0,400,42,0,400,43,0,421,44,0,400,45,0,400,46,0,400,59,0,400,60,0,400,61,0,400,62,0,400*5F
$PAIRDGP,7,2,7,8,16,21,26,27*56
$GNGGA,040223.200,2500.7834391,N,12132.4499115,E,4,50,0.55,16.759,M,15.25,M,1,3335*4D
$GNRMC,040223.200,A,2500.7834391,N,12132.4499115,E,0.01,163.17,090324,,,R,V*11
$GPHDT,92.968,T*09
$GNACCURACY,4.0*12
$GNGGA,040223.300,2500.7834382,N,12132.4499102,E,4,50,0.55,16.762,M,15.25,M,1,3335*40
$GNRMC,040223.300,A,2500.7834382,N,12132.4499102,E,0.01,163.17,090324,,,R,V*14
$GPHDT,,T*1B
$GNACCURACY,4.0*12
$GNGGA,040223.400,2500.7834366,N,12132.4499051,E,4,50,0.55,16.761,M,15.25,M,1,3335*49
$GNRMC,040223.400,A,2500.7834366,N,12132.4499051,E,0.01,163.17,090324,,,R,V*1E
$GPHDT,92.339,T*07
$GNACCURACY,4.0*12
$GNGGA,040223.500,2500.7834390,N,12132.4499058,E,4,49,0.55,16.767,M,15.25,M,1,3335*46
$GNRMC,040223.500,A,2500.7834390,N,12132.4499058,E,0.03,163.17,090324,,,R,V*1D
$GPHDT,,T*1B
$GNACCURACY,4.0*12
$GNGGA,040223.600,2500.7834362,N,12132.4499042,E,4,50,0.55,16.771,M,15.25,M,0,3335*4D
$GNRMC,040223.600,A,2500.7834362,N,12132.4499042,E,0.03,163.17,090324,,,R,V*18
$GPHDT,93.263,T*08
$GNACCURACY,4.0*12
$GNGGA,040223.700,2500.7834387,N,12132.4499073,E,4,50,0.55,16.781,M,15.25,M,0,3335*4A
$GNRMC,040223.700,A,2500.7834387,N,12132.4499073,E,0.02,163.17,090324,,,R,V*11
$GPHDT,,T*1B
$GNACCURACY,4.0*12
$GNGGA,040223.800,2500.7834400,N,12132.4499085,E,4,50,0.55,16.778,M,15.25,M,0,3335*42
$GNRMC,040223.800,A,2500.7834400,N,12132.4499085,E,0.02,163.17,090324,,,R,V*1F
$GPHDT,93.441,T*0E
$GNACCURACY,4.0*12
$GNGGA,040223.900,2500.7834381,N,12132.4499079,E,4,50,0.55,16.777,M,15.25,M,0,3335*41
$GNRMC,040223.900,A,2500.7834381,N,12132.4499079,E,0.03,163.17,090324,,,R,V*12
$GPHDT,,T*1B
$GNACCURACY,4.0*12
$GNGGA,040224.000,2500.7834372,N,12132.4499106,E,4,49,0.55,16.776,M,15.25,M,1,3335*42
$GNRMC,040224.000,A,2500.7834372,N,12132.4499106,E,0.04,163.17,090324,,,R,V*1E
$GPHDT,92.588,T*0B
$GNACCURACY,4.0*12
$GNGGA,040224.100,2500.7834390,N,12132.4499103,E,4,49,0.55,16.775,M,15.25,M,1,3335*49
$GNRMC,040224.100,A,2500.7834390,N,12132.4499103,E,0.01,163.17,090324,,,R,V*13
$GPHDT,,T*1B
$GNGSA,A,3,08,194,195,199,21,02,07,27,16,04,,,0.86,0.55,0.66,1*37
$GNGSA,A,3,81,88,78,77,79,,,,,,,,0.86,0.55,0.66,2*04
$GNGSA,A,3,21,13,26,27,15,,,,,,,,0.86,0.55,0.66,3*09
$GNGSA,A,3,09,06,23,16,43,07,40,39,28,10,25,37,0.86,0.55,0.66,4*05
$GNGSA,A,3,34,,,,,,,,,,,,0.86,0.55,0.66,4*0D
$GPGSV,4,1,15,08,65,349,43,194,64,051,32,195,63,116,41,50,60,167,34,1*63
$GPGSV,4,2,15,199,60,167,31,21,57,159,42,02,45,177,46,07,39,318,42,1*58
$GPGSV,4,3,15,27,35,034,24,16,29,072,32,09,25,249,20,04,20,205,25,1*68
$GPGSV,4,4,15,196,20,170,24,30,09,320,18,26,09,097,20,1*6F
$GPGSV,2,1,07,08,65,349,44,194,64,051,40,195,63,116,44,199,60,167,44,8*5B
$GPGSV,2,2,07,09,25,249,24,04,20,205,29,196,20,170,21,8*6E
$GLGSV,2,1,06,81,61,197,40,88,59,035,28,78,55,031,31,77,25,107,26,1*72
$GLGSV,2,2,06,79,23,331,38,87,06,026,15,1*72
$GAGSV,2,1,06,21,54,008,36,13,54,085,16,26,41,172,16,27,29,076,25,7*7A
$GAGSV,2,2,06,15,15,040,24,33,02,199,,7*74
$GAGSV,1,1,04,13,54,085,27,21,54,008,38,26,41,172,32,15,15,040,26,1*7F
$GBGSV,4,1,13,09,74,271,42,06,73,215,39,23,72,023,42,16,70,198,44,1*74
$GBGSV,4,2,13,43,61,038,37,07,61,306,39,40,61,327,43,39,59,186,45,1*78
$GBGSV,4,3,13,28,53,218,41,10,51,287,39,25,39,114,41,37,28,321,43,1*76
$GBGSV,4,4,13,34,14,040,31,1*40
$GBGSV,2,1,07,23,72,023,45,40,61,327,41,43,61,038,32,39,59,186,42,4*76
$GBGSV,2,2,07,28,53,218,41,25,39,114,38,37,28,321,36,4*4F
$GNACCURACY,4.0*12
$PAIRSAT,1,32,2,0,201,3,0,200,4,0,221,5,0,200,6,0,200,7,0,201,8,0,221,9,0,200,10,0,200,11,0,200,12,0,200,13,0,200,14,0,200,15,0,200,16,0,1,20,0,200,21,0,201,22,0,200,23,0,200,24,0,200,25,0,200,26,0,220,27,0,221,28,0,200,29,0,200,30,0,200,31,0,200,32,0,200,194,0,221,195,0,621,196,0,600,199,0,621*71
$PAIRSAT,2,24,65,0,200,66,0,200,67,0,200,68,0,200,69,0,200,70,0,200,71,0,200,72,0,200,73,0,200,74,0,200,75,0,200,76,0,200,77,0,1,78,0,201,79,0,201,80,0,200,81,0,201,82,0,200,83,0,200,84,0,200,85,0,200,86,0,200,87,0,201,88,0,201*78
$PAIRSAT,3,23,2,0,1200,3,0,1200,4,0,1200,5,0,200,7,0,1200,8,0,1200,9,0,1200,10,0,200,11,0,200,12,0,200,13,0,221,15,0,220,19,0,200,21,0,221,24,0,200,25,0,1200,26,0,1221,27,0,1221,30,0,1000,31,0,1000,33,0,1200,34,0,1000,36,0,1200*6A
$PAIRSAT,4,45,1,0,200,2,0,200,3,0,600,4,0,200,5,0,200,6,0,1,7,0,1,9,0,201,10,0,201,11,0,200,12,0,200,13,0,200,14,0,200,16,0,201,19,0,600,20,0,600,21,0,600,22,0,600,23,0,621,24,0,600,25,0,621,26,0,600,27,0,600,28,0,621,29,0,400,30,0,400,32,0,400,33,0,400,34,0,421,35,0,400,36,0,400,37,0,421,38,0,400,39,0,421,40,0,421,41,0,400,42,0,400,43,0,421,44,0,400,45,0,400,46,0,400,59,0,400,60,0,400,61,0,400,62,0,400*5F
$PAIRDGP,7,2,7,8,16,21,26,27*56
$GNGGA,040224.200,2500.7834395,N,12132.4499113,E,4,49,0.55,16.785,M,15.25,M,1,3335*41
$GNRMC,040224.200,A,2500.7834395,N,12132.4499113,E,0.02,163.17,090324,,,R,V*17
$GPHDT,92.579,T*05
$GNACCURACY,4.1*13
$GNGGA,040224.300,2500.7834399,N,12132.4499132,E,4,50,0.55,16.784,M,15.25,M,1,3335*46
$GNRMC,040224.300,A,2500.7834399,N,12132.4499132,E,0.03,163.17,090324,,,R,V*18
$GPHDT,,T*1B
$GNACCURACY,4.1*13
$GNGGA,040224.400,2500.7834390,N,12132.4499121,E,4,49,0.55,16.777,M,15.25,M,1,3335*4E
$GNRMC,040224.400,A,2500.7834390,N,12132.4499121,E,0.02,163.17,090324,,,R,V*15
$GPHDT,92.328,T*07
$GNACCURACY,4.1*13
$GNGGA,040224.500,2500.7834407,N,12132.4499139,E,4,49,0.55,16.786,M,15.25,M,1,3335*41
$GNRMC,040224.500,A,2500.7834407,N,12132.4499139,E,0.02,163.17,090324,,,R,V*14
$GPHDT,,T*1B
$GNACCURACY,4.1*13
$GNGGA,040224.600,2500.7834388,N,12132.4499134,E,4,49,0.55,16.790,M,15.25,M,1,3335*48
$GNRMC,040224.600,A,2500.7834388,N,12132.4499134,E,0.03,163.17,090324,,,R,V*1B
$GPHDT,92.666,T*08
$GNACCURACY,4.1*13
$GNGGA,040224.700,2500.7834369,N,12132.4499114,E,4,49,0.55,16.798,M,15.25,M,0,3335*4D
$GNRMC,040224.700,A,2500.7834369,N,12132.4499114,E,0.04,163.17,090324,,,R,V*10
$GPHDT,,T*1B
$GNACCURACY,4.1*13
$GNGGA,040224.800,2500.7834358,N,12132.4499134,E,4,49,0.55,16.791,M,15.25,M,0,3335*4B
$GNRMC,040224.800,A,2500.7834358,N,12132.4499134,E,0.04,163.17,090324,,,R,V*1F
$GPHDT,91.827,T*00
$GNACCURACY,4.1*13
$GNGGA,040224.900,2500.7834357,N,12132.4499110,E,4,49,0.55,16.811,M,15.25,M,0,3335*44
$GNRMC,040224.900,A,2500.7834357,N,12132.4499110,E,0.04,163.17,090324,,,R,V*17
$GPHDT,,T*1B
$GNACCURACY,4.0*12
$GNGGA,040225.000,2500.7834357,N,12132.4499109,E,4,49,0.55,16.809,M,15.25,M,1,3335*4C
$GNRMC,040225.000,A,2500.7834357,N,12132.4499109,E,0.02,163.17,090324,,,R,V*11
$GPHDT,92.403,T*09
$GNACCURACY,4.0*12
$GNGGA,040225.100,2500.7834338,N,12132.4499103,E,4,50,0.55,16.781,M,15.25,M,1,3335*49
$GNRMC,040225.100,A,2500.7834338,N,12132.4499103,E,0.02,163.17,090324,,,R,V*13
$GPHDT,,T*1B
$GNGSA,A,3,08,194,195,199,21,02,07,27,16,04,,,0.86,0.55,0.66,1*37
$GNGSA,A,3,81,88,78,77,79,,,,,,,,0.86,0.55,0.66,2*04
$GNGSA,A,3,21,13,26,27,15,,,,,,,,0.86,0.55,0.66,3*09
$GNGSA,A,3,09,06,23,16,07,43,40,39,28,10,25,37,0.86,0.55,0.66,4*05
$GNGSA,A,3,34,,,,,,,,,,,,0.86,0.55,0.66,4*0D
$GPGSV,4,1,15,08,65,349,43,194,64,051,34,195,63,116,40,50,60,167,36,1*66
$GPGSV,4,2,15,199,60,167,33,21,57,159,42,02,45,177,46,07,39,318,43,1*5B
$GPGSV,4,3,15,27,35,034,30,16,29,072,30,09,25,249,21,04,20,205,25,1*6E
$GPGSV,4,4,15,196,20,170,22,30,09,320,19,26,09,097,18,1*63
$GPGSV,3,1,09,08,65,349,44,194,64,051,40,195,63,116,44,199,60,167,44,8*54
$GPGSV,3,2,09,27,35,034,28,09,25,249,22,04,20,205,27,196,20,170,19,8*5C
$GPGSV,3,3,09,26,09,097,17,8*51
$GLGSV,2,1,06,81,61,197,37,88,59,035,21,78,55,031,30,77,25,107,26,1*7A
$GLGSV,2,2,06,79,23,331,42,87,06,026,14,1*7E
$GAGSV,2,1,05,21,54,008,35,13,54,085,14,26,41,172,21,27,29,077,23,7*7B
$GAGSV,2,2,05,15,15,040,20,7*40
$GAGSV,1,1,04,21,54,008,38,13,54,085,21,26,41,172,31,15,15,040,26,1*7A
$GBGSV,4,1,13,09,74,271,42,06,73,215,40,23,72,023,42,16,70,198,44,1*7A
$GBGSV,4,2,13,07,61,306,39,43,61,038,35,40,61,327,42,39,59,186,45,1*7B
$GBGSV,4,3,13,28,53,218,43,10,51,287,39,25,39,114,41,37,28,321,45,1*72
$GBGSV,4,4,13,34,14,040,31,1*40
$GBGSV,2,1,07,23,72,023,45,40,61,327,43,43,61,038,31,39,59,186,42,4*77
$GBGSV,2,2,07,28,53,218,41,25,39,114,37,37,28,321,38,4*4E
$GNACCURACY,4.0*12
$PAIRSAT,1,32,2,0,201,3,0,200,4,0,221,5,0,200,6,0,200,7,0,201,8,0,221,9,0,200,10,0,200,11,0,200,12,0,200,13,0,200,14,0,200,15,0,200,16,0,1,20,0,200,21,0,201,22,0,200,23,0,200,24,0,200,25,0,200,26,0,220,27,0,221,28,0,200,29,0,200,30,0,200,31,0,200,32,0,200,194,0,221,195,0,621,196,0,600,199,0,621*71
$PAIRSAT,2,24,65,0,200,66,0,200,67,0,200,68,0,200,69,0,200,70,0,200,71,0,200,72,0,200,73,0,200,74,0,200,75,0,200,76,0,200,77,0,1,78,0,201,79,0,201,80,0,200,81,0,201,82,0,200,83,0,200,84,0,200,85,0,200,86,0,200,87,0,201,88,0,201*78
$PAIRSAT,3,23,2,0,1200,3,0,1200,4,0,1200,5,0,200,7,0,1200,8,0,1200,9,0,1200,10,0,200,11,0,200,12,0,200,13,0,221,15,0,220,19,0,200,21,0,221,24,0,200,25,0,1200,26,0,1221,27,0,1221,30,0,1000,31,0,1000,33,0,1200,34,0,1000,36,0,1200*6A
$PAIRSAT,4,45,1,0,200,2,0,200,3,0,600,4,0,200,5,0,200,6,0,1,7,0,1,9,0,201,10,0,201,11,0,200,12,0,200,13,0,200,14,0,200,16,0,201,19,0,600,20,0,600,21,0,600,22,0,600,23,0,621,24,0,600,25,0,621,26,0,600,27,0,600,28,0,621,29,0,400,30,0,400,32,0,400,33,0,400,34,0,421,35,0,400,36,0,400,37,0,421,38,0,400,39,0,421,40,0,421,41,0,400,42,0,400,43,0,421,44,0,400,45,0,400,46,0,400,59,0,400,60,0,400,61,0,400,62,0,400*5F
$PAIRDGP,7,2,7,8,16,21,26,27*56
$GNGGA,040225.200,2500.7834367,N,12132.4499135,E,4,50,0.55,16.793,M,15.25,M,1,3335*46
$GNRMC,040225.200,A,2500.7834367,N,12132.4499135,E,0.03,163.17,090324,,,R,V*1E
$GPHDT,92.241,T*09
$GNACCURACY,4.0*12
$GNGGA,040225.300,2500.7834348,N,12132.4499139,E,4,50,0.55,16.797,M,15.25,M,1,3335*42
$GNRMC,040225.300,A,2500.7834348,N,12132.4499139,E,0.03,163.17,090324,,,R,V*1E
$GPHDT,,T*1B
$GNACCURACY,4.0*12
$GNGGA,040225.400,2500.7834349,N,12132.4499149,E,4,49,0.55,16.788,M,15.25,M,1,3335*45
$GNRMC,040225.400,A,2500.7834349,N,12132.4499149,E,0.02,163.17,090324,,,R,V*1E
$GPHDT,92.152,T*08
$GNACCURACY,4.0*12
$GNGGA,040225.500,2500.7834340,N,12132.4499116,E,4,49,0.55,16.784,M,15.25,M,1,3335*4B
$GNRMC,040225.500,A,2500.7834340,N,12132.4499116,E,0.01,163.17,090324,,,R,V*1F
$GPHDT,,T*1B
$GNACCURACY,4.0*12
$GNGGA,040225.600,2500.7834351,N,12132.4499115,E,4,49,0.55,16.797,M,15.25,M,1,3335*49
$GNRMC,040225.600,A,2500.7834351,N,12132.4499115,E,0.01,163.17,090324,,,R,V*1F
$GPHDT,91.612,T*08
$GNACCURACY,4.0*12
$GNGGA,040225.700,2500.7834374,N,12132.4499142,E,4,49,0.55,16.798,M,15.25,M,0,3335*43
$GNRMC,040225.700,A,2500.7834374,N,12132.4499142,E,0.01,163.17,090324,,,R,V*1B
$GPHDT,,T*1B
$GNACCURACY,4.0*12
$GNGGA,040225.800,2500.7834369,N,12132.4499152,E,4,49,0.55,16.788,M,15.25,M,0,3335*40
$GNRMC,040225.800,A,2500.7834369,N,12132.4499152,E,0.01,163.17,090324,,,R,V*19
$GPHDT,91.892,T*0E
$GNACCURACY,4.0*12
$GNGGA,040225.900,2500.7834362,N,12132.4499089,E,4,49,0.55,16.794,M,15.25,M,0,3335*40
$GNRMC,040225.900,A,2500.7834362,N,12132.4499089,E,0.00,163.17,090324,,,R,V*15
$GPHDT,,T*1B
$GNACCURACY,4.1*13
$GNGGA,040226.000,2500.7834394,N,12132.4499137,E,4,49,0.55,16.791,M,15.25,M,1,3335*43
$GNRMC,040226.000,A,2500.7834394,N,12132.4499137,E,0.01,163.17,090324,,,R,V*13
$GPHDT,92.195,T*03
$GNACCURACY,4.1*13
$GNGGA,040226.100,2500.7834411,N,12132.4499153,E,4,49,0.55,16.799,M,15.25,M,1,3335*42
$GNRMC,040226.100,A,2500.7834411,N,12132.4499153,E,0.02,163.17,090324,,,R,V*19
$GPHDT,,T*1B
$GNGSA,A,3,08,194,195,199,21,02,07,27,16,04,,,0.86,0.55,0.66,1*37
$GNGSA,A,3,81,88,78,77,79,,,,,,,,0.86,0.55,0.66,2*04
$GNGSA,A,3,21,26,27,15,13,,,,,,,,0.86,0.55,0.66,3*09
$GNGSA,A,3,09,06,23,16,07,43,40,39,28,10,25,37,0.86,0.55,0.66,4*05
$GNGSA,A,3,34,,,,,,,,,,,,0.86,0.55,0.66,4*0D
$GPGSV,4,1,15,08,65,349,43,194,64,051,31,195,63,116,42,50,60,167,35,1*62
$GPGSV,4,2,15,199,60,167,33,21,57,159,42,02,45,177,46,07,39,318,43,1*5B
$GPGSV,4,3,15,27,35,034,31,16,29,072,31,09,25,249,21,04,20,205,21,1*6A
$GPGSV,4,4,15,196,20,170,21,30,09,320,19,26,09,097,21,1*6A
$GPGSV,3,1,09,08,65,349,44,194,64,051,39,195,63,116,44,199,60,167,43,8*5D
$GPGSV,3,2,09,27,35,034,29,09,25,249,21,04,20,205,26,196,20,170,18,8*5E
$GPGSV,3,3,09,26,09,097,18,8*5E
$GLGSV,2,1,06,81,61,197,39,88,59,035,25,78,55,031,30,77,25,107,28,1*7E
$GLGSV,2,2,06,79,23,331,43,87,06,026,14,1*7F
$GAGSV,2,1,05,21,54,008,35,13,54,085,,26,41,172,18,27,29,077,25,7*72
$GAGSV,2,2,05,15,15,040,22,7*42
$GAGSV,1,1,04,21,54,008,35,13,54,085,24,26,41,172,30,15,15,040,28,1*7D
$GBGSV,4,1,13,09,74,271,42,06,73,215,40,23,72,023,42,16,70,198,44,1*7A
$GBGSV,4,2,13,07,61,306,39,43,61,038,32,40,61,327,44,39,59,186,45,1*7A
$GBGSV,4,3,13,28,53,218,44,10,51,287,39,25,39,114,42,37,28,321,44,1*77
$GBGSV,4,4,13,34,14,040,30,1*41
$GBGSV,2,1,07,23,72,023,45,40,61,327,43,43,61,038,31,39,59,186,42,4*77
$GBGSV,2,2,07,28,53,218,40,25,39,114,37,37,28,321,38,4*4F
$GNACCURACY,4.1*13
$PAIRSAT,1,32,2,0,201,3,0,200,4,0,221,5,0,200,6,0,200,7,0,201,8,0,221,9,0,200,10,0,200,11,0,200,12,0,200,13,0,200,14,0,200,15,0,200,16,0,1,20,0,200,21,0,201,22,0,200,23,0,200,24,0,200,25,0,200,26,0,220,27,0,221,28,0,200,29,0,200,30,0,200,31,0,200,32,0,200,194,0,221,195,0,621,196,0,600,199,0,621*71
$PAIRSAT,2,24,65,0,200,66,0,200,67,0,200,68,0,200,69,0,200,70,0,200,71,0,200,72,0,200,73,0,200,74,0,200,75,0,200,76,0,200,77,0,1,78,0,201,79,0,201,80,0,200,81,0,201,82,0,200,83,0,200,84,0,200,85,0,200,86,0,200,87,0,201,88,0,201*78
$PAIRSAT,3,23,2,0,1200,3,0,1200,4,0,1200,5,0,200,7,0,1200,8,0,1200,9,0,1200,10,0,200,11,0,200,12,0,200,13,0,221,15,0,220,19,0,200,21,0,221,24,0,200,25,0,1200,26,0,1221,27,0,1221,30,0,1000,31,0,1000,33,0,1200,34,0,1000,36,0,1200*6A
$PAIRSAT,4,45,1,0,200,2,0,200,3,0,600,4,0,200,5,0,200,6,0,1,7,0,1,9,0,201,10,0,201,11,0,200,12,0,200,13,0,200,14,0,200,16,0,201,19,0,600,20,0,600,21,0,600,22,0,600,23,0,621,24,0,600,25,0,621,26,0,600,27,0,600,28,0,621,29,0,400,30,0,400,32,0,400,33,0,400,34,0,421,35,0,400,36,0,400,37,0,421,38,0,400,39,0,421,40,0,421,41,0,400,42,0,400,43,0,421,44,0,400,45,0,400,46,0,400,59,0,400,60,0,400,61,0,400,62,0,400*5F
$PAIRDGP,7,2,7,8,16,21,26,27*56
$GNGGA,040226.200,2500.7834402,N,12132.4499127,E,4,49,0.55,16.807,M,15.25,M,1,3335*48
$GNRMC,040226.200,A,2500.7834402,N,12132.4499127,E,0.01,163.17,090324,,,R,V*18
$GPHDT,92.578,T*04
$GNACCURACY,4.1*13
$GNGGA,040226.300,2500.7834418,N,12132.4499163,E,4,49,0.55,16.809,M,15.25,M,1,3335*4C
$GNRMC,040226.300,A,2500.7834418,N,12132.4499163,E,0.02,163.17,090324,,,R,V*11
$GPHDT,,T*1B
$GNACCURACY,4.1*13
$GNGGA,040226.400,2500.7834384,N,12132.4499121,E,4,50,0.55,16.798,M,15.25,M,1,3335*40
$GNRMC,040226.400,A,2500.7834384,N,12132.4499121,E,0.01,163.17,090324,,,R,V*11
$GPHDT,92.374,T*0E
$GNACCURACY,4.1*13
$GNGGA,040226.500,2500.7834404,N,12132.4499153,E,4,50,0.55,16.812,M,15.25,M,0,3335*47
$GNRMC,040226.500,A,2500.7834404,N,12132.4499153,E,0.01,163.17,090324,,,R,V*1A
$GPHDT,,T*1B
$GNACCURACY,4.1*13
$GNGGA,040226.600,2500.7834404,N,12132.4499180,E,4,50,0.55,16.812,M,15.25,M,0,3335*4A
$GNRMC,040226.600,A,2500.7834404,N,12132.4499180,E,0.01,163.17,090324,,,R,V*17
$GPHDT,91.967,T*05
$GNACCURACY,4.1*13
$GNGGA,040226.700,2500.7834387,N,12132.4499171,E,4,50,0.55,16.800,M,15.25,M,0,3335*4A
$GNRMC,040226.700,A,2500.7834387,N,12132.4499171,E,0.01,163.17,090324,,,R,V*14
$GPHDT,,T*1B
$GNACCURACY,4.1*13
$GNGGA,040226.800,2500.7834395,N,12132.4499185,E,4,50,0.55,16.799,M,15.25,M,0,3335*42
$GNRMC,040226.800,A,2500.7834395,N,12132.4499185,E,0.01,163.17,090324,,,R,V*13
$GPHDT,92.090,T*07
$GNACCURACY,4.1*13
$GNGGA,040226.900,2500.7834387,N,12132.4499185,E,4,49,0.55,16.800,M,15.25,M,0,3335*47
$GNRMC,040226.900,A,2500.7834387,N,12132.4499185,E,0.02,163.17,090324,,,R,V*12
$GPHDT,,T*1B
$GNACCURACY,4.1*13
$GNGGA,040227.000,2500.7834371,N,12132.4499157,E,4,50,0.55,16.791,M,15.25,M,1,3335*47
$GNRMC,040227.000,A,2500.7834371,N,12132.4499157,E,0.02,163.17,090324,,,R,V*1C
$GPHDT,92.016,T*09
$GNACCURACY,4.1*13
$GNGGA,040227.100,2500.7834345,N,12132.4499118,E,4,50,0.55,16.799,M,15.25,M,1,3335*42
$GNRMC,040227.100,A,2500.7834345,N,12132.4499118,E,0.02,163.17,090324,,,R,V*11
$GPHDT,,T*1B
$GNGSA,A,3,08,194,195,199,21,02,07,27,16,04,,,0.86,0.55,0.66,1*37
$GNGSA,A,3,81,88,78,77,79,,,,,,,,0.86,0.55,0.66,2*04
$GNGSA,A,3,21,13,26,27,15,,,,,,,,0.86,0.55,0.66,3*09
$GNGSA,A,3,09,06,23,16,07,43,40,39,28,10,25,37,0.86,0.55,0.66,4*05
$GNGSA,A,3,34,,,,,,,,,,,,0.86,0.55,0.66,4*0D
$GPGSV,4,1,15,08,65,349,43,194,64,051,32,195,63,116,42,50,60,167,35,1*61
$GPGSV,4,2,15,199,60,167,34,21,57,159,42,02,45,177,46,07,39,318,44,1*5B
$GPGSV,4,3,15,27,35,034,30,16,29,072,31,09,25,249,20,04,20,205,22,1*69
$GPGSV,4,4,15,196,20,170,20,30,09,320,20,26,09,097,23,1*63
$GPGSV,3,1,09,08,65,349,44,194,64,051,39,195,63,116,44,199,60,167,43,8*5D
$GPGSV,3,2,09,27,35,034,24,09,25,249,21,04,20,205,28,196,20,170,19,8*5C
$GPGSV,3,3,09,26,09,097,17,8*51
$GLGSV,2,1,06,81,61,197,41,88,59,035,27,78,55,031,31,77,25,107,29,1*73
$GLGSV,2,2,06,79,23,332,44,87,06,026,14,1*7B
$GAGSV,2,1,05,21,54,008,35,13,54,085,24,26,41,172,17,27,29,077,26,7*78
$GAGSV,2,2,05,15,15,040,24,7*44
$GAGSV,1,1,04,21,54,008,36,13,54,085,26,26,41,172,29,15,15,040,27,1*7B
$GBGSV,4,1,13,09,74,271,42,06,73,215,40,23,72,023,41,16,70,198,44,1*79
$GBGSV,4,2,13,07,61,306,39,43,61,038,34,40,61,327,41,39,59,186,45,1*79
$GBGSV,4,3,13,28,53,218,44,10,51,287,40,25,39,114,40,37,28,321,44,1*7B
$GBGSV,4,4,13,34,14,040,32,1*43
$GBGSV,2,1,07,23,72,023,44,40,61,327,43,43,61,038,34,39,59,186,42,4*73
$GBGSV,2,2,07,28,53,218,41,25,39,114,37,37,28,321,38,4*4E
$GNACCURACY,4.1*13
$PAIRSAT,1,32,2,0,201,3,0,200,4,0,221,5,0,200,6,0,200,7,0,201,8,0,221,9,0,200,10,0,200,11,0,200,12,0,200,13,0,200,14,0,200,15,0,200,16,0,1,20,0,200,21,0,201,22,0,200,23,0,200,24,0,200,25,0,200,26,0,220,27,0,221,28,0,200,29,0,200,30,0,200,31,0,200,32,0,200,194,0,221,195,0,621,196,0,600,199,0,621*71
$PAIRSAT,2,24,65,0,200,66,0,200,67,0,200,68,0,200,69,0,200,70,0,200,71,0,200,72,0,200,73,0,200,74,0,200,75,0,200,76,0,200,77,0,1,78,0,201,79,0,201,80,0,200,81,0,201,82,0,200,83,0,200,84,0,200,85,0,200,86,0,200,87,0,201,88,0,201*78
$PAIRSAT,3,23,2,0,1200,3,0,1200,4,0,1200,5,0,200,7,0,1200,8,0,1200,9,0,1200,10,0,200,11,0,200,12,0,200,13,0,221,15,0,220,19,0,200,21,0,221,24,0,200,25,0,1200,26,0,1221,27,0,1221,30,0,1000,31,0,1000,33,0,1200,34,0,1000,36,0,1200*6A
$PAIRSAT,4,45,1,0,200,2,0,200,3,0,600,4,0,200,5,0,200,6,0,1,7,0,1,9,0,201,10,0,201,11,0,200,12,0,200,13,0,200,14,0,200,16,0,201,19,0,600,20,0,600,21,0,600,22,0,600,23,0,621,24,0,600,25,0,621,26,0,600,27,0,600,28,0,621,29,0,600,30,0,400,32,0,400,33,0,400,34,0,421,35,0,400,36,0,400,37,0,421,38,0,400,39,0,421,40,0,421,41,0,400,42,0,400,43,0,421,44,0,400,45,0,400,46,0,400,59,0,400,60,0,400,61,0,400,62,0,400*5D
$PAIRDGP,7,2,7,8,16,21,26,27*56
$GNGGA,040227.200,2500.7834343,N,12132.4499154,E,4,50,0.55,16.793,M,15.25,M,1,3335*45
$GNRMC,040227.200,A,2500.7834343,N,12132.4499154,E,0.03,163.17,090324,,,R,V*1D
$GPHDT,91.994,T*09
$GNACCURACY,4.0*12
$GNGGA,040227.300,2500.7834346,N,12132.4499147,E,4,50,0.55,16.783,M,15.25,M,1,3335*42
$GNRMC,040227.300,A,2500.7834346,N,12132.4499147,E,0.02,163.17,090324,,,R,V*1A
$GPHDT,,T*1B
$GNACCURACY,4.1*13
$GNGGA,040227.400,2500.7834336,N,12132.4499125,E,4,50,0.55,16.779,M,15.25,M,1,3335*43
$GNRMC,040227.400,A,2500.7834336,N,12132.4499125,E,0.02,163.17,090324,,,R,V*1E
$GPHDT,92.233,T*0C
$GNACCURACY,3.9*1C
$GNGGA,040227.500,2500.7834351,N,12132.4499125,E,4,49,0.56,16.790,M,15.25,M,1,3335*4F
$GNRMC,040227.500,A,2500.7834351,N,12132.4499125,E,0.02,163.17,090324,,,R,V*1E
$GPHDT,,T*1B
$GNACCURACY,3.9*1C
$GNGGA,040227.600,2500.7834359,N,12132.4499189,E,4,48,0.56,16.793,M,15.25,M,0,3335*41
$GNRMC,040227.600,A,2500.7834359,N,12132.4499189,E,0.04,163.17,090324,,,R,V*15
$GPHDT,92.252,T*0B
$GNACCURACY,3.9*1C
$GNGGA,040227.700,2500.7834307,N,12132.4499135,E,4,48,0.56,16.806,M,15.25,M,0,3335*4F
$GNRMC,040227.700,A,2500.7834307,N,12132.4499135,E,0.02,163.17,090324,,,R,V*1E
$GPHDT,,T*1B
$GNACCURACY,3.9*1C
$GNGGA,040227.800,2500.7834354,N,12132.4499202,E,4,50,0.55,16.809,M,15.25,M,0,3335*44
$GNRMC,040227.800,A,2500.7834354,N,12132.4499202,E,0.02,163.17,090324,,,R,V*10
$GPHDT,92.434,T*0D
$GNACCURACY,3.9*1C
$GNGGA,040227.900,2500.7834389,N,12132.4499187,E,4,50,0.55,16.800,M,15.25,M,0,3335*42
$GNRMC,040227.900,A,2500.7834389,N,12132.4499187,E,0.04,163.17,090324,,,R,V*19
$GPHDT,,T*1B
$GNACCURACY,3.9*1C
$GNGGA,040228.000,2500.7834386,N,12132.4499123,E,4,50,0.55,16.805,M,15.25,M,1,3335*41
$GNRMC,040228.000,A,2500.7834386,N,12132.4499123,E,0.05,163.17,090324,,,R,V*1F
$GPHDT,92.797,T*07
$GNACCURACY,3.9*1C
$GNGGA,040228.100,2500.7834385,N,12132.4499139,E,4,49,0.55,16.822,M,15.25,M,1,3335*45
$GNRMC,040228.100,A,2500.7834385,N,12132.4499139,E,0.04,163.17,090324,,,R,V*17
$GPHDT,,T*1B
$GNGSA,A,3,08,194,195,199,21,02,07,27,16,04,,,0.86,0.55,0.66,1*37
$GNGSA,A,3,81,88,78,77,79,,,,,,,,0.86,0.55,0.66,2*04
$GNGSA,A,3,21,13,26,27,15,,,,,,,,0.86,0.55,0.66,3*09
$GNGSA,A,3,09,06,23,16,07,43,40,39,28,10,25,37,0.86,0.55,0.66,4*05
$GNGSA,A,3,34,,,,,,,,,,,,0.86,0.55,0.66,4*0D
$GPGSV,4,1,15,08,65,349,43,194,64,051,33,195,63,116,42,50,60,167,35,1*60
$GPGSV,4,2,15,199,60,167,34,21,57,159,40,02,45,177,46,07,39,318,42,1*5F
$GPGSV,4,3,15,27,35,034,31,16,29,072,30,09,25,249,20,04,20,205,24,1*6F
$GPGSV,4,4,15,196,20,170,19,30,09,320,19,26,09,097,23,1*63
$GPGSV,3,1,09,08,65,349,42,194,64,051,40,195,63,116,44,199,60,167,43,8*55
$GPGSV,3,2,09,27,35,034,29,09,25,249,23,04,20,205,29,196,20,170,18,8*53
$GPGSV,3,3,09,26,09,097,17,8*51
$GLGSV,2,1,06,81,61,197,41,88,59,035,24,78,55,031,27,77,25,107,27,1*79
$GLGSV,2,2,06,79,23,332,44,87,06,026,09,1*77
$GAGSV,2,1,05,21,54,008,35,13,54,085,27,26,41,172,17,27,29,077,27,7*7A
$GAGSV,2,2,05,15,15,040,25,7*45
$GAGSV,1,1,04,21,54,008,34,13,54,085,25,26,41,172,30,15,15,040,26,1*73
$GBGSV,4,1,13,09,74,271,41,06,73,215,40,23,72,023,40,16,70,198,44,1*7B
$GBGSV,4,2,13,07,61,306,40,43,61,038,32,40,61,327,44,39,59,186,46,1*77
$GBGSV,4,3,13,28,53,218,44,10,51,287,39,25,39,114,40,37,28,321,44,1*75
$GBGSV,4,4,13,34,14,040,33,1*42
$GBGSV,2,1,07,23,72,023,44,40,61,327,42,43,61,038,33,39,59,186,42,4*75
$GBGSV,2,2,07,28,53,218,41,25,39,114,37,37,28,321,39,4*4F
$GNACCURACY,4.0*12
$PAIRSAT,1,32,2,0,201,3,0,200,4,0,221,5,0,200,6,0,200,7,0,201,8,0,221,9,0,200,10,0,200,11,0,200,12,0,200,13,0,200,14,0,200,15,0,200,16,0,1,20,0,200,21,0,201,22,0,200,23,0,200,24,0,200,25,0,200,26,0,220,27,0,221,28,0,200,29,0,200,30,0,200,31,0,200,32,0,200,194,0,221,195,0,621,196,0,600,199,0,621*71
$PAIRSAT,2,24,65,0,200,66,0,200,67,0,200,68,0,200,69,0,200,70,0,200,71,0,200,72,0,200,73,0,200,74,0,200,75,0,200,76,0,200,77,0,1,78,0,201,79,0,201,80,0,200,81,0,201,82,0,200,83,0,200,84,0,200,85,0,200,86,0,200,87,0,201,88,0,201*78
$PAIRSAT,3,23,2,0,1200,3,0,1200,4,0,1200,5,0,200,7,0,1200,8,0,1200,9,0,1200,10,0,200,11,0,200,12,0,200,13,0,221,15,0,220,19,0,200,21,0,221,24,0,200,25,0,1200,26,0,1221,27,0,1221,30,0,1000,31,0,1000,33,0,1200,34,0,1000,36,0,1200*6A
$PAIRSAT,4,45,1,0,200,2,0,200,3,0,600,4,0,200,5,0,200,6,0,1,7,0,1,9,0,201,10,0,201,11,0,200,12,0,200,13,0,200,14,0,200,16,0,201,19,0,600,20,0,600,21,0,600,22,0,600,23,0,621,24,0,600,25,0,621,26,0,600,27,0,600,28,0,621,29,0,600,30,0,400,32,0,400,33,0,400,34,0,421,35,0,400,36,0,400,37,0,421,38,0,400,39,0,421,40,0,421,41,0,400,42,0,400,43,0,421,44,0,400,45,0,400,46,0,400,59,0,400,60,0,400,61,0,400,62,0,400*5D
$PAIRDGP,7,2,7,8,16,21,26,27*56
$GNGGA,040228.200,2500.7834407,N,12132.4499220,E,4,50,0.55,16.814,M,15.25,M,1,3335*4D
$GNRMC,040228.200,A,2500.7834407,N,12132.4499220,E,0.03,163.17,090324,,,R,V*15
$GPHDT,93.018,T*06
$GNACCURACY,3.9*1C
$GNGGA,040228.300,2500.7834371,N,12132.4499140,E,4,50,0.55,16.806,M,15.25,M,1,3335*4C
$GNRMC,040228.300,A,2500.7834371,N,12132.4499140,E,0.03,163.17,090324,,,R,V*17
$GPHDT,,T*1B
$GNACCURACY,3.9*1C
$GNGGA,040228.400,2500.7834397,N,12132.4499209,E,4,50,0.55,16.804,M,15.25,M,1,3335*4F
$GNRMC,040228.400,A,2500.7834397,N,12132.4499209,E,0.02,163.17,090324,,,R,V*17
$GPHDT,93.233,T*0D
$GNACCURACY,4.0*12
$GNGGA,040228.500,2500.7834416,N,12132.4499251,E,4,51,0.55,16.801,M,15.25,M,1,3335*49
$GNRMC,040228.500,A,2500.7834416,N,12132.4499251,E,0.02,163.17,090324,,,R,V*15
$GPHDT,,T*1B
$GNACCURACY,4.0*12
$GNGGA,040228.600,2500.7834397,N,12132.4499151,E,4,51,0.55,16.804,M,15.25,M,1,3335*42
$GNRMC,040228.600,A,2500.7834397,N,12132.4499151,E,0.02,163.17,090324,,,R,V*1B
$GPHDT,92.779,T*07
$GNACCURACY,4.0*12
$GNGGA,040228.700,2500.7834407,N,12132.4499141,E,4,50,0.55,16.810,M,15.25,M,0,3335*49
$GNRMC,040228.700,A,2500.7834407,N,12132.4499141,E,0.01,163.17,090324,,,R,V*16
$GPHDT,,T*1B
$GNACCURACY,4.0*12
$GNGGA,040228.800,2500.7834367,N,12132.4499111,E,4,50,0.55,16.790,M,15.25,M,0,3335*45
$GNRMC,040228.800,A,2500.7834367,N,12132.4499111,E,0.01,163.17,090324,,,R,V*1D
$GPHDT,93.048,T*03
$GNACCURACY,4.0*12
$GNGGA,040228.900,2500.7834334,N,12132.4499080,E,4,50,0.55,16.796,M,15.25,M,0,3335*4D
$GNRMC,040228.900,A,2500.7834334,N,12132.4499080,E,0.01,163.17,090324,,,R,V*13
$GPHDT,,T*1B
$GNACCURACY,4.0*12
$GNGGA,040229.000,2500.7834296,N,12132.4499030,E,4,51,0.55,16.781,M,15.25,M,1,3335*41
$GNRMC,040229.000,A,2500.7834296,N,12132.4499030,E,0.01,163.17,090324,,,R,V*19
$GPHDT,91.788,T*0A
$GNACCURACY,4.0*12
$GNGGA,040229.100,2500.7834334,N,12132.4499104,E,4,51,0.55,16.779,M,15.25,M,1,3335*48
$GNRMC,040229.100,A,2500.7834334,N,12132.4499104,E,0.01,163.17,090324,,,R,V*17
$GPHDT,,T*1B
$GNGSA,A,3,08,194,195,199,21,02,07,27,16,04,,,0.86,0.55,0.66,1*37
$GNGSA,A,3,81,88,78,77,79,,,,,,,,0.86,0.55,0.66,2*04
$GNGSA,A,3,21,13,26,27,15,,,,,,,,0.86,0.55,0.66,3*09
$GNGSA,A,3,09,06,23,16,07,43,40,39,28,10,25,37,0.86,0.55,0.66,4*05
$GNGSA,A,3,34,,,,,,,,,,,,0.86,0.55,0.66,4*0D
$GPGSV,4,1,15,08,65,349,44,194,64,051,35,195,63,116,42,50,60,167,35,1*61
$GPGSV,4,2,15,199,60,167,33,21,57,159,41,02,45,177,46,07,39,318,43,1*58
$GPGSV,4,3,15,27,35,034,31,16,29,072,31,09,25,249,18,04,20,205,22,1*63
$GPGSV,4,4,15,196,20,170,17,30,09,320,21,26,09,097,22,1*67
$GPGSV,3,1,09,08,65,349,45,194,64,051,41,195,63,116,45,199,60,167,43,8*52
$GPGSV,3,2,09,27,35,034,27,09,25,249,22,04,20,205,26,196,20,170,19,8*52
$GPGSV,3,3,09,26,09,097,16,8*50
$GLGSV,2,1,06,81,61,197,41,88,59,035,28,78,55,031,29,77,25,107,28,1*74
$GLGSV,2,2,06,79,23,332,44,87,06,026,11,1*7E
$GAGSV,2,1,05,21,54,008,36,13,54,085,26,26,41,172,18,27,29,077,27,7*77
$GAGSV,2,2,05,15,15,040,24,7*44
$GAGSV,2,1,05,21,54,008,37,13,54,085,23,26,41,172,28,27,29,077,24,1*75
$GAGSV,2,2,05,15,15,040,26,1*40
$GBGSV,4,1,13,09,74,271,42,06,73,215,40,23,72,023,41,16,70,198,44,1*79
$GBGSV,4,2,13,07,61,306,39,43,61,038,32,40,61,327,42,39,59,186,46,1*7F
$GBGSV,4,3,13,28,53,218,44,10,51,287,39,25,39,114,41,37,28,321,44,1*74
$GBGSV,4,4,13,34,14,040,32,1*43
$GBGSV,2,1,07,23,72,023,45,40,61,327,42,43,61,038,34,39,59,186,42,4*73
$GBGSV,2,2,07,28,53,218,41,25,39,114,37,37,28,321,40,4*41
$GNACCURACY,4.0*12
$PAIRSAT,1,32,2,0,201,3,0,200,4,0,221,5,0,200,6,0,200,7,0,201,8,0,221,9,0,200,10,0,200,11,0,200,12,0,200,13,0,200,14,0,200,15,0,200,16,0,1,20,0,200,21,0,201,22,0,200,23,0,200,24,0,200,25,0,200,26,0,220,27,0,221,28,0,200,29,0,200,30,0,200,31,0,200,32,0,200,194,0,221,195,0,621,196,0,600,199,0,621*71
$PAIRSAT,2,24,65,0,200,66,0,200,67,0,200,68,0,200,69,0,200,70,0,200,71,0,200,72,0,200,73,0,200,74,0,200,75,0,200,76,0,200,77,0,1,78,0,201,79,0,201,80,0,200,81,0,201,82,0,200,83,0,200,84,0,200,85,0,200,86,0,200,87,0,201,88,0,201*78
$PAIRSAT,3,23,2,0,1200,3,0,1200,4,0,1200,5,0,200,7,0,1200,8,0,1200,9,0,1200,10,0,200,11,0,200,12,0,200,13,0,221,15,0,220,19,0,200,21,0,221,24,0,200,25,0,1200,26,0,1221,27,0,1221,30,0,1000,31,0,1000,33,0,1200,34,0,1000,36,0,1200*6A
$PAIRSAT,4,45,1,0,200,2,0,200,3,0,600,4,0,200,5,0,200,6,0,1,7,0,1,9,0,201,10,0,201,11,0,200,12,0,200,13,0,200,14,0,200,16,0,201,19,0,600,20,0,600,21,0,600,22,0,600,23,0,621,24,0,600,25,0,621,26,0,600,27,0,600,28,0,621,29,0,600,30,0,400,32,0,400,33,0,400,34,0,421,35,0,400,36,0,400,37,0,421,38,0,400,39,0,421,40,0,421,41,0,400,42,0,400,43,0,421,44,0,400,45,0,400,46,0,400,59,0,400,60,0,400,61,0,400,62,0,400*5D
$PAIRDGP,7,2,7,8,16,21,26,27*56
$GNGGA,040229.200,2500.7834318,N,12132.4499097,E,4,51,0.55,16.775,M,15.25,M,1,3335*42
$GNRMC,040229.200,A,2500.7834318,N,12132.4499097,E,0.01,163.17,090324,,,R,V*11
$GPHDT,91.344,T*0E
$GNACCURACY,3.9*1C
$GNGGA,040229.300,2500.7834334,N,12132.4499107,E,4,50,0.55,16.776,M,15.25,M,1,3335*47
$GNRMC,040229.300,A,2500.7834334,N,12132.4499107,E,0.01,163.17,090324,,,R,V*16
$GPHDT,,T*1B
$GNACCURACY,3.9*1C
$GNGGA,040229.400,2500.7834318,N,12132.4499067,E,4,50,0.55,16.772,M,15.25,M,1,3335*4D
$GNRMC,040229.400,A,2500.7834318,N,12132.4499067,E,0.01,163.17,090324,,,R,V*18
$GPHDT,91.673,T*0F
$GNACCURACY,3.9*1C
$GNGGA,040229.500,2500.7834336,N,12132.4499067,E,4,50,0.55,16.790,M,15.25,M,1,3335*4C
$GNRMC,040229.500,A,2500.7834336,N,12132.4499067,E,0.00,163.17,090324,,,R,V*14
$GPHDT,,T*1B
$GNACCURACY,3.9*1C
$GNGGA,040229.600,2500.7834317,N,12132.4499058,E,4,50,0.55,16.780,M,15.25,M,0,3335*40
$GNRMC,040229.600,A,2500.7834317,N,12132.4499058,E,0.01,163.17,090324,,,R,V*19
$GPHDT,91.763,T*0F
$GNACCURACY,3.9*1C
$GNGGA,040229.700,2500.7834336,N,12132.4499098,E,4,50,0.55,16.780,M,15.25,M,0,3335*4E
$GNRMC,040229.700,A,2500.7834336,N,12132.4499098,E,0.01,163.17,090324,,,R,V*17
$GPHDT,,T*1B
$GNACCURACY,3.9*1C
$GNGGA,040229.800,2500.7834320,N,12132.4499062,E,4,50,0.55,16.780,M,15.25,M,0,3335*43
$GNRMC,040229.800,A,2500.7834320,N,12132.4499062,E,0.00,163.17,090324,,,R,V*1B
$GPHDT,91.786,T*04
$GNACCURACY,3.9*1C
$GNGGA,040229.900,2500.7834332,N,12132.4499103,E,4,50,0.55,16.793,M,15.25,M,0,3335*45
$GNRMC,040229.900,A,2500.7834332,N,12132.4499103,E,0.01,163.17,090324,,,R,V*1E
$GPHDT,,T*1B
$GNACCURACY,3.9*1C
$GNGGA,040230.000,2500.7834348,N,12132.4499129,E,4,51,0.55,16.787,M,15.25,M,1,3335*44
$GNRMC,040230.000,A,2500.7834348,N,12132.4499129,E,0.02,163.17,090324,,,R,V*19
$GPHDT,91.327,T*0B
$GNACCURACY,4.0*12
$GNGGA,040230.100,2500.7834366,N,12132.4499092,E,4,51,0.55,16.789,M,15.25,M,1,3335*46
$GNRMC,040230.100,A,2500.7834366,N,12132.4499092,E,0.05,163.17,090324,,,R,V*12
$GPHDT,,T*1B
$GNGSA,A,3,08,194,195,199,21,02,07,27,16,04,,,0.86,0.55,0.66,1*37
$GNGSA,A,3,81,88,78,77,79,,,,,,,,0.86,0.55,0.66,2*04
$GNGSA,A,3,21,13,26,27,15,,,,,,,,0.86,0.55,0.66,3*09
$GNGSA,A,3,09,06,23,16,07,43,40,39,28,10,25,37,0.86,0.55,0.66,4*05
$GNGSA,A,3,34,,,,,,,,,,,,0.86,0.55,0.66,4*0D
$GPGSV,4,1,15,08,65,349,42,194,64,051,32,195,63,116,42,50,60,167,35,1*60
$GPGSV,4,2,15,199,60,167,33,21,57,159,40,02,45,177,46,07,39,318,43,1*59
$GPGSV,4,3,15,27,35,034,28,16,29,072,31,09,25,249,19,04,20,205,24,1*6C
$GPGSV,4,4,15,196,20,170,21,30,09,320,19,26,09,097,21,1*6A
$GPGSV,3,1,09,08,65,349,43,194,64,051,41,195,63,116,44,199,60,167,42,8*54
$GPGSV,3,2,09,27,35,034,27,09,25,249,23,04,20,205,24,196,20,170,18,8*50
$GPGSV,3,3,09,26,09,097,15,8*53
$GLGSV,2,1,06,81,61,197,42,88,59,035,31,78,55,031,29,77,25,107,26,1*71
$GLGSV,2,2,06,79,23,332,44,87,06,026,11,1*7E
$GAGSV,2,1,05,21,54,008,37,13,54,085,26,26,41,172,18,27,29,077,25,7*74
$GAGSV,2,2,05,15,15,040,24,7*44
$GAGSV,2,1,05,21,54,008,36,13,54,085,23,26,41,172,37,27,29,077,24,1*7A
$GAGSV,2,2,05,15,15,040,25,1*43
$GBGSV,4,1,13,09,74,271,42,06,73,215,41,23,72,023,42,16,70,198,44,1*7B
$GBGSV,4,2,13,07,61,306,38,43,61,038,30,40,61,327,44,39,59,186,45,1*79
$GBGSV,4,3,13,28,53,218,44,10,51,287,40,25,39,115,41,37,28,321,45,1*7A
$GBGSV,4,4,13,34,14,040,32,1*43
$GBGSV,2,1,07,23,72,023,45,40,61,327,42,43,61,038,32,39,59,186,42,4*75
$GBGSV,2,2,07,28,53,218,40,25,39,115,37,37,28,321,39,4*4F
$GNACCURACY,4.0*12
$PAIRSAT,1,32,2,0,201,3,0,200,4,0,221,5,0,200,6,0,200,7,0,201,8,0,221,9,0,200,10,0,200,11,0,200,12,0,200,13,0,200,14,0,200,15,0,200,16,0,1,20,0,200,21,0,201,22,0,200,23,0,200,24,0,200,25,0,200,26,0,220,27,0,221,28,0,200,29,0,200,30,0,200,31,0,200,32,0,200,194,0,221,195,0,621,196,0,600,199,0,621*71
$PAIRSAT,2,24,65,0,200,66,0,200,67,0,200,68,0,200,69,0,200,70,0,200,71,0,200,72,0,200,73,0,200,74,0,200,75,0,200,76,0,200,77,0,1,78,0,201,79,0,201,80,0,200,81,0,201,82,0,200,83,0,200,84,0,200,85,0,200,86,0,200,87,0,201,88,0,201*78
$PAIRSAT,3,23,2,0,1200,3,0,1200,4,0,1200,5,0,200,7,0,1200,8,0,1200,9,0,1200,10,0,200,11,0,200,12,0,200,13,0,221,15,0,220,19,0,200,21,0,221,24,0,200,25,0,1200,26,0,1221,27,0,1221,30,0,1000,31,0,1000,33,0,1200,34,0,1000,36,0,1200*6A
$PAIRSAT,4,45,1,0,200,2,0,200,3,0,600,4,0,200,5,0,200,6,0,1,7,0,1,9,0,201,10,0,201,11,0,200,12,0,200,13,0,200,14,0,200,16,0,201,19,0,600,20,0,600,21,0,600,22,0,600,23,0,621,24,0,600,25,0,621,26,0,600,27,0,600,28,0,621,29,0,600,30,0,400,32,0,400,33,0,400,34,0,421,35,0,400,36,0,400,37,0,421,38,0,400,39,0,421,40,0,421,41,0,400,42,0,400,43,0,421,44,0,400,45,0,400,46,0,400,59,0,400,60,0,400,61,0,400,62,0,400*5D
$PAIRDGP,7,2,7,8,16,21,26,27*56
$GNGGA,040230.200,2500.7834358,N,12132.4499065,E,4,51,0.55,16.798,M,15.25,M,1,3335*40
$GNRMC,040230.200,A,2500.7834358,N,12132.4499065,E,0.03,163.17,090324,,,R,V*12
$GPHDT,92.142,T*09
$GNACCURACY,3.9*1C
$GNGGA,040230.300,2500.7834373,N,12132.4499113,E,4,51,0.55,16.788,M,15.25,M,1,3335*49
$GNRMC,040230.300,A,2500.7834373,N,12132.4499113,E,0.03,163.17,090324,,,R,V*1A
$GPHDT,,T*1B
$GNACCURACY,3.9*1C
$GNGGA,040230.400,2500.7834386,N,12132.4499138,E,4,51,0.55,16.797,M,15.25,M,1,3335*43
$GNRMC,040230.400,A,2500.7834386,N,12132.4499138,E,0.04,163.17,090324,,,R,V*19
$GPHDT,92.491,T*02
$GNACCURACY,3.9*1C
$GNGGA,040230.500,2500.7834393,N,12132.4499133,E,4,51,0.55,16.805,M,15.25,M,0,3335*48
$GNRMC,040230.500,A,2500.7834393,N,12132.4499133,E,0.03,163.17,090324,,,R,V*10
$GPHDT,,T*1B
$GNACCURACY,3.9*1C
$GNGGA,040230.600,2500.7834388,N,12132.4499142,E,4,50,0.55,16.793,M,15.25,M,0,3335*46
$GNRMC,040230.600,A,2500.7834388,N,12132.4499142,E,0.04,163.17,090324,,,R,V*18
$GPHDT,92.348,T*01
$GNACCURACY,3.9*1C
$GNGGA,040230.700,2500.7834407,N,12132.4499134,E,4,51,0.55,16.803,M,15.25,M,0,3335*41
$GNRMC,040230.700,A,2500.7834407,N,12132.4499134,E,0.03,163.17,090324,,,R,V*1F
$GPHDT,,T*1B
$GNACCURACY,3.9*1C
$GNGGA,040230.800,2500.7834418,N,12132.4499157,E,4,51,0.55,16.809,M,15.25,M,0,3335*4F
$GNRMC,040230.800,A,2500.7834418,N,12132.4499157,E,0.03,163.17,090324,,,R,V*1B
$GPHDT,93.026,T*0B
$GNACCURACY,3.9*1C
$GNGGA,040230.900,2500.7834399,N,12132.4499129,E,4,51,0.55,16.800,M,15.25,M,0,3335*40
$GNRMC,040230.900,A,2500.7834399,N,12132.4499129,E,0.02,163.17,090324,,,R,V*1C
$GPHDT,,T*1B
