$FW : RTK35X,V1.1X0314AS,Lib20210517,1*54
$Tool : LOCOSYS , GNSS Firebird , v1.0.0.19*39
$---------------------------------------------------*2D
,035937.800,A,2500.7913095,N,12132.4417930,E,0.02,135.00,090324,,,R,V*1B
$GPHDT,3.849,T*33
$GNACCURACY,4.9*1B
$GNGGA,035937.900,2500.7913107,N,12132.4417953,E,4,43,0.60,16.752,M,15.25,M,0,3335*41
$GNRMC,035937.900,A,2500.7913107,N,12132.4417953,E,0.04,135.00,090324,,,R,V*13
$GPHDT,,T*1B
$GNACCURACY,4.9*1B
$GNGGA,035938.000,2500.7913111,N,12132.4417938,E,4,43,0.60,16.759,M,15.25,M,1,3335*47
$GNRMC,035938.000,A,2500.7913111,N,12132.4417938,E,0.03,135.00,090324,,,R,V*18
$GPHDT,2.896,T*30
$GNACCURACY,4.9*1B
$GNGGA,035938.100,2500.7913084,N,12132.4417949,E,4,43,0.60,16.747,M,15.25,M,1,3335*42
$GNRMC,035938.100,A,2500.7913084,N,12132.4417949,E,0.05,135.00,090324,,,R,V*14
$GPHDT,,T*1B
$GNGSA,A,3,08,194,195,199,21,02,07,27,16,04,26,,1.10,0.60,0.93,1*31
$GNGSA,A,3,88,78,79,,,,,,,,,,1.10,0.60,0.93,2*0F
$GNGSA,A,3,13,21,26,27,,,,,,,,,1.10,0.60,0.93,3*0F
$GNGSA,A,3,09,23,16,40,43,07,39,25,37,28,,,1.10,0.60,0.93,4*00
$GPGSV,4,1,13,08,65,347,43,194,64,051,38,195,63,117,43,50,60,167,32,1*64
$GPGSV,4,2,13,199,60,167,29,21,55,160,44,02,43,178,38,07,38,318,43,1*59
$GPGSV,4,3,13,27,37,033,39,16,29,071,41,04,21,206,21,196,20,170,30,1*5C
$GPGSV,4,4,13,26,10,096,18,1*55
$GPGSV,2,1,08,08,65,347,48,194,64,051,44,195,63,117,45,199,60,167,41,8*57
$GPGSV,2,2,08,27,37,033,43,04,21,206,19,196,20,170,24,26,10,096,22,8*5E
$GLGSV,2,1,05,88,60,036,39,78,54,029,43,77,26,105,15,79,22,331,38,1*75
$GLGSV,2,2,05,87,07,026,17,1*47
$GAGSV,2,1,05,13,54,088,44,21,54,006,41,26,40,172,36,27,30,075,40,7*76
$GAGSV,2,2,05,04,12,302,14,7*45
$GAGSV,1,1,04,21,54,006,43,13,54,088,46,26,40,172,38,27,30,075,39,1*72
$GBGSV,4,1,13,09,74,273,40,23,71,020,43,16,71,197,40,40,62,326,41,1*73
$GBGSV,4,2,13,43,62,039,40,07,61,305,41,39,60,185,28,28,52,217,,1*7F
$GBGSV,4,3,13,10,51,287,,25,40,113,36,37,27,320,42,34,15,040,,1*7F
$GBGSV,4,4,13,06,,,38,1*79
$GBGSV,2,1,07,23,71,020,47,40,62,326,44,43,62,039,44,39,60,185,42,4*79
$GBGSV,2,2,07,28,52,217,37,25,40,113,38,37,27,320,41,4*47
$GNACCURACY,4.9*1B
$PAIRSAT,1,26,2,0,201,3,0,200,4,0,201,5,0,200,6,0,200,7,0,201,8,0,221,9,0,200,16,0,1,20,0,200,21,0,201,22,0,200,23,0,200,24,0,200,25,0,200,26,0,220,27,0,221,28,0,200,29,0,200,30,0,200,31,0,200,32,0,200,194,0,21,195,0,621,196,0,600,199,0,621*45
$PAIRSAT,2,17,70,0,200,71,0,200,73,0,200,74,0,200,75,0,200,76,0,200,77,0,1,78,0,201,79,0,201,80,0,200,81,0,200,83,0,200,84,0,200,85,0,200,86,0,200,87,0,201,88,0,201*5B
$PAIRSAT,3,21,2,0,1200,3,0,1200,4,0,1200,5,0,200,7,0,1200,8,0,1200,9,0,1200,10,0,200,11,0,200,12,0,200,13,0,221,15,0,200,21,0,21,25,0,1000,26,0,1021,27,0,1021,30,0,1000,31,0,1000,33,0,1200,34,0,1000,36,0,1200*54
$PAIRSAT,4,40,3,0,400,7,0,1,9,0,201,10,0,201,11,0,200,12,0,200,13,0,200,14,0,200,16,0,201,19,0,600,20,0,600,21,0,600,22,0,600,23,0,621,24,0,400,25,0,421,26,0,400,27,0,400,28,0,421,29,0,400,30,0,400,32,0,400,33,0,400,34,0,421,35,0,400,36,0,400,37,0,421,38,0,400,39,0,421,40,0,421,41,0,400,42,0,400,43,0,421,44,0,400,45,0,400,46,0,400,59,0,400,60,0,400,61,0,400,62,0,400*43
$PAIRDGP,8,2,4,7,8,16,21,26,27*41
$GNGGA,035938.200,2500.7913120,N,12132.4417949,E,4,43,0.60,16.759,M,15.25,M,1,3335*41
$GNRMC,035938.200,A,2500.7913120,N,12132.4417949,E,0.02,135.00,090324,,,R,V*1F
$GPHDT,2.153,T*30
$GNACCURACY,4.9*1B
$GNGGA,035938.300,2500.7913121,N,12132.4417961,E,4,43,0.60,16.764,M,15.25,M,1,3335*45
$GNRMC,035938.300,A,2500.7913121,N,12132.4417961,E,0.02,135.00,090324,,,R,V*15
$GPHDT,,T*1B
$GNACCURACY,4.9*1B
$GNGGA,035938.400,2500.7913107,N,12132.4417905,E,4,43,0.60,16.760,M,15.25,M,1,3335*40
$GNRMC,035938.400,A,2500.7913107,N,12132.4417905,E,0.03,135.00,090324,,,R,V*15
$GPHDT,2.358,T*39
$GNACCURACY,4.9*1B
$GNGGA,035938.500,2500.7913122,N,12132.4417861,E,4,43,0.60,16.765,M,15.25,M,1,3335*40
$GNRMC,035938.500,A,2500.7913122,N,12132.4417861,E,0.02,135.00,090324,,,R,V*11
$GPHDT,,T*1B
$GNACCURACY,4.9*1B
$GNGGA,035938.600,2500.7913084,N,12132.4417906,E,4,43,0.60,16.750,M,15.25,M,1,3335*48
$GNRMC,035938.600,A,2500.7913084,N,12132.4417906,E,0.02,135.00,090324,,,R,V*1F
$GPHDT,2.324,T*32
$GNACCURACY,4.8*1A
$GNGGA,035938.700,2500.7913105,N,12132.4417882,E,4,43,0.60,16.758,M,15.25,M,0,3335*45
$GNRMC,035938.700,A,2500.7913105,N,12132.4417882,E,0.02,135.00,090324,,,R,V*1B
$GPHDT,,T*1B
$GNACCURACY,4.7*15
$GNGGA,035938.800,2500.7913114,N,12132.4417809,E,4,43,0.60,16.774,M,15.25,M,0,3335*47
$GNRMC,035938.800,A,2500.7913114,N,12132.4417809,E,0.02,135.00,090324,,,R,V*17
$GPHDT,3.326,T*31
$GNACCURACY,4.7*15
$GNGGA,035938.900,2500.7913122,N,12132.4417806,E,4,43,0.60,16.771,M,15.25,M,0,3335*49
$GNRMC,035938.900,A,2500.7913122,N,12132.4417806,E,0.03,135.00,090324,,,R,V*1D
$GPHDT,,T*1B
$GNACCURACY,4.7*15
$GNGGA,035939.000,2500.7913087,N,12132.4417812,E,4,43,0.60,16.754,M,15.25,M,1,3335*4C
$GNRMC,035939.000,A,2500.7913087,N,12132.4417812,E,0.02,135.00,090324,,,R,V*1F
$GPHDT,3.367,T*34
$GNACCURACY,4.7*15
$GNGGA,035939.100,2500.7913099,N,12132.4417847,E,4,44,0.58,16.748,M,15.25,M,1,3335*43
$GNRMC,035939.100,A,2500.7913099,N,12132.4417847,E,0.05,135.00,090324,,,R,V*16
$GPHDT,,T*1B
$GNGSA,A,3,08,194,195,199,21,02,07,27,16,04,26,,1.08,0.58,0.91,1*31
$GNGSA,A,3,88,78,77,79,,,,,,,,,1.08,0.58,0.91,2*0F
$GNGSA,A,3,13,21,26,27,,,,,,,,,1.08,0.58,0.91,3*0F
$GNGSA,A,3,09,23,16,40,43,07,39,25,37,28,,,1.08,0.58,0.91,4*00
$GPGSV,4,1,13,08,65,347,43,194,64,051,38,195,63,116,43,50,60,167,37,1*60
$GPGSV,4,2,13,199,60,167,34,21,55,160,46,02,43,178,43,07,38,318,44,1*5C
$GPGSV,4,3,13,27,36,034,38,16,29,071,40,04,21,206,25,196,20,170,30,1*5E
$GPGSV,4,4,13,26,10,096,18,1*55
$GPGSV,2,1,08,08,65,347,46,194,64,051,44,195,63,116,44,199,60,167,46,8*5E
$GPGSV,2,2,08,27,36,034,43,04,21,206,22,196,20,170,24,26,10,096,21,8*53
$GLGSV,2,1,05,88,60,036,41,78,54,029,43,77,26,105,16,79,22,331,39,1*78
$GLGSV,2,2,05,87,07,026,18,1*48
$GAGSV,2,1,05,13,54,088,44,21,54,006,40,26,40,172,38,27,30,075,40,7*79
$GAGSV,2,2,05,04,12,302,15,7*44
$GAGSV,1,1,04,21,54,006,43,13,54,088,46,26,40,172,42,27,30,075,39,1*7F
$GBGSV,4,1,13,09,74,273,40,23,71,020,44,16,71,197,44,40,62,326,42,1*73
$GBGSV,4,2,13,43,62,039,43,07,61,305,39,39,60,185,40,28,52,217,,1*7D
$GBGSV,4,3,13,10,51,287,,25,40,113,36,37,27,320,42,34,15,040,,1*7F
$GBGSV,4,4,13,06,,,42,1*74
$GBGSV,2,1,06,23,71,020,46,40,62,326,44,39,60,185,42,28,52,217,40,4*7D
$GBGSV,2,2,06,25,40,113,37,37,27,320,42,4*77
$GNACCURACY,4.7*15
$PAIRSAT,1,26,2,0,201,3,0,200,4,0,201,5,0,200,6,0,200,7,0,201,8,0,221,9,0,200,16,0,1,20,0,200,21,0,201,22,0,200,23,0,200,24,0,200,25,0,200,26,0,220,27,0,221,28,0,200,29,0,200,30,0,200,31,0,200,32,0,200,194,0,21,195,0,621,196,0,600,199,0,621*45
$PAIRSAT,2,17,70,0,200,71,0,200,73,0,200,74,0,200,75,0,200,76,0,200,77,0,1,78,0,201,79,0,201,80,0,200,81,0,200,83,0,200,84,0,200,85,0,200,86,0,200,87,0,201,88,0,201*5B
$PAIRSAT,3,21,2,0,1200,3,0,1200,4,0,1200,5,0,200,7,0,1200,8,0,1200,9,0,1200,10,0,200,11,0,200,12,0,200,13,0,221,15,0,200,21,0,21,25,0,1000,26,0,1021,27,0,1021,30,0,1000,31,0,1000,33,0,1200,34,0,1000,36,0,1200*54
$PAIRSAT,4,40,3,0,400,7,0,1,9,0,201,10,0,201,11,0,200,12,0,200,13,0,200,14,0,200,16,0,201,19,0,600,20,0,600,21,0,600,22,0,600,23,0,621,24,0,400,25,0,421,26,0,400,27,0,400,28,0,421,29,0,400,30,0,400,32,0,400,33,0,400,34,0,421,35,0,400,36,0,400,37,0,421,38,0,400,39,0,421,40,0,421,41,0,400,42,0,400,43,0,421,44,0,400,45,0,400,46,0,400,59,0,400,60,0,400,61,0,400,62,0,400*43
$PAIRDGP,8,2,4,7,8,16,21,26,27*41
$GNGGA,035939.200,2500.7913111,N,12132.4417812,E,4,44,0.58,16.761,M,15.25,M,1,3335*4A
$GNRMC,035939.200,A,2500.7913111,N,12132.4417812,E,0.05,135.00,090324,,,R,V*14
$GPHDT,3.983,T*34
$GNACCURACY,4.7*15
$GNGGA,035939.300,2500.7913126,N,12132.4417824,E,4,44,0.58,16.769,M,15.25,M,1,3335*42
$GNRMC,035939.300,A,2500.7913126,N,12132.4417824,E,0.03,135.00,090324,,,R,V*12
$GPHDT,,T*1B
$GNACCURACY,4.7*15
$GNGGA,035939.400,2500.7913135,N,12132.4417854,E,4,44,0.58,16.776,M,15.25,M,1,3335*4E
$GNRMC,035939.400,A,2500.7913135,N,12132.4417854,E,0.03,135.00,090324,,,R,V*10
$GPHDT,3.468,T*3C
$GNACCURACY,4.7*15
$GNGGA,035939.500,2500.7913129,N,12132.4417831,E,4,44,0.58,16.768,M,15.25,M,1,3335*4E
$GNRMC,035939.500,A,2500.7913129,N,12132.4417831,E,0.04,135.00,090324,,,R,V*18
$GPHDT,,T*1B
$GNACCURACY,4.7*15
$GNGGA,035939.600,2500.7913151,N,12132.4417831,E,4,44,0.58,16.770,M,15.25,M,1,3335*4B
$GNRMC,035939.600,A,2500.7913151,N,12132.4417831,E,0.04,135.00,090324,,,R,V*14
$GPHDT,3.872,T*3B
$GNACCURACY,4.7*15
$GNGGA,035939.700,2500.7913134,N,12132.4417835,E,4,44,0.58,16.761,M,15.25,M,1,3335*4D
$GNRMC,035939.700,A,2500.7913134,N,12132.4417835,E,0.01,135.00,090324,,,R,V*17
$GPHDT,,T*1B
$GNACCURACY,4.7*15
$GNGGA,035939.800,2500.7913128,N,12132.4417855,E,4,43,0.60,16.771,M,15.25,M,0,3335*45
$GNRMC,035939.800,A,2500.7913128,N,12132.4417855,E,0.08,135.00,090324,,,R,V*1A
$GPHDT,3.664,T*32
$GNACCURACY,4.7*15
$GNGGA,035939.900,2500.7913098,N,12132.4417855,E,4,43,0.60,16.763,M,15.25,M,0,3335*4D
$GNRMC,035939.900,A,2500.7913098,N,12132.4417855,E,0.05,135.00,090324,,,R,V*1C
$GPHDT,,T*1B
$GNACCURACY,4.7*15
$GNGGA,035940.000,2500.7913098,N,12132.4417832,E,4,43,0.60,16.763,M,15.25,M,1,3335*4A
$GNRMC,035940.000,A,2500.7913098,N,12132.4417832,E,0.02,135.00,090324,,,R,V*1D
$GPHDT,3.640,T*34
$GNACCURACY,4.7*15
$GNGGA,035940.100,2500.7913094,N,12132.4417791,E,4,43,0.60,16.756,M,15.25,M,1,3335*47
$GNRMC,035940.100,A,2500.7913094,N,12132.4417791,E,0.02,135.00,090324,,,R,V*16
$GPHDT,,T*1B
$GNGSA,A,3,08,194,195,199,21,02,07,27,16,04,26,,1.09,0.60,0.91,1*3B
$GNGSA,A,3,88,78,77,79,,,,,,,,,1.09,0.60,0.91,2*05
$GNGSA,A,3,13,21,26,27,,,,,,,,,1.09,0.60,0.91,3*05
$GNGSA,A,3,09,23,16,40,43,07,39,25,37,,,,1.09,0.60,0.91,4*00
$GPGSV,4,1,13,08,65,347,43,194,64,051,38,195,63,116,43,50,60,167,39,1*6E
$GPGSV,4,2,13,199,60,167,36,21,55,160,46,02,43,178,44,07,38,318,44,1*59
$GPGSV,4,3,13,27,36,034,38,16,29,071,42,04,21,206,24,196,20,170,31,1*5C
$GPGSV,4,4,13,26,10,096,19,1*54
$GPGSV,2,1,07,08,65,347,47,194,64,051,44,195,63,116,43,199,60,167,47,8*56
$GPGSV,2,2,07,27,36,034,43,04,21,206,23,26,10,096,22,8*52
$GLGSV,2,1,05,88,60,036,41,78,54,029,43,77,26,105,16,79,22,331,39,1*78
$GLGSV,2,2,05,87,07,026,17,1*47
$GAGSV,2,1,05,13,54,088,44,21,54,006,40,26,40,172,35,27,30,075,40,7*74
$GAGSV,2,2,05,04,12,302,16,7*47
$GAGSV,1,1,04,21,54,006,43,13,54,088,46,26,40,172,44,27,30,075,38,1*78
$GBGSV,4,1,13,09,74,273,41,23,71,020,44,16,71,197,45,40,62,326,41,1*70
$GBGSV,4,2,13,43,62,039,43,07,61,305,40,39,60,185,40,28,52,217,,1*73
$GBGSV,4,3,13,10,51,287,,25,40,113,38,37,27,320,42,34,15,040,,1*71
$GBGSV,4,4,13,06,,,42,1*74
$GBGSV,2,1,06,23,71,020,46,40,62,326,44,43,62,039,42,39,60,185,42,4*7F
$GBGSV,2,2,06,25,40,113,37,37,27,320,43,4*76
$GNACCURACY,4.7*15
$PAIRSAT,1,26,2,0,201,3,0,200,4,0,201,5,0,200,6,0,200,7,0,201,8,0,221,9,0,200,16,0,1,20,0,200,21,0,201,22,0,200,23,0,200,24,0,200,25,0,200,26,0,220,27,0,221,28,0,200,29,0,200,30,0,200,31,0,200,32,0,200,194,0,21,195,0,621,196,0,600,199,0,621*45
$PAIRSAT,2,17,70,0,200,71,0,200,73,0,200,74,0,200,75,0,200,76,0,200,77,0,1,78,0,201,79,0,201,80,0,200,81,0,200,83,0,200,84,0,200,85,0,200,86,0,200,87,0,201,88,0,201*5B
$PAIRSAT,3,21,2,0,1200,3,0,1200,4,0,1200,5,0,200,7,0,1200,8,0,1200,9,0,1200,10,0,200,11,0,200,12,0,200,13,0,221,15,0,200,21,0,21,25,0,1000,26,0,1021,27,0,1021,30,0,1000,31,0,1000,33,0,1200,34,0,1000,36,0,1200*54
$PAIRSAT,4,40,3,0,400,7,0,1,9,0,201,10,0,201,11,0,200,12,0,200,13,0,200,14,0,200,16,0,201,19,0,600,20,0,600,21,0,600,22,0,600,23,0,621,24,0,400,25,0,421,26,0,400,27,0,400,28,0,421,29,0,400,30,0,400,32,0,400,33,0,400,34,0,421,35,0,400,36,0,400,37,0,421,38,0,400,39,0,421,40,0,421,41,0,400,42,0,400,43,0,421,44,0,400,45,0,400,46,0,400,59,0,400,60,0,400,61,0,400,62,0,400*43
$PAIRDGP,8,2,4,7,8,16,21,26,27*41
$GNGGA,035940.200,2500.7913136,N,12132.4417793,E,4,43,0.60,16.758,M,15.25,M,1,3335*41
$GNRMC,035940.200,A,2500.7913136,N,12132.4417793,E,0.04,135.00,090324,,,R,V*18
$GPHDT,4.273,T*37
$GNACCURACY,4.7*15
$GNGGA,035940.300,2500.7913093,N,12132.4417751,E,4,43,0.60,16.753,M,15.25,M,1,3335*4B
$GNRMC,035940.300,A,2500.7913093,N,12132.4417751,E,0.03,135.00,090324,,,R,V*1E
$GPHDT,,T*1B
$GNACCURACY,4.7*15
$GNGGA,035940.400,2500.7913088,N,12132.4417791,E,4,43,0.60,16.759,M,15.25,M,1,3335*40
$GNRMC,035940.400,A,2500.7913088,N,12132.4417791,E,0.02,135.00,090324,,,R,V*1E
$GPHDT,4.231,T*31
$GNACCURACY,4.7*15
$GNGGA,035940.500,2500.7913096,N,12132.4417803,E,4,43,0.60,16.761,M,15.25,M,1,3335*41
$GNRMC,035940.500,A,2500.7913096,N,12132.4417803,E,0.02,135.00,090324,,,R,V*14
$GPHDT,,T*1B
$GNACCURACY,4.7*15
$GNGGA,035940.600,2500.7913114,N,12132.4417803,E,4,43,0.60,16.765,M,15.25,M,0,3335*4C
$GNRMC,035940.600,A,2500.7913114,N,12132.4417803,E,0.02,135.00,090324,,,R,V*1C
$GPHDT,3.955,T*3F
$GNACCURACY,4.7*15
$GNGGA,035940.700,2500.7913139,N,12132.4417802,E,4,43,0.60,16.775,M,15.25,M,0,3335*42
$GNRMC,035940.700,A,2500.7913139,N,12132.4417802,E,0.02,135.00,090324,,,R,V*13
$GPHDT,,T*1B
$GNACCURACY,4.6*14
$GNGGA,035940.800,2500.7913157,N,12132.4417833,E,4,43,0.60,16.762,M,15.25,M,0,3335*41
$GNRMC,035940.800,A,2500.7913157,N,12132.4417833,E,0.02,135.00,090324,,,R,V*16
$GPHDT,4.066,T*31
$GNACCURACY,4.6*14
$GNGGA,035940.900,2500.7913144,N,12132.4417822,E,4,43,0.60,16.762,M,15.25,M,0,3335*42
$GNRMC,035940.900,A,2500.7913144,N,12132.4417822,E,0.15,135.00,090324,,,R,V*13
$GPHDT,,T*1B
$GNACCURACY,4.6*14
$GNGGA,035941.000,2500.7913155,N,12132.4417815,E,4,43,0.60,16.779,M,15.25,M,1,3335*45
$GNRMC,035941.000,A,2500.7913155,N,12132.4417815,E,0.06,135.00,090324,,,R,V*1D
$GPHDT,3.876,T*3F
$GNACCURACY,4.6*14
$GNGGA,035941.100,2500.7913170,N,12132.4417783,E,4,43,0.60,16.764,M,15.25,M,1,3335*4F
$GNRMC,035941.100,A,2500.7913170,N,12132.4417783,E,0.04,135.00,090324,,,R,V*19
$GPHDT,,T*1B
$GNGSA,A,3,08,194,195,199,21,02,07,27,16,04,26,,1.09,0.60,0.91,1*3B
$GNGSA,A,3,88,78,77,79,,,,,,,,,1.09,0.60,0.91,2*05
$GNGSA,A,3,13,21,26,27,,,,,,,,,1.09,0.60,0.91,3*05
$GNGSA,A,3,09,23,16,40,43,07,39,25,37,,,,1.09,0.60,0.91,4*00
$GPGSV,4,1,13,08,65,347,43,194,64,051,39,195,63,116,43,50,60,167,39,1*6F
$GPGSV,4,2,13,199,60,167,36,21,55,160,46,02,43,178,45,07,38,318,43,1*5F
$GPGSV,4,3,13,27,36,034,38,16,29,071,43,04,21,206,27,196,20,170,25,1*5B
$GPGSV,4,4,13,26,10,096,25,1*5B
$GPGSV,2,1,07,08,65,347,47,194,64,051,44,195,63,116,44,199,60,167,46,8*50
$GPGSV,2,2,07,27,36,034,43,04,21,206,25,26,10,096,22,8*54
$GLGSV,2,1,05,88,60,036,40,78,54,029,43,77,26,105,17,79,22,331,40,1*76
$GLGSV,2,2,05,87,07,026,16,1*46
$GAGSV,2,1,05,13,54,087,44,21,54,006,39,26,40,172,35,27,30,075,40,7*75
$GAGSV,2,2,05,04,12,302,17,7*46
$GAGSV,1,1,04,21,54,006,43,13,54,087,46,26,40,172,44,27,30,075,38,1*77
$GBGSV,4,1,13,09,74,273,41,23,71,020,44,16,71,197,45,40,62,326,41,1*70
$GBGSV,4,2,13,43,62,039,43,07,61,305,40,39,60,185,40,28,52,217,,1*73
$GBGSV,4,3,13,10,51,287,,25,40,113,36,37,27,320,42,34,15,040,,1*7F
$GBGSV,4,4,13,06,,,42,1*74
$GBGSV,2,1,05,23,71,020,46,40,62,326,44,39,60,185,43,25,40,113,37,4*76
$GBGSV,2,2,05,37,27,320,41,4*43
$GNACCURACY,4.6*14
$PAIRSAT,1,26,2,0,201,3,0,200,4,0,201,5,0,200,6,0,200,7,0,201,8,0,221,9,0,200,16,0,1,20,0,200,21,0,201,22,0,200,23,0,200,24,0,200,25,0,200,26,0,220,27,0,221,28,0,200,29,0,200,30,0,200,31,0,200,32,0,200,194,0,21,195,0,621,196,0,600,199,0,621*45
$PAIRSAT,2,17,70,0,200,71,0,200,73,0,200,74,0,200,75,0,200,76,0,200,77,0,1,78,0,201,79,0,201,80,0,200,81,0,200,83,0,200,84,0,200,85,0,200,86,0,200,87,0,201,88,0,201*5B
$PAIRSAT,3,21,2,0,1200,3,0,1200,4,0,1200,5,0,200,7,0,1200,8,0,1200,9,0,1200,10,0,200,11,0,200,12,0,200,13,0,221,15,0,200,21,0,21,25,0,1000,26,0,1021,27,0,1021,30,0,1000,31,0,1000,33,0,1200,34,0,1000,36,0,1200*54
$PAIRSAT,4,40,3,0,400,7,0,1,9,0,201,10,0,201,11,0,200,12,0,200,13,0,200,14,0,200,16,0,201,19,0,600,20,0,600,21,0,600,22,0,600,23,0,621,24,0,400,25,0,421,26,0,400,27,0,400,28,0,421,29,0,400,30,0,400,32,0,400,33,0,400,34,0,421,35,0,400,36,0,400,37,0,421,38,0,400,39,0,421,40,0,421,41,0,400,42,0,400,43,0,421,44,0,400,45,0,400,46,0,400,59,0,400,60,0,400,61,0,400,62,0,400*43
$PAIRDGP,8,2,4,7,8,16,21,26,27*41
$GNGGA,035941.200,2500.7913161,N,12132.4417793,E,4,43,0.60,16.766,M,15.25,M,1,3335*4F
$GNRMC,035941.200,A,2500.7913161,N,12132.4417793,E,0.03,135.00,090324,,,R,V*1C
$GPHDT,4.239,T*39
$GNACCURACY,4.6*14
$GNGGA,035941.300,2500.7913161,N,12132.4417818,E,4,44,0.60,16.770,M,15.25,M,1,3335*42
$GNRMC,035941.300,A,2500.7913161,N,12132.4417818,E,0.03,135.00,090324,,,R,V*11
$GPHDT,,T*1B
$GNACCURACY,4.6*14
$GNGGA,035941.400,2500.7913164,N,12132.4417815,E,4,44,0.60,16.763,M,15.25,M,1,3335*4F
$GNRMC,035941.400,A,2500.7913164,N,12132.4417815,E,0.03,135.00,090324,,,R,V*1E
$GPHDT,3.897,T*30
$GNACCURACY,4.6*14
$GNGGA,035941.500,2500.7913154,N,12132.4417816,E,4,44,0.60,16.771,M,15.25,M,1,3335*4D
$GNRMC,035941.500,A,2500.7913154,N,12132.4417816,E,0.03,135.00,090324,,,R,V*1F
$GPHDT,,T*1B
$GNACCURACY,4.6*14
$GNGGA,035941.600,2500.7913155,N,12132.4417823,E,4,44,0.60,16.773,M,15.25,M,0,3335*4A
$GNRMC,035941.600,A,2500.7913155,N,12132.4417823,E,0.02,135.00,090324,,,R,V*1A
$GPHDT,3.968,T*31
$GNACCURACY,4.6*14
$GNGGA,035941.700,2500.7913155,N,12132.4417821,E,4,44,0.60,16.775,M,15.25,M,0,3335*4F
$GNRMC,035941.700,A,2500.7913155,N,12132.4417821,E,0.02,135.00,090324,,,R,V*19
$GPHDT,,T*1B
$GNACCURACY,4.6*14
$GNGGA,035941.800,2500.7913148,N,12132.4417842,E,4,44,0.60,16.786,M,15.25,M,0,3335*45
$GNRMC,035941.800,A,2500.7913148,N,12132.4417842,E,0.02,135.00,090324,,,R,V*1F
$GPHDT,3.407,T*35
$GNACCURACY,4.6*14
$GNGGA,035941.900,2500.7913116,N,12132.4417824,E,4,44,0.60,16.777,M,15.25,M,0,3335*41
$GNRMC,035941.900,A,2500.7913116,N,12132.4417824,E,0.06,135.00,090324,,,R,V*11
$GPHDT,,T*1B
$GNACCURACY,4.6*14
$GNGGA,035942.000,2500.7913128,N,12132.4417842,E,4,44,0.60,16.779,M,15.25,M,1,3335*49
$GNRMC,035942.000,A,2500.7913128,N,12132.4417842,E,0.02,135.00,090324,,,R,V*12
$GPHDT,3.884,T*32
$GNACCURACY,4.6*14
$GNGGA,035942.100,2500.7913131,N,12132.4417853,E,4,44,0.60,16.772,M,15.25,M,1,3335*4B
$GNRMC,035942.100,A,2500.7913131,N,12132.4417853,E,0.01,135.00,090324,,,R,V*18
$GPHDT,,T*1B
$GNGSA,A,3,08,194,195,199,21,02,07,27,16,04,26,,1.09,0.60,0.91,1*3B
$GNGSA,A,3,88,78,77,79,,,,,,,,,1.09,0.60,0.91,2*05
$GNGSA,A,3,13,21,26,27,,,,,,,,,1.09,0.60,0.91,3*05
$GNGSA,A,3,09,23,16,40,43,07,39,25,37,,,,1.09,0.60,0.91,4*00
$GPGSV,4,1,13,08,65,347,44,194,64,051,39,195,63,116,43,50,60,167,38,1*69
$GPGSV,4,2,13,199,60,167,35,21,55,160,46,02,43,178,44,07,38,318,42,1*5C
$GPGSV,4,3,13,27,36,034,39,16,29,071,43,04,21,206,27,196,20,170,25,1*5A
$GPGSV,4,4,13,26,10,096,23,1*5D
$GPGSV,2,1,07,08,65,347,47,194,64,051,45,195,63,116,44,199,60,167,46,8*51
$GPGSV,2,2,07,27,36,034,43,04,21,206,25,26,10,096,21,8*57
$GLGSV,2,1,05,88,60,036,40,78,54,029,43,77,26,105,17,79,22,331,39,1*78
$GLGSV,2,2,05,87,07,026,19,1*49
$GAGSV,2,1,05,13,54,087,44,21,54,006,40,26,40,172,37,27,30,075,40,7*79
$GAGSV,2,2,05,04,12,302,17,7*46
$GAGSV,1,1,04,21,54,006,43,13,54,087,46,26,40,172,44,27,30,075,40,1*78
$GBGSV,4,1,13,09,74,273,41,23,71,020,44,16,71,197,45,40,62,326,41,1*70
$GBGSV,4,2,13,43,62,039,42,07,61,305,41,39,60,185,40,28,52,217,,1*73
$GBGSV,4,3,13,10,51,287,,25,40,113,37,37,27,320,39,34,15,040,,1*72
$GBGSV,4,4,13,06,,,40,1*76
$GBGSV,2,1,06,23,71,020,46,40,62,326,45,43,62,039,45,39,60,185,43,4*78
$GBGSV,2,2,06,25,40,113,37,37,27,320,43,4*76
$GNACCURACY,4.6*14
$PAIRSAT,1,27,2,0,201,3,0,200,4,0,201,5,0,200,6,0,200,7,0,201,8,0,221,9,0,200,10,0,200,16,0,1,20,0,200,21,0,201,22,0,200,23,0,200,24,0,200,25,0,200,26,0,220,27,0,221,28,0,200,29,0,200,30,0,200,31,0,200,32,0,200,194,0,21,195,0,621,196,0,600,199,0,621*6B
$PAIRSAT,2,17,70,0,200,71,0,200,73,0,200,74,0,200,75,0,200,76,0,200,77,0,1,78,0,201,79,0,201,80,0,200,81,0,200,83,0,200,84,0,200,85,0,200,86,0,200,87,0,201,88,0,201*5B
$PAIRSAT,3,21,2,0,1200,3,0,1200,4,0,1200,5,0,200,7,0,1200,8,0,1200,9,0,1200,10,0,200,11,0,200,12,0,200,13,0,221,15,0,200,21,0,21,25,0,1000,26,0,1021,27,0,1021,30,0,1000,31,0,1000,33,0,1200,34,0,1000,36,0,1200*54
$PAIRSAT,4,40,3,0,400,7,0,1,9,0,201,10,0,201,11,0,200,12,0,200,13,0,200,14,0,200,16,0,201,19,0,600,20,0,600,21,0,600,22,0,600,23,0,621,24,0,400,25,0,421,26,0,400,27,0,400,28,0,421,29,0,400,30,0,400,32,0,400,33,0,400,34,0,421,35,0,400,36,0,400,37,0,421,38,0,400,39,0,421,40,0,421,41,0,400,42,0,400,43,0,421,44,0,400,45,0,400,46,0,400,59,0,400,60,0,400,61,0,400,62,0,400*43
$PAIRDGP,8,2,4,7,8,16,21,26,27*41
$GNGGA,035942.200,2500.7913130,N,12132.4417831,E,4,44,0.60,16.768,M,15.25,M,1,3335*46
$GNRMC,035942.200,A,2500.7913130,N,12132.4417831,E,0.01,135.00,090324,,,R,V*1E
$GPHDT,4.192,T*3B
$GNACCURACY,4.6*14
$GNGGA,035942.300,2500.7913134,N,12132.4417864,E,4,44,0.60,16.764,M,15.25,M,1,3335*4F
$GNRMC,035942.300,A,2500.7913134,N,12132.4417864,E,0.01,135.00,090324,,,R,V*1B
$GPHDT,,T*1B
$GNACCURACY,4.6*14
$GNGGA,035942.400,2500.7913144,N,12132.4417851,E,4,44,0.60,16.759,M,15.25,M,1,3335*47
$GNRMC,035942.400,A,2500.7913144,N,12132.4417851,E,0.01,135.00,090324,,,R,V*1D
$GPHDT,3.736,T*34
$GNACCURACY,4.6*14
$GNGGA,035942.500,2500.7913133,N,12132.4417882,E,4,44,0.60,16.760,M,15.25,M,1,3335*42
$GNRMC,035942.500,A,2500.7913133,N,12132.4417882,E,0.01,135.00,090324,,,R,V*12
$GPHDT,,T*1B
$GNACCURACY,4.7*15
$GNGGA,035942.600,2500.7913148,N,12132.4417879,E,4,44,0.60,16.768,M,15.25,M,1,3335*41
$GNRMC,035942.600,A,2500.7913148,N,12132.4417879,E,0.01,135.00,090324,,,R,V*19
$GPHDT,3.457,T*30
$GNACCURACY,4.7*15
$GNGGA,035942.700,2500.7913137,N,12132.4417840,E,4,44,0.60,16.779,M,15.25,M,0,3335*43
$GNRMC,035942.700,A,2500.7913137,N,12132.4417840,E,0.01,135.00,090324,,,R,V*1A
$GPHDT,,T*1B
$GNACCURACY,4.7*15
$GNGGA,035942.800,2500.7913138,N,12132.4417827,E,4,44,0.60,16.775,M,15.25,M,0,3335*4E
$GNRMC,035942.800,A,2500.7913138,N,12132.4417827,E,0.01,135.00,090324,,,R,V*1B
$GPHDT,4.070,T*36
$GNACCURACY,4.7*15
$GNGGA,035942.900,2500.7913151,N,12132.4417832,E,4,44,0.60,16.780,M,15.25,M,0,3335*4E
$GNRMC,035942.900,A,2500.7913151,N,12132.4417832,E,0.02,135.00,090324,,,R,V*12
$GPHDT,,T*1B
$GNACCURACY,4.7*15
$GNGGA,035943.000,2500.7913156,N,12132.4417832,E,4,44,0.60,16.771,M,15.25,M,1,3335*4E
$GNRMC,035943.000,A,2500.7913156,N,12132.4417832,E,0.01,135.00,090324,,,R,V*1E
$GPHDT,3.963,T*3A
$GNACCURACY,4.8*1A
$GNGGA,035943.100,2500.7913152,N,12132.4417826,E,4,44,0.60,16.776,M,15.25,M,1,3335*49
$GNRMC,035943.100,A,2500.7913152,N,12132.4417826,E,0.01,135.00,090324,,,R,V*1E
$GPHDT,,T*1B
$GNGSA,A,3,08,194,195,199,21,02,07,27,16,04,26,,1.09,0.60,0.91,1*3B
$GNGSA,A,3,88,78,77,79,,,,,,,,,1.09,0.60,0.91,2*05
$GNGSA,A,3,13,21,26,27,,,,,,,,,1.09,0.60,0.91,3*05
$GNGSA,A,3,09,23,16,40,43,07,39,25,37,,,,1.09,0.60,0.91,4*00
$GPGSV,4,1,13,08,65,347,44,194,64,051,39,195,63,116,43,50,60,167,38,1*69
$GPGSV,4,2,13,199,60,167,35,21,55,160,46,02,43,178,45,07,38,318,38,1*50
$GPGSV,4,3,13,27,36,034,37,16,29,071,43,04,21,206,27,196,20,170,26,1*57
$GPGSV,4,4,13,26,10,096,24,1*5A
$GPGSV,2,1,08,08,65,347,47,194,64,051,45,195,63,116,44,199,60,167,46,8*5E
$GPGSV,2,2,08,27,36,034,43,04,21,206,23,196,20,170,26,26,10,096,21,8*50
$GLGSV,2,1,05,88,60,036,40,78,54,029,43,77,26,105,14,79,22,331,39,1*7B
$GLGSV,2,2,05,87,07,026,19,1*49
$GAGSV,2,1,05,13,54,087,44,21,54,006,39,26,40,172,38,27,30,075,40,7*78
$GAGSV,2,2,05,04,12,302,17,7*46
$GAGSV,1,1,04,21,54,006,43,13,54,087,46,26,40,172,43,27,30,075,40,1*7F
$GBGSV,4,1,13,09,74,273,42,23,71,020,44,16,71,197,45,40,62,326,41,1*73
$GBGSV,4,2,13,43,62,039,42,07,61,305,41,39,60,185,41,28,52,217,,1*72
$GBGSV,4,3,13,10,51,287,,25,40,113,37,37,27,320,36,34,15,040,,1*7D
$GBGSV,4,4,13,06,,,40,1*76
$GBGSV,2,1,06,23,71,020,46,40,62,326,45,43,62,039,44,39,60,185,43,4*79
$GBGSV,2,2,06,25,40,113,36,37,27,320,39,4*7A
$GNACCURACY,4.8*1A
$PAIRSAT,1,27,2,0,201,3,0,200,4,0,201,5,0,200,6,0,200,7,0,201,8,0,221,9,0,200,10,0,200,16,0,1,20,0,200,21,0,201,22,0,200,23,0,200,24,0,200,25,0,200,26,0,220,27,0,221,28,0,200,29,0,200,30,0,200,31,0,200,32,0,200,194,0,21,195,0,621,196,0,600,199,0,621*6B
$PAIRSAT,2,17,70,0,200,71,0,200,73,0,200,74,0,200,75,0,200,76,0,200,77,0,1,78,0,201,79,0,201,80,0,200,81,0,200,83,0,200,84,0,200,85,0,200,86,0,200,87,0,201,88,0,201*5B
$PAIRSAT,3,21,2,0,1200,3,0,1200,4,0,1200,5,0,200,7,0,1200,8,0,1200,9,0,1200,10,0,200,11,0,200,12,0,200,13,0,221,15,0,200,21,0,21,25,0,1000,26,0,1021,27,0,1021,30,0,1000,31,0,1000,33,0,1200,34,0,1000,36,0,1200*54
$PAIRSAT,4,40,3,0,400,7,0,1,9,0,201,10,0,201,11,0,200,12,0,200,13,0,200,14,0,200,16,0,201,19,0,600,20,0,600,21,0,600,22,0,600,23,0,621,24,0,400,25,0,421,26,0,400,27,0,400,28,0,421,29,0,400,30,0,400,32,0,400,33,0,400,34,0,421,35,0,400,36,0,400,37,0,421,38,0,400,39,0,421,40,0,421,41,0,400,42,0,400,43,0,421,44,0,400,45,0,400,46,0,400,59,0,400,60,0,400,61,0,400,62,0,400*43
$PAIRDGP,8,2,4,7,8,16,21,26,27*41
$GNGGA,035943.200,2500.7913162,N,12132.4417840,E,4,44,0.60,16.776,M,15.25,M,1,3335*49
$GNRMC,035943.200,A,2500.7913162,N,12132.4417840,E,0.00,135.00,090324,,,R,V*1F
$GPHDT,4.406,T*33
$GNACCURACY,4.8*1A
$GNGGA,035943.300,2500.7913157,N,12132.4417855,E,4,44,0.60,16.776,M,15.25,M,1,3335*4A
$GNRMC,035943.300,A,2500.7913157,N,12132.4417855,E,0.01,135.00,090324,,,R,V*1D
$GPHDT,,T*1B
$GNACCURACY,4.7*15
$GNGGA,035943.400,2500.7913157,N,12132.4417830,E,4,44,0.60,16.768,M,15.25,M,0,3335*40
$GNRMC,035943.400,A,2500.7913157,N,12132.4417830,E,0.01,135.00,090324,,,R,V*19
$GPHDT,4.498,T*34
$GNACCURACY,4.7*15
$GNGGA,035943.500,2500.7913141,N,12132.4417865,E,4,44,0.60,16.790,M,15.25,M,0,3335*41
$GNRMC,035943.500,A,2500.7913141,N,12132.4417865,E,0.01,135.00,090324,,,R,V*1F
$GPHDT,,T*1B
$GNACCURACY,4.7*15
$GNGGA,035943.600,2500.7913151,N,12132.4417875,E,4,44,0.60,16.784,M,15.25,M,0,3335*47
$GNRMC,035943.600,A,2500.7913151,N,12132.4417875,E,0.02,135.00,090324,,,R,V*1F
$GPHDT,4.035,T*37
$GNACCURACY,4.8*1A
$GNGGA,035943.700,2500.7913138,N,12132.4417877,E,4,44,0.60,16.784,M,15.25,M,0,3335*4B
$GNRMC,035943.700,A,2500.7913138,N,12132.4417877,E,0.04,135.00,090324,,,R,V*15
$GPHDT,,T*1B
$GNACCURACY,4.7*15
$GNGGA,035943.800,2500.7913130,N,12132.4417864,E,4,44,0.60,16.790,M,15.25,M,0,3335*4B
$GNRMC,035943.800,A,2500.7913130,N,12132.4417864,E,0.02,135.00,090324,,,R,V*16
$GPHDT,3.852,T*39
$GNACCURACY,4.7*15
$GNGGA,035943.900,2500.7913137,N,12132.4417888,E,4,44,0.60,16.787,M,15.25,M,0,3335*49
$GNRMC,035943.900,A,2500.7913137,N,12132.4417888,E,0.05,135.00,090324,,,R,V*15
$GPHDT,,T*1B
$GNACCURACY,4.7*15
$GNGGA,035944.000,2500.7913147,N,12132.4417861,E,4,44,0.60,16.774,M,15.25,M,1,3335*4A
$GNRMC,035944.000,A,2500.7913147,N,12132.4417861,E,0.04,135.00,090324,,,R,V*1A
$GPHDT,3.706,T*37
$GNACCURACY,4.7*15
$GNGGA,035944.100,2500.7913159,N,12132.4417879,E,4,44,0.60,16.776,M,15.25,M,1,3335*4F
$GNRMC,035944.100,A,2500.7913159,N,12132.4417879,E,0.07,135.00,090324,,,R,V*1E
$GPHDT,,T*1B
$GNGSA,A,3,08,194,195,199,21,02,07,27,16,04,26,,1.11,0.61,0.93,1*31
$GNGSA,A,3,88,78,79,,,,,,,,,,1.11,0.61,0.93,2*0F
$GNGSA,A,3,13,21,26,27,,,,,,,,,1.11,0.61,0.93,3*0F
$GNGSA,A,3,09,23,16,40,43,07,39,25,37,,,,1.11,0.61,0.93,4*0A
$GPGSV,4,1,14,08,65,347,44,194,64,051,39,195,63,116,43,199,60,167,35,1*57
$GPGSV,4,2,14,50,60,167,38,21,55,160,46,02,43,178,46,07,38,318,37,1*62
$GPGSV,4,3,14,27,36,034,37,16,29,071,44,09,25,251,,04,21,206,27,1*61
$GPGSV,4,4,14,196,20,170,26,26,10,096,23,1*54
$GPGSV,2,1,08,08,65,347,47,194,64,051,45,195,63,116,44,199,60,167,46,8*5E
$GPGSV,2,2,08,27,36,034,43,04,21,206,23,196,20,170,23,26,10,096,21,8*55
$GLGSV,2,1,05,88,60,036,41,78,54,029,43,77,26,105,14,79,22,331,39,1*7A
$GLGSV,2,2,05,87,07,026,19,1*49
$GAGSV,2,1,05,13,54,087,44,21,54,006,39,26,40,172,38,27,30,075,40,7*78
$GAGSV,2,2,05,04,12,302,17,7*46
$GAGSV,1,1,04,21,54,006,43,13,54,087,46,26,40,172,43,27,30,075,40,1*7F
$GBGSV,4,1,13,09,74,273,42,23,71,020,44,16,71,197,45,40,62,326,41,1*73
$GBGSV,4,2,13,43,62,039,42,07,61,305,41,39,60,185,40,28,52,217,,1*73
$GBGSV,4,3,13,10,51,287,,25,40,113,38,37,27,320,35,34,15,040,,1*71
$GBGSV,4,4,13,06,,,40,1*76
$GBGSV,2,1,06,23,71,020,46,40,62,326,45,43,62,039,42,39,60,185,43,4*7F
$GBGSV,2,2,06,25,40,113,37,37,27,320,38,4*7A
$GNACCURACY,4.7*15
$PAIRSAT,1,27,2,0,201,3,0,200,4,0,201,5,0,200,6,0,200,7,0,201,8,0,221,9,0,200,10,0,200,16,0,1,20,0,200,21,0,201,22,0,200,23,0,200,24,0,200,25,0,200,26,0,220,27,0,221,28,0,200,29,0,200,30,0,200,31,0,200,32,0,200,194,0,21,195,0,621,196,0,600,199,0,621*6B
$PAIRSAT,2,17,70,0,200,71,0,200,73,0,200,74,0,200,75,0,200,76,0,200,77,0,1,78,0,201,79,0,201,80,0,200,81,0,200,83,0,200,84,0,200,85,0,200,86,0,200,87,0,201,88,0,201*5B
$PAIRSAT,3,21,2,0,1200,3,0,1200,4,0,1200,5,0,200,7,0,1200,8,0,1200,9,0,1200,10,0,200,11,0,200,12,0,200,13,0,221,15,0,200,21,0,21,25,0,1000,26,0,1021,27,0,1021,30,0,1000,31,0,1000,33,0,1200,34,0,1000,36,0,1200*54
$PAIRSAT,4,40,3,0,400,7,0,1,9,0,201,10,0,201,11,0,200,12,0,200,13,0,200,14,0,200,16,0,201,19,0,600,20,0,600,21,0,600,22,0,600,23,0,621,24,0,400,25,0,421,26,0,400,27,0,400,28,0,421,29,0,400,30,0,400,32,0,400,33,0,400,34,0,421,35,0,400,36,0,400,37,0,421,38,0,400,39,0,421,40,0,421,41,0,400,42,0,400,43,0,421,44,0,400,45,0,400,46,0,400,59,0,400,60,0,400,61,0,400,62,0,400*43
$PAIRDGP,8,2,4,7,8,16,21,26,27*41
$GNGGA,035944.200,2500.7913141,N,12132.4417858,E,4,43,0.61,16.797,M,15.25,M,1,3335*4F
$GNRMC,035944.200,A,2500.7913141,N,12132.4417858,E,0.03,135.00,090324,,,R,V*13
$GPHDT,3.487,T*3D
$GNACCURACY,4.7*15
$GNGGA,035944.300,2500.7913138,N,12132.4417877,E,4,43,0.61,16.771,M,15.25,M,1,3335*45
$GNRMC,035944.300,A,2500.7913138,N,12132.4417877,E,0.03,135.00,090324,,,R,V*11
$GPHDT,,T*1B
$GNACCURACY,4.7*15
$GNGGA,035944.400,2500.7913152,N,12132.4417867,E,4,43,0.61,16.766,M,15.25,M,1,3335*49
$GNRMC,035944.400,A,2500.7913152,N,12132.4417867,E,0.02,135.00,090324,,,R,V*1A
$GPHDT,3.637,T*34
$GNACCURACY,4.7*15
$GNGGA,035944.500,2500.7913137,N,12132.4417870,E,4,43,0.61,16.786,M,15.25,M,0,3335*42
$GNRMC,035944.500,A,2500.7913137,N,12132.4417870,E,0.03,135.00,090324,,,R,V*1F
$GPHDT,,T*1B
$GNACCURACY,4.7*15
$GNGGA,035944.600,2500.7913142,N,12132.4417878,E,4,43,0.61,16.781,M,15.25,M,0,3335*4C
$GNRMC,035944.600,A,2500.7913142,N,12132.4417878,E,0.03,135.00,090324,,,R,V*16
$GPHDT,3.184,T*3B
$GNACCURACY,4.7*15
$GNGGA,035944.700,2500.7913141,N,12132.4417841,E,4,43,0.61,16.784,M,15.25,M,0,3335*41
$GNRMC,035944.700,A,2500.7913141,N,12132.4417841,E,0.02,135.00,090324,,,R,V*1F
$GPHDT,,T*1B
$GNACCURACY,4.8*1A
$GNGGA,035944.800,2500.7913151,N,12132.4417827,E,4,43,0.61,16.784,M,15.25,M,0,3335*4F
$GNRMC,035944.800,A,2500.7913151,N,12132.4417827,E,0.03,135.00,090324,,,R,V*10
$GPHDT,3.933,T*3F
$GNACCURACY,4.7*15
$GNGGA,035944.900,2500.7913141,N,12132.4417830,E,4,44,0.60,16.789,M,15.25,M,0,3335*42
$GNRMC,035944.900,A,2500.7913141,N,12132.4417830,E,0.04,135.00,090324,,,R,V*11
$GPHDT,,T*1B
$GNACCURACY,4.7*15
$GNGGA,035945.000,2500.7913156,N,12132.4417828,E,4,44,0.60,16.787,M,15.25,M,1,3335*4A
$GNRMC,035945.000,A,2500.7913156,N,12132.4417828,E,0.04,135.00,090324,,,R,V*16
$GPHDT,3.835,T*38
$GNACCURACY,4.7*15
$GNGGA,035945.100,2500.7913154,N,12132.4417845,E,4,44,0.60,16.793,M,15.25,M,1,3335*47
$GNRMC,035945.100,A,2500.7913154,N,12132.4417845,E,0.02,135.00,090324,,,R,V*18
$GPHDT,,T*1B
$GNGSA,A,3,08,194,195,199,21,02,07,27,16,04,26,,1.06,0.60,0.87,1*33
$GNGSA,A,3,88,78,79,,,,,,,,,,1.06,0.60,0.87,2*0D
$GNGSA,A,3,13,21,26,27,,,,,,,,,1.06,0.60,0.87,3*0D
$GNGSA,A,3,09,23,16,40,43,07,39,25,37,34,,,1.06,0.60,0.87,4*0F
$GPGSV,4,1,14,08,65,347,44,194,64,051,39,195,63,116,43,199,60,167,35,1*57
$GPGSV,4,2,14,50,60,167,38,21,55,160,46,02,43,178,46,07,38,318,40,1*62
$GPGSV,4,3,14,27,36,034,36,16,29,071,44,04,21,206,28,196,20,170,24,1*5B
$GPGSV,4,4,14,26,10,096,24,30,08,320,,1*67
$GPGSV,2,1,07,08,65,347,47,194,64,051,45,195,63,116,44,199,60,167,46,8*51
$GPGSV,2,2,07,27,36,034,43,04,21,206,24,26,10,096,20,8*57
$GLGSV,2,1,05,88,60,036,40,78,54,029,43,77,26,105,14,79,22,331,39,1*7B
$GLGSV,2,2,05,87,07,026,19,1*49
$GAGSV,2,1,05,13,54,087,44,21,54,006,39,26,40,172,36,27,30,075,40,7*76
$GAGSV,2,2,05,04,12,302,17,7*46
$GAGSV,1,1,04,21,54,006,43,13,54,087,46,26,40,172,43,27,30,075,40,1*7F
$GBGSV,4,1,13,09,74,273,42,23,71,020,45,16,71,197,45,40,62,326,41,1*72
$GBGSV,4,2,13,43,62,039,42,07,61,305,41,39,60,185,40,28,52,217,,1*73
$GBGSV,4,3,13,10,51,287,,25,40,113,36,37,27,320,37,34,15,040,26,1*79
$GBGSV,4,4,13,06,,,40,1*76
$GBGSV,2,1,06,23,71,020,46,40,62,326,45,43,62,039,43,39,60,185,43,4*7E
$GBGSV,2,2,06,25,40,113,36,37,27,320,43,4*77
$GNACCURACY,4.7*15
$PAIRSAT,1,27,2,0,201,3,0,200,4,0,201,5,0,200,6,0,200,7,0,201,8,0,221,9,0,200,10,0,200,16,0,1,20,0,200,21,0,201,22,0,200,23,0,200,24,0,200,25,0,200,26,0,220,27,0,221,28,0,200,29,0,200,30,0,200,31,0,200,32,0,200,194,0,21,195,0,621,196,0,600,199,0,621*6B
$PAIRSAT,2,17,70,0,200,71,0,200,73,0,200,74,0,200,75,0,200,76,0,200,77,0,1,78,0,201,79,0,201,80,0,200,81,0,200,83,0,200,84,0,200,85,0,200,86,0,200,87,0,201,88,0,201*5B
$PAIRSAT,3,21,2,0,1200,3,0,1200,4,0,1200,5,0,200,7,0,1200,8,0,1200,9,0,1200,10,0,200,11,0,200,12,0,200,13,0,221,15,0,200,21,0,21,25,0,1000,26,0,1021,27,0,1021,30,0,1000,31,0,1000,33,0,1200,34,0,1000,36,0,1200*54
$PAIRSAT,4,40,3,0,400,7,0,1,9,0,201,10,0,201,11,0,200,12,0,200,13,0,200,14,0,200,16,0,201,19,0,600,20,0,600,21,0,600,22,0,600,23,0,621,24,0,400,25,0,421,26,0,400,27,0,400,28,0,421,29,0,400,30,0,400,32,0,400,33,0,400,34,0,421,35,0,400,36,0,400,37,0,421,38,0,400,39,0,421,40,0,421,41,0,400,42,0,400,43,0,421,44,0,400,45,0,400,46,0,400,59,0,400,60,0,400,61,0,400,62,0,400*43
$PAIRDGP,8,2,4,7,8,16,21,26,27*41
$GNGGA,035945.200,2500.7913178,N,12132.4417860,E,4,44,0.60,16.791,M,15.25,M,1,3335*4F
$GNRMC,035945.200,A,2500.7913178,N,12132.4417860,E,0.02,135.00,090324,,,R,V*12
$GPHDT,3.801,T*3F
$GNACCURACY,4.7*15
$GNGGA,035945.300,2500.7913173,N,12132.4417856,E,4,44,0.60,16.785,M,15.25,M,1,3335*45
$GNRMC,035945.300,A,2500.7913173,N,12132.4417856,E,0.02,135.00,090324,,,R,V*1D
$GPHDT,,T*1B
$GNACCURACY,4.7*15
$GNGGA,035945.400,2500.7913187,N,12132.4417855,E,4,44,0.60,16.789,M,15.25,M,1,3335*46
$GNRMC,035945.400,A,2500.7913187,N,12132.4417855,E,0.02,135.00,090324,,,R,V*12
$GPHDT,3.308,T*3D
$GNACCURACY,4.7*15
$GNGGA,035945.500,2500.7913193,N,12132.4417850,E,4,44,0.60,16.789,M,15.25,M,1,3335*47
$GNRMC,035945.500,A,2500.7913193,N,12132.4417850,E,0.02,135.00,090324,,,R,V*13
$GPHDT,,T*1B
$GNACCURACY,4.7*15
$GNGGA,035945.600,2500.7913180,N,12132.4417868,E,4,44,0.60,16.780,M,15.25,M,1,3335*44
$GNRMC,035945.600,A,2500.7913180,N,12132.4417868,E,0.02,135.00,090324,,,R,V*19
$GPHDT,3.228,T*3E
$GNACCURACY,4.7*15
$GNGGA,035945.700,2500.7913183,N,12132.4417867,E,4,44,0.60,16.786,M,15.25,M,0,3335*4E
$GNRMC,035945.700,A,2500.7913183,N,12132.4417867,E,0.02,135.00,090324,,,R,V*14
$GPHDT,,T*1B
$GNACCURACY,4.7*15
$GNGGA,035945.800,2500.7913179,N,12132.4417855,E,4,44,0.60,16.781,M,15.25,M,0,3335*42
$GNRMC,035945.800,A,2500.7913179,N,12132.4417855,E,0.00,135.00,090324,,,R,V*1D
$GPHDT,3.498,T*33
$GNACCURACY,4.7*15
$GNGGA,035945.900,2500.7913173,N,12132.4417861,E,4,44,0.60,16.780,M,15.25,M,0,3335*4F
$GNRMC,035945.900,A,2500.7913173,N,12132.4417861,E,0.02,135.00,090324,,,R,V*13
$GPHDT,,T*1B
$GNACCURACY,4.7*15
$GNGGA,035946.000,2500.7913172,N,12132.4417899,E,4,44,0.60,16.769,M,15.25,M,1,3335*45
$GNRMC,035946.000,A,2500.7913172,N,12132.4417899,E,0.04,135.00,090324,,,R,V*19
$GPHDT,3.007,T*31
$GNACCURACY,4.7*15
$GNGGA,035946.100,2500.7913151,N,12132.4417870,E,4,44,0.60,16.807,M,15.25,M,1,3335*45
$GNRMC,035946.100,A,2500.7913151,N,12132.4417870,E,0.03,135.00,090324,,,R,V*19
$GPHDT,,T*1B
$GNGSA,A,3,08,194,195,199,21,02,07,27,16,04,26,,1.06,0.60,0.87,1*33
$GNGSA,A,3,88,78,79,,,,,,,,,,1.06,0.60,0.87,2*0D
$GNGSA,A,3,13,21,26,27,,,,,,,,,1.06,0.60,0.87,3*0D
$GNGSA,A,3,09,23,16,40,43,07,39,25,37,34,,,1.06,0.60,0.87,4*0F
$GPGSV,4,1,13,08,65,347,44,194,64,051,39,195,63,116,43,199,60,167,35,1*50
$GPGSV,4,2,13,50,60,167,38,21,55,160,46,02,43,178,46,07,38,318,42,1*67
$GPGSV,4,3,13,27,36,034,36,16,29,071,44,04,21,206,28,196,20,170,25,1*5D
$GPGSV,4,4,13,26,10,096,23,1*5D
$GPGSV,2,1,08,08,65,347,47,194,64,051,45,195,63,116,44,199,60,167,46,8*5E
$GPGSV,2,2,08,27,36,034,43,04,21,206,24,196,20,170,26,26,10,096,22,8*54
$GLGSV,2,1,06,88,60,036,41,81,59,196,,78,54,029,43,77,26,105,13,1*70
$GLGSV,2,2,06,79,22,331,41,87,07,026,19,1*70
$GAGSV,2,1,05,13,54,087,44,21,54,006,39,26,40,172,35,27,30,075,40,7*75
$GAGSV,2,2,05,04,12,302,16,7*47
$GAGSV,1,1,04,21,54,006,43,13,54,087,46,26,40,172,43,27,30,075,40,1*7F
$GBGSV,4,1,13,09,74,273,41,23,71,020,45,16,71,197,44,40,62,326,40,1*71
$GBGSV,4,2,13,43,62,039,42,07,61,305,40,39,60,185,40,28,52,217,,1*72
$GBGSV,4,3,13,10,51,287,,25,40,113,35,37,27,320,36,34,15,040,24,1*79
$GBGSV,4,4,13,06,,,40,1*76
$GBGSV,2,1,06,23,71,020,47,40,62,326,45,43,62,039,43,39,60,185,43,4*7F
$GBGSV,2,2,06,25,40,113,36,37,27,320,43,4*77
$GNACCURACY,4.7*15
$PAIRSAT,1,27,2,0,201,3,0,200,4,0,201,5,0,200,6,0,200,7,0,201,8,0,221,9,0,200,10,0,200,16,0,1,20,0,200,21,0,201,22,0,200,23,0,200,24,0,200,25,0,200,26,0,220,27,0,221,28,0,200,29,0,200,30,0,200,31,0,200,32,0,200,194,0,21,195,0,621,196,0,600,199,0,621*6B
$PAIRSAT,2,17,70,0,200,71,0,200,73,0,200,74,0,200,75,0,200,76,0,200,77,0,1,78,0,201,79,0,201,80,0,200,81,0,200,83,0,200,84,0,200,85,0,200,86,0,200,87,0,201,88,0,201*5B
$PAIRSAT,3,21,2,0,1200,3,0,1200,4,0,1200,5,0,200,7,0,1200,8,0,1200,9,0,1200,10,0,200,11,0,200,12,0,200,13,0,221,15,0,200,21,0,21,25,0,1000,26,0,1021,27,0,1021,30,0,1000,31,0,1000,33,0,1200,34,0,1000,36,0,1200*54
$PAIRSAT,4,40,3,0,400,7,0,1,9,0,201,10,0,201,11,0,200,12,0,200,13,0,200,14,0,200,16,0,201,19,0,600,20,0,600,21,0,600,22,0,600,23,0,621,24,0,400,25,0,421,26,0,400,27,0,400,28,0,421,29,0,400,30,0,400,32,0,400,33,0,400,34,0,421,35,0,400,36,0,400,37,0,421,38,0,400,39,0,421,40,0,421,41,0,400,42,0,400,43,0,421,44,0,400,45,0,400,46,0,400,59,0,400,60,0,400,61,0,400,62,0,400*43
$PAIRDGP,8,2,4,7,8,16,21,26,27*41
$GNGGA,035946.200,2500.7913147,N,12132.4417869,E,4,44,0.60,16.762,M,15.25,M,1,3335*45
$GNRMC,035946.200,A,2500.7913147,N,12132.4417869,E,0.03,135.00,090324,,,R,V*15
$GPHDT,3.353,T*33
$GNACCURACY,4.7*15
$GNGGA,035946.300,2500.7913164,N,12132.4417882,E,4,44,0.60,16.775,M,15.25,M,1,3335*46
$GNRMC,035946.300,A,2500.7913164,N,12132.4417882,E,0.02,135.00,090324,,,R,V*11
$GPHDT,,T*1B
$GNACCURACY,4.7*15
$GNGGA,035946.400,2500.7913163,N,12132.4417865,E,4,44,0.60,16.762,M,15.25,M,1,3335*49
$GNRMC,035946.400,A,2500.7913163,N,12132.4417865,E,0.01,135.00,090324,,,R,V*1B
$GPHDT,3.631,T*32
$GNACCURACY,4.7*15
$GNGGA,035946.500,2500.7913162,N,12132.4417853,E,4,44,0.60,16.771,M,15.25,M,0,3335*4F
$GNRMC,035946.500,A,2500.7913162,N,12132.4417853,E,0.02,135.00,090324,,,R,V*1D
$GPHDT,,T*1B
$GNACCURACY,4.7*15
$GNGGA,035946.600,2500.7913183,N,12132.4417819,E,4,44,0.60,16.791,M,15.25,M,0,3335*43
$GNRMC,035946.600,A,2500.7913183,N,12132.4417819,E,0.02,135.00,090324,,,R,V*1F
$GPHDT,3.350,T*30
$GNACCURACY,4.7*15
$GNGGA,035946.700,2500.7913184,N,12132.4417834,E,4,44,0.60,16.788,M,15.25,M,0,3335*42
$GNRMC,035946.700,A,2500.7913184,N,12132.4417834,E,0.01,135.00,090324,,,R,V*15
$GPHDT,,T*1B
$GNACCURACY,4.7*15
$GNGGA,035946.800,2500.7913178,N,12132.4417853,E,4,44,0.60,16.789,M,15.25,M,0,3335*4E
$GNRMC,035946.800,A,2500.7913178,N,12132.4417853,E,0.02,135.00,090324,,,R,V*1B
$GPHDT,3.005,T*33
$GNACCURACY,4.7*15
$GNGGA,035946.900,2500.7913196,N,12132.4417852,E,4,44,0.60,16.796,M,15.25,M,0,3335*40
$GNRMC,035946.900,A,2500.7913196,N,12132.4417852,E,0.03,135.00,090324,,,R,V*1A
$GPHDT,,T*1B
$GNACCURACY,4.7*15
$GNGGA,035947.000,2500.7913187,N,12132.4417853,E,4,44,0.60,16.789,M,15.25,M,1,3335*46
$GNRMC,035947.000,A,2500.7913187,N,12132.4417853,E,0.02,135.00,090324,,,R,V*12
$GPHDT,3.343,T*32
$GNACCURACY,4.7*15
$GNGGA,035947.100,2500.7913190,N,12132.4417861,E,4,44,0.60,16.792,M,15.25,M,1,3335*4A
$GNRMC,035947.100,A,2500.7913190,N,12132.4417861,E,0.02,135.00,090324,,,R,V*14
$GPHDT,,T*1B
$GNGSA,A,3,08,194,195,199,21,02,07,27,16,04,26,,1.06,0.60,0.87,1*33
$GNGSA,A,3,88,78,79,,,,,,,,,,1.06,0.60,0.87,2*0D
$GNGSA,A,3,13,21,26,27,,,,,,,,,1.06,0.60,0.87,3*0D
$GNGSA,A,3,09,23,16,40,43,07,39,25,37,34,,,1.06,0.60,0.87,4*0F
$GPGSV,4,1,13,08,65,347,44,194,64,051,40,195,63,116,43,50,60,167,38,1*67
$GPGSV,4,2,13,199,60,167,35,21,55,160,46,02,43,178,46,07,38,318,42,1*5E
$GPGSV,4,3,13,27,36,034,36,16,29,071,44,04,21,206,28,196,20,170,25,1*5D
$GPGSV,4,4,13,26,10,096,24,1*5A
$GPGSV,2,1,08,08,65,347,47,194,64,051,45,195,63,116,44,199,60,167,46,8*5E
$GPGSV,2,2,08,27,36,034,43,04,21,206,24,196,20,170,25,26,10,096,22,8*57
$GLGSV,2,1,06,88,60,036,41,81,59,196,42,78,54,029,43,77,26,105,13,1*76
$GLGSV,2,2,06,79,22,331,41,87,07,026,18,1*71
$GAGSV,2,1,06,13,54,087,44,21,54,006,39,26,40,172,35,27,30,075,40,7*76
$GAGSV,2,2,06,15,16,041,,04,12,302,14,7*70
$GAGSV,1,1,04,21,54,006,43,13,54,087,46,26,40,172,43,27,30,075,40,1*7F
$GBGSV,4,1,13,09,74,273,41,23,71,020,45,16,70,197,44,40,62,326,40,1*70
$GBGSV,4,2,13,43,62,039,42,07,61,305,40,39,60,185,40,28,52,217,,1*72
$GBGSV,4,3,13,10,51,287,,25,40,113,35,37,27,320,36,34,15,040,24,1*79
$GBGSV,4,4,13,06,,,40,1*76
$GBGSV,2,1,06,23,71,020,47,40,62,326,45,43,62,039,43,39,60,185,43,4*7F
$GBGSV,2,2,06,25,40,113,36,37,27,320,43,4*77
$GNACCURACY,4.7*15
$PAIRSAT,1,27,2,0,201,3,0,200,4,0,201,5,0,200,6,0,200,7,0,201,8,0,221,9,0,200,10,0,200,16,0,1,20,0,200,21,0,201,22,0,200,23,0,200,24,0,200,25,0,200,26,0,220,27,0,221,28,0,200,29,0,200,30,0,200,31,0,200,32,0,200,194,0,21,195,0,621,196,0,600,199,0,621*6B
$PAIRSAT,2,17,70,0,200,71,0,200,73,0,200,74,0,200,75,0,200,76,0,200,77,0,1,78,0,201,79,0,201,80,0,200,81,0,200,83,0,200,84,0,200,85,0,200,86,0,200,87,0,201,88,0,201*5B
$PAIRSAT,3,21,2,0,1200,3,0,1200,4,0,1200,5,0,200,7,0,1200,8,0,1200,9,0,1200,10,0,200,11,0,200,12,0,200,13,0,221,15,0,200,21,0,21,25,0,1000,26,0,1021,27,0,1021,30,0,1000,31,0,1000,33,0,1200,34,0,1000,36,0,1200*54
$PAIRSAT,4,40,3,0,400,7,0,1,9,0,201,10,0,201,11,0,200,12,0,200,13,0,200,14,0,200,16,0,201,19,0,600,20,0,600,21,0,600,22,0,600,23,0,621,24,0,400,25,0,421,26,0,400,27,0,400,28,0,421,29,0,400,30,0,400,32,0,400,33,0,400,34,0,421,35,0,400,36,0,400,37,0,421,38,0,400,39,0,421,40,0,421,41,0,400,42,0,400,43,0,421,44,0,400,45,0,400,46,0,400,59,0,400,60,0,400,61,0,400,62,0,400*43
$PAIRDGP,8,2,4,7,8,16,21,26,27*41
$GNGGA,035947.200,2500.7913199,N,12132.4417839,E,4,44,0.60,16.786,M,15.25,M,1,3335*48
$GNRMC,035947.200,A,2500.7913199,N,12132.4417839,E,0.02,135.00,090324,,,R,V*13
$GPHDT,3.264,T*36
$GNACCURACY,4.7*15
$GNGGA,035947.300,2500.7913206,N,12132.4417870,E,4,44,0.60,16.791,M,15.25,M,1,3335*47
$GNRMC,035947.300,A,2500.7913206,N,12132.4417870,E,0.02,135.00,090324,,,R,V*1A
$GPHDT,,T*1B
$GNACCURACY,4.8*1A
$GNGGA,035947.400,2500.7913194,N,12132.4417854,E,4,44,0.60,16.793,M,15.25,M,1,3335*4C
$GNRMC,035947.400,A,2500.7913194,N,12132.4417854,E,0.02,135.00,090324,,,R,V*13
$GPHDT,3.113,T*35
$GNACCURACY,4.7*15
$GNGGA,035947.500,2500.7913202,N,12132.4417861,E,4,44,0.60,16.791,M,15.25,M,1,3335*45
$GNRMC,035947.500,A,2500.7913202,N,12132.4417861,E,0.02,135.00,090324,,,R,V*18
$GPHDT,,T*1B
$GNACCURACY,4.7*15
$GNGGA,035947.600,2500.7913170,N,12132.4417876,E,4,44,0.60,16.785,M,15.25,M,0,3335*42
$GNRMC,035947.600,A,2500.7913170,N,12132.4417876,E,0.02,135.00,090324,,,R,V*1B
$GPHDT,2.984,T*32
$GNACCURACY,4.7*15
$GNGGA,035947.700,2500.7913182,N,12132.4417882,E,4,44,0.60,16.784,M,15.25,M,0,3335*44
$GNRMC,035947.700,A,2500.7913182,N,12132.4417882,E,0.02,135.00,090324,,,R,V*1C
$GPHDT,,T*1B
$GNACCURACY,4.8*1A
$GNGGA,035947.800,2500.7913166,N,12132.4417885,E,4,44,0.60,16.784,M,15.25,M,0,3335*46
$GNRMC,035947.800,A,2500.7913166,N,12132.4417885,E,0.05,135.00,090324,,,R,V*19
$GPHDT,2.686,T*3F
$GNACCURACY,4.7*15
$GNGGA,035947.900,2500.7913160,N,12132.4417939,E,4,44,0.60,16.768,M,15.25,M,0,3335*45
$GNRMC,035947.900,A,2500.7913160,N,12132.4417939,E,0.06,135.00,090324,,,R,V*1B
$GPHDT,,T*1B
$GNACCURACY,4.7*15
$GNGGA,035948.000,2500.7913165,N,12132.4417908,E,4,43,0.61,16.778,M,15.25,M,1,3335*42
$GNRMC,035948.000,A,2500.7913165,N,12132.4417908,E,0.01,135.00,090324,,,R,V*1D
$GPHDT,2.825,T*38
$GNACCURACY,4.8*1A
$GNGGA,035948.100,2500.7913161,N,12132.4417919,E,4,44,0.60,16.772,M,15.25,M,1,3335*4B
$GNRMC,035948.100,A,2500.7913161,N,12132.4417919,E,0.01,135.00,090324,,,R,V*18
$GPHDT,,T*1B
$GNGSA,A,3,08,194,195,199,21,02,07,27,16,04,26,,1.11,0.61,0.93,1*31
$GNGSA,A,3,88,78,79,,,,,,,,,,1.11,0.61,0.93,2*0F
$GNGSA,A,3,13,21,26,27,,,,,,,,,1.11,0.61,0.93,3*0F
$GNGSA,A,3,09,23,16,40,43,07,39,25,37,,,,1.11,0.61,0.93,4*0A
$GPGSV,4,1,13,08,65,347,44,194,64,051,40,195,63,116,43,50,60,167,38,1*67
$GPGSV,4,2,13,199,60,167,35,21,55,160,46,02,43,178,47,07,38,318,42,1*5F
$GPGSV,4,3,13,27,36,034,36,16,29,071,44,04,21,206,27,196,20,170,25,1*52
$GPGSV,4,4,13,26,10,096,24,1*5A
$GPGSV,2,1,08,08,65,347,47,194,64,051,45,195,63,116,44,199,60,167,47,8*5F
$GPGSV,2,2,08,27,36,034,43,04,21,206,24,196,20,170,25,26,10,096,23,8*56
$GLGSV,2,1,06,88,60,036,41,81,59,196,42,78,54,029,43,77,26,105,12,1*77
$GLGSV,2,2,06,79,22,331,41,87,07,026,18,1*71
$GAGSV,2,1,06,13,54,087,44,21,54,006,39,26,40,172,35,27,30,075,40,7*76
$GAGSV,2,2,06,15,16,041,,04,12,302,14,7*70
$GAGSV,1,1,04,21,54,006,43,13,54,087,46,26,40,172,43,27,30,075,39,1*71
$GBGSV,4,1,13,09,74,273,41,23,71,020,45,16,70,197,44,40,62,326,40,1*70
$GBGSV,4,2,13,43,62,039,42,07,61,305,40,39,60,185,40,28,52,217,,1*72
$GBGSV,4,3,13,10,51,287,,25,40,113,35,37,27,320,37,34,15,040,,1*7E
$GBGSV,4,4,13,06,,,40,1*76
$GBGSV,2,1,06,23,71,020,47,40,62,326,45,43,62,039,43,39,60,185,43,4*7F
$GBGSV,2,2,06,25,40,113,36,37,27,320,43,4*77
$GNACCURACY,4.7*15
$PAIRSAT,1,27,2,0,201,3,0,200,4,0,201,5,0,200,6,0,200,7,0,201,8,0,221,9,0,200,10,0,200,16,0,1,20,0,200,21,0,201,22,0,200,23,0,200,24,0,200,25,0,200,26,0,220,27,0,221,28,0,200,29,0,200,30,0,200,31,0,200,32,0,200,194,0,21,195,0,621,196,0,600,199,0,621*6B
$PAIRSAT,2,17,70,0,200,71,0,200,73,0,200,74,0,200,75,0,200,76,0,200,77,0,1,78,0,201,79,0,201,80,0,200,81,0,200,83,0,200,84,0,200,85,0,200,86,0,200,87,0,201,88,0,201*5B
$PAIRSAT,3,21,2,0,1200,3,0,1200,4,0,1200,5,0,200,7,0,1200,8,0,1200,9,0,1200,10,0,200,11,0,200,12,0,200,13,0,221,15,0,200,21,0,21,25,0,1000,26,0,1021,27,0,1021,30,0,1000,31,0,1000,33,0,1200,34,0,1000,36,0,1200*54
$PAIRSAT,4,40,3,0,400,7,0,1,9,0,201,10,0,201,11,0,200,12,0,200,13,0,200,14,0,200,16,0,201,19,0,600,20,0,600,21,0,600,22,0,600,23,0,621,24,0,400,25,0,421,26,0,400,27,0,400,28,0,421,29,0,400,30,0,400,32,0,400,33,0,400,34,0,421,35,0,400,36,0,400,37,0,421,38,0,400,39,0,421,40,0,421,41,0,400,42,0,400,43,0,421,44,0,400,45,0,400,46,0,400,59,0,400,60,0,400,61,0,400,62,0,400*43
$PAIRDGP,8,2,4,7,8,16,21,26,27*41
$GNGGA,035948.200,2500.7913169,N,12132.4417934,E,4,43,0.61,16.775,M,15.25,M,1,3335*4E
$GNRMC,035948.200,A,2500.7913169,N,12132.4417934,E,0.02,135.00,090324,,,R,V*1F
$GPHDT,2.681,T*38
$GNACCURACY,4.7*15
$GNGGA,035948.300,2500.7913181,N,12132.4417893,E,4,43,0.61,16.778,M,15.25,M,1,3335*48
$GNRMC,035948.300,A,2500.7913181,N,12132.4417893,E,0.01,135.00,090324,,,R,V*17
$GPHDT,,T*1B
$GNACCURACY,4.7*15
$GNGGA,035948.400,2500.7913169,N,12132.4417892,E,4,43,0.61,16.773,M,15.25,M,1,3335*43
$GNRMC,035948.400,A,2500.7913169,N,12132.4417892,E,0.01,135.00,090324,,,R,V*17
$GPHDT,3.105,T*32
$GNACCURACY,4.8*1A
$GNGGA,035948.500,2500.7913163,N,12132.4417935,E,4,43,0.61,16.766,M,15.25,M,1,3335*40
$GNRMC,035948.500,A,2500.7913163,N,12132.4417935,E,0.00,135.00,090324,,,R,V*11
$GPHDT,,T*1B
$GNACCURACY,4.8*1A
$GNGGA,035948.600,2500.7913173,N,12132.4417896,E,4,43,0.61,16.777,M,15.25,M,1,3335*4A
$GNRMC,035948.600,A,2500.7913173,N,12132.4417896,E,0.01,135.00,090324,,,R,V*1A
$GPHDT,3.719,T*39
$GNACCURACY,4.8*1A
$GNGGA,035948.700,2500.7913168,N,12132.4417889,E,4,43,0.61,16.773,M,15.25,M,1,3335*4B
$GNRMC,035948.700,A,2500.7913168,N,12132.4417889,E,0.01,135.00,090324,,,R,V*1F
$GPHDT,,T*1B
$GNACCURACY,4.8*1A
$GNGGA,035948.800,2500.7913163,N,12132.4417905,E,4,44,0.60,16.783,M,15.25,M,0,3335*42
$GNRMC,035948.800,A,2500.7913163,N,12132.4417905,E,0.00,135.00,090324,,,R,V*1F
$GPHDT,3.553,T*35
$GNACCURACY,4.8*1A
$GNGGA,035948.900,2500.7913168,N,12132.4417878,E,4,44,0.60,16.786,M,15.25,M,0,3335*46
$GNRMC,035948.900,A,2500.7913168,N,12132.4417878,E,0.01,135.00,090324,,,R,V*1F
$GPHDT,,T*1B
$GNACCURACY,4.8*1A
$GNGGA,035949.000,2500.7913161,N,12132.4417907,E,4,44,0.60,16.777,M,15.25,M,1,3335*41
$GNRMC,035949.000,A,2500.7913161,N,12132.4417907,E,0.03,135.00,090324,,,R,V*15
$GPHDT,3.608,T*38
$GNACCURACY,4.8*1A
$GNGGA,035949.100,2500.7913172,N,12132.4417925,E,4,44,0.60,16.778,M,15.25,M,1,3335*4D
$GNRMC,035949.100,A,2500.7913172,N,12132.4417925,E,0.01,135.00,090324,,,R,V*14
$GPHDT,,T*1B
$GNGSA,A,3,08,194,195,199,21,02,07,27,16,04,26,,1.06,0.60,0.87,1*33
$GNGSA,A,3,88,78,79,,,,,,,,,,1.06,0.60,0.87,2*0D
$GNGSA,A,3,13,21,26,27,,,,,,,,,1.06,0.60,0.87,3*0D
$GNGSA,A,3,09,23,16,40,43,07,39,25,37,34,,,1.06,0.60,0.87,4*0F
$GPGSV,4,1,14,08,65,347,44,194,64,051,40,195,63,116,43,50,60,167,38,1*60
$GPGSV,4,2,14,199,60,167,35,21,55,160,46,02,43,178,47,07,38,318,42,1*58
$GPGSV,4,3,14,27,36,034,38,16,29,071,44,04,21,206,27,196,20,170,25,1*5B
$GPGSV,4,4,14,26,10,096,24,31,04,143,,1*6D
$GPGSV,2,1,08,08,65,347,47,194,64,051,45,195,63,116,44,199,60,167,47,8*5F
$GPGSV,2,2,08,27,36,034,43,04,21,206,25,196,20,170,24,26,10,096,24,8*51
$GLGSV,2,1,06,88,60,036,41,81,59,196,42,78,54,029,43,77,26,105,12,1*77
$GLGSV,2,2,06,79,22,331,41,87,07,026,17,1*7E
$GAGSV,2,1,06,13,54,087,44,21,54,006,39,26,40,172,35,27,30,075,39,7*78
$GAGSV,2,2,06,15,16,041,18,04,12,302,13,7*7E
$GAGSV,1,1,04,21,54,006,43,13,54,087,46,26,40,172,43,27,30,075,39,1*71
$GBGSV,4,1,13,09,74,273,41,23,71,020,45,16,70,197,44,40,62,326,39,1*7E
$GBGSV,4,2,13,43,62,039,42,07,61,305,40,39,60,185,40,28,52,217,,1*72
$GBGSV,4,3,13,10,51,287,,25,40,113,35,37,27,320,37,34,14,040,24,1*79
$GBGSV,4,4,13,06,,,40,1*76
$GBGSV,2,1,06,23,71,020,47,40,62,326,45,43,62,039,43,39,60,185,43,4*7F
$GBGSV,2,2,06,25,40,113,35,37,27,320,43,4*74
$GNACCURACY,4.8*1A
$PAIRSAT,1,27,2,0,201,3,0,200,4,0,201,5,0,200,6,0,200,7,0,201,8,0,221,9,0,200,10,0,200,16,0,1,20,0,200,21,0,201,22,0,200,23,0,200,24,0,200,25,0,200,26,0,220,27,0,221,28,0,200,29,0,200,30,0,200,31,0,200,32,0,200,194,0,21,195,0,621,196,0,600,199,0,621*6B
$PAIRSAT,2,17,70,0,200,71,0,200,73,0,200,74,0,200,75,0,200,76,0,200,77,0,1,78,0,201,79,0,201,80,0,200,81,0,200,83,0,200,84,0,200,85,0,200,86,0,200,87,0,201,88,0,201*5B
$PAIRSAT,3,21,2,0,1200,3,0,1200,4,0,1200,5,0,200,7,0,1200,8,0,1200,9,0,1200,10,0,200,11,0,200,12,0,200,13,0,221,15,0,200,21,0,21,25,0,1000,26,0,1021,27,0,1021,30,0,1000,31,0,1000,33,0,1200,34,0,1000,36,0,1200*54
$PAIRSAT,4,40,3,0,400,7,0,1,9,0,201,10,0,201,11,0,200,12,0,200,13,0,200,14,0,200,16,0,201,19,0,600,20,0,600,21,0,600,22,0,600,23,0,621,24,0,400,25,0,421,26,0,400,27,0,400,28,0,421,29,0,400,30,0,400,32,0,400,33,0,400,34,0,421,35,0,400,36,0,400,37,0,421,38,0,400,39,0,421,40,0,421,41,0,400,42,0,400,43,0,421,44,0,400,45,0,400,46,0,400,59,0,400,60,0,400,61,0,400,62,0,400*43
$PAIRDGP,8,2,4,7,8,16,21,26,27*41
$GNGGA,035949.200,2500.7913167,N,12132.4417875,E,4,44,0.60,16.775,M,15.25,M,1,3335*43
$GNRMC,035949.200,A,2500.7913167,N,12132.4417875,E,0.01,135.00,090324,,,R,V*17
$GPHDT,3.764,T*33
$GNACCURACY,4.8*1A
$GNGGA,035949.300,2500.7913169,N,12132.4417881,E,4,44,0.60,16.775,M,15.25,M,1,3335*47
$GNRMC,035949.300,A,2500.7913169,N,12132.4417881,E,0.01,135.00,090324,,,R,V*13
$GPHDT,,T*1B
$GNACCURACY,4.8*1A
$GNGGA,035949.400,2500.7913171,N,12132.4417878,E,4,44,0.60,16.772,M,15.25,M,0,3335*49
$GNRMC,035949.400,A,2500.7913171,N,12132.4417878,E,0.00,135.00,090324,,,R,V*1A
$GPHDT,3.246,T*36
$GNACCURACY,4.8*1A
$GNGGA,035949.500,2500.7913184,N,12132.4417880,E,4,44,0.60,16.771,M,15.25,M,0,3335*46
$GNRMC,035949.500,A,2500.7913184,N,12132.4417880,E,0.00,135.00,090324,,,R,V*16
$GPHDT,,T*1B
$GNACCURACY,4.8*1A
$GNGGA,035949.600,2500.7913173,N,12132.4417870,E,4,44,0.60,16.772,M,15.25,M,0,3335*41
$GNRMC,035949.600,A,2500.7913173,N,12132.4417870,E,0.00,135.00,090324,,,R,V*12
$GPHDT,3.534,T*34
$GNACCURACY,4.8*1A
$GNGGA,035949.700,2500.7913179,N,12132.4417863,E,4,45,0.60,16.783,M,15.25,M,0,3335*47
$GNRMC,035949.700,A,2500.7913179,N,12132.4417863,E,0.00,135.00,090324,,,R,V*1B
$GPHDT,,T*1B
$GNACCURACY,4.8*1A
$GNGGA,035949.800,2500.7913179,N,12132.4417885,E,4,45,0.60,16.766,M,15.25,M,0,3335*4B
$GNRMC,035949.800,A,2500.7913179,N,12132.4417885,E,0.01,135.00,090324,,,R,V*1D
$GPHDT,3.328,T*3F
$GNACCURACY,4.8*1A
$GNGGA,035949.900,2500.7913176,N,12132.4417884,E,4,44,0.60,16.777,M,15.25,M,0,3335*45
$GNRMC,035949.900,A,2500.7913176,N,12132.4417884,E,0.02,135.00,090324,,,R,V*11
$GPHDT,,T*1B
$GNACCURACY,4.8*1A
$GNGGA,035950.000,2500.7913171,N,12132.4417872,E,4,44,0.60,16.769,M,15.25,M,1,3335*44
$GNRMC,035950.000,A,2500.7913171,N,12132.4417872,E,0.01,135.00,090324,,,R,V*1D
$GPHDT,3.795,T*3D
$GNACCURACY,4.8*1A
$GNGGA,035950.100,2500.7913188,N,12132.4417880,E,4,44,0.60,16.780,M,15.25,M,1,3335*49
$GNRMC,035950.100,A,2500.7913188,N,12132.4417880,E,0.01,135.00,090324,,,R,V*17
$GPHDT,,T*1B
$GNGSA,A,3,08,194,195,199,21,02,07,27,16,04,26,,1.06,0.60,0.87,1*33
$GNGSA,A,3,88,78,79,,,,,,,,,,1.06,0.60,0.87,2*0D
$GNGSA,A,3,21,13,26,27,,,,,,,,,1.06,0.60,0.87,3*0D
$GNGSA,A,3,09,23,16,40,43,07,39,25,37,34,,,1.06,0.60,0.87,4*0F
$GPGSV,4,1,13,08,65,347,44,194,64,051,40,195,63,116,43,50,60,167,38,1*67
$GPGSV,4,2,13,199,60,167,35,21,55,160,46,02,43,178,47,07,38,318,42,1*5F
$GPGSV,4,3,13,27,36,034,38,16,29,071,44,04,21,206,27,196,20,170,25,1*5C
$GPGSV,4,4,13,26,10,096,24,1*5A
$GPGSV,2,1,08,08,65,347,47,194,64,051,45,195,63,116,44,199,60,167,47,8*5F
$GPGSV,2,2,08,27,36,034,43,04,21,206,25,196,20,170,23,26,10,096,24,8*56
$GLGSV,2,1,06,88,60,036,41,81,59,196,43,78,54,029,43,77,26,105,11,1*75
$GLGSV,2,2,06,79,22,331,41,87,07,026,17,1*7E
$GAGSV,2,1,07,21,54,006,39,13,54,087,43,26,40,172,35,27,30,075,39,7*7E
$GAGSV,2,2,07,15,16,041,21,04,12,302,14,33,01,199,,7*42
$GAGSV,1,1,04,21,54,006,43,13,54,087,46,26,40,172,43,27,30,075,39,1*71
$GBGSV,4,1,14,09,74,273,41,23,71,020,45,16,70,197,44,40,62,326,39,1*79
$GBGSV,4,2,14,43,62,039,42,07,61,305,40,39,60,185,40,28,52,217,,1*75
$GBGSV,4,3,14,10,51,287,,25,40,113,32,37,27,320,37,34,14,040,20,1*7D
$GBGSV,4,4,14,38,09,169,,06,,,40,1*4D
$GBGSV,2,1,06,23,71,020,47,40,62,326,45,43,62,039,43,39,60,185,43,4*7F
$GBGSV,2,2,06,25,40,113,35,37,27,320,43,4*74
$GNACCURACY,4.8*1A
$PAIRSAT,1,27,2,0,201,3,0,200,4,0,201,5,0,200,6,0,200,7,0,201,8,0,221,9,0,200,10,0,200,16,0,1,20,0,200,21,0,201,22,0,200,23,0,200,24,0,200,25,0,200,26,0,220,27,0,221,28,0,200,29,0,200,30,0,200,31,0,200,32,0,200,194,0,21,195,0,621,196,0,600,199,0,621*6B
$PAIRSAT,2,17,70,0,200,71,0,200,73,0,200,74,0,200,75,0,200,76,0,200,77,0,1,78,0,201,79,0,201,80,0,200,81,0,200,83,0,200,84,0,200,85,0,200,86,0,200,87,0,201,88,0,201*5B
$PAIRSAT,3,21,2,0,1200,3,0,1200,4,0,1200,5,0,200,7,0,1200,8,0,1200,9,0,1200,10,0,200,11,0,200,12,0,200,13,0,221,15,0,200,21,0,21,25,0,1000,26,0,1021,27,0,1021,30,0,1000,31,0,1000,33,0,1200,34,0,1000,36,0,1200*54
$PAIRSAT,4,40,3,0,400,7,0,1,9,0,201,10,0,201,11,0,200,12,0,200,13,0,200,14,0,200,16,0,201,19,0,600,20,0,600,21,0,600,22,0,600,23,0,621,24,0,400,25,0,421,26,0,400,27,0,400,28,0,421,29,0,400,30,0,400,32,0,400,33,0,400,34,0,421,35,0,400,36,0,400,37,0,421,38,0,400,39,0,421,40,0,421,41,0,400,42,0,400,43,0,421,44,0,400,45,0,400,46,0,400,59,0,400,60,0,400,61,0,400,62,0,400*43
$PAIRDGP,8,2,4,7,8,16,21,26,27*41
$GNGGA,035950.200,2500.7913180,N,12132.4417873,E,4,44,0.60,16.770,M,15.25,M,1,3335*41
$GNRMC,035950.200,A,2500.7913180,N,12132.4417873,E,0.01,135.00,090324,,,R,V*10
$GPHDT,3.929,T*34
$GNACCURACY,4.8*1A
$GNGGA,035950.300,2500.7913193,N,12132.4417884,E,4,44,0.60,16.782,M,15.25,M,1,3335*47
$GNRMC,035950.300,A,2500.7913193,N,12132.4417884,E,0.01,135.00,090324,,,R,V*1B
$GPHDT,,T*1B
$GNACCURACY,4.8*1A
$GNGGA,035950.400,2500.7913161,N,12132.4417885,E,4,44,0.60,16.770,M,15.25,M,1,3335*41
$GNRMC,035950.400,A,2500.7913161,N,12132.4417885,E,0.01,135.00,090324,,,R,V*10
$GPHDT,3.466,T*32
$GNACCURACY,4.8*1A
$GNGGA,035950.500,2500.7913181,N,12132.4417886,E,4,44,0.60,16.777,M,15.25,M,1,3335*4A
$GNRMC,035950.500,A,2500.7913181,N,12132.4417886,E,0.00,135.00,090324,,,R,V*1D
$GPHDT,,T*1B
$GNACCURACY,4.8*1A
$GNGGA,035950.600,2500.7913169,N,12132.4417854,E,4,44,0.60,16.775,M,15.25,M,0,3335*43
$GNRMC,035950.600,A,2500.7913169,N,12132.4417854,E,0.01,135.00,090324,,,R,V*16
$GPHDT,3.871,T*38
$GNACCURACY,4.8*1A
$GNGGA,035950.700,2500.7913162,N,12132.4417895,E,4,43,0.61,16.765,M,15.25,M,0,3335*43
$GNRMC,035950.700,A,2500.7913162,N,12132.4417895,E,0.01,135.00,090324,,,R,V*11
$GPHDT,,T*1B
$GNACCURACY,4.8*1A
$GNGGA,035950.800,2500.7913187,N,12132.4417858,E,4,43,0.61,16.779,M,15.25,M,0,3335*4B
$GNRMC,035950.800,A,2500.7913187,N,12132.4417858,E,0.01,135.00,090324,,,R,V*14
$GPHDT,3.730,T*32
$GNACCURACY,4.8*1A
$GNGGA,035950.900,2500.7913174,N,12132.4417880,E,4,43,0.61,16.772,M,15.25,M,0,3335*48
$GNRMC,035950.900,A,2500.7913174,N,12132.4417880,E,0.05,135.00,090324,,,R,V*18
$GPHDT,,T*1B
$GNACCURACY,4.8*1A
$GNGGA,035951.000,2500.7913185,N,12132.4417879,E,4,43,0.61,16.780,M,15.25,M,1,3335*44
$GNRMC,035951.000,A,2500.7913185,N,12132.4417879,E,0.03,135.00,090324,,,R,V*1E
$GPHDT,3.440,T*36
$GNACCURACY,4.8*1A
$GNGGA,035951.100,2500.7913174,N,12132.4417861,E,4,43,0.61,16.773,M,15.25,M,1,3335*4E
$GNRMC,035951.100,A,2500.7913174,N,12132.4417861,E,0.02,135.00,090324,,,R,V*19
$GPHDT,,T*1B
$GNGSA,A,3,08,194,195,199,21,02,07,27,16,04,26,,1.11,0.61,0.93,1*31
$GNGSA,A,3,88,78,79,,,,,,,,,,1.11,0.61,0.93,2*0F
$GNGSA,A,3,21,13,26,27,,,,,,,,,1.11,0.61,0.93,3*0F
$GNGSA,A,3,09,23,16,40,43,07,39,25,37,,,,1.11,0.61,0.93,4*0A
$GPGSV,4,1,13,08,65,347,44,194,64,051,40,195,63,116,43,50,60,167,38,1*67
$GPGSV,4,2,13,199,60,167,35,21,55,160,46,02,43,178,47,07,38,318,42,1*5F
$GPGSV,4,3,13,27,36,034,38,16,29,071,44,04,21,206,27,196,20,170,25,1*5C
$GPGSV,4,4,13,26,10,096,24,1*5A
$GPGSV,2,1,08,08,65,347,47,194,64,051,45,195,63,116,44,199,60,167,47,8*5F
$GPGSV,2,2,08,27,36,034,43,04,21,206,25,196,20,170,24,26,10,096,24,8*51
$GLGSV,2,1,06,88,60,036,41,81,59,196,43,78,54,029,43,77,26,105,14,1*70
$GLGSV,2,2,06,79,22,331,42,87,07,026,18,1*72
$GAGSV,2,1,07,21,54,006,39,13,54,087,43,26,40,172,35,27,30,075,39,7*7E
$GAGSV,2,2,07,15,16,041,23,04,12,302,14,33,01,199,,7*40
$GAGSV,1,1,04,21,54,006,43,13,54,087,46,26,40,172,43,27,30,075,39,1*71
$GBGSV,4,1,14,09,74,273,41,23,71,020,45,16,70,197,44,40,62,326,39,1*79
$GBGSV,4,2,14,43,62,039,42,07,61,305,40,39,60,185,40,28,52,217,,1*75
$GBGSV,4,3,14,10,51,287,,25,40,113,32,37,27,320,38,34,14,040,,1*70
$GBGSV,4,4,14,38,09,169,,06,,,40,1*4D
$GBGSV,2,1,06,23,71,020,47,40,62,326,45,43,62,039,43,39,60,185,43,4*7F
$GBGSV,2,2,06,25,40,113,35,37,27,320,43,4*74
$GNACCURACY,4.8*1A
$PAIRSAT,1,27,2,0,201,3,0,200,4,0,201,5,0,200,6,0,200,7,0,201,8,0,221,9,0,200,10,0,200,16,0,1,20,0,200,21,0,201,22,0,200,23,0,200,24,0,200,25,0,200,26,0,220,27,0,221,28,0,200,29,0,200,30,0,200,31,0,200,32,0,200,194,0,21,195,0,621,196,0,600,199,0,621*6B
$PAIRSAT,2,17,70,0,200,71,0,200,73,0,200,74,0,200,75,0,200,76,0,200,77,0,1,78,0,201,79,0,201,80,0,200,81,0,200,83,0,200,84,0,200,85,0,200,86,0,200,87,0,201,88,0,201*5B
$PAIRSAT,3,21,2,0,1200,3,0,1200,4,0,1200,5,0,200,7,0,1200,8,0,1200,9,0,1200,10,0,200,11,0,200,12,0,200,13,0,221,15,0,200,21,0,21,25,0,1000,26,0,1021,27,0,1021,30,0,1000,31,0,1000,33,0,1200,34,0,1000,36,0,1200*54
$PAIRSAT,4,40,3,0,400,7,0,1,9,0,201,10,0,201,11,0,200,12,0,200,13,0,200,14,0,200,16,0,201,19,0,600,20,0,600,21,0,600,22,0,600,23,0,621,24,0,600,25,0,421,26,0,400,27,0,400,28,0,421,29,0,400,30,0,400,32,0,400,33,0,400,34,0,421,35,0,400,36,0,400,37,0,421,38,0,400,39,0,421,40,0,421,41,0,400,42,0,400,43,0,421,44,0,400,45,0,400,46,0,400,59,0,400,60,0,400,61,0,400,62,0,400*41
$PAIRDGP,8,2,4,7,8,16,21,26,27*41
$GNGGA,035951.200,2500.7913174,N,12132.4417862,E,4,43,0.61,16.764,M,15.25,M,1,3335*48
$GNRMC,035951.200,A,2500.7913174,N,12132.4417862,E,0.03,135.00,090324,,,R,V*18
$GPHDT,3.879,T*30
$GNACCURACY,4.8*1A
$GNGGA,035951.300,2500.7913180,N,12132.4417855,E,4,43,0.61,16.771,M,15.25,M,1,3335*42
$GNRMC,035951.300,A,2500.7913180,N,12132.4417855,E,0.02,135.00,090324,,,R,V*17
$GPHDT,,T*1B
$GNACCURACY,4.8*1A
$GNGGA,035951.400,2500.7913189,N,12132.4417872,E,4,43,0.61,16.779,M,15.25,M,1,3335*41
$GNRMC,035951.400,A,2500.7913189,N,12132.4417872,E,0.02,135.00,090324,,,R,V*1C
$GPHDT,4.069,T*3E
$GNACCURACY,4.8*1A
$GNGGA,035951.500,2500.7913174,N,12132.4417877,E,4,43,0.61,16.769,M,15.25,M,1,3335*46
$GNRMC,035951.500,A,2500.7913174,N,12132.4417877,E,0.02,135.00,090324,,,R,V*1A
$GPHDT,,T*1B
$GNACCURACY,4.8*1A
$GNGGA,035951.600,2500.7913173,N,12132.4417874,E,4,43,0.61,16.778,M,15.25,M,1,3335*41
$GNRMC,035951.600,A,2500.7913173,N,12132.4417874,E,0.02,135.00,090324,,,R,V*1D
$GPHDT,4.080,T*39
