$FW : RTK35X,V1.1X0314AS,Lib20210517,1*54
$Tool : LOCOSYS , GNSS Firebird , v1.0.0.19*39
$---------------------------------------------------*2D
24,,,R,V*1F
$GPHDT,,T*1B
$GNGSA,A,3,08,194,195,199,21,02,07,27,16,26,04,,0.89,0.58,0.67,1*30
$GNGSA,A,3,88,78,77,79,,,,,,,,,0.89,0.58,0.67,2*0E
$GNGSA,A,3,13,21,26,27,,,,,,,,,0.89,0.58,0.67,3*0E
$GNGSA,A,3,09,23,16,40,43,07,39,25,37,28,,,0.89,0.58,0.67,4*01
$GPGSV,4,1,13,08,65,347,43,194,64,051,38,195,63,116,40,50,60,167,31,1*65
$GPGSV,4,2,13,199,60,167,28,21,55,160,39,02,44,178,33,07,38,318,37,1*5D
$GPGSV,4,3,13,27,36,034,44,16,29,071,41,04,21,206,16,196,20,170,29,1*5C
$GPGSV,4,4,13,26,10,096,22,1*5C
$GPGSV,2,1,08,08,65,347,47,194,64,051,44,195,63,116,42,199,60,167,36,8*5E
$GPGSV,2,2,08,27,36,034,44,04,21,206,24,196,20,170,26,26,10,096,25,8*54
$GLGSV,2,1,06,88,60,036,42,81,59,196,29,78,54,029,45,77,26,105,17,1*7A
$GLGSV,2,2,06,79,22,331,31,87,07,026,16,1*78
$GAGSV,2,1,07,13,54,087,40,21,54,006,38,26,40,172,33,27,30,075,38,7*7B
$GAGSV,2,2,07,15,16,040,25,04,12,302,14,33,01,199,,7*47
$GAGSV,1,1,04,21,54,006,42,13,54,087,44,26,40,172,34,27,30,075,42,1*7E
$GBGSV,4,1,13,09,74,273,42,23,71,020,47,16,70,197,38,40,62,326,39,1*74
$GBGSV,4,2,13,43,62,039,44,07,61,305,40,39,60,185,25,28,52,217,,1*77
$GBGSV,4,3,13,10,51,287,,25,40,113,30,37,27,320,35,34,14,040,,1*78
$GBGSV,4,4,13,06,,,38,1*79
$GBGSV,2,1,07,23,71,020,48,40,62,326,44,43,62,039,44,39,60,185,23,4*71
$GBGSV,2,2,07,28,52,217,39,25,40,113,35,37,27,320,33,4*41
$GNACCURACY,5.4*17
$PAIRSAT,1,27,2,0,201,3,0,200,4,0,201,5,0,200,6,0,200,7,0,201,8,0,221,9,0,200,10,0,200,16,0,1,20,0,200,21,0,201,22,0,200,23,0,200,24,0,200,25,0,200,26,0,220,27,0,221,28,0,200,29,0,200,30,0,200,31,0,200,32,0,200,194,0,21,195,0,621,196,0,600,199,0,621*6B
$PAIRSAT,2,17,70,0,200,71,0,200,73,0,200,74,0,200,75,0,200,76,0,200,77,0,1,78,0,201,79,0,201,80,0,200,81,0,200,83,0,200,84,0,200,85,0,200,86,0,200,87,0,201,88,0,201*5B
$PAIRSAT,3,22,2,0,1200,3,0,1200,4,0,1200,5,0,200,7,0,1200,8,0,1200,9,0,1200,10,0,200,11,0,200,12,0,200,13,0,221,15,0,200,19,0,200,21,0,21,25,0,1000,26,0,1021,27,0,1021,30,0,1000,31,0,1000,33,0,1200,34,0,1000,36,0,1200*71
$PAIRSAT,4,40,3,0,400,7,0,1,9,0,201,10,0,201,11,0,200,12,0,200,13,0,200,14,0,200,16,0,201,19,0,600,20,0,600,21,0,600,22,0,600,23,0,621,24,0,600,25,0,421,26,0,400,27,0,400,28,0,421,29,0,400,30,0,400,32,0,400,33,0,400,34,0,421,35,0,400,36,0,400,37,0,421,38,0,400,39,0,421,40,0,421,41,0,400,42,0,400,43,0,421,44,0,400,45,0,400,46,0,400,59,0,400,60,0,400,61,0,400,62,0,400*41
$PAIRDGP,8,2,4,7,8,16,21,26,27*41
$GNGGA,035958.200,2500.7913261,N,12132.4417800,E,4,45,0.58,16.815,M,15.25,M,1,3335*47
$GNRMC,035958.200,A,2500.7913261,N,12132.4417800,E,0.08,135.00,090324,,,R,V*19
$GPHDT,317.515,T*31
$GNACCURACY,5.5*16
$GNGGA,035958.300,2500.7913259,N,12132.4417742,E,4,45,0.58,16.803,M,15.25,M,1,3335*43
$GNRMC,035958.300,A,2500.7913259,N,12132.4417742,E,0.08,135.00,090324,,,R,V*1A
$GPHDT,,T*1B
$GNACCURACY,5.5*16
$GNGGA,035958.400,2500.7913211,N,12132.4417693,E,4,45,0.58,16.797,M,15.25,M,0,3335*46
$GNRMC,035958.400,A,2500.7913211,N,12132.4417693,E,0.08,135.00,090324,,,R,V*1C
$GPHDT,318.050,T*3A
$GNACCURACY,5.5*16
$GNGGA,035958.500,2500.7913277,N,12132.4417748,E,4,45,0.58,16.808,M,15.25,M,0,3335*49
$GNRMC,035958.500,A,2500.7913277,N,12132.4417748,E,0.08,135.00,090324,,,R,V*1A
$GPHDT,,T*1B
$GNACCURACY,5.4*17
$GNGGA,035958.600,2500.7913313,N,12132.4417798,E,4,45,0.58,16.815,M,15.25,M,0,3335*48
$GNRMC,035958.600,A,2500.7913313,N,12132.4417798,E,0.07,135.00,090324,,,R,V*18
$GPHDT,315.686,T*3A
$GNACCURACY,5.4*17
$GNGGA,035958.700,2500.7913333,N,12132.4417691,E,4,45,0.58,16.767,M,15.25,M,0,3335*49
$GNRMC,035958.700,A,2500.7913333,N,12132.4417691,E,0.25,135.00,090324,,,R,V*13
$GPHDT,,T*1B
$GNACCURACY,5.3*10
$GNGGA,035958.800,2500.7913105,N,12132.4417860,E,4,45,0.58,16.771,M,15.25,M,0,3335*46
$GNRMC,035958.800,A,2500.7913105,N,12132.4417860,E,0.15,135.00,090324,,,R,V*18
$GPHDT,316.989,T*39
$GNACCURACY,5.3*10
$GNGGA,035958.900,2500.7913203,N,12132.4417823,E,4,46,0.58,16.770,M,15.25,M,0,3335*47
$GNRMC,035958.900,A,2500.7913203,N,12132.4417823,E,0.06,135.00,090324,,,R,V*19
$GPHDT,,T*1B
$GNACCURACY,5.3*10
$GNGGA,035959.000,2500.7913173,N,12132.4417716,E,4,46,0.58,16.757,M,15.25,M,1,3335*46
$GNRMC,035959.000,A,2500.7913173,N,12132.4417716,E,0.05,135.00,090324,,,R,V*1F
$GPHDT,318.280,T*35
$GNACCURACY,5.2*11
$GNGGA,035959.100,2500.7913181,N,12132.4417744,E,4,46,0.58,16.780,M,15.25,M,1,3335*47
$GNRMC,035959.100,A,2500.7913181,N,12132.4417744,E,0.03,135.00,090324,,,R,V*12
$GPHDT,,T*1B
$GNGSA,A,3,08,194,195,199,21,02,07,27,16,26,04,,0.89,0.58,0.67,1*30
$GNGSA,A,3,88,78,77,79,,,,,,,,,0.89,0.58,0.67,2*0E
$GNGSA,A,3,13,21,26,27,,,,,,,,,0.89,0.58,0.67,3*0E
$GNGSA,A,3,09,23,16,40,43,07,39,28,25,37,,,0.89,0.58,0.67,4*01
$GPGSV,4,1,13,08,65,347,43,194,64,051,40,195,63,116,43,50,60,167,35,1*6D
$GPGSV,4,2,13,199,60,167,32,21,55,160,38,02,44,178,41,07,38,318,37,1*52
$GPGSV,4,3,13,27,36,034,45,16,29,071,41,04,21,206,17,196,20,170,29,1*5C
$GPGSV,4,4,13,26,10,096,22,1*5C
$GPGSV,2,1,08,08,65,347,46,194,64,051,44,195,63,116,44,199,60,167,44,8*5C
$GPGSV,2,2,08,27,36,034,44,04,21,206,26,196,20,170,23,26,10,096,24,8*52
$GLGSV,2,1,06,88,60,036,42,81,59,196,39,78,54,029,45,77,26,105,18,1*74
$GLGSV,2,2,06,79,22,331,33,87,07,026,17,1*7B
$GAGSV,2,1,07,13,54,087,41,21,54,006,39,26,40,172,34,27,30,076,39,7*7E
$GAGSV,2,2,07,15,16,040,26,04,12,302,13,33,01,199,,7*43
$GAGSV,1,1,04,21,54,006,42,13,54,087,44,26,40,172,39,27,30,076,40,1*72
$GBGSV,4,1,13,09,74,273,42,23,71,020,48,16,70,197,40,40,62,326,41,1*7B
$GBGSV,4,2,13,43,62,039,44,07,61,305,40,39,60,185,38,28,52,217,40,1*7F
$GBGSV,4,3,13,10,51,287,,25,40,113,31,37,27,320,36,34,14,040,,1*7A
$GBGSV,4,4,13,06,,,40,1*76
$GBGSV,2,1,07,23,71,020,46,40,62,326,43,43,62,039,45,39,60,185,40,4*7C
$GBGSV,2,2,07,28,52,217,39,25,40,113,34,37,27,320,28,4*4A
$GNACCURACY,5.2*11
$PAIRSAT,1,27,2,0,201,3,0,200,4,0,201,5,0,200,6,0,200,7,0,201,8,0,221,9,0,200,10,0,200,16,0,1,20,0,200,21,0,201,22,0,200,23,0,200,24,0,200,25,0,200,26,0,220,27,0,221,28,0,200,29,0,200,30,0,200,31,0,200,32,0,200,194,0,21,195,0,621,196,0,600,199,0,621*6B
$PAIRSAT,2,17,70,0,200,71,0,200,73,0,200,74,0,200,75,0,200,76,0,200,77,0,1,78,0,201,79,0,201,80,0,200,81,0,200,83,0,200,84,0,200,85,0,200,86,0,200,87,0,201,88,0,201*5B
$PAIRSAT,3,22,2,0,1200,3,0,1200,4,0,1200,5,0,200,7,0,1200,8,0,1200,9,0,1200,10,0,200,11,0,200,12,0,200,13,0,221,15,0,200,19,0,200,21,0,21,25,0,1000,26,0,1021,27,0,1021,30,0,1000,31,0,1000,33,0,1200,34,0,1000,36,0,1200*71
$PAIRSAT,4,40,3,0,400,7,0,1,9,0,201,10,0,201,11,0,200,12,0,200,13,0,200,14,0,200,16,0,201,19,0,600,20,0,600,21,0,600,22,0,600,23,0,621,24,0,600,25,0,421,26,0,400,27,0,400,28,0,421,29,0,400,30,0,400,32,0,400,33,0,400,34,0,421,35,0,400,36,0,400,37,0,421,38,0,400,39,0,421,40,0,421,41,0,400,42,0,400,43,0,421,44,0,400,45,0,400,46,0,400,59,0,400,60,0,400,61,0,400,62,0,400*41
$PAIRDGP,8,2,4,7,8,16,21,26,27*41
$GNGGA,035959.200,2500.7913173,N,12132.4417782,E,4,46,0.58,16.776,M,15.25,M,1,3335*4A
$GNRMC,035959.200,A,2500.7913173,N,12132.4417782,E,0.01,135.00,090324,,,R,V*14
$GPHDT,317.491,T*3C
$GNACCURACY,5.2*11
$GNGGA,035959.300,2500.7913178,N,12132.4417764,E,4,46,0.58,16.777,M,15.25,M,1,3335*49
$GNRMC,035959.300,A,2500.7913178,N,12132.4417764,E,0.02,135.00,090324,,,R,V*15
$GPHDT,,T*1B
$GNACCURACY,5.2*11
$GNGGA,035959.400,2500.7913165,N,12132.4417785,E,4,46,0.58,16.769,M,15.25,M,1,3335*42
$GNRMC,035959.400,A,2500.7913165,N,12132.4417785,E,0.02,135.00,090324,,,R,V*11
$GPHDT,317.353,T*35
$GNACCURACY,5.2*11
$GNGGA,035959.500,2500.7913186,N,12132.4417822,E,4,46,0.58,16.779,M,15.25,M,1,3335*4D
$GNRMC,035959.500,A,2500.7913186,N,12132.4417822,E,0.03,135.00,090324,,,R,V*1E
$GPHDT,,T*1B
$GNACCURACY,5.2*11
$GNGGA,035959.600,2500.7913269,N,12132.4417891,E,4,46,0.58,16.801,M,15.25,M,1,3335*44
$GNRMC,035959.600,A,2500.7913269,N,12132.4417891,E,0.03,135.00,090324,,,R,V*17
$GPHDT,317.390,T*3A
$GNACCURACY,5.2*11
$GNGGA,035959.700,2500.7913197,N,12132.4417793,E,4,46,0.58,16.778,M,15.25,M,0,3335*4A
$GNRMC,035959.700,A,2500.7913197,N,12132.4417793,E,0.03,135.00,090324,,,R,V*19
$GPHDT,,T*1B
$GNACCURACY,5.2*11
$GNGGA,035959.800,2500.7913226,N,12132.4417814,E,4,46,0.58,16.779,M,15.25,M,0,3335*4D
$GNRMC,035959.800,A,2500.7913226,N,12132.4417814,E,0.03,135.00,090324,,,R,V*1F
$GPHDT,316.209,T*3A
$GNACCURACY,5.2*11
$GNGGA,035959.900,2500.7913176,N,12132.4417759,E,4,45,0.58,16.787,M,15.25,M,0,3335*4E
$GNRMC,035959.900,A,2500.7913176,N,12132.4417759,E,0.07,135.00,090324,,,R,V*1A
$GPHDT,,T*1B
$GNACCURACY,5.2*11
$GNGGA,040000.000,2500.7913157,N,12132.4417819,E,4,46,0.58,16.785,M,15.25,M,1,3335*48
$GNRMC,040000.000,A,2500.7913157,N,12132.4417819,E,0.05,135.00,090324,,,R,V*1E
$GPHDT,316.988,T*38
$GNACCURACY,5.1*12
$GNGGA,040000.100,2500.7913172,N,12132.4417767,E,4,46,0.58,16.777,M,15.25,M,1,3335*45
$GNRMC,040000.100,A,2500.7913172,N,12132.4417767,E,0.05,135.00,090324,,,R,V*1E
$GPHDT,,T*1B
$GNGSA,A,3,08,194,195,199,21,02,07,27,16,04,26,,0.89,0.58,0.67,1*30
$GNGSA,A,3,88,78,77,79,,,,,,,,,0.89,0.58,0.67,2*0E
$GNGSA,A,3,13,21,26,27,,,,,,,,,0.89,0.58,0.67,3*0E
$GNGSA,A,3,09,23,16,40,43,07,39,28,25,37,,,0.89,0.58,0.67,4*01
$GPGSV,4,1,13,08,65,347,42,194,64,051,40,195,63,116,43,50,60,167,34,1*6D
$GPGSV,4,2,13,199,60,167,32,21,55,160,42,02,44,178,40,07,38,318,39,1*50
$GPGSV,4,3,13,27,36,034,45,16,29,071,44,04,21,206,23,196,20,170,28,1*5F
$GPGSV,4,4,13,26,10,096,21,1*5F
$GPGSV,2,1,08,08,65,347,44,194,64,051,44,195,63,116,45,199,60,167,40,8*5B
$GPGSV,2,2,08,27,36,034,44,04,21,206,26,196,20,170,24,26,10,096,23,8*52
$GLGSV,2,1,06,88,60,036,43,81,59,196,38,78,54,029,45,77,26,105,19,1*75
$GLGSV,2,2,06,79,22,331,30,87,07,026,17,1*78
$GAGSV,2,1,06,13,54,087,40,21,54,006,37,26,40,172,31,27,30,076,39,7*75
$GAGSV,2,2,06,15,16,040,19,04,12,302,13,7*7E
$GAGSV,1,1,04,21,54,006,41,13,54,087,45,26,40,172,39,27,30,076,39,1*7E
$GBGSV,4,1,13,09,74,273,41,23,71,020,47,16,70,197,40,40,62,326,41,1*77
$GBGSV,4,2,13,43,62,039,44,07,61,305,39,39,60,185,35,28,52,217,44,1*78
$GBGSV,4,3,13,10,51,287,,25,40,113,32,37,27,320,39,34,14,040,,1*76
$GBGSV,4,4,13,06,,,37,1*76
$GBGSV,2,1,07,23,71,020,46,40,62,326,41,43,62,039,44,39,60,185,37,4*7F
$GBGSV,2,2,07,28,52,217,36,25,40,113,38,37,27,320,32,4*42
$GNACCURACY,5.1*12
$PAIRSAT,1,27,2,0,201,3,0,200,4,0,201,5,0,200,6,0,200,7,0,201,8,0,221,9,0,200,10,0,200,16,0,1,20,0,200,21,0,201,22,0,200,23,0,200,24,0,200,25,0,200,26,0,220,27,0,221,28,0,200,29,0,200,30,0,200,31,0,200,32,0,200,194,0,21,195,0,621,196,0,600,199,0,621*6B
$PAIRSAT,2,17,70,0,200,71,0,200,73,0,200,74,0,200,75,0,200,76,0,200,77,0,1,78,0,201,79,0,201,80,0,200,81,0,200,83,0,200,84,0,200,85,0,200,86,0,200,87,0,201,88,0,201*5B
$PAIRSAT,3,22,2,0,1200,3,0,1200,4,0,1200,5,0,200,7,0,1200,8,0,1200,9,0,1200,10,0,200,11,0,200,12,0,200,13,0,221,15,0,200,19,0,200,21,0,21,25,0,1000,26,0,1021,27,0,1021,30,0,1000,31,0,1000,33,0,1200,34,0,1000,36,0,1200*71
$PAIRSAT,4,40,3,0,400,7,0,1,9,0,201,10,0,201,11,0,200,12,0,200,13,0,200,14,0,200,16,0,201,19,0,600,20,0,600,21,0,600,22,0,600,23,0,621,24,0,600,25,0,421,26,0,400,27,0,400,28,0,421,29,0,400,30,0,400,32,0,400,33,0,400,34,0,421,35,0,400,36,0,400,37,0,421,38,0,400,39,0,421,40,0,421,41,0,400,42,0,400,43,0,421,44,0,400,45,0,400,46,0,400,59,0,400,60,0,400,61,0,400,62,0,400*41
$PAIRDGP,8,2,4,7,8,16,21,26,27*41
$GNGGA,040000.200,2500.7913186,N,12132.4417744,E,4,46,0.58,16.769,M,15.25,M,1,3335*43
$GNRMC,040000.200,A,2500.7913186,N,12132.4417744,E,0.07,135.00,090324,,,R,V*15
$GPHDT,317.746,T*35
$GNACCURACY,5.1*12
$GNGGA,040000.300,2500.7913194,N,12132.4417767,E,4,46,0.58,16.776,M,15.25,M,1,3335*4E
$GNRMC,040000.300,A,2500.7913194,N,12132.4417767,E,0.06,135.00,090324,,,R,V*17
$GPHDT,,T*1B
$GNACCURACY,5.0*13
$GNGGA,040000.400,2500.7913179,N,12132.4417756,E,4,46,0.58,16.773,M,15.25,M,1,3335*4D
$GNRMC,040000.400,A,2500.7913179,N,12132.4417756,E,0.05,135.00,090324,,,R,V*12
$GPHDT,317.483,T*3F
$GNACCURACY,5.0*13
$GNGGA,040000.500,2500.7913174,N,12132.4417799,E,4,46,0.58,16.773,M,15.25,M,1,3335*42
$GNRMC,040000.500,A,2500.7913174,N,12132.4417799,E,0.04,135.00,090324,,,R,V*1C
$GPHDT,,T*1B
$GNACCURACY,5.0*13
$GNGGA,040000.600,2500.7913165,N,12132.4417780,E,4,46,0.58,16.764,M,15.25,M,0,3335*4E
$GNRMC,040000.600,A,2500.7913165,N,12132.4417780,E,0.05,135.00,090324,,,R,V*16
$GPHDT,316.890,T*30
$GNACCURACY,5.0*13
$GNGGA,040000.700,2500.7913168,N,12132.4417807,E,4,46,0.58,16.765,M,15.25,M,0,3335*43
$GNRMC,040000.700,A,2500.7913168,N,12132.4417807,E,0.05,135.00,090324,,,R,V*1A
$GPHDT,,T*1B
$GNACCURACY,4.9*1B
$GNGGA,040000.800,2500.7913164,N,12132.4417882,E,4,46,0.58,16.766,M,15.25,M,0,3335*4E
$GNRMC,040000.800,A,2500.7913164,N,12132.4417882,E,0.05,135.00,090324,,,R,V*14
$GPHDT,315.955,T*3B
$GNACCURACY,4.9*1B
$GNGGA,040000.900,2500.7913117,N,12132.4417807,E,4,46,0.58,16.764,M,15.25,M,0,3335*44
$GNRMC,040000.900,A,2500.7913117,N,12132.4417807,E,0.02,135.00,090324,,,R,V*1B
$GPHDT,,T*1B
$GNACCURACY,4.9*1B
$GNGGA,040001.000,2500.7913135,N,12132.4417817,E,4,46,0.58,16.749,M,15.25,M,1,3335*43
$GNRMC,040001.000,A,2500.7913135,N,12132.4417817,E,0.04,135.00,090324,,,R,V*14
$GPHDT,316.121,T*33
$GNACCURACY,4.9*1B
$GNGGA,040001.100,2500.7913216,N,12132.4417920,E,4,46,0.58,16.760,M,15.25,M,1,3335*4E
$GNRMC,040001.100,A,2500.7913216,N,12132.4417920,E,0.05,135.00,090324,,,R,V*13
$GPHDT,,T*1B
$GNGSA,A,3,08,194,195,199,21,02,07,27,16,04,26,,0.89,0.58,0.67,1*30
$GNGSA,A,3,88,78,77,79,,,,,,,,,0.89,0.58,0.67,2*0E
$GNGSA,A,3,13,21,26,27,,,,,,,,,0.89,0.58,0.67,3*0E
$GNGSA,A,3,09,23,16,40,43,07,39,28,25,37,,,0.89,0.58,0.67,4*01
$GPGSV,4,1,13,08,65,347,42,194,64,051,38,195,63,116,42,50,60,167,38,1*6F
$GPGSV,4,2,13,199,60,167,35,21,55,160,45,02,44,178,44,07,38,318,39,1*54
$GPGSV,4,3,13,27,36,034,45,16,29,071,42,04,21,206,22,196,20,170,25,1*55
$GPGSV,4,4,13,26,10,096,20,1*5E
$GPGSV,2,1,08,08,65,347,45,194,64,051,45,195,63,116,44,199,60,167,46,8*5C
$GPGSV,2,2,08,27,36,034,46,04,21,206,30,196,20,170,28,26,10,096,23,8*5B
$GLGSV,2,1,06,88,60,036,44,81,59,196,43,78,54,029,46,77,26,105,22,1*75
$GLGSV,2,2,06,79,23,331,34,87,07,026,17,1*7D
$GAGSV,2,1,06,13,54,087,41,21,54,006,38,26,40,172,35,27,30,076,37,7*71
$GAGSV,2,2,06,15,16,040,18,04,12,302,14,7*78
$GAGSV,1,1,04,21,54,006,42,13,54,087,45,26,40,172,41,27,30,076,41,1*7D
$GBGSV,4,1,13,09,74,273,41,23,71,020,47,16,70,197,44,40,62,326,41,1*73
$GBGSV,4,2,13,43,62,039,44,07,61,305,40,39,60,185,40,28,52,217,45,1*75
$GBGSV,4,3,13,10,51,287,,25,40,113,33,37,27,320,39,34,14,040,,1*77
$GBGSV,4,4,13,06,,,40,1*76
$GBGSV,2,1,07,23,71,020,47,40,62,326,42,43,62,039,44,39,60,185,43,4*7E
$GBGSV,2,2,07,28,52,217,39,25,40,113,38,37,27,320,34,4*4B
$GNACCURACY,4.9*1B
$PAIRSAT,1,27,2,0,201,3,0,200,4,0,221,5,0,200,6,0,200,7,0,201,8,0,221,9,0,200,10,0,200,16,0,1,20,0,200,21,0,201,22,0,200,23,0,200,24,0,200,25,0,200,26,0,220,27,0,221,28,0,200,29,0,200,30,0,200,31,0,200,32,0,200,194,0,21,195,0,621,196,0,600,199,0,621*69
$PAIRSAT,2,17,70,0,200,71,0,200,73,0,200,74,0,200,75,0,200,76,0,200,77,0,1,78,0,201,79,0,201,80,0,200,81,0,200,83,0,200,84,0,200,85,0,200,86,0,200,87,0,201,88,0,201*5B
$PAIRSAT,3,22,2,0,1200,3,0,1200,4,0,1200,5,0,200,7,0,1200,8,0,1200,9,0,1200,10,0,200,11,0,200,12,0,200,13,0,221,15,0,200,19,0,200,21,0,21,25,0,1000,26,0,1021,27,0,1021,30,0,1000,31,0,1000,33,0,1200,34,0,1000,36,0,1200*71
$PAIRSAT,4,40,3,0,400,7,0,1,9,0,201,10,0,201,11,0,200,12,0,200,13,0,200,14,0,200,16,0,201,19,0,600,20,0,600,21,0,600,22,0,600,23,0,621,24,0,600,25,0,421,26,0,400,27,0,400,28,0,421,29,0,400,30,0,400,32,0,400,33,0,400,34,0,421,35,0,400,36,0,400,37,0,421,38,0,400,39,0,421,40,0,421,41,0,400,42,0,400,43,0,421,44,0,400,45,0,400,46,0,400,59,0,400,60,0,400,61,0,400,62,0,400*41
$PAIRDGP,7,2,7,8,16,21,26,27*56
$GNGGA,040001.200,2500.7913169,N,12132.4417850,E,4,46,0.58,16.760,M,15.25,M,1,3335*40
$GNRMC,040001.200,A,2500.7913169,N,12132.4417850,E,0.01,135.00,090324,,,R,V*19
$GPHDT,315.912,T*38
$GNACCURACY,4.9*1B
$GNGGA,040001.300,2500.7913159,N,12132.4417855,E,4,46,0.58,16.755,M,15.25,M,1,3335*41
$GNRMC,040001.300,A,2500.7913159,N,12132.4417855,E,0.02,135.00,090324,,,R,V*1D
$GPHDT,,T*1B
$GNACCURACY,4.9*1B
$GNGGA,040001.400,2500.7913153,N,12132.4417857,E,4,46,0.58,16.759,M,15.25,M,1,3335*42
$GNRMC,040001.400,A,2500.7913153,N,12132.4417857,E,0.02,135.00,090324,,,R,V*12
$GPHDT,316.220,T*31
$GNACCURACY,4.9*1B
$GNGGA,040001.500,2500.7913174,N,12132.4417811,E,4,46,0.58,16.760,M,15.25,M,1,3335*4E
$GNRMC,040001.500,A,2500.7913174,N,12132.4417811,E,0.01,135.00,090324,,,R,V*17
$GPHDT,,T*1B
$GNACCURACY,4.9*1B
$GNGGA,040001.600,2500.7913169,N,12132.4417802,E,4,46,0.58,16.769,M,15.25,M,0,3335*4B
$GNRMC,040001.600,A,2500.7913169,N,12132.4417802,E,0.01,135.00,090324,,,R,V*1A
$GPHDT,316.264,T*31
$GNACCURACY,4.9*1B
$GNGGA,040001.700,2500.7913162,N,12132.4417798,E,4,46,0.58,16.773,M,15.25,M,0,3335*46
$GNRMC,040001.700,A,2500.7913162,N,12132.4417798,E,0.03,135.00,090324,,,R,V*1E
$GPHDT,,T*1B
$GNACCURACY,4.9*1B
$GNGGA,040001.800,2500.7913168,N,12132.4417825,E,4,46,0.58,16.780,M,15.25,M,0,3335*46
$GNRMC,040001.800,A,2500.7913168,N,12132.4417825,E,0.02,135.00,090324,,,R,V*13
$GPHDT,316.338,T*39
$GNACCURACY,4.9*1B
$GNGGA,040001.900,2500.7913195,N,12132.4417856,E,4,46,0.58,16.785,M,15.25,M,0,3335*44
$GNRMC,040001.900,A,2500.7913195,N,12132.4417856,E,0.05,135.00,090324,,,R,V*13
$GPHDT,,T*1B
$GNACCURACY,4.9*1B
$GNGGA,040002.000,2500.7913149,N,12132.4417857,E,4,46,0.58,16.762,M,15.25,M,1,3335*46
$GNRMC,040002.000,A,2500.7913149,N,12132.4417857,E,0.02,135.00,090324,,,R,V*1E
$GPHDT,316.338,T*39
$GNACCURACY,4.9*1B
$GNGGA,040002.100,2500.7913133,N,12132.4417814,E,4,46,0.58,16.767,M,15.25,M,1,3335*48
$GNRMC,040002.100,A,2500.7913133,N,12132.4417814,E,0.01,135.00,090324,,,R,V*16
$GPHDT,,T*1B
$GNGSA,A,3,08,194,195,199,21,02,07,27,16,04,26,,0.89,0.58,0.67,1*30
$GNGSA,A,3,88,78,77,79,,,,,,,,,0.89,0.58,0.67,2*0E
$GNGSA,A,3,13,21,26,27,,,,,,,,,0.89,0.58,0.67,3*0E
$GNGSA,A,3,09,23,16,40,43,07,39,28,25,37,,,0.89,0.58,0.67,4*01
$GPGSV,4,1,13,08,65,347,42,194,64,051,38,195,63,116,42,50,60,167,38,1*6F
$GPGSV,4,2,13,199,60,167,35,21,55,160,45,02,44,178,45,07,38,318,39,1*55
$GPGSV,4,3,13,27,36,034,45,16,29,071,42,04,21,206,21,196,20,170,21,1*52
$GPGSV,4,4,13,26,10,096,19,1*54
$GPGSV,2,1,07,08,65,347,45,194,64,051,45,195,63,116,44,199,60,167,46,8*53
$GPGSV,2,2,07,27,36,034,45,04,21,206,30,26,10,096,24,8*50
$GLGSV,2,1,06,88,60,036,44,81,59,196,44,78,54,029,46,77,26,105,21,1*71
$GLGSV,2,2,06,79,23,331,25,87,07,026,15,1*7F
$GAGSV,2,1,06,13,54,087,42,21,54,006,38,26,40,172,34,27,30,076,37,7*73
$GAGSV,2,2,06,15,16,040,18,04,12,302,13,7*7F
$GAGSV,1,1,04,13,54,087,46,21,54,006,42,26,40,172,43,27,30,076,41,1*7C
$GBGSV,4,1,13,09,74,273,41,23,71,020,47,16,70,197,44,40,62,326,41,1*73
$GBGSV,4,2,13,43,62,039,44,07,61,305,40,39,60,185,41,28,52,217,44,1*75
$GBGSV,4,3,13,10,51,287,,25,40,113,32,37,27,320,39,34,14,040,,1*76
$GBGSV,4,4,13,06,,,40,1*76
$GBGSV,2,1,07,23,71,020,47,40,62,326,42,43,62,039,45,39,60,185,44,4*78
$GBGSV,2,2,07,28,52,217,39,25,40,113,37,37,27,320,32,4*42
$GNACCURACY,4.9*1B
$PAIRSAT,1,27,2,0,201,3,0,200,4,0,221,5,0,200,6,0,200,7,0,201,8,0,221,9,0,200,10,0,200,16,0,1,20,0,200,21,0,201,22,0,200,23,0,200,24,0,200,25,0,200,26,0,220,27,0,221,28,0,200,29,0,200,30,0,200,31,0,200,32,0,200,194,0,21,195,0,621,196,0,600,199,0,621*69
$PAIRSAT,2,17,70,0,200,71,0,200,73,0,200,74,0,200,75,0,200,76,0,200,77,0,1,78,0,201,79,0,201,80,0,200,81,0,200,83,0,200,84,0,200,85,0,200,86,0,200,87,0,201,88,0,201*5B
$PAIRSAT,3,22,2,0,1200,3,0,1200,4,0,1200,5,0,200,7,0,1200,8,0,1200,9,0,1200,10,0,200,11,0,200,12,0,200,13,0,221,15,0,200,19,0,200,21,0,21,25,0,1000,26,0,1021,27,0,1021,30,0,1000,31,0,1000,33,0,1200,34,0,1000,36,0,1200*71
$PAIRSAT,4,40,3,0,400,7,0,1,9,0,201,10,0,201,11,0,200,12,0,200,13,0,200,14,0,200,16,0,201,19,0,600,20,0,600,21,0,600,22,0,600,23,0,621,24,0,600,25,0,421,26,0,400,27,0,400,28,0,421,29,0,400,30,0,400,32,0,400,33,0,400,34,0,421,35,0,400,36,0,400,37,0,421,38,0,400,39,0,421,40,0,421,41,0,400,42,0,400,43,0,421,44,0,400,45,0,400,46,0,400,59,0,400,60,0,400,61,0,400,62,0,400*41
$PAIRDGP,7,2,7,8,16,21,26,27*56
$GNGGA,040002.200,2500.7913139,N,12132.4417822,E,4,46,0.58,16.764,M,15.25,M,1,3335*47
$GNRMC,040002.200,A,2500.7913139,N,12132.4417822,E,0.01,135.00,090324,,,R,V*1A
$GPHDT,316.560,T*32
$GNACCURACY,4.9*1B
$GNGGA,040002.300,2500.7913144,N,12132.4417814,E,4,45,0.58,16.769,M,15.25,M,1,3335*47
$GNRMC,040002.300,A,2500.7913144,N,12132.4417814,E,0.01,135.00,090324,,,R,V*14
$GPHDT,,T*1B
$GNACCURACY,4.9*1B
$GNGGA,040002.400,2500.7913162,N,12132.4417821,E,4,46,0.58,16.774,M,15.25,M,1,3335*4D
$GNRMC,040002.400,A,2500.7913162,N,12132.4417821,E,0.01,135.00,090324,,,R,V*11
$GPHDT,317.117,T*37
$GNACCURACY,4.9*1B
$GNGGA,040002.500,2500.7913174,N,12132.4417822,E,4,46,0.58,16.783,M,15.25,M,1,3335*40
$GNRMC,040002.500,A,2500.7913174,N,12132.4417822,E,0.00,135.00,090324,,,R,V*15
$GPHDT,,T*1B
$GNACCURACY,4.9*1B
$GNGGA,040002.600,2500.7913173,N,12132.4417814,E,4,46,0.58,16.780,M,15.25,M,0,3335*43
$GNRMC,040002.600,A,2500.7913173,N,12132.4417814,E,0.08,135.00,090324,,,R,V*1C
$GPHDT,316.962,T*3C
$GNACCURACY,4.8*1A
$GNGGA,040002.700,2500.7913168,N,12132.4417811,E,4,46,0.58,16.764,M,15.25,M,0,3335*47
$GNRMC,040002.700,A,2500.7913168,N,12132.4417811,E,0.07,135.00,090324,,,R,V*1D
$GPHDT,,T*1B
$GNACCURACY,4.8*1A
$GNGGA,040002.800,2500.7913165,N,12132.4417825,E,4,46,0.58,16.777,M,15.25,M,0,3335*40
$GNRMC,040002.800,A,2500.7913165,N,12132.4417825,E,0.05,135.00,090324,,,R,V*1A
$GPHDT,317.256,T*31
$GNACCURACY,4.8*1A
$GNGGA,040002.900,2500.7913147,N,12132.4417822,E,4,46,0.58,16.767,M,15.25,M,0,3335*47
$GNRMC,040002.900,A,2500.7913147,N,12132.4417822,E,0.03,135.00,090324,,,R,V*1A
$GPHDT,,T*1B
$GNACCURACY,4.8*1A
$GNGGA,040003.000,2500.7913160,N,12132.4417833,E,4,46,0.58,16.770,M,15.25,M,1,3335*4D
$GNRMC,040003.000,A,2500.7913160,N,12132.4417833,E,0.04,135.00,090324,,,R,V*10
$GPHDT,317.251,T*36
$GNACCURACY,4.8*1A
$GNGGA,040003.100,2500.7913165,N,12132.4417837,E,4,46,0.58,16.764,M,15.25,M,1,3335*48
$GNRMC,040003.100,A,2500.7913165,N,12132.4417837,E,0.01,135.00,090324,,,R,V*15
$GPHDT,,T*1B
$GNGSA,A,3,08,194,195,199,21,02,07,27,16,04,26,,0.89,0.58,0.67,1*30
$GNGSA,A,3,88,78,77,79,,,,,,,,,0.89,0.58,0.67,2*0E
$GNGSA,A,3,13,21,26,27,,,,,,,,,0.89,0.58,0.67,3*0E
$GNGSA,A,3,09,23,16,40,43,07,39,28,25,37,,,0.89,0.58,0.67,4*01
$GPGSV,4,1,13,08,65,347,42,194,64,051,38,195,63,116,42,50,60,167,39,1*6E
$GPGSV,4,2,13,199,60,167,35,21,55,160,45,02,44,178,44,07,38,318,40,1*5A
$GPGSV,4,3,13,27,36,034,44,16,29,071,42,04,21,206,25,196,20,170,18,1*5D
$GPGSV,4,4,13,26,10,096,21,1*5F
$GPGSV,2,1,07,08,65,347,46,194,64,051,45,195,63,116,44,199,60,167,45,8*53
$GPGSV,2,2,07,27,36,034,45,04,21,206,30,26,10,096,23,8*57
$GLGSV,2,1,06,88,60,036,44,81,59,196,43,78,54,029,46,77,26,105,23,1*74
$GLGSV,2,2,06,79,23,331,33,87,07,026,16,1*7B
$GAGSV,2,1,06,13,54,087,41,21,54,006,37,26,40,172,36,27,30,076,38,7*72
$GAGSV,2,2,06,15,16,040,18,04,12,302,,7*7D
$GAGSV,1,1,04,13,54,087,46,21,54,006,42,26,40,172,42,27,30,076,41,1*7D
$GBGSV,4,1,13,09,74,273,41,23,71,020,47,16,70,197,44,40,62,326,41,1*73
$GBGSV,4,2,13,43,62,039,44,07,61,305,40,39,60,185,40,28,52,217,47,1*77
$GBGSV,4,3,13,10,51,287,,25,40,113,30,37,27,320,40,34,14,040,,1*7A
$GBGSV,4,4,13,06,,,39,1*78
$GBGSV,2,1,07,23,71,020,46,40,62,326,42,43,62,039,45,39,60,185,44,4*79
$GBGSV,2,2,07,28,52,217,41,25,40,113,37,37,27,320,37,4*48
$GNACCURACY,4.8*1A
$PAIRSAT,1,27,2,0,201,3,0,200,4,0,221,5,0,200,6,0,200,7,0,201,8,0,221,9,0,200,10,0,200,16,0,1,20,0,200,21,0,201,22,0,200,23,0,200,24,0,200,25,0,200,26,0,220,27,0,221,28,0,200,29,0,200,30,0,200,31,0,200,32,0,200,194,0,21,195,0,621,196,0,600,199,0,621*69
$PAIRSAT,2,17,70,0,200,71,0,200,73,0,200,74,0,200,75,0,200,76,0,200,77,0,1,78,0,201,79,0,201,80,0,200,81,0,200,83,0,200,84,0,200,85,0,200,86,0,200,87,0,201,88,0,201*5B
$PAIRSAT,3,22,2,0,1200,3,0,1200,4,0,1200,5,0,200,7,0,1200,8,0,1200,9,0,1200,10,0,200,11,0,200,12,0,200,13,0,221,15,0,200,19,0,200,21,0,21,25,0,1000,26,0,1021,27,0,1021,30,0,1000,31,0,1000,33,0,1200,34,0,1000,36,0,1200*71
$PAIRSAT,4,40,3,0,400,7,0,1,9,0,201,10,0,201,11,0,200,12,0,200,13,0,200,14,0,200,16,0,201,19,0,600,20,0,600,21,0,600,22,0,600,23,0,621,24,0,600,25,0,421,26,0,400,27,0,400,28,0,421,29,0,400,30,0,400,32,0,400,33,0,400,34,0,421,35,0,400,36,0,400,37,0,421,38,0,400,39,0,421,40,0,421,41,0,400,42,0,400,43,0,421,44,0,400,45,0,400,46,0,400,59,0,400,60,0,400,61,0,400,62,0,400*41
$PAIRDGP,7,2,7,8,16,21,26,27*56
$GNGGA,040003.200,2500.7913134,N,12132.4417817,E,4,46,0.58,16.748,M,15.25,M,1,3335*43
$GNRMC,040003.200,A,2500.7913134,N,12132.4417817,E,0.02,135.00,090324,,,R,V*13
$GPHDT,317.479,T*3A
$GNACCURACY,4.8*1A
$GNGGA,040003.300,2500.7913156,N,12132.4417814,E,4,46,0.58,16.769,M,15.25,M,1,3335*46
$GNRMC,040003.300,A,2500.7913156,N,12132.4417814,E,0.01,135.00,090324,,,R,V*16
$GPHDT,,T*1B
$GNACCURACY,4.8*1A
$GNGGA,040003.400,2500.7913148,N,12132.4417816,E,4,46,0.58,16.763,M,15.25,M,1,3335*46
$GNRMC,040003.400,A,2500.7913148,N,12132.4417816,E,0.01,135.00,090324,,,R,V*1C
$GPHDT,317.460,T*32
$GNACCURACY,4.8*1A
$GNGGA,040003.500,2500.7913161,N,12132.4417842,E,4,46,0.58,16.758,M,15.25,M,0,3335*44
$GNRMC,040003.500,A,2500.7913161,N,12132.4417842,E,0.01,135.00,090324,,,R,V*17
$GPHDT,,T*1B
$GNACCURACY,4.8*1A
$GNGGA,040003.600,2500.7913152,N,12132.4417826,E,4,46,0.58,16.766,M,15.25,M,0,3335*48
$GNRMC,040003.600,A,2500.7913152,N,12132.4417826,E,0.02,135.00,090324,,,R,V*15
$GPHDT,317.422,T*34
$GNACCURACY,4.8*1A
$GNGGA,040003.700,2500.7913123,N,12132.4417873,E,4,46,0.58,16.763,M,15.25,M,0,3335*4A
$GNRMC,040003.700,A,2500.7913123,N,12132.4417873,E,0.05,135.00,090324,,,R,V*15
$GPHDT,,T*1B
$GNACCURACY,4.9*1B
$GNGGA,040003.800,2500.7913162,N,12132.4417881,E,4,46,0.58,16.758,M,15.25,M,0,3335*45
$GNRMC,040003.800,A,2500.7913162,N,12132.4417881,E,0.05,135.00,090324,,,R,V*12
$GPHDT,317.159,T*3D
$GNACCURACY,4.8*1A
$GNGGA,040003.900,2500.7913160,N,12132.4417850,E,4,46,0.58,16.768,M,15.25,M,0,3335*49
$GNRMC,040003.900,A,2500.7913160,N,12132.4417850,E,0.03,135.00,090324,,,R,V*1B
$GPHDT,,T*1B
$GNACCURACY,4.8*1A
$GNGGA,040004.000,2500.7913164,N,12132.4417842,E,4,46,0.58,16.780,M,15.25,M,1,3335*47
$GNRMC,040004.000,A,2500.7913164,N,12132.4417842,E,0.05,135.00,090324,,,R,V*14
$GPHDT,317.500,T*35
$GNACCURACY,4.8*1A
$GNGGA,040004.100,2500.7913125,N,12132.4417852,E,4,46,0.58,16.781,M,15.25,M,1,3335*43
$GNRMC,040004.100,A,2500.7913125,N,12132.4417852,E,0.03,135.00,090324,,,R,V*17
$GPHDT,,T*1B
$GNGSA,A,3,08,194,195,199,21,02,07,27,16,04,26,,0.89,0.58,0.67,1*30
$GNGSA,A,3,88,78,77,79,,,,,,,,,0.89,0.58,0.67,2*0E
$GNGSA,A,3,13,21,26,27,,,,,,,,,0.89,0.58,0.67,3*0E
$GNGSA,A,3,09,23,16,40,43,07,39,28,25,37,,,0.89,0.58,0.67,4*01
$GPGSV,4,1,13,08,65,347,43,194,64,051,38,195,63,116,43,50,60,167,38,1*6F
$GPGSV,4,2,13,199,60,167,35,21,55,160,45,02,44,178,44,07,38,318,40,1*5A
$GPGSV,4,3,13,27,36,034,42,16,29,071,42,04,21,206,23,196,20,170,21,1*57
$GPGSV,4,4,13,26,10,096,22,1*5C
$GPGSV,2,1,07,08,65,347,44,194,64,051,45,195,63,116,45,199,60,167,46,8*53
$GPGSV,2,2,07,27,36,034,45,04,21,206,27,26,10,096,22,8*50
$GLGSV,2,1,06,88,60,036,44,81,59,196,43,78,54,029,46,77,26,105,22,1*75
$GLGSV,2,2,06,79,23,331,31,87,07,026,16,1*79
$GAGSV,2,1,06,13,54,087,41,21,54,006,37,26,40,172,38,27,30,076,38,7*7C
$GAGSV,2,2,06,15,16,040,18,04,12,302,,7*7D
$GAGSV,1,1,04,13,54,087,46,21,54,006,42,26,40,172,40,27,30,076,40,1*7E
$GBGSV,4,1,13,09,74,273,41,23,71,020,47,16,70,197,44,40,62,326,39,1*7C
$GBGSV,4,2,13,43,62,039,44,07,61,305,40,39,60,185,42,28,52,217,42,1*70
$GBGSV,4,3,13,10,51,287,,25,40,113,32,37,27,320,40,34,14,040,,1*78
$GBGSV,4,4,13,06,,,40,1*76
$GBGSV,2,1,07,23,71,020,46,40,62,326,42,43,62,039,45,39,60,185,44,4*79
$GBGSV,2,2,07,28,52,217,38,25,40,113,37,37,27,320,38,4*49
$GNACCURACY,4.8*1A
$PAIRSAT,1,27,2,0,201,3,0,200,4,0,221,5,0,200,6,0,200,7,0,201,8,0,221,9,0,200,10,0,200,16,0,1,20,0,200,21,0,201,22,0,200,23,0,200,24,0,200,25,0,200,26,0,220,27,0,221,28,0,200,29,0,200,30,0,200,31,0,200,32,0,200,194,0,21,195,0,621,196,0,600,199,0,621*69
$PAIRSAT,2,17,70,0,200,71,0,200,73,0,200,74,0,200,75,0,200,76,0,200,77,0,1,78,0,201,79,0,201,80,0,200,81,0,200,83,0,200,84,0,200,85,0,200,86,0,200,87,0,201,88,0,201*5B
$PAIRSAT,3,22,2,0,1200,3,0,1200,4,0,1200,5,0,200,7,0,1200,8,0,1200,9,0,1200,10,0,200,11,0,200,12,0,200,13,0,221,15,0,200,19,0,200,21,0,21,25,0,1000,26,0,1021,27,0,1021,30,0,1000,31,0,1000,33,0,1200,34,0,1000,36,0,1200*71
$PAIRSAT,4,40,3,0,400,7,0,1,9,0,201,10,0,201,11,0,200,12,0,200,13,0,200,14,0,200,16,0,201,19,0,600,20,0,600,21,0,600,22,0,600,23,0,621,24,0,600,25,0,421,26,0,400,27,0,400,28,0,421,29,0,400,30,0,400,32,0,400,33,0,400,34,0,421,35,0,400,36,0,400,37,0,421,38,0,400,39,0,421,40,0,421,41,0,400,42,0,400,43,0,421,44,0,400,45,0,400,46,0,400,59,0,400,60,0,400,61,0,400,62,0,400*41
$PAIRDGP,7,2,7,8,16,21,26,27*56
$GNGGA,040004.200,2500.7913167,N,12132.4417855,E,4,46,0.58,16.769,M,15.25,M,1,3335*47
$GNRMC,040004.200,A,2500.7913167,N,12132.4417855,E,0.02,135.00,090324,,,R,V*14
$GPHDT,317.363,T*36
$GNACCURACY,4.8*1A
$GNGGA,040004.300,2500.7913170,N,12132.4417868,E,4,46,0.58,16.773,M,15.25,M,1,3335*45
$GNRMC,040004.300,A,2500.7913170,N,12132.4417868,E,0.01,135.00,090324,,,R,V*1E
$GPHDT,,T*1B
$GNACCURACY,4.8*1A
$GNGGA,040004.400,2500.7913180,N,12132.4417846,E,4,46,0.58,16.766,M,15.25,M,1,3335*45
$GNRMC,040004.400,A,2500.7913180,N,12132.4417846,E,0.00,135.00,090324,,,R,V*1B
$GPHDT,317.461,T*33
$GNACCURACY,4.8*1A
$GNGGA,040004.500,2500.7913178,N,12132.4417862,E,4,46,0.58,16.775,M,15.25,M,0,3335*46
$GNRMC,040004.500,A,2500.7913178,N,12132.4417862,E,0.01,135.00,090324,,,R,V*1A
$GPHDT,,T*1B
$GNACCURACY,4.8*1A
$GNGGA,040004.600,2500.7913190,N,12132.4417858,E,4,46,0.58,16.776,M,15.25,M,0,3335*49
$GNRMC,040004.600,A,2500.7913190,N,12132.4417858,E,0.01,135.00,090324,,,R,V*16
$GPHDT,317.193,T*3B
$GNACCURACY,4.8*1A
$GNGGA,040004.700,2500.7913184,N,12132.4417850,E,4,46,0.58,16.766,M,15.25,M,0,3335*44
$GNRMC,040004.700,A,2500.7913184,N,12132.4417850,E,0.02,135.00,090324,,,R,V*19
$GPHDT,,T*1B
$GNACCURACY,4.8*1A
$GNGGA,040004.800,2500.7913179,N,12132.4417879,E,4,46,0.58,16.768,M,15.25,M,0,3335*4C
$GNRMC,040004.800,A,2500.7913179,N,12132.4417879,E,0.04,135.00,090324,,,R,V*19
$GPHDT,316.828,T*33
$GNACCURACY,4.8*1A
$GNGGA,040004.900,2500.7913137,N,12132.4417841,E,4,46,0.58,16.765,M,15.25,M,0,3335*41
$GNRMC,040004.900,A,2500.7913137,N,12132.4417841,E,0.03,135.00,090324,,,R,V*1E
$GPHDT,,T*1B
$GNACCURACY,4.8*1A
$GNGGA,040005.000,2500.7913147,N,12132.4417839,E,4,46,0.58,16.771,M,15.25,M,1,3335*45
$GNRMC,040005.000,A,2500.7913147,N,12132.4417839,E,0.04,135.00,090324,,,R,V*19
$GPHDT,317.126,T*35
$GNACCURACY,4.8*1A
$GNGGA,040005.100,2500.7913148,N,12132.4417865,E,4,46,0.58,16.755,M,15.25,M,1,3335*44
$GNRMC,040005.100,A,2500.7913148,N,12132.4417865,E,0.04,135.00,090324,,,R,V*1E
$GPHDT,,T*1B
$GNGSA,A,3,08,194,195,199,21,02,07,27,16,04,26,,0.89,0.58,0.67,1*30
$GNGSA,A,3,88,78,77,79,,,,,,,,,0.89,0.58,0.67,2*0E
$GNGSA,A,3,13,21,26,27,,,,,,,,,0.89,0.58,0.67,3*0E
$GNGSA,A,3,09,23,16,40,43,07,39,28,25,37,,,0.89,0.58,0.67,4*01
$GPGSV,4,1,13,08,65,347,43,194,64,051,39,195,63,116,44,199,60,167,35,1*50
$GPGSV,4,2,13,50,60,167,38,21,55,160,45,02,44,178,44,07,38,318,41,1*62
$GPGSV,4,3,13,27,36,034,43,16,29,071,42,04,21,206,25,196,20,170,23,1*52
$GPGSV,4,4,13,26,10,096,22,1*5C
$GPGSV,2,1,07,08,65,347,45,194,64,051,45,195,63,116,44,199,60,167,45,8*50
$GPGSV,2,2,07,27,36,034,45,04,21,206,29,26,10,096,23,8*5F
$GLGSV,2,1,06,88,60,036,44,81,59,196,43,78,54,029,46,77,26,105,22,1*75
$GLGSV,2,2,06,79,23,331,33,87,07,026,16,1*7B
$GAGSV,2,1,05,13,54,087,41,21,54,006,35,26,40,172,35,27,30,076,37,7*7F
$GAGSV,2,2,05,15,16,040,19,7*49
$GAGSV,1,1,04,13,54,087,46,21,54,006,41,26,40,172,41,27,30,076,40,1*7C
$GBGSV,4,1,13,09,74,273,41,23,71,020,46,16,70,197,43,40,62,326,40,1*74
$GBGSV,4,2,13,43,62,039,44,07,61,305,40,39,60,185,41,28,52,217,46,1*77
$GBGSV,4,3,13,10,51,287,,25,40,113,33,37,27,320,39,34,14,040,,1*77
$GBGSV,4,4,13,06,,,39,1*78
$GBGSV,2,1,07,23,71,020,46,40,62,326,42,43,62,039,44,39,60,185,43,4*7F
$GBGSV,2,2,07,28,52,217,41,25,40,113,37,37,27,320,39,4*46
$GNACCURACY,4.8*1A
$PAIRSAT,1,27,2,0,201,3,0,200,4,0,221,5,0,200,6,0,200,7,0,201,8,0,221,9,0,200,10,0,200,16,0,1,20,0,200,21,0,201,22,0,200,23,0,200,24,0,200,25,0,200,26,0,220,27,0,221,28,0,200,29,0,200,30,0,200,31,0,200,32,0,200,194,0,21,195,0,621,196,0,600,199,0,621*69
$PAIRSAT,2,17,70,0,200,71,0,200,73,0,200,74,0,200,75,0,200,76,0,200,77,0,1,78,0,201,79,0,201,80,0,200,81,0,200,83,0,200,84,0,200,85,0,200,86,0,200,87,0,201,88,0,201*5B
$PAIRSAT,3,22,2,0,1200,3,0,1200,4,0,1200,5,0,200,7,0,1200,8,0,1200,9,0,1200,10,0,200,11,0,200,12,0,200,13,0,221,15,0,200,19,0,200,21,0,21,25,0,1000,26,0,1021,27,0,1021,30,0,1000,31,0,1000,33,0,1200,34,0,1000,36,0,1200*71
$PAIRSAT,4,40,3,0,400,7,0,1,9,0,201,10,0,201,11,0,200,12,0,200,13,0,200,14,0,200,16,0,201,19,0,600,20,0,600,21,0,600,22,0,600,23,0,621,24,0,600,25,0,421,26,0,400,27,0,400,28,0,421,29,0,400,30,0,400,32,0,400,33,0,400,34,0,421,35,0,400,36,0,400,37,0,421,38,0,400,39,0,421,40,0,421,41,0,400,42,0,400,43,0,421,44,0,400,45,0,400,46,0,400,59,0,400,60,0,400,61,0,400,62,0,400*41
$PAIRDGP,7,2,7,8,16,21,26,27*56
$GNGGA,040005.200,2500.7913179,N,12132.4417847,E,4,46,0.58,16.768,M,15.25,M,1,3335*4B
$GNRMC,040005.200,A,2500.7913179,N,12132.4417847,E,0.04,135.00,090324,,,R,V*1F
$GPHDT,317.253,T*34
$GNACCURACY,4.8*1A
$GNGGA,040005.300,2500.7913143,N,12132.4417844,E,4,46,0.58,16.778,M,15.25,M,1,3335*41
$GNRMC,040005.300,A,2500.7913143,N,12132.4417844,E,0.02,135.00,090324,,,R,V*12
$GPHDT,,T*1B
$GNACCURACY,4.8*1A
$GNGGA,040005.400,2500.7913181,N,12132.4417818,E,4,46,0.58,16.769,M,15.25,M,1,3335*41
$GNRMC,040005.400,A,2500.7913181,N,12132.4417818,E,0.01,135.00,090324,,,R,V*11
$GPHDT,317.386,T*3D
$GNACCURACY,4.8*1A
$GNGGA,040005.500,2500.7913175,N,12132.4417837,E,4,47,0.58,16.761,M,15.25,M,1,3335*4F
$GNRMC,040005.500,A,2500.7913175,N,12132.4417837,E,0.01,135.00,090324,,,R,V*16
$GPHDT,,T*1B
$GNACCURACY,4.8*1A
$GNGGA,040005.600,2500.7913171,N,12132.4417851,E,4,47,0.58,16.773,M,15.25,M,1,3335*4B
$GNRMC,040005.600,A,2500.7913171,N,12132.4417851,E,0.01,135.00,090324,,,R,V*11
$GPHDT,317.320,T*31
$GNACCURACY,4.8*1A
$GNGGA,040005.700,2500.7913149,N,12132.4417837,E,4,47,0.58,16.774,M,15.25,M,0,3335*47
$GNRMC,040005.700,A,2500.7913149,N,12132.4417837,E,0.04,135.00,090324,,,R,V*1E
$GPHDT,,T*1B
$GNACCURACY,4.8*1A
$GNGGA,040005.800,2500.7913157,N,12132.4417819,E,4,47,0.58,16.767,M,15.25,M,0,3335*49
$GNRMC,040005.800,A,2500.7913157,N,12132.4417819,E,0.08,135.00,090324,,,R,V*1E
$GPHDT,317.718,T*3E
$GNACCURACY,4.8*1A
$GNGGA,040005.900,2500.7913151,N,12132.4417853,E,4,47,0.58,16.762,M,15.25,M,0,3335*45
$GNRMC,040005.900,A,2500.7913151,N,12132.4417853,E,0.07,135.00,090324,,,R,V*18
$GPHDT,,T*1B
$GNACCURACY,4.8*1A
$GNGGA,040006.000,2500.7913183,N,12132.4417870,E,4,46,0.58,16.751,M,15.25,M,1,3335*41
$GNRMC,040006.000,A,2500.7913183,N,12132.4417870,E,0.01,135.00,090324,,,R,V*1A
$GPHDT,317.151,T*35
$GNACCURACY,4.8*1A
$GNGGA,040006.100,2500.7913179,N,12132.4417850,E,4,46,0.58,16.768,M,15.25,M,1,3335*4D
$GNRMC,040006.100,A,2500.7913179,N,12132.4417850,E,0.01,135.00,090324,,,R,V*1C
$GPHDT,,T*1B
$GNGSA,A,3,08,194,195,199,21,02,07,27,16,04,26,,0.89,0.58,0.67,1*30
$GNGSA,A,3,88,78,77,79,,,,,,,,,0.89,0.58,0.67,2*0E
$GNGSA,A,3,13,21,26,27,,,,,,,,,0.89,0.58,0.67,3*0E
$GNGSA,A,3,09,23,16,43,40,07,39,28,25,37,,,0.89,0.58,0.67,4*01
$GPGSV,4,1,13,08,65,347,42,194,64,051,39,195,63,116,43,199,60,167,35,1*56
$GPGSV,4,2,13,50,60,167,38,21,55,160,45,02,44,178,45,07,38,318,41,1*63
$GPGSV,4,3,13,27,36,034,42,16,29,071,40,04,21,206,25,196,20,170,22,1*50
$GPGSV,4,4,13,26,10,096,25,1*5B
$GPGSV,2,1,08,08,65,347,46,194,64,051,46,195,63,116,44,199,60,167,45,8*5F
$GPGSV,2,2,08,27,36,034,46,04,21,206,28,196,20,170,28,26,10,096,23,8*52
$GLGSV,2,1,06,88,60,036,44,81,59,196,43,78,54,029,46,77,26,105,23,1*74
$GLGSV,2,2,06,79,23,331,34,87,07,026,17,1*7D
$GAGSV,2,1,05,13,54,087,41,21,54,006,36,26,40,172,36,27,30,076,36,7*7E
$GAGSV,2,2,05,15,16,040,21,7*42
$GAGSV,1,1,04,21,54,006,42,13,54,087,46,26,40,172,41,27,30,076,40,1*7F
$GBGSV,4,1,13,09,74,273,41,23,71,020,46,16,70,197,43,43,62,039,44,1*7E
$GBGSV,4,2,13,40,61,326,40,07,61,305,40,39,60,185,40,28,52,217,46,1*7F
$GBGSV,4,3,13,10,51,287,,25,40,113,32,37,27,320,40,34,14,040,,1*78
$GBGSV,4,4,13,06,,,40,1*76
$GBGSV,2,1,07,23,71,020,46,43,62,039,45,40,61,326,42,39,60,185,43,4*7D
$GBGSV,2,2,07,28,52,217,43,25,40,113,37,37,27,320,39,4*44
$GNACCURACY,4.8*1A
$PAIRSAT,1,27,2,0,201,3,0,200,4,0,221,5,0,200,6,0,200,7,0,201,8,0,221,9,0,200,10,0,200,16,0,1,20,0,200,21,0,201,22,0,200,23,0,200,24,0,200,25,0,200,26,0,220,27,0,221,28,0,200,29,0,200,30,0,200,31,0,200,32,0,200,194,0,21,195,0,621,196,0,600,199,0,621*69
$PAIRSAT,2,17,70,0,200,71,0,200,73,0,200,74,0,200,75,0,200,76,0,200,77,0,1,78,0,201,79,0,201,80,0,200,81,0,200,83,0,200,84,0,200,85,0,200,86,0,200,87,0,201,88,0,201*5B
$PAIRSAT,3,22,2,0,1200,3,0,1200,4,0,1200,5,0,200,7,0,1200,8,0,1200,9,0,1200,10,0,200,11,0,200,12,0,200,13,0,221,15,0,200,19,0,200,21,0,21,25,0,1000,26,0,1021,27,0,1021,30,0,1000,31,0,1000,33,0,1200,34,0,1000,36,0,1200*71
$PAIRSAT,4,40,3,0,400,7,0,1,9,0,201,10,0,201,11,0,200,12,0,200,13,0,200,14,0,200,16,0,201,19,0,600,20,0,600,21,0,600,22,0,600,23,0,621,24,0,600,25,0,421,26,0,400,27,0,400,28,0,421,29,0,400,30,0,400,32,0,400,33,0,400,34,0,421,35,0,400,36,0,400,37,0,421,38,0,400,39,0,421,40,0,421,41,0,400,42,0,400,43,0,421,44,0,400,45,0,400,46,0,400,59,0,400,60,0,400,61,0,400,62,0,400*41
$PAIRDGP,7,2,7,8,16,21,26,27*56
$GNGGA,040006.200,2500.7913189,N,12132.4417841,E,4,47,0.58,16.769,M,15.25,M,1,3335*41
$GNRMC,040006.200,A,2500.7913189,N,12132.4417841,E,0.02,135.00,090324,,,R,V*13
$GPHDT,317.391,T*3B
$GNACCURACY,4.8*1A
$GNGGA,040006.300,2500.7913158,N,12132.4417833,E,4,47,0.58,16.768,M,15.25,M,1,3335*48
$GNRMC,040006.300,A,2500.7913158,N,12132.4417833,E,0.02,135.00,090324,,,R,V*1B
$GPHDT,,T*1B
$GNACCURACY,4.8*1A
$GNGGA,040006.400,2500.7913163,N,12132.4417814,E,4,46,0.58,16.779,M,15.25,M,1,3335*43
$GNRMC,040006.400,A,2500.7913163,N,12132.4417814,E,0.01,135.00,090324,,,R,V*12
$GPHDT,317.760,T*31
$GNACCURACY,4.8*1A
$GNGGA,040006.500,2500.7913172,N,12132.4417832,E,4,46,0.58,16.784,M,15.25,M,1,3335*44
$GNRMC,040006.500,A,2500.7913172,N,12132.4417832,E,0.01,135.00,090324,,,R,V*17
$GPHDT,,T*1B
$GNACCURACY,4.8*1A
$GNGGA,040006.600,2500.7913186,N,12132.4417834,E,4,46,0.58,16.778,M,15.25,M,0,3335*48
$GNRMC,040006.600,A,2500.7913186,N,12132.4417834,E,0.02,135.00,090324,,,R,V*1A
$GPHDT,317.223,T*33
$GNACCURACY,4.8*1A
$GNGGA,040006.700,2500.7913164,N,12132.4417857,E,4,47,0.58,16.754,M,15.25,M,0,3335*4F
$GNRMC,040006.700,A,2500.7913164,N,12132.4417857,E,0.02,135.00,090324,,,R,V*12
$GPHDT,,T*1B
$GNACCURACY,4.8*1A
$GNGGA,040006.800,2500.7913169,N,12132.4417868,E,4,47,0.58,16.758,M,15.25,M,0,3335*4D
$GNRMC,040006.800,A,2500.7913169,N,12132.4417868,E,0.02,135.00,090324,,,R,V*1C
$GPHDT,317.260,T*34
$GNACCURACY,4.8*1A
$GNGGA,040006.900,2500.7913165,N,12132.4417826,E,4,47,0.58,16.784,M,15.25,M,0,3335*4B
$GNRMC,040006.900,A,2500.7913165,N,12132.4417826,E,0.12,135.00,090324,,,R,V*1A
$GPHDT,,T*1B
$GNACCURACY,4.8*1A
$GNGGA,040007.000,2500.7913157,N,12132.4417761,E,4,47,0.58,16.796,M,15.25,M,1,3335*4C
$GNRMC,040007.000,A,2500.7913157,N,12132.4417761,E,0.10,135.00,090324,,,R,V*1D
$GPHDT,317.921,T*3A
$GNACCURACY,4.8*1A
$GNGGA,040007.100,2500.7913151,N,12132.4417852,E,4,47,0.58,16.778,M,15.25,M,1,3335*44
$GNRMC,040007.100,A,2500.7913151,N,12132.4417852,E,0.03,135.00,090324,,,R,V*17
$GPHDT,,T*1B
$GNGSA,A,3,08,194,195,199,21,02,07,27,16,04,26,,0.89,0.58,0.67,1*30
$GNGSA,A,3,88,78,77,79,,,,,,,,,0.89,0.58,0.67,2*0E
$GNGSA,A,3,13,21,26,27,,,,,,,,,0.89,0.58,0.67,3*0E
$GNGSA,A,3,09,23,16,43,40,07,39,28,25,37,,,0.89,0.58,0.67,4*01
$GPGSV,4,1,13,08,65,347,42,194,64,051,39,195,63,116,42,199,60,167,35,1*57
$GPGSV,4,2,13,50,60,167,38,21,55,160,45,02,44,178,45,07,38,318,41,1*63
$GPGSV,4,3,13,27,36,034,42,16,29,071,40,04,21,206,26,196,20,170,20,1*51
$GPGSV,4,4,13,26,10,096,24,1*5A
$GPGSV,2,1,08,08,65,347,46,194,64,051,46,195,63,116,44,199,60,167,45,8*5F
$GPGSV,2,2,08,27,36,034,46,04,21,206,27,196,20,170,29,26,10,096,23,8*5C
$GLGSV,2,1,06,88,60,036,45,81,59,196,44,78,54,029,46,77,26,105,23,1*72
$GLGSV,2,2,06,79,23,331,36,87,07,026,16,1*7E
$GAGSV,2,1,05,13,54,087,41,21,54,006,36,26,40,172,37,27,30,076,37,7*7E
$GAGSV,2,2,05,15,16,040,21,7*42
$GAGSV,2,1,05,13,54,087,46,21,54,006,42,26,40,172,41,27,30,076,40,1*7D
$GAGSV,2,2,05,15,16,040,24,1*41
$GBGSV,4,1,13,09,74,273,41,23,71,020,46,16,70,197,43,43,62,039,44,1*7E
$GBGSV,4,2,13,40,61,326,40,07,61,305,40,39,60,185,41,28,52,217,47,1*7F
$GBGSV,4,3,13,10,51,287,,25,40,113,32,37,27,320,38,34,14,040,,1*77
$GBGSV,4,4,13,06,,,40,1*76
$GBGSV,2,1,07,23,71,020,46,43,62,039,44,40,61,326,42,39,60,185,43,4*7C
$GBGSV,2,2,07,28,52,217,44,25,40,113,37,37,27,320,39,4*43
$GNACCURACY,4.8*1A
$PAIRSAT,1,27,2,0,201,3,0,200,4,0,221,5,0,200,6,0,200,7,0,201,8,0,221,9,0,200,10,0,200,16,0,1,20,0,200,21,0,201,22,0,200,23,0,200,24,0,200,25,0,200,26,0,220,27,0,221,28,0,200,29,0,200,30,0,200,31,0,200,32,0,200,194,0,21,195,0,621,196,0,600,199,0,621*69
$PAIRSAT,2,17,70,0,200,71,0,200,73,0,200,74,0,200,75,0,200,76,0,200,77,0,1,78,0,201,79,0,201,80,0,200,81,0,200,83,0,200,84,0,200,85,0,200,86,0,200,87,0,201,88,0,201*5B
$PAIRSAT,3,22,2,0,1200,3,0,1200,4,0,1200,5,0,200,7,0,1200,8,0,1200,9,0,1200,10,0,200,11,0,200,12,0,200,13,0,221,15,0,200,19,0,200,21,0,21,25,0,1000,26,0,1021,27,0,1021,30,0,1000,31,0,1000,33,0,1200,34,0,1000,36,0,1200*71
$PAIRSAT,4,40,3,0,400,7,0,1,9,0,201,10,0,201,11,0,200,12,0,200,13,0,200,14,0,200,16,0,201,19,0,600,20,0,600,21,0,600,22,0,600,23,0,621,24,0,600,25,0,421,26,0,400,27,0,400,28,0,421,29,0,400,30,0,400,32,0,400,33,0,400,34,0,421,35,0,400,36,0,400,37,0,421,38,0,400,39,0,421,40,0,421,41,0,400,42,0,400,43,0,421,44,0,400,45,0,400,46,0,400,59,0,400,60,0,400,61,0,400,62,0,400*41
$PAIRDGP,7,2,7,8,16,21,26,27*56
$GNGGA,040007.200,2500.7913153,N,12132.4417823,E,4,46,0.58,16.764,M,15.25,M,1,3335*4F
$GNRMC,040007.200,A,2500.7913153,N,12132.4417823,E,0.02,135.00,090324,,,R,V*11
$GPHDT,317.368,T*3D
$GNACCURACY,4.8*1A
$GNGGA,040007.300,2500.7913149,N,12132.4417868,E,4,46,0.58,16.794,M,15.25,M,1,3335*45
$GNRMC,040007.300,A,2500.7913149,N,12132.4417868,E,0.02,135.00,090324,,,R,V*14
$GPHDT,,T*1B
$GNACCURACY,4.8*1A
$GNGGA,040007.400,2500.7913142,N,12132.4417794,E,4,46,0.58,16.780,M,15.25,M,0,3335*41
$GNRMC,040007.400,A,2500.7913142,N,12132.4417794,E,0.02,135.00,090324,,,R,V*14
$GPHDT,317.656,T*35
$GNACCURACY,4.8*1A
$GNGGA,040007.500,2500.7913141,N,12132.4417818,E,4,46,0.58,16.773,M,15.25,M,0,3335*44
$GNRMC,040007.500,A,2500.7913141,N,12132.4417818,E,0.02,135.00,090324,,,R,V*1D
$GPHDT,,T*1B
$GNACCURACY,4.8*1A
$GNGGA,040007.600,2500.7913156,N,12132.4417810,E,4,47,0.58,16.788,M,15.25,M,0,3335*4C
$GNRMC,040007.600,A,2500.7913156,N,12132.4417810,E,0.02,135.00,090324,,,R,V*10
$GPHDT,317.605,T*33
$GNACCURACY,4.8*1A
$GNGGA,040007.700,2500.7913161,N,12132.4417823,E,4,46,0.58,16.791,M,15.25,M,0,3335*40
$GNRMC,040007.700,A,2500.7913161,N,12132.4417823,E,0.01,135.00,090324,,,R,V*16
$GPHDT,,T*1B
$GNACCURACY,4.8*1A
$GNGGA,040007.800,2500.7913165,N,12132.4417817,E,4,46,0.58,16.773,M,15.25,M,0,3335*40
$GNRMC,040007.800,A,2500.7913165,N,12132.4417817,E,0.06,135.00,090324,,,R,V*1D
$GPHDT,317.715,T*33
$GNACCURACY,4.8*1A
$GNGGA,040007.900,2500.7913141,N,12132.4417788,E,4,47,0.58,16.776,M,15.25,M,0,3335*4A
$GNRMC,040007.900,A,2500.7913141,N,12132.4417788,E,0.06,135.00,090324,,,R,V*13
$GPHDT,,T*1B
$GNACCURACY,4.8*1A
$GNGGA,040008.000,2500.7913141,N,12132.4417845,E,4,46,0.58,16.765,M,15.25,M,1,3335*40
$GNRMC,040008.000,A,2500.7913141,N,12132.4417845,E,0.03,135.00,090324,,,R,V*1E
$GPHDT,317.769,T*38
$GNACCURACY,4.8*1A
$GNGGA,040008.100,2500.7913133,N,12132.4417867,E,4,46,0.58,16.762,M,15.25,M,1,3335*43
$GNRMC,040008.100,A,2500.7913133,N,12132.4417867,E,0.03,135.00,090324,,,R,V*1A
$GPHDT,,T*1B
$GNGSA,A,3,08,194,195,199,21,02,07,27,16,04,26,,0.89,0.58,0.67,1*30
$GNGSA,A,3,88,78,77,79,,,,,,,,,0.89,0.58,0.67,2*0E
$GNGSA,A,3,13,21,26,27,,,,,,,,,0.89,0.58,0.67,3*0E
$GNGSA,A,3,09,23,16,43,40,07,39,28,25,37,,,0.89,0.58,0.67,4*01
$GPGSV,4,1,13,08,65,347,42,194,64,051,39,195,63,116,42,199,60,167,35,1*57
$GPGSV,4,2,13,50,60,167,38,21,55,160,45,02,44,178,45,07,38,318,41,1*63
$GPGSV,4,3,13,27,36,034,42,16,29,071,42,04,21,206,26,196,20,170,20,1*53
$GPGSV,4,4,13,26,10,096,24,1*5A
$GPGSV,2,1,08,08,65,347,46,194,64,051,46,195,63,116,45,199,60,167,45,8*5E
$GPGSV,2,2,08,27,36,034,46,04,21,206,28,196,20,170,29,26,10,096,21,8*51
$GLGSV,2,1,06,88,60,036,45,81,59,196,44,78,54,029,46,77,26,105,23,1*72
$GLGSV,2,2,06,79,23,331,36,87,07,026,17,1*7F
$GAGSV,2,1,05,13,54,087,41,21,54,006,36,26,40,172,38,27,30,076,38,7*7E
$GAGSV,2,2,05,15,16,040,21,7*42
$GAGSV,2,1,05,13,54,087,45,21,54,006,42,26,40,172,42,27,30,076,40,1*7D
$GAGSV,2,2,05,15,16,040,25,1*40
$GBGSV,4,1,13,09,74,273,41,23,71,020,46,16,70,197,44,43,62,039,44,1*79
$GBGSV,4,2,13,40,61,326,40,07,61,305,40,39,60,185,40,28,52,217,47,1*7E
$GBGSV,4,3,13,10,51,287,,25,40,113,33,37,27,320,38,34,14,040,,1*76
$GBGSV,4,4,13,06,,,40,1*76
$GBGSV,2,1,07,23,71,020,46,43,62,039,44,40,61,326,42,39,60,185,43,4*7C
$GBGSV,2,2,07,28,52,217,44,25,40,113,37,37,27,320,39,4*43
$GNACCURACY,4.8*1A
$PAIRSAT,1,27,2,0,201,3,0,200,4,0,221,5,0,200,6,0,200,7,0,201,8,0,221,9,0,200,10,0,200,16,0,1,20,0,200,21,0,201,22,0,200,23,0,200,24,0,200,25,0,200,26,0,220,27,0,221,28,0,200,29,0,200,30,0,200,31,0,200,32,0,200,194,0,21,195,0,621,196,0,600,199,0,621*69
$PAIRSAT,2,17,70,0,200,71,0,200,73,0,200,74,0,200,75,0,200,76,0,200,77,0,1,78,0,201,79,0,201,80,0,200,81,0,200,83,0,200,84,0,200,85,0,200,86,0,200,87,0,201,88,0,201*5B
$PAIRSAT,3,22,2,0,1200,3,0,1200,4,0,1200,5,0,200,7,0,1200,8,0,1200,9,0,1200,10,0,200,11,0,200,12,0,200,13,0,221,15,0,200,19,0,200,21,0,21,25,0,1000,26,0,1021,27,0,1021,30,0,1000,31,0,1000,33,0,1200,34,0,1000,36,0,1200*71
$PAIRSAT,4,40,3,0,400,7,0,1,9,0,201,10,0,201,11,0,200,12,0,200,13,0,200,14,0,200,16,0,201,19,0,600,20,0,600,21,0,600,22,0,600,23,0,621,24,0,600,25,0,421,26,0,400,27,0,400,28,0,421,29,0,400,30,0,400,32,0,400,33,0,400,34,0,421,35,0,400,36,0,400,37,0,421,38,0,400,39,0,421,40,0,421,41,0,400,42,0,400,43,0,421,44,0,400,45,0,400,46,0,400,59,0,400,60,0,400,61,0,400,62,0,400*41
$PAIRDGP,7,2,7,8,16,21,26,27*56
$GNGGA,040008.200,2500.7913174,N,12132.4417868,E,4,46,0.58,16.771,M,15.25,M,1,3335*4E
$GNRMC,040008.200,A,2500.7913174,N,12132.4417868,E,0.03,135.00,090324,,,R,V*15
$GPHDT,317.362,T*37
$GNACCURACY,4.8*1A
$GNGGA,040008.300,2500.7913164,N,12132.4417847,E,4,46,0.58,16.771,M,15.25,M,1,3335*43
$GNRMC,040008.300,A,2500.7913164,N,12132.4417847,E,0.02,135.00,090324,,,R,V*19
$GPHDT,,T*1B
$GNACCURACY,4.8*1A
$GNGGA,040008.400,2500.7913139,N,12132.4417858,E,4,46,0.58,16.768,M,15.25,M,1,3335*4A
$GNRMC,040008.400,A,2500.7913139,N,12132.4417858,E,0.02,135.00,090324,,,R,V*18
$GPHDT,317.346,T*31
$GNACCURACY,4.8*1A
$GNGGA,040008.500,2500.7913152,N,12132.4417856,E,4,46,0.58,16.769,M,15.25,M,1,3335*49
$GNRMC,040008.500,A,2500.7913152,N,12132.4417856,E,0.01,135.00,090324,,,R,V*19
$GPHDT,,T*1B
$GNACCURACY,4.8*1A
$GNGGA,040008.600,2500.7913164,N,12132.4417836,E,4,46,0.58,16.778,M,15.25,M,0,3335*48
$GNRMC,040008.600,A,2500.7913164,N,12132.4417836,E,0.01,135.00,090324,,,R,V*19
$GPHDT,317.524,T*33
$GNACCURACY,4.8*1A
$GNGGA,040008.700,2500.7913170,N,12132.4417854,E,4,46,0.58,16.779,M,15.25,M,0,3335*49
$GNRMC,040008.700,A,2500.7913170,N,12132.4417854,E,0.01,135.00,090324,,,R,V*19
$GPHDT,,T*1B
$GNACCURACY,4.8*1A
$GNGGA,040008.800,2500.7913154,N,12132.4417852,E,4,46,0.58,16.765,M,15.25,M,0,3335*4B
$GNRMC,040008.800,A,2500.7913154,N,12132.4417852,E,0.01,135.00,090324,,,R,V*16
$GPHDT,317.829,T*33
$GNACCURACY,4.8*1A
$GNGGA,040008.900,2500.7913150,N,12132.4417838,E,4,46,0.58,16.771,M,15.25,M,0,3335*47
$GNRMC,040008.900,A,2500.7913150,N,12132.4417838,E,0.07,135.00,090324,,,R,V*19
$GPHDT,,T*1B
$GNACCURACY,4.8*1A
$GNGGA,040009.000,2500.7913169,N,12132.4417871,E,4,46,0.58,16.773,M,15.25,M,1,3335*4B
$GNRMC,040009.000,A,2500.7913169,N,12132.4417871,E,0.02,135.00,090