$FW : RTK35X,V1.1X0314AS,Lib20210517,1*54
$Tool : LOCOSYS , GNSS Firebird , v1.0.0.19*39
$---------------------------------------------------*2D
,21,02,27,07,16,26,,,0.97,0.66,0.71,1*31
$GNGSA,A,3,88,78,77,79,,,,,,,,,0.97,0.66,0.71,2*0B
$GNGSA,A,3,21,13,26,27,,,,,,,,,0.97,0.66,0.71,3*0B
$GNGSA,A,3,09,23,16,40,43,07,39,25,37,,,,0.97,0.66,0.71,4*0E
$GPGSV,4,1,13,08,65,346,45,194,64,050,39,195,63,117,43,50,60,167,41,1*67
$GPGSV,4,2,13,199,60,167,38,21,55,160,47,02,43,178,46,27,37,033,41,1*56
$GPGSV,4,3,13,07,37,318,37,16,29,071,43,04,21,206,27,196,20,170,32,1*5C
$GPGSV,4,4,13,26,10,096,21,1*5F
$GPGSV,2,1,08,08,65,346,45,194,64,050,45,195,63,117,43,199,60,167,45,8*59
$GPGSV,2,2,08,27,37,033,47,04,21,206,24,196,20,170,22,26,10,096,21,8*51
$GLGSV,2,1,05,88,60,036,41,78,54,028,43,77,26,105,14,79,22,330,28,1*7A
$GLGSV,2,2,05,87,07,026,16,1*46
$GAGSV,2,1,06,21,54,006,40,13,54,088,40,26,40,172,39,27,30,075,39,7*71
$GAGSV,2,2,06,04,12,303,14,33,01,200,,7*74
$GAGSV,1,1,04,13,54,088,44,21,54,006,43,26,40,172,42,27,30,075,42,1*71
$GBGSV,3,1,12,09,74,273,40,23,71,020,45,16,71,197,44,40,62,326,40,1*76
$GBGSV,3,2,12,43,62,039,44,07,61,305,38,39,60,185,42,28,52,217,,1*7F
$GBGSV,3,3,12,10,51,286,15,25,40,113,35,37,27,320,34,34,15,040,,1*7E
$GBGSV,2,1,05,23,71,020,48,40,62,326,42,39,60,185,45,25,40,113,36,4*79
$GBGSV,2,2,05,37,27,320,34,4*41
$GNACCURACY,5.0*13
$PAIRSAT,1,25,2,0,201,3,0,200,4,0,200,5,0,200,6,0,200,7,0,201,8,0,221,9,0,200,16,0,1,20,0,200,21,0,201,22,0,200,23,0,200,24,0,200,25,0,200,26,0,220,27,0,221,28,0,200,29,0,200,30,0,200,31,0,200,194,0,21,195,0,621,196,0,600,199,0,621*68
$PAIRSAT,2,16,70,0,200,71,0,200,73,0,200,74,0,200,75,0,200,76,0,200,77,0,1,78,0,201,79,0,201,80,0,200,81,0,200,84,0,200,85,0,200,86,0,200,87,0,201,88,0,201*7F
$PAIRSAT,3,21,2,0,1200,3,0,1200,4,0,1200,5,0,200,7,0,1200,8,0,1200,9,0,1200,10,0,200,11,0,200,12,0,200,13,0,221,15,0,200,21,0,21,25,0,1000,26,0,1021,27,0,1021,30,0,1000,31,0,1000,33,0,1200,34,0,1000,36,0,1200*54
$PAIRSAT,4,40,3,0,400,7,0,1,9,0,201,10,0,201,11,0,200,12,0,200,13,0,200,14,0,200,16,0,201,19,0,600,20,0,600,21,0,600,22,0,600,23,0,421,24,0,400,25,0,421,26,0,400,27,0,400,28,0,421,29,0,400,30,0,400,32,0,400,33,0,400,34,0,421,35,0,400,36,0,400,37,0,421,38,0,400,39,0,421,40,0,421,41,0,400,42,0,400,43,0,421,44,0,400,45,0,400,46,0,400,59,0,400,60,0,400,61,0,400,62,0,400*41
$PAIRDGP,7,2,7,8,16,21,26,27*56
$GNGGA,035919.200,2500.7913152,N,12132.4417937,E,4,41,0.66,16.814,M,15.25,M,1,3335*4C
$GNRMC,035919.200,A,2500.7913152,N,12132.4417937,E,0.01,135.00,090324,,,R,V*13
$GPHDT,95.305,T*0F
$GNACCURACY,5.0*13
$GNGGA,035919.300,2500.7913154,N,12132.4417927,E,4,41,0.66,16.807,M,15.25,M,1,3335*48
$GNRMC,035919.300,A,2500.7913154,N,12132.4417927,E,0.01,135.00,090324,,,R,V*15
$GPHDT,,T*1B
$GNACCURACY,5.0*13
$GNGGA,035919.400,2500.7913150,N,12132.4417940,E,4,41,0.66,16.802,M,15.25,M,1,3335*4F
$GNRMC,035919.400,A,2500.7913150,N,12132.4417940,E,0.02,135.00,090324,,,R,V*14
$GPHDT,95.007,T*0E
$GNACCURACY,5.0*13
$GNGGA,035919.500,2500.7913136,N,12132.4417967,E,4,41,0.66,16.816,M,15.25,M,0,3335*4F
$GNRMC,035919.500,A,2500.7913136,N,12132.4417967,E,0.01,135.00,090324,,,R,V*13
$GPHDT,,T*1B
$GNACCURACY,5.0*13
$GNGGA,035919.600,2500.7913155,N,12132.4417937,E,4,41,0.66,16.809,M,15.25,M,0,3335*42
$GNRMC,035919.600,A,2500.7913155,N,12132.4417937,E,0.01,135.00,090324,,,R,V*10
$GPHDT,95.355,T*0A
$GNACCURACY,5.0*13
$GNGGA,035919.700,2500.7913140,N,12132.4417959,E,4,41,0.66,16.819,M,15.25,M,0,3335*4E
$GNRMC,035919.700,A,2500.7913140,N,12132.4417959,E,0.01,135.00,090324,,,R,V*1D
$GPHDT,,T*1B
$GNACCURACY,5.0*13
$GNGGA,035919.800,2500.7913138,N,12132.4417965,E,4,41,0.66,16.803,M,15.25,M,0,3335*4A
$GNRMC,035919.800,A,2500.7913138,N,12132.4417965,E,0.01,135.00,090324,,,R,V*12
$GPHDT,94.942,T*07
$GNACCURACY,5.0*13
$GNGGA,035919.900,2500.7913135,N,12132.4417935,E,4,41,0.66,16.795,M,15.25,M,0,3335*43
$GNRMC,035919.900,A,2500.7913135,N,12132.4417935,E,0.01,135.00,090324,,,R,V*1B
$GPHDT,,T*1B
$GNACCURACY,5.0*13
$GNGGA,035920.000,2500.7913128,N,12132.4417952,E,4,41,0.66,16.800,M,15.25,M,1,3335*4F
$GNRMC,035920.000,A,2500.7913128,N,12132.4417952,E,0.01,135.00,090324,,,R,V*15
$GPHDT,94.868,T*0E
$GNACCURACY,5.0*13
$GNGGA,035920.100,2500.7913149,N,12132.4417980,E,4,41,0.66,16.796,M,15.25,M,1,3335*46
$GNRMC,035920.100,A,2500.7913149,N,12132.4417980,E,0.01,135.00,090324,,,R,V*1C
$GPHDT,,T*1B
$GNGSA,A,3,08,194,195,199,21,02,27,07,16,26,,,0.97,0.66,0.71,1*31
$GNGSA,A,3,88,78,77,79,,,,,,,,,0.97,0.66,0.71,2*0B
$GNGSA,A,3,21,13,26,27,,,,,,,,,0.97,0.66,0.71,3*0B
$GNGSA,A,3,09,23,16,40,43,07,39,25,37,,,,0.97,0.66,0.71,4*0E
$GPGSV,4,1,13,08,65,346,45,194,64,050,39,195,63,117,43,50,60,167,41,1*67
$GPGSV,4,2,13,199,60,167,38,21,55,160,47,02,43,178,46,27,37,033,41,1*56
$GPGSV,4,3,13,07,37,318,36,16,29,071,42,04,21,206,26,196,20,170,30,1*5F
$GPGSV,4,4,13,26,10,096,22,1*5C
$GPGSV,2,1,08,08,65,346,45,194,64,050,45,195,63,117,43,199,60,167,45,8*59
$GPGSV,2,2,08,27,37,033,47,04,21,206,24,196,20,170,23,26,10,096,20,8*51
$GLGSV,2,1,05,88,60,036,41,78,54,028,43,77,26,105,15,79,22,330,25,1*76
$GLGSV,2,2,05,87,07,026,17,1*47
$GAGSV,2,1,06,21,54,006,41,13,54,088,40,26,40,172,40,27,30,075,39,7*7E
$GAGSV,2,2,06,04,12,303,14,33,01,200,,7*74
$GAGSV,1,1,04,21,54,006,43,13,54,088,43,26,40,172,42,27,30,075,42,1*76
$GBGSV,3,1,12,09,74,273,41,23,71,020,45,16,71,197,44,40,62,326,40,1*77
$GBGSV,3,2,12,43,62,039,44,07,61,305,38,39,60,185,42,28,52,217,,1*7F
$GBGSV,3,3,12,10,51,286,14,25,40,113,35,37,27,320,31,34,15,040,,1*7A
$GBGSV,2,1,06,23,71,020,48,40,62,326,42,43,62,039,44,39,60,185,45,4*76
$GBGSV,2,2,06,25,40,113,36,37,27,320,26,4*74
$GNACCURACY,5.0*13
$PAIRSAT,1,25,2,0,201,3,0,200,4,0,200,5,0,200,6,0,200,7,0,201,8,0,221,9,0,200,16,0,1,20,0,200,21,0,201,22,0,200,23,0,200,24,0,200,25,0,200,26,0,220,27,0,221,28,0,200,29,0,200,30,0,200,31,0,200,194,0,21,195,0,621,196,0,600,199,0,621*68
$PAIRSAT,2,16,70,0,200,71,0,200,73,0,200,74,0,200,75,0,200,76,0,200,77,0,1,78,0,201,79,0,201,80,0,200,81,0,200,84,0,200,85,0,200,86,0,200,87,0,201,88,0,201*7F
$PAIRSAT,3,21,2,0,1200,3,0,1200,4,0,1200,5,0,200,7,0,1200,8,0,1200,9,0,1200,10,0,200,11,0,200,12,0,200,13,0,221,15,0,200,21,0,21,25,0,1000,26,0,1021,27,0,1021,30,0,1000,31,0,1000,33,0,1200,34,0,1000,36,0,1200*54
$PAIRSAT,4,40,3,0,400,7,0,1,9,0,201,10,0,201,11,0,200,12,0,200,13,0,200,14,0,200,16,0,201,19,0,600,20,0,600,21,0,600,22,0,600,23,0,421,24,0,400,25,0,421,26,0,400,27,0,400,28,0,421,29,0,400,30,0,400,32,0,400,33,0,400,34,0,421,35,0,400,36,0,400,37,0,421,38,0,400,39,0,421,40,0,421,41,0,400,42,0,400,43,0,421,44,0,400,45,0,400,46,0,400,59,0,400,60,0,400,61,0,400,62,0,400*41
$PAIRDGP,7,2,7,8,16,21,26,27*56
$GNGGA,035920.200,2500.7913124,N,12132.4418012,E,4,41,0.66,16.800,M,15.25,M,1,3335*43
$GNRMC,035920.200,A,2500.7913124,N,12132.4418012,E,0.01,135.00,090324,,,R,V*19
$GPHDT,94.991,T*09
$GNACCURACY,5.0*13
$GNGGA,035920.300,2500.7913115,N,12132.4418085,E,4,41,0.66,16.800,M,15.25,M,1,3335*4E
$GNRMC,035920.300,A,2500.7913115,N,12132.4418085,E,0.01,135.00,090324,,,R,V*14
$GPHDT,,T*1B
$GNACCURACY,5.0*13
$GNGGA,035920.400,2500.7913116,N,12132.4418082,E,4,41,0.66,16.813,M,15.25,M,1,3335*4F
$GNRMC,035920.400,A,2500.7913116,N,12132.4418082,E,0.01,135.00,090324,,,R,V*17
$GPHDT,94.956,T*02
$GNACCURACY,4.9*1B
$GNGGA,035920.500,2500.7913140,N,12132.4418008,E,4,41,0.66,16.794,M,15.25,M,1,3335*4F
$GNRMC,035920.500,A,2500.7913140,N,12132.4418008,E,0.01,135.00,090324,,,R,V*17
$GPHDT,,T*1B
$GNACCURACY,4.9*1B
$GNGGA,035920.600,2500.7913126,N,12132.4418065,E,4,41,0.66,16.799,M,15.25,M,1,3335*4A
$GNRMC,035920.600,A,2500.7913126,N,12132.4418065,E,0.00,135.00,090324,,,R,V*1E
$GPHDT,95.204,T*0F
$GNACCURACY,4.9*1B
$GNGGA,035920.700,2500.7913137,N,12132.4418045,E,4,41,0.66,16.797,M,15.25,M,0,3335*46
$GNRMC,035920.700,A,2500.7913137,N,12132.4418045,E,0.01,135.00,090324,,,R,V*1C
$GPHDT,,T*1B
$GNACCURACY,4.9*1B
$GNGGA,035920.800,2500.7913133,N,12132.4418016,E,4,41,0.66,16.792,M,15.25,M,0,3335*4E
$GNRMC,035920.800,A,2500.7913133,N,12132.4418016,E,0.06,135.00,090324,,,R,V*16
$GPHDT,95.121,T*0B
$GNACCURACY,4.9*1B
$GNGGA,035920.900,2500.7913163,N,12132.4417979,E,4,41,0.66,16.809,M,15.25,M,0,3335*48
$GNRMC,035920.900,A,2500.7913163,N,12132.4417979,E,0.10,135.00,090324,,,R,V*1A
$GPHDT,,T*1B
$GNACCURACY,4.9*1B
$GNGGA,035921.000,2500.7913164,N,12132.4417974,E,4,41,0.66,16.806,M,15.25,M,1,3335*44
$GNRMC,035921.000,A,2500.7913164,N,12132.4417974,E,0.12,135.00,090324,,,R,V*1A
$GPHDT,95.395,T*06
$GNACCURACY,4.9*1B
$GNGGA,035921.100,2500.7913127,N,12132.4418013,E,4,41,0.66,16.784,M,15.25,M,1,3335*40
$GNRMC,035921.100,A,2500.7913127,N,12132.4418013,E,0.10,135.00,090324,,,R,V*19
$GPHDT,,T*1B
$GNGSA,A,3,08,194,195,199,21,02,27,07,16,26,,,0.97,0.66,0.71,1*31
$GNGSA,A,3,88,78,77,79,,,,,,,,,0.97,0.66,0.71,2*0B
$GNGSA,A,3,21,13,26,27,,,,,,,,,0.97,0.66,0.71,3*0B
$GNGSA,A,3,09,23,16,40,43,07,39,25,37,,,,0.97,0.66,0.71,4*0E
$GPGSV,4,1,13,08,65,347,44,194,64,050,37,195,63,117,42,50,60,167,41,1*68
$GPGSV,4,2,13,199,60,167,38,21,55,160,47,02,43,178,46,27,37,033,42,1*55
$GPGSV,4,3,13,07,37,318,38,16,29,071,40,04,21,206,27,196,20,170,30,1*52
$GPGSV,4,4,13,26,10,096,19,1*54
$GPGSV,2,1,08,08,65,347,45,194,64,050,46,195,63,117,42,199,60,167,45,8*5A
$GPGSV,2,2,08,27,37,033,47,04,21,206,25,196,20,170,25,26,10,096,20,8*56
$GLGSV,2,1,05,88,60,036,40,78,54,028,43,77,26,105,16,79,22,330,39,1*79
$GLGSV,2,2,05,87,07,026,17,1*47
$GAGSV,2,1,06,21,54,006,41,13,54,088,40,26,40,172,40,27,30,075,39,7*7E
$GAGSV,2,2,06,04,12,303,15,33,01,200,,7*75
$GAGSV,1,1,04,13,54,088,43,21,54,006,43,26,40,172,43,27,30,075,42,1*77
$GBGSV,3,1,12,09,74,273,41,23,71,020,45,16,71,197,44,40,62,326,40,1*77
$GBGSV,3,2,12,43,62,039,44,07,61,305,37,39,60,185,42,28,52,217,,1*70
$GBGSV,3,3,12,10,51,286,14,25,40,113,35,37,27,320,32,34,15,040,,1*79
$GBGSV,2,1,05,23,71,020,48,40,62,326,42,39,60,185,45,25,40,113,36,4*79
$GBGSV,2,2,05,37,27,320,31,4*44
$GNACCURACY,4.9*1B
$PAIRSAT,1,25,2,0,201,3,0,200,4,0,200,5,0,200,6,0,200,7,0,201,8,0,221,9,0,200,16,0,1,20,0,200,21,0,201,22,0,200,23,0,200,24,0,200,25,0,200,26,0,220,27,0,221,28,0,200,29,0,200,30,0,200,31,0,200,194,0,21,195,0,621,196,0,600,199,0,621*68
$PAIRSAT,2,16,70,0,200,71,0,200,73,0,200,74,0,200,75,0,200,76,0,200,77,0,1,78,0,201,79,0,201,80,0,200,81,0,200,84,0,200,85,0,200,86,0,200,87,0,201,88,0,201*7F
$PAIRSAT,3,21,2,0,1200,3,0,1200,4,0,1200,5,0,200,7,0,1200,8,0,1200,9,0,1200,10,0,200,11,0,200,12,0,200,13,0,221,15,0,200,21,0,21,25,0,1000,26,0,1021,27,0,1021,30,0,1000,31,0,1000,33,0,1200,34,0,1000,36,0,1200*54
$PAIRSAT,4,40,3,0,400,7,0,1,9,0,201,10,0,201,11,0,200,12,0,200,13,0,200,14,0,200,16,0,201,19,0,600,20,0,600,21,0,600,22,0,600,23,0,621,24,0,400,25,0,421,26,0,400,27,0,400,28,0,421,29,0,400,30,0,400,32,0,400,33,0,400,34,0,421,35,0,400,36,0,400,37,0,421,38,0,400,39,0,421,40,0,421,41,0,400,42,0,400,43,0,421,44,0,400,45,0,400,46,0,400,59,0,400,60,0,400,61,0,400,62,0,400*43
$PAIRDGP,7,2,7,8,16,21,26,27*56
$GNGGA,035921.200,2500.7913145,N,12132.4418020,E,4,41,0.66,16.784,M,15.25,M,1,3335*47
$GNRMC,035921.200,A,2500.7913145,N,12132.4418020,E,0.11,135.00,090324,,,R,V*1F
$GPHDT,95.426,T*09
$GNACCURACY,4.9*1B
$GNGGA,035921.300,2500.7913167,N,12132.4418019,E,4,41,0.66,16.801,M,15.25,M,1,3335*4E
$GNRMC,035921.300,A,2500.7913167,N,12132.4418019,E,0.10,135.00,090324,,,R,V*15
$GPHDT,,T*1B
$GNACCURACY,4.9*1B
$GNGGA,035921.400,2500.7913169,N,12132.4417993,E,4,41,0.66,16.804,M,15.25,M,1,3335*46
$GNRMC,035921.400,A,2500.7913169,N,12132.4417993,E,0.09,135.00,090324,,,R,V*10
$GPHDT,95.372,T*0F
$GNACCURACY,4.9*1B
$GNGGA,035921.500,2500.7913177,N,12132.4418031,E,4,41,0.66,16.831,M,15.25,M,1,3335*40
$GNRMC,035921.500,A,2500.7913177,N,12132.4418031,E,0.07,135.00,090324,,,R,V*1E
$GPHDT,,T*1B
$GNACCURACY,4.9*1B
$GNGGA,035921.600,2500.7913148,N,12132.4418023,E,4,41,0.66,16.835,M,15.25,M,0,3335*49
$GNRMC,035921.600,A,2500.7913148,N,12132.4418023,E,0.06,135.00,090324,,,R,V*13
$GPHDT,95.292,T*00
$GNACCURACY,4.9*1B
$GNGGA,035921.700,2500.7913162,N,12132.4418000,E,4,41,0.66,16.825,M,15.25,M,0,3335*40
$GNRMC,035921.700,A,2500.7913162,N,12132.4418000,E,0.06,135.00,090324,,,R,V*1B
$GPHDT,,T*1B
$GNACCURACY,4.9*1B
$GNGGA,035921.800,2500.7913155,N,12132.4417963,E,4,41,0.66,16.810,M,15.25,M,0,3335*4E
$GNRMC,035921.800,A,2500.7913155,N,12132.4417963,E,0.03,135.00,090324,,,R,V*16
$GPHDT,95.102,T*0A
$GNACCURACY,4.9*1B
$GNGGA,035921.900,2500.7913153,N,12132.4417941,E,4,41,0.66,16.810,M,15.25,M,0,3335*49
$GNRMC,035921.900,A,2500.7913153,N,12132.4417941,E,0.07,135.00,090324,,,R,V*15
$GPHDT,,T*1B
$GNACCURACY,4.9*1B
$GNGGA,035922.000,2500.7913162,N,12132.4417960,E,4,41,0.66,16.816,M,15.25,M,1,3335*45
$GNRMC,035922.000,A,2500.7913162,N,12132.4417960,E,0.07,135.00,090324,,,R,V*1E
$GPHDT,95.030,T*0A
$GNACCURACY,4.9*1B
$GNGGA,035922.100,2500.7913169,N,12132.4417962,E,4,41,0.66,16.808,M,15.25,M,1,3335*42
$GNRMC,035922.100,A,2500.7913169,N,12132.4417962,E,0.05,135.00,090324,,,R,V*14
$GPHDT,,T*1B
$GNGSA,A,3,08,194,195,199,21,02,27,07,16,26,,,1.22,0.67,1.02,1*3A
$GNGSA,A,3,88,78,77,79,,,,,,,,,1.22,0.67,1.02,2*00
$GNGSA,A,3,21,13,26,27,,,,,,,,,1.22,0.67,1.02,3*00
$GNGSA,A,3,09,23,16,40,43,07,39,25,37,,,,1.22,0.67,1.02,4*05
$GPGSV,4,1,13,08,65,347,44,194,64,050,37,195,63,117,42,50,60,167,41,1*68
$GPGSV,4,2,13,199,60,167,38,21,55,160,47,02,43,178,46,27,37,033,42,1*55
$GPGSV,4,3,13,07,37,318,39,16,29,071,40,04,21,206,26,196,20,170,30,1*52
$GPGSV,4,4,13,26,10,096,20,1*5E
$GPGSV,2,1,08,08,65,347,45,194,64,050,46,195,63,117,42,199,60,167,45,8*5A
$GPGSV,2,2,08,27,37,033,47,04,21,206,25,196,20,170,27,26,10,096,22,8*56
$GLGSV,2,1,05,88,60,036,39,78,54,028,43,77,26,105,16,79,22,330,31,1*7F
$GLGSV,2,2,05,87,07,026,16,1*46
$GAGSV,2,1,06,21,54,006,41,13,54,088,40,26,40,172,41,27,30,075,39,7*7F
$GAGSV,2,2,06,04,12,303,15,33,01,200,,7*75
$GAGSV,1,1,04,21,54,006,43,13,54,088,43,26,40,172,43,27,30,075,42,1*77
$GBGSV,3,1,12,09,74,273,41,23,71,020,45,16,71,197,44,40,62,326,41,1*76
$GBGSV,3,2,12,43,62,039,44,07,61,305,37,39,60,185,43,28,52,217,,1*71
$GBGSV,3,3,12,10,51,286,15,25,40,113,35,37,27,320,35,34,15,040,,1*7F
$GBGSV,2,1,06,23,71,020,48,40,62,326,43,43,62,039,45,39,60,185,46,4*75
$GBGSV,2,2,06,25,40,113,34,37,27,320,32,4*73
$GNACCURACY,4.9*1B
$PAIRSAT,1,25,2,0,201,3,0,200,4,0,200,5,0,200,6,0,200,7,0,201,8,0,221,9,0,200,16,0,1,20,0,200,21,0,201,22,0,200,23,0,200,24,0,200,25,0,200,26,0,220,27,0,221,28,0,200,29,0,200,30,0,200,31,0,200,194,0,21,195,0,621,196,0,600,199,0,621*68
$PAIRSAT,2,16,70,0,200,71,0,200,73,0,200,74,0,200,75,0,200,76,0,200,77,0,1,78,0,201,79,0,201,80,0,200,81,0,200,84,0,200,85,0,200,86,0,200,87,0,201,88,0,201*7F
$PAIRSAT,3,21,2,0,1200,3,0,1200,4,0,1200,5,0,200,7,0,1200,8,0,1200,9,0,1200,10,0,200,11,0,200,12,0,200,13,0,221,15,0,200,21,0,21,25,0,1000,26,0,1021,27,0,1021,30,0,1000,31,0,1000,33,0,1200,34,0,1000,36,0,1200*54
$PAIRSAT,4,40,3,0,400,7,0,1,9,0,201,10,0,201,11,0,200,12,0,200,13,0,200,14,0,200,16,0,201,19,0,600,20,0,600,21,0,600,22,0,600,23,0,621,24,0,400,25,0,421,26,0,400,27,0,400,28,0,421,29,0,400,30,0,400,32,0,400,33,0,400,34,0,421,35,0,400,36,0,400,37,0,421,38,0,400,39,0,421,40,0,421,41,0,400,42,0,400,43,0,421,44,0,400,45,0,400,46,0,400,59,0,400,60,0,400,61,0,400,62,0,400*43
$PAIRDGP,7,2,7,8,16,21,26,27*56
$GNGGA,035922.200,2500.7913147,N,12132.4418003,E,4,41,0.67,16.788,M,15.25,M,1,3335*4A
$GNRMC,035922.200,A,2500.7913147,N,12132.4418003,E,0.00,135.00,090324,,,R,V*1F
$GPHDT,94.860,T*06
$GNACCURACY,4.9*1B
$GNGGA,035922.300,2500.7913144,N,12132.4418031,E,4,41,0.67,16.782,M,15.25,M,1,3335*43
$GNRMC,035922.300,A,2500.7913144,N,12132.4418031,E,0.01,135.00,090324,,,R,V*1D
$GPHDT,,T*1B
$GNACCURACY,4.9*1B
$GNGGA,035922.400,2500.7913158,N,12132.4418005,E,4,41,0.67,16.793,M,15.25,M,1,3335*4E
$GNRMC,035922.400,A,2500.7913158,N,12132.4418005,E,0.01,135.00,090324,,,R,V*10
$GPHDT,95.085,T*04
$GNACCURACY,4.9*1B
$GNGGA,035922.500,2500.7913152,N,12132.4418014,E,4,41,0.67,16.782,M,15.25,M,1,3335*45
$GNRMC,035922.500,A,2500.7913152,N,12132.4418014,E,0.00,135.00,090324,,,R,V*1A
$GPHDT,,T*1B
$GNACCURACY,4.9*1B
$GNGGA,035922.600,2500.7913158,N,12132.4417976,E,4,41,0.67,16.785,M,15.25,M,0,3335*48
$GNRMC,035922.600,A,2500.7913158,N,12132.4417976,E,0.00,135.00,090324,,,R,V*11
$GPHDT,95.232,T*0A
$GNACCURACY,4.9*1B
$GNGGA,035922.700,2500.7913150,N,12132.4418018,E,4,41,0.67,16.794,M,15.25,M,0,3335*4F
$GNRMC,035922.700,A,2500.7913150,N,12132.4418018,E,0.00,135.00,090324,,,R,V*16
$GPHDT,,T*1B
$GNACCURACY,5.0*13
$GNGGA,035922.800,2500.7913146,N,12132.4417994,E,4,41,0.67,16.791,M,15.25,M,0,3335*40
$GNRMC,035922.800,A,2500.7913146,N,12132.4417994,E,0.04,135.00,090324,,,R,V*18
$GPHDT,94.981,T*08
$GNACCURACY,5.0*13
$GNGGA,035922.900,2500.7913134,N,12132.4417984,E,4,41,0.67,16.781,M,15.25,M,0,3335*44
$GNRMC,035922.900,A,2500.7913134,N,12132.4417984,E,0.05,135.00,090324,,,R,V*1C
$GPHDT,,T*1B
$GNACCURACY,5.0*13
$GNGGA,035923.000,2500.7913145,N,12132.4417987,E,4,41,0.67,16.786,M,15.25,M,1,3335*4F
$GNRMC,035923.000,A,2500.7913145,N,12132.4417987,E,0.03,135.00,090324,,,R,V*17
$GPHDT,94.948,T*0D
$GNACCURACY,5.0*13
$GNGGA,035923.100,2500.7913122,N,12132.4418021,E,4,41,0.67,16.795,M,15.25,M,1,3335*47
$GNRMC,035923.100,A,2500.7913122,N,12132.4418021,E,0.03,135.00,090324,,,R,V*1D
$GPHDT,,T*1B
$GNGSA,A,3,08,194,195,199,21,02,27,07,16,26,,,1.22,0.67,1.02,1*3A
$GNGSA,A,3,88,78,77,79,,,,,,,,,1.22,0.67,1.02,2*00
$GNGSA,A,3,21,13,26,27,,,,,,,,,1.22,0.67,1.02,3*00
$GNGSA,A,3,09,23,16,40,43,07,39,25,37,,,,1.22,0.67,1.02,4*05
$GPGSV,4,1,13,08,65,347,44,194,64,051,37,195,63,117,42,50,60,167,41,1*69
$GPGSV,4,2,13,199,60,167,38,21,55,160,47,02,43,178,46,27,37,033,42,1*55
$GPGSV,4,3,13,07,37,318,38,16,29,071,41,04,21,206,26,196,20,170,29,1*5A
$GPGSV,4,4,13,26,10,096,20,1*5E
$GPGSV,2,1,08,08,65,347,45,194,64,051,46,195,63,117,42,199,60,167,45,8*5B
$GPGSV,2,2,08,27,37,033,47,04,21,206,24,196,20,170,27,26,10,096,22,8*57
$GLGSV,2,1,05,88,60,036,39,78,54,028,43,77,26,105,16,79,22,330,28,1*77
$GLGSV,2,2,05,87,07,026,17,1*47
$GAGSV,2,1,06,21,54,006,41,13,54,088,40,26,40,172,41,27,30,075,39,7*7F
$GAGSV,2,2,06,04,12,303,16,33,01,200,,7*76
$GAGSV,1,1,04,13,54,088,43,21,54,006,43,26,40,172,43,27,30,075,42,1*77
$GBGSV,3,1,12,09,74,273,41,23,71,020,45,16,71,197,44,40,62,326,41,1*76
$GBGSV,3,2,12,43,62,039,44,07,61,305,37,39,60,185,42,28,52,217,,1*70
$GBGSV,3,3,12,10,51,286,13,25,40,113,35,37,27,320,35,34,15,040,,1*79
$GBGSV,2,1,05,23,71,020,48,40,62,326,43,39,60,185,46,25,40,113,34,4*79
$GBGSV,2,2,05,37,27,320,34,4*41
$GNACCURACY,5.1*12
$PAIRSAT,1,25,2,0,201,3,0,200,4,0,200,5,0,200,6,0,200,7,0,201,8,0,221,9,0,200,16,0,1,20,0,200,21,0,201,22,0,200,23,0,200,24,0,200,25,0,200,26,0,220,27,0,221,28,0,200,29,0,200,30,0,200,31,0,200,194,0,21,195,0,621,196,0,600,199,0,621*68
$PAIRSAT,2,16,70,0,200,71,0,200,73,0,200,74,0,200,75,0,200,76,0,200,77,0,1,78,0,201,79,0,201,80,0,200,81,0,200,84,0,200,85,0,200,86,0,200,87,0,201,88,0,201*7F
$PAIRSAT,3,21,2,0,1200,3,0,1200,4,0,1200,5,0,200,7,0,1200,8,0,1200,9,0,1200,10,0,200,11,0,200,12,0,200,13,0,221,15,0,200,21,0,21,25,0,1000,26,0,1021,27,0,1021,30,0,1000,31,0,1000,33,0,1200,34,0,1000,36,0,1200*54
$PAIRSAT,4,40,3,0,400,7,0,1,9,0,201,10,0,201,11,0,200,12,0,200,13,0,200,14,0,200,16,0,201,19,0,600,20,0,600,21,0,600,22,0,600,23,0,621,24,0,400,25,0,421,26,0,400,27,0,400,28,0,421,29,0,400,30,0,400,32,0,400,33,0,400,34,0,421,35,0,400,36,0,400,37,0,421,38,0,400,39,0,421,40,0,421,41,0,400,42,0,400,43,0,421,44,0,400,45,0,400,46,0,400,59,0,400,60,0,400,61,0,400,62,0,400*43
$PAIRDGP,7,2,7,8,16,21,26,27*56
$GNGGA,035923.200,2500.7913121,N,12132.4418029,E,4,41,0.67,16.803,M,15.25,M,1,3335*4F
$GNRMC,035923.200,A,2500.7913121,N,12132.4418029,E,0.04,135.00,090324,,,R,V*12
$GPHDT,95.123,T*09
$GNACCURACY,5.0*13
$GNGGA,035923.300,2500.7913134,N,12132.4417959,E,4,41,0.67,16.808,M,15.25,M,1,3335*40
$GNRMC,035923.300,A,2500.7913134,N,12132.4417959,E,0.01,135.00,090324,,,R,V*13
$GPHDT,,T*1B
$GNACCURACY,5.0*13
$GNGGA,035923.400,2500.7913129,N,12132.4417966,E,4,41,0.67,16.805,M,15.25,M,1,3335*4A
$GNRMC,035923.400,A,2500.7913129,N,12132.4417966,E,0.02,135.00,090324,,,R,V*17
$GPHDT,94.943,T*06
$GNACCURACY,5.0*13
$GNGGA,035923.500,2500.7913137,N,12132.4417953,E,4,41,0.67,16.812,M,15.25,M,0,3335*45
$GNRMC,035923.500,A,2500.7913137,N,12132.4417953,E,0.01,135.00,090324,,,R,V*1C
$GPHDT,,T*1B
$GNACCURACY,5.0*13
$GNGGA,035923.600,2500.7913139,N,12132.4417972,E,4,41,0.67,16.814,M,15.25,M,0,3335*4D
$GNRMC,035923.600,A,2500.7913139,N,12132.4417972,E,0.03,135.00,090324,,,R,V*10
$GPHDT,94.886,T*0E
$GNACCURACY,5.0*13
$GNGGA,035923.700,2500.7913156,N,12132.4417957,E,4,41,0.67,16.823,M,15.25,M,0,3335*46
$GNRMC,035923.700,A,2500.7913156,N,12132.4417957,E,0.04,135.00,090324,,,R,V*18
$GPHDT,,T*1B
$GNACCURACY,5.0*13
$GNGGA,035923.800,2500.7913139,N,12132.4417986,E,4,41,0.67,16.820,M,15.25,M,0,3335*4F
$GNRMC,035923.800,A,2500.7913139,N,12132.4417986,E,0.03,135.00,090324,,,R,V*15
$GPHDT,94.948,T*0D
$GNACCURACY,5.0*13
$GNGGA,035923.900,2500.7913157,N,12132.4417985,E,4,41,0.67,16.818,M,15.25,M,0,3335*4E
$GNRMC,035923.900,A,2500.7913157,N,12132.4417985,E,0.05,135.00,090324,,,R,V*19
$GPHDT,,T*1B
$GNACCURACY,5.0*13
$GNGGA,035924.000,2500.7913156,N,12132.4417974,E,4,41,0.67,16.825,M,15.25,M,1,3335*40
$GNRMC,035924.000,A,2500.7913156,N,12132.4417974,E,0.02,135.00,090324,,,R,V*1F
$GPHDT,95.137,T*0C
$GNACCURACY,5.0*13
$GNGGA,035924.100,2500.7913152,N,12132.4417982,E,4,41,0.67,16.820,M,15.25,M,1,3335*49
$GNRMC,035924.100,A,2500.7913152,N,12132.4417982,E,0.02,135.00,090324,,,R,V*13
$GPHDT,,T*1B
$GNGSA,A,3,08,194,195,199,21,02,27,07,16,26,,,1.22,0.67,1.02,1*3A
$GNGSA,A,3,88,78,77,79,,,,,,,,,1.22,0.67,1.02,2*00
$GNGSA,A,3,21,13,26,27,,,,,,,,,1.22,0.67,1.02,3*00
$GNGSA,A,3,09,23,16,40,43,07,39,25,37,,,,1.22,0.67,1.02,4*05
$GPGSV,4,1,13,08,65,347,44,194,64,051,37,195,63,117,42,50,60,167,41,1*69
$GPGSV,4,2,13,199,60,167,38,21,55,160,47,02,43,178,46,27,37,033,42,1*55
$GPGSV,4,3,13,07,37,318,37,16,29,071,41,04,21,206,26,196,20,170,30,1*5D
$GPGSV,4,4,13,26,10,096,20,1*5E
$GPGSV,2,1,08,08,65,347,45,194,64,051,46,195,63,117,42,199,60,167,45,8*5B
$GPGSV,2,2,08,27,37,033,47,04,21,206,25,196,20,170,26,26,10,096,21,8*54
$GLGSV,2,1,05,88,60,036,40,78,54,028,44,77,26,105,16,79,22,330,26,1*70
$GLGSV,2,2,05,87,07,026,16,1*46
$GAGSV,2,1,06,21,54,006,41,13,54,088,40,26,40,172,41,27,30,075,39,7*7F
$GAGSV,2,2,06,04,12,302,15,33,01,200,,7*74
$GAGSV,1,1,04,21,54,006,43,13,54,088,43,26,40,172,43,27,30,075,42,1*77
$GBGSV,3,1,12,09,74,273,41,23,71,020,45,16,71,197,43,40,62,326,41,1*71
$GBGSV,3,2,12,43,62,039,44,07,61,305,37,39,60,185,42,28,52,217,,1*70
$GBGSV,3,3,12,10,51,286,13,25,40,113,37,37,27,320,35,34,15,040,,1*7B
$GBGSV,2,1,06,23,71,020,48,40,62,326,43,43,62,039,45,39,60,185,46,4*75
$GBGSV,2,2,06,25,40,113,35,37,27,320,35,4*75
$GNACCURACY,5.0*13
$PAIRSAT,1,25,2,0,201,3,0,200,4,0,200,5,0,200,6,0,200,7,0,201,8,0,221,9,0,200,16,0,1,20,0,200,21,0,201,22,0,200,23,0,200,24,0,200,25,0,200,26,0,220,27,0,221,28,0,200,29,0,200,30,0,200,31,0,200,194,0,21,195,0,621,196,0,600,199,0,621*68
$PAIRSAT,2,16,70,0,200,71,0,200,73,0,200,74,0,200,75,0,200,76,0,200,77,0,1,78,0,201,79,0,201,80,0,200,81,0,200,84,0,200,85,0,200,86,0,200,87,0,201,88,0,201*7F
$PAIRSAT,3,21,2,0,1200,3,0,1200,4,0,1200,5,0,200,7,0,1200,8,0,1200,9,0,1200,10,0,200,11,0,200,12,0,200,13,0,221,15,0,200,21,0,21,25,0,1000,26,0,1021,27,0,1021,30,0,1000,31,0,1000,33,0,1200,34,0,1000,36,0,1200*54
$PAIRSAT,4,40,3,0,400,7,0,1,9,0,201,10,0,201,11,0,200,12,0,200,13,0,200,14,0,200,16,0,201,19,0,600,20,0,600,21,0,600,22,0,600,23,0,621,24,0,400,25,0,421,26,0,400,27,0,400,28,0,421,29,0,400,30,0,400,32,0,400,33,0,400,34,0,421,35,0,400,36,0,400,37,0,421,38,0,400,39,0,421,40,0,421,41,0,400,42,0,400,43,0,421,44,0,400,45,0,400,46,0,400,59,0,400,60,0,400,61,0,400,62,0,400*43
$PAIRDGP,7,2,7,8,16,21,26,27*56
$GNGGA,035924.200,2500.7913164,N,12132.4417966,E,4,41,0.67,16.800,M,15.25,M,1,3335*47
$GNRMC,035924.200,A,2500.7913164,N,12132.4417966,E,0.02,135.00,090324,,,R,V*1F
$GPHDT,94.964,T*03
$GNACCURACY,5.0*13
$GNGGA,035924.300,2500.7913177,N,12132.4417948,E,4,41,0.67,16.811,M,15.25,M,1,3335*48
$GNRMC,035924.300,A,2500.7913177,N,12132.4417948,E,0.01,135.00,090324,,,R,V*13
$GPHDT,,T*1B
$GNACCURACY,5.0*13
$GNGGA,035924.400,2500.7913155,N,12132.4417943,E,4,41,0.67,16.807,M,15.25,M,1,3335*43
$GNRMC,035924.400,A,2500.7913155,N,12132.4417943,E,0.02,135.00,090324,,,R,V*1C
$GPHDT,95.035,T*0F
$GNACCURACY,5.0*13
$GNGGA,035924.500,2500.7913172,N,12132.4417961,E,4,41,0.67,16.804,M,15.25,M,1,3335*44
$GNRMC,035924.500,A,2500.7913172,N,12132.4417961,E,0.02,135.00,090324,,,R,V*18
$GPHDT,,T*1B
$GNACCURACY,5.0*13
$GNGGA,035924.600,2500.7913144,N,12132.4417991,E,4,41,0.67,16.792,M,15.25,M,1,3335*4D
$GNRMC,035924.600,A,2500.7913144,N,12132.4417991,E,0.01,135.00,090324,,,R,V*12
$GPHDT,94.865,T*03
$GNACCURACY,5.0*13
$GNGGA,035924.700,2500.7913167,N,12132.4417956,E,4,41,0.67,16.785,M,15.25,M,1,3335*40
$GNRMC,035924.700,A,2500.7913167,N,12132.4417956,E,0.01,135.00,090324,,,R,V*19
$GPHDT,,T*1B
$GNACCURACY,5.0*13
$GNGGA,035924.800,2500.7913161,N,12132.4417980,E,4,41,0.67,16.782,M,15.25,M,1,3335*45
$GNRMC,035924.800,A,2500.7913161,N,12132.4417980,E,0.04,135.00,090324,,,R,V*1E
$GPHDT,95.063,T*0C
$GNACCURACY,5.0*13
$GNGGA,035924.900,2500.7913134,N,12132.4417971,E,4,41,0.67,16.792,M,15.25,M,0,3335*4A
$GNRMC,035924.900,A,2500.7913134,N,12132.4417971,E,0.04,135.00,090324,,,R,V*11
$GPHDT,,T*1B
$GNACCURACY,5.0*13
$GNGGA,035925.000,2500.7913164,N,12132.4417916,E,4,41,0.67,16.795,M,15.25,M,1,3335*40
$GNRMC,035925.000,A,2500.7913164,N,12132.4417916,E,0.03,135.00,090324,,,R,V*1A
$GPHDT,94.891,T*08
$GNACCURACY,5.0*13
$GNGGA,035925.100,2500.7913160,N,12132.4417930,E,4,41,0.67,16.795,M,15.25,M,1,3335*41
$GNRMC,035925.100,A,2500.7913160,N,12132.4417930,E,0.02,135.00,090324,,,R,V*1A
$GPHDT,,T*1B
$GNGSA,A,3,08,194,195,199,21,02,27,07,16,26,,,1.22,0.67,1.02,1*3A
$GNGSA,A,3,88,78,77,79,,,,,,,,,1.22,0.67,1.02,2*00
$GNGSA,A,3,21,13,26,27,,,,,,,,,1.22,0.67,1.02,3*00
$GNGSA,A,3,09,23,16,40,43,07,39,25,37,,,,1.22,0.67,1.02,4*05
$GPGSV,4,1,13,08,65,347,44,194,64,051,37,195,63,117,42,50,60,167,41,1*69
$GPGSV,4,2,13,199,60,167,38,21,55,160,47,02,43,178,46,27,37,033,42,1*55
$GPGSV,4,3,13,07,37,318,40,16,29,071,41,04,21,206,26,196,20,170,31,1*5C
$GPGSV,4,4,13,26,10,096,22,1*5C
$GPGSV,2,1,08,08,65,347,45,194,64,051,46,195,63,117,43,199,60,167,46,8*59
$GPGSV,2,2,08,27,37,033,47,04,21,206,25,196,20,170,26,26,10,096,22,8*57
$GLGSV,2,1,05,88,60,036,41,78,54,028,44,77,26,105,17,79,22,330,25,1*73
$GLGSV,2,2,05,87,07,026,16,1*46
$GAGSV,2,1,06,21,54,006,41,13,54,088,41,26,40,172,41,27,30,075,39,7*7E
$GAGSV,2,2,06,04,12,302,15,33,01,200,,7*74
$GAGSV,1,1,04,13,54,088,43,21,54,006,43,26,40,172,43,27,30,075,42,1*77
$GBGSV,3,1,12,09,74,273,41,23,71,020,45,16,71,197,44,40,62,326,41,1*76
$GBGSV,3,2,12,43,62,039,44,07,61,305,37,39,60,185,42,28,52,217,,1*70
$GBGSV,3,3,12,10,51,286,13,25,40,113,35,37,27,320,36,34,15,040,,1*7A
$GBGSV,2,1,05,23,71,020,48,40,62,326,43,39,60,185,46,25,40,113,34,4*79
$GBGSV,2,2,05,37,27,320,36,4*43
$GNACCURACY,5.1*12
$PAIRSAT,1,25,2,0,201,3,0,200,4,0,200,5,0,200,6,0,200,7,0,201,8,0,221,9,0,200,16,0,1,20,0,200,21,0,201,22,0,200,23,0,200,24,0,200,25,0,200,26,0,220,27,0,221,28,0,200,29,0,200,30,0,200,31,0,200,194,0,21,195,0,621,196,0,600,199,0,621*68
$PAIRSAT,2,16,70,0,200,71,0,200,73,0,200,74,0,200,75,0,200,76,0,200,77,0,1,78,0,201,79,0,201,80,0,200,81,0,200,84,0,200,85,0,200,86,0,200,87,0,201,88,0,201*7F
$PAIRSAT,3,21,2,0,1200,3,0,1200,4,0,1200,5,0,200,7,0,1200,8,0,1200,9,0,1200,10,0,200,11,0,200,12,0,200,13,0,221,15,0,200,21,0,21,25,0,1000,26,0,1021,27,0,1021,30,0,1000,31,0,1000,33,0,1200,34,0,1000,36,0,1200*54
$PAIRSAT,4,40,3,0,400,7,0,1,9,0,201,10,0,201,11,0,200,12,0,200,13,0,200,14,0,200,16,0,201,19,0,600,20,0,600,21,0,600,22,0,600,23,0,621,24,0,400,25,0,421,26,0,400,27,0,400,28,0,421,29,0,400,30,0,400,32,0,400,33,0,400,34,0,421,35,0,400,36,0,400,37,0,421,38,0,400,39,0,421,40,0,421,41,0,400,42,0,400,43,0,421,44,0,400,45,0,400,46,0,400,59,0,400,60,0,400,61,0,400,62,0,400*43
$PAIRDGP,7,2,7,8,16,21,26,27*56
$GNGGA,035925.200,2500.7913156,N,12132.4417929,E,4,41,0.67,16.803,M,15.25,M,1,3335*4F
$GNRMC,035925.200,A,2500.7913156,N,12132.4417929,E,0.02,135.00,090324,,,R,V*14
$GPHDT,94.990,T*08
$GNACCURACY,5.1*12
$GNGGA,035925.300,2500.7913146,N,12132.4417982,E,4,41,0.67,16.785,M,15.25,M,1,3335*4F
$GNRMC,035925.300,A,2500.7913146,N,12132.4417982,E,0.02,135.00,090324,,,R,V*15
$GPHDT,,T*1B
$GNACCURACY,5.1*12
$GNGGA,035925.400,2500.7913134,N,12132.4417964,E,4,41,0.67,16.789,M,15.25,M,1,3335*49
$GNRMC,035925.400,A,2500.7913134,N,12132.4417964,E,0.02,135.00,090324,,,R,V*1F
$GPHDT,94.838,T*0B
$GNACCURACY,5.1*12
$GNGGA,035925.500,2500.7913151,N,12132.4417957,E,4,41,0.67,16.784,M,15.25,M,0,3335*47
$GNRMC,035925.500,A,2500.7913151,N,12132.4417957,E,0.02,135.00,090324,,,R,V*1D
$GPHDT,,T*1B
$GNACCURACY,5.1*12
$GNGGA,035925.600,2500.7913155,N,12132.4417984,E,4,41,0.67,16.800,M,15.25,M,0,3335*4D
$GNRMC,035925.600,A,2500.7913155,N,12132.4417984,E,0.01,135.00,090324,,,R,V*17
$GPHDT,95.056,T*0A
$GNACCURACY,5.1*12
$GNGGA,035925.700,2500.7913152,N,12132.4417997,E,4,41,0.67,16.802,M,15.25,M,0,3335*4B
$GNRMC,035925.700,A,2500.7913152,N,12132.4417997,E,0.01,135.00,090324,,,R,V*13
$GPHDT,,T*1B
$GNACCURACY,5.1*12
$GNGGA,035925.800,2500.7913159,N,12132.4418034,E,4,41,0.67,16.800,M,15.25,M,0,3335*42
$GNRMC,035925.800,A,2500.7913159,N,12132.4418034,E,0.01,135.00,090324,,,R,V*18
$GPHDT,95.232,T*0A
$GNACCURACY,5.1*12
$GNGGA,035925.900,2500.7913161,N,12132.4418017,E,4,41,0.67,16.792,M,15.25,M,0,3335*4D
$GNRMC,035925.900,A,2500.7913161,N,12132.4418017,E,0.10,135.00,090324,,,R,V*13
$GPHDT,,T*1B
$GNACCURACY,5.1*12
$GNGGA,035926.000,2500.7913154,N,12132.4418078,E,4,41,0.67,16.820,M,15.25,M,1,3335*4F
$GNRMC,035926.000,A,2500.7913154,N,12132.4418078,E,0.05,135.00,090324,,,R,V*12
$GPHDT,95.171,T*0E
$GNACCURACY,5.1*12
$GNGGA,035926.100,2500.7913153,N,12132.4418057,E,4,41,0.67,16.815,M,15.25,M,1,3335*42
$GNRMC,035926.100,A,2500.7913153,N,12132.4418057,E,0.04,135.00,090324,,,R,V*18
$GPHDT,,T*1B
$GNGSA,A,3,08,194,195,199,21,02,27,07,16,26,,,1.22,0.67,1.02,1*3A
$GNGSA,A,3,88,78,77,79,,,,,,,,,1.22,0.67,1.02,2*00
$GNGSA,A,3,21,13,26,27,,,,,,,,,1.22,0.67,1.02,3*00
$GNGSA,A,3,09,23,16,40,43,07,39,25,37,,,,1.22,0.67,1.02,4*05
$GPGSV,4,1,13,08,65,347,44,194,64,051,38,195,63,117,42,50,60,167,41,1*66
$GPGSV,4,2,13,199,60,167,38,21,55,160,47,02,43,178,46,27,37,033,42,1*55
$GPGSV,4,3,13,07,37,318,36,16,29,071,40,04,21,206,26,196,20,170,31,1*5C
$GPGSV,4,4,13,26,10,096,22,1*5C
$GPGSV,2,1,08,08,65,347,45,194,64,051,46,195,63,117,43,199,60,167,46,8*59
$GPGSV,2,2,08,27,37,033,47,04,21,206,25,196,20,170,26,26,10,096,21,8*54
$GLGSV,2,1,05,88,60,036,41,78,54,028,44,77,26,105,17,79,22,330,24,1*72
$GLGSV,2,2,05,87,07,026,16,1*46
$GAGSV,2,1,06,21,54,006,40,13,54,088,41,26,40,172,41,27,30,075,39,7*7F
$GAGSV,2,2,06,04,12,302,13,33,01,200,,7*72
$GAGSV,1,1,04,21,54,006,43,13,54,088,43,26,40,172,43,27,30,075,42,1*77
$GBGSV,3,1,12,09,74,273,41,23,71,020,45,16,71,197,44,40,62,326,41,1*76
$GBGSV,3,2,12,43,62,039,45,07,61,305,37,39,60,185,42,28,52,217,,1*71
$GBGSV,3,3,12,10,51,286,15,25,40,113,35,37,27,320,36,34,15,040,,1*7C
$GBGSV,2,1,06,23,71,020,48,40,62,326,43,43,62,039,45,39,60,185,46,4*75
$GBGSV,2,2,06,25,40,113,36,37,27,320,35,4*76
$GNACCURACY,5.1*12
$PAIRSAT,1,25,2,0,201,3,0,200,4,0,200,5,0,200,6,0,200,7,0,201,8,0,221,9,0,200,16,0,1,20,0,200,21,0,201,22,0,200,23,0,200,24,0,200,25,0,200,26,0,220,27,0,221,28,0,200,29,0,200,30,0,200,31,0,200,194,0,21,195,0,621,196,0,600,199,0,621*68
$PAIRSAT,2,17,70,0,200,71,0,200,73,0,200,74,0,200,75,0,200,76,0,200,77,0,1,78,0,201,79,0,201,80,0,200,81,0,200,83,0,200,84,0,200,85,0,200,86,0,200,87,0,201,88,0,201*5B
$PAIRSAT,3,21,2,0,1200,3,0,1200,4,0,1200,5,0,200,7,0,1200,8,0,1200,9,0,1200,10,0,200,11,0,200,12,0,200,13,0,221,15,0,200,21,0,21,25,0,1000,26,0,1021,27,0,1021,30,0,1000,31,0,1000,33,0,1200,34,0,1000,36,0,1200*54
$PAIRSAT,4,40,3,0,400,7,0,1,9,0,201,10,0,201,11,0,200,12,0,200,13,0,200,14,0,200,16,0,201,19,0,600,20,0,600,21,0,600,22,0,600,23,0,621,24,0,400,25,0,421,26,0,400,27,0,400,28,0,421,29,0,400,30,0,400,32,0,400,33,0,400,34,0,421,35,0,400,36,0,400,37,0,421,38,0,400,39,0,421,40,0,421,41,0,400,42,0,400,43,0,421,44,0,400,45,0,400,46,0,400,59,0,400,60,0,400,61,0,400,62,0,400*43
$PAIRDGP,7,2,7,8,16,21,26,27*56
$GNGGA,035926.200,2500.7913147,N,12132.4418094,E,4,41,0.67,16.820,M,15.25,M,1,3335*4D
$GNRMC,035926.200,A,2500.7913147,N,12132.4418094,E,0.03,135.00,090324,,,R,V*16
$GPHDT,95.153,T*0E
$GNACCURACY,5.1*12
$GNGGA,035926.300,2500.7913153,N,12132.4418074,E,4,41,0.67,16.818,M,15.25,M,1,3335*4C
$GNRMC,035926.300,A,2500.7913153,N,12132.4418074,E,0.03,135.00,090324,,,R,V*1C
$GPHDT,,T*1B
$GNACCURACY,5.1*12
$GNGGA,035926.400,2500.7913141,N,12132.4418053,E,4,41,0.67,16.813,M,15.25,M,1,3335*46
$GNRMC,035926.400,A,2500.7913141,N,12132.4418053,E,0.03,135.00,090324,,,R,V*1D
$GPHDT,94.848,T*0C
$GNACCURACY,5.1*12
$GNGGA,035926.500,2500.7913163,N,12132.4417981,E,4,41,0.67,16.799,M,15.25,M,0,3335*42
$GNRMC,035926.500,A,2500.7913163,N,12132.4417981,E,0.02,135.00,090324,,,R,V*14
$GPHDT,,T*1B
$GNACCURACY,5.1*12
$GNGGA,035926.600,2500.7913169,N,12132.4418007,E,4,41,0.67,16.794,M,15.25,M,0,3335*4E
$GNRMC,035926.600,A,2500.7913169,N,12132.4418007,E,0.01,135.00,090324,,,R,V*16
$GPHDT,95.001,T*08
$GNACCURACY,5.2*11
$GNGGA,035926.700,2500.7913183,N,12132.4417943,E,4,41,0.67,16.813,M,15.25,M,0,3335*4D
$GNRMC,035926.700,A,2500.7913183,N,12132.4417943,E,0.02,135.00,090324,,,R,V*16
$GPHDT,,T*1B
$GNACCURACY,5.1*12
$GNGGA,035926.800,2500.7913171,N,12132.4417952,E,4,41,0.67,16.824,M,15.25,M,0,3335*4B
$GNRMC,035926.800,A,2500.7913171,N,12132.4417952,E,0.02,135.00,090324,,,R,V*14
$GPHDT,95.193,T*02
$GNACCURACY,5.1*12
$GNGGA,035926.900,2500.7913170,N,12132.4417999,E,4,41,0.67,16.785,M,15.25,M,0,3335*48
$GNRMC,035926.900,A,2500.7913170,N,12132.4417999,E,0.02,135.00,090324,,,R,V*13
$GPHDT,,T*1B
$GNACCURACY,5.1*12
$GNGGA,035927.000,2500.7913153,N,12132.4417980,E,4,41,0.67,16.790,M,15.25,M,1,3335*4C
$GNRMC,035927.000,A,2500.7913153,N,12132.4417980,E,0.02,135.00,090324,,,R,V*12
$GPHDT,95.036,T*0C
$GNACCURACY,5.1*12
$GNGGA,035927.100,2500.7913175,N,12132.4417930,E,4,41,0.67,16.804,M,15.25,M,1,3335*40
$GNRMC,035927.100,A,2500.7913175,N,12132.4417930,E,0.02,135.00,090324,,,R,V*1C
$GPHDT,,T*1B
$GNGSA,A,3,08,194,195,199,21,02,07,27,16,26,,,1.22,0.67,1.02,1*3A
$GNGSA,A,3,88,78,77,79,,,,,,,,,1.22,0.67,1.02,2*00
$GNGSA,A,3,21,13,26,27,,,,,,,,,1.22,0.67,1.02,3*00
$GNGSA,A,3,09,23,16,40,43,07,39,25,37,,,,1.22,0.67,1.02,4*05
$GPGSV,4,1,13,08,65,347,44,194,64,051,38,195,63,117,42,199,60,167,38,1*5C
$GPGSV,4,2,13,50,60,167,41,21,55,160,47,02,43,178,46,07,37,318,39,1*6B
$GPGSV,4,3,13,27,37,033,42,16,29,071,41,04,21,206,26,196,20,170,31,1*56
$GPGSV,4,4,13,26,10,096,22,1*5C
$GPGSV,2,1,08,08,65,347,45,194,64,051,46,195,63,117,43,199,60,167,46,8*59
$GPGSV,2,2,08,27,37,033,47,04,21,206,26,196,20,170,28,26,10,096,21,8*59
$GLGSV,2,1,05,88,60,036,40,78,54,028,44,77,26,105,17,79,22,330,24,1*73
$GLGSV,2,2,05,87,07,026,15,1*45
$GAGSV,2,1,06,21,54,006,40,13,54,088,41,26,40,172,41,27,30,075,39,7*7F
$GAGSV,2,2,06,04,12,302,13,33,01,200,,7*72
$GAGSV,1,1,04,13,54,088,43,21,54,006,44,26,40,172,43,27,30,075,42,1*70
$GBGSV,4,1,13,09,74,273,41,23,71,020,45,16,71,197,44,40,62,326,41,1*70
$GBGSV,4,2,13,43,62,039,45,07,61,305,37,39,60,185,43,28,52,217,,1*76
$GBGSV,4,3,13,10,51,286,13,25,40,113,35,37,27,320,35,34,15,040,,1*7F
$GBGSV,4,4,13,06,,,19,1*7A
$GBGSV,2,1,05,23,71,020,48,40,62,326,43,39,60,185,46,25,40,113,36,4*7B
$GBGSV,2,2,05,37,27,320,37,4*42
$GNACCURACY,5.1*12
$PAIRSAT,1,25,2,0,201,3,0,200,4,0,200,5,0,200,6,0,200,7,0,201,8,0,221,9,0,200,16,0,1,20,0,200,21,0,201,22,0,200,23,0,200,24,0,200,25,0,200,26,0,220,27,0,221,28,0,200,29,0,200,30,0,200,31,0,200,194,0,21,195,0,621,196,0,600,199,0,621*68
$PAIRSAT,2,17,70,0,200,71,0,200,73,0,200,74,0,200,75,0,200,76,0,200,77,0,1,78,0,201,79,0,201,80,0,200,81,0,200,83,0,200,84,0,200,85,0,200,86,0,200,87,0,201,88,0,201*5B
$PAIRSAT,3,21,2,0,1200,3,0,1200,4,0,1200,5,0,200,7,0,1200,8,0,1200,9,0,1200,10,0,200,11,0,200,12,0,200,13,0,221,15,0,200,21,0,21,25,0,1000,26,0,1021,27,0,1021,30,0,1000,31,0,1000,33,0,1200,34,0,1000,36,0,1200*54
$PAIRSAT,4,40,3,0,400,7,0,1,9,0,201,10,0,201,11,0,200,12,0,200,13,0,200,14,0,200,16,0,201,19,0,600,20,0,600,21,0,600,22,0,600,23,0,621,24,0,400,25,0,421,26,0,400,27,0,400,28,0,421,29,0,400,30,0,400,32,0,400,33,0,400,34,0,421,35,0,400,36,0,400,37,0,421,38,0,400,39,0,421,40,0,421,41,0,400,42,0,400,43,0,421,44,0,400,45,0,400,46,0,400,59,0,400,60,0,400,61,0,400,62,0,400*43
$PAIRDGP,7,2,7,8,16,21,26,27*56
$GNGGA,035927.200,2500.7913172,N,12132.4417957,E,4,41,0.67,16.793,M,15.25,M,1,3335*44
$GNRMC,035927.200,A,2500.7913172,N,12132.4417957,E,0.02,135.00,090324,,,R,V*19
$GPHDT,95.196,T*07
$GNACCURACY,5.1*12
$GNGGA,035927.300,2500.7913181,N,12132.4417931,E,4,41,0.67,16.783,M,15.25,M,1,3335*48
$GNRMC,035927.300,A,2500.7913181,N,12132.4417931,E,0.02,135.00,090324,,,R,V*14
$GPHDT,,T*1B
$GNACCURACY,5.1*12
$GNGGA,035927.400,2500.7913177,N,12132.4417954,E,4,41,0.67,16.784,M,15.25,M,1,3335*42
$GNRMC,035927.400,A,2500.7913177,N,12132.4417954,E,0.02,135.00,090324,,,R,V*19
$GPHDT,95.341,T*0F
$GNACCURACY,5.1*12
$GNGGA,035927.500,2500.7913175,N,12132.4417974,E,4,41,0.67,16.780,M,15.25,M,1,3335*47
$GNRMC,035927.500,A,2500.7913175,N,12132.4417974,E,0.02,135.00,090324,,,R,V*18
$GPHDT,,T*1B
$GNACCURACY,5.2*11
$GNGGA,035927.600,2500.7913175,N,12132.4417912,E,4,41,0.67,16.778,M,15.25,M,1,3335*43
$GNRMC,035927.600,A,2500.7913175,N,12132.4417912,E,0.02,135.00,090324,,,R,V*1B
$GPHDT,95.050,T*0C
$GNACCURACY,5.1*12
$GNGGA,035927.700,2500.7913163,N,12132.4417918,E,4,41,0.67,16.782,M,15.25,M,0,3335*4B
$GNRMC,035927.700,A,2500.7913163,N,12132.4417918,E,0.02,135.00,090324,,,R,V*17
$GPHDT,,T*1B
$GNACCURACY,5.1*12
$GNGGA,035927.800,2500.7913158,N,12132.4417955,E,4,41,0.67,16.791,M,15.25,M,0,3335*47
$GNRMC,035927.800,A,2500.7913158,N,12132.4417955,E,0.06,135.00,090324,,,R,V*1D
$GPHDT,95.195,T*04
$GNACCURACY,5.2*11
$GNGGA,035927.900,2500.7913161,N,12132.4417996,E,4,41,0.67,16.781,M,15.25,M,0,3335*42
$GNRMC,035927.900,A,2500.7913161,N,12132.4417996,E,0.15,135.00,090324,,,R,V*1B
$GPHDT,,T*1B
$GNACCURACY,5.2*11
$GNGGA,035928.000,2500.7913156,N,12132.4418021,E,4,41,0.67,16.778,M,15.25,M,1,3335*4D
$GNRMC,035928.000,A,2500.7913156,N,12132.4418021,E,0.12,135.00,090324,,,R,V*14
$GPHDT,95.264,T*09
$GNACCURACY,5.2*11
$GNGGA,035928.100,2500.7913159,N,12132.4418015,E,4,41,0.67,16.773,M,15.25,M,1,3335*4F
$GNRMC,035928.100,A,2500.7913159,N,12132.4418015,E,0.06,135.00,090324,,,R,V*18
$GPHDT,,T*1B
$GNGSA,A,3,08,194,195,199,21,02,27,07,16,26,,,1.22,0.67,1.02,1*3A
$GNGSA,A,3,88,78,77,79,,,,,,,,,1.22,0.67,1.02,2*00
$GNGSA,A,3,13,21,26,27,,,,,,,,,1.22,0.67,1.02,3*00
$GNGSA,A,3,09,23,16,40,43,07,39,25,37,,,,1.22,0.67,1.02,4*05
$GPGSV,4,1,13,08,65,347,45,194,64,051,38,195,63,117,42,199,60,167,38,1*5D
$GPGSV,4,2,13,50,60,167,41,21,55,160,47,02,43,178,46,27,37,033,41,1*6C
$GPGSV,4,3,13,07,37,318,39,16,29,071,41,04,21,206,25,196,20,170,31,1*51
$GPGSV,4,4,13,26,10,096,22,1*5C
$GPGSV,2,1,08,08,65,347,45,194,64,051,46,195,63,117,43,199,60,167,46,8*59
$GPGSV,2,2,08,27,37,033,47,04,21,206,24,196,20,170,27,26,10,096,21,8*54
$GLGSV,2,1,05,88,60,036,40,78,54,028,44,77,26,105,17,79,22,330,28,1*7F
$GLGSV,2,2,05,87,07,026,14,1*44
$GAGSV,2,1,05,13,54,088,41,21,54,006,39,26,40,172,41,27,30,075,39,7*72
$GAGSV,2,2,05,04,12,302,16,7*47
$GAGSV,1,1,04,21,54,006,44,13,54,088,42,26,40,172,43,27,30,075,42,1*71
$GBGSV,4,1,13,09,74,273,41,23,71,020,45,16,71,197,44,40,62,326,41,1*70
$GBGSV,4,2,13,43,62,039,45,07,61,305,37,39,60,185,43,28,52,217,,1*76
$GBGSV,4,3,13,10,51,286,14,25,40,113,34,37,27,320,35,34,15,040,,1*79
$GBGSV,4,4,13,06,,,40,1*76
$GBGSV,2,1,06,23,71,020,48,40,62,326,43,43,62,039,44,39,60,185,46,4*74
$GBGSV,2,2,06,25,40,113,35,37,27,320,37,4*77
$GNACCURACY,5.2*11
$PAIRSAT,1,25,2,0,201,3,0,200,4,0,200,5,0,200,6,0,200,7,0,201,8,0,221,9,0,200,16,0,1,20,0,200,21,0,201,22,0,200,23,0,200,24,0,200,25,0,200,26,0,220,27,0,221,28,0,200,29,0,200,30,0,200,31,0,200,194,0,21,195,0,621,196,0,600,199,0,621*68
$PAIRSAT,2,17,70,0,200,71,0,200,73,0,200,74,0,200,75,0,200,76,0,200,77,0,1,78,0,201,79,0,201,80,0,200,81,0,200,83,0,200,84,0,200,85,0,200,86,0,200,87,0,201,88,0,201*5B
$PAIRSAT,3,21,2,0,1200,3,0,1200,4,0,1200,5,0,200,7,0,1200,8,0,1200,9,0,1200,10,0,200,11,0,200,12,0,200,13,0,221,15,0,200,21,0,21,25,0,1000,26,0,1021,27,0,1021,30,0,1000,31,0,1000,33,0,1200,34,0,1000,36,0,1200*54
$PAIRSAT,4,40,3,0,400,7,0,1,9,0,201,10,0,201,11,0,200,12,0,200,13,0,200,14,0,200,16,0,201,19,0,600,20,0,600,21,0,600,22,0,600,23,0,621,24,0,400,25,0,421,26,0,400,27,0,400,28,0,421,29,0,400,30,0,400,32,0,400,33,0,400,34,0,421,35,0,400,36,0,400,37,0,421,38,0,400,39,0,421,40,0,421,41,0,400,42,0,400,43,0,421,44,0,400,45,0,400,46,0,400,59,0,400,60,0,400,61,0,400,62,0,400*43
$PAIRDGP,7,2,7,8,16,21,26,27*56
$GNGGA,035928.200,2500.7913160,N,12132.4418010,E,4,41,0.67,16.797,M,15.25,M,1,3335*49
$GNRMC,035928.200,A,2500.7913160,N,12132.4418010,E,0.03,135.00,090324,,,R,V*11
$GPHDT,95.505,T*09
$GNACCURACY,5.2*11
$GNGGA,035928.300,2500.7913135,N,12132.4418003,E,4,41,0.67,16.784,M,15.25,M,1,3335*48
$GNRMC,035928.300,A,2500.7913135,N,12132.4418003,E,0.01,135.00,090324,,,R,V*10
$GPHDT,,T*1B
$GNACCURACY,5.1*12
$GNGGA,035928.400,2500.7913151,N,12132.4417977,E,4,41,0.67,16.788,M,15.25,M,1,3335*44
$GNRMC,035928.400,A,2500.7913151,N,12132.4417977,E,0.01,135.00,090324,,,R,V*10
$GPHDT,95.280,T*03
$GNACCURACY,5.1*12
$GNGGA,035928.500,2500.7913165,N,12132.4417967,E,4,41,0.67,16.798,M,15.25,M,1,3335*42
$GNRMC,035928.500,A,2500.7913165,N,12132.4417967,E,0.00,135.00,090324,,,R,V*16
$GPHDT,,T*1B
$GNACCURACY,5.1*12
$GNGGA,035928.600,2500.7913126,N,12132.4417958,E,4,41,0.67,16.808,M,15.25,M,0,3335*4D
$GNRMC,035928.600,A,2500.7913126,N,12132.4417958,E,0.01,135.00,090324,,,R,V*1F
$GPHDT,94.916,T*06
$GNACCURACY,5.2*11
$GNGGA,035928.700,2500.7913148,N,12132.4417954,E,4,41,0.67,16.815,M,15.25,M,0,3335*44
$GNRMC,035928.700,A,2500.7913148,N,12132.4417954,E,0.00,135.00,090324,,,R,V*1B
$GPHDT,,T*1B
$GNACCURACY,5.1*12
$GNGGA,035928.800,2500.7913150,N,12132.4417929,E,4,41,0.67,16.801,M,15.25,M,0,3335*4D
$GNRMC,035928.800,A,2500.7913150,N,12132.4417929,E,0.01,135.00,090324,,,R,V*16
$GPHDT,95.134,T*0F
$GNACCURACY,5.2*11
$GNGGA,035928.900,2500.7913142,N,12132.4417946,E,4,41,0.67,16.801,M,15.25,M,0,3335*46
$GNRMC,035928.900,A,2500.7913142,N,12132.4417946,E,0.01,135.00,090324,,,R,V*1D
$GPHDT,,T*1B
$GNACCURACY,5.2*11
$GNGGA,035929.000,2500.7913154,N,12132.4417990,E,4,41,0.67,16.819,M,15.25,M,1,3335*4A
$GNRMC,035929.000,A,2500.7913154,N,12132.4417990,E,0.01,135.00,090324,,,R,V*19
$GPHDT,95.252,T*0C
$GNACCURACY,5.2*11
$GNGGA,035929.100,2500.7913164,N,12132.4417957,E,4,41,0.67,16.806,M,15.25,M,1,3335*4D
$GNRMC,035929.100,A,2500.7913164,N,12132.4417957,E,0.01,135.00,090324,,,R,V*10
$GPHDT,,T*1B
$GNGSA,A,3,08,194,195,199,21,02,27,07,16,26,,,1.22,0.67,1.02,1*3A
$GNGSA,A,3,88,78,77,79,,,,,,,,,1.22,0.67,1.02,2*00
$GNGSA,A,3,13,21,26,27,,,,,,,,,1.22,0.67,1.02,3*00
$GNGSA,A,3,09,23,16,40,43,07,39,25,37,,,,1.22,0.67,1.02,4*05
$GPGSV,4,1,13,08,65,347,44,194,64,051,38,195,63,117,42,199,60,167,38,1*5C
$GPGSV,4,2,13,50,60,167,41,21,55,160,47,02,43,178,46,27,37,033,42,1*6F
$GPGSV,4,3,13,07,37,318,38,16,29,071,41,04,21,206,25,196,20,170,31,1*50
$GPGSV,4,4,13,26,10,096,20,1*5E
$GPGSV,2,1,08,08,65,347,45,194,64,051,46,195,63,117,43,199,60,167,46,8*59
$GPGSV,2,2,08,27,37,033,47,04,21,206,24,196,20,170,27,26,10,096,19,8*5F
$GLGSV,2,1,05,88,60,036,41,78,54,029,44,77,26,105,16,79,22,331,20,1*77
$GLGSV,2,2,05,87,07,026,12,1*42
$GAGSV,2,1,05,13,54,088,41,21,54,006,39,26,40,172,41,27,30,075,39,7*72
$GAGSV,2,2,05,04,12,302,14,7*45
$GAGSV,1,1,04,13,54,088,42,21,54,006,44,26,40,172,43,27,30,075,42,1*71
$GBGSV,4,1,13,09,74,273,42,23,71,020,45,16,71,197,44,40,62,326,41,1*73
$GBGSV,4,2,13,43,62,039,44,07,61,305,37,39,60,185,43,28,52,217,,1*77
$GBGSV,4,3,13,10,51,286,13,25,40,113,35,37,27,320,35,34,15,040,,1*7F
$GBGSV,4,4,13,06,,,41,1*77
$GBGSV,2,1,05,23,71,020,48,40,62,326,43,39,60,185,46,25,40,113,35,4*78
$GBGSV,2,2,05,37,27,320,34,4*41
$GNACCURACY,5.2*11
$PAIRSAT,1,25,2,0,201,3,0,200,4,0,200,5,0,200,6,0,200,7,0,201,8,0,221,9,0,200,16,0,1,20,0,200,21,0,201,22,0,200,23,0,200,24,0,200,25,0,200,26,0,220,27,0,221,28,0,200,29,0,200,30,0,200,31,0,200,194,0,21,195,0,621,196,0,600,199,0,621*68
$PAIRSAT,2,17,70,0,200,71,0,200,73,0,200,74,0,200,75,0,200,76,0,200,77,0,1,78,0,201,79,0,201,80,0,200,81,0,200,83,0,200,84,0,200,85,0,200,86,0,200,87,0,201,88,0,201*5B
$PAIRSAT,3,21,2,0,1200,3,0,1200,4,0,1200,5,0,200,7,0,1200,8,0,1200,9,0,1200,10,0,200,11,0,200,12,0,200,13,0,221,15,0,200,21,0,21,25,0,1000,26,0,1021,27,0,1021,30,0,1000,31,0,1000,33,0,1200,34,0,1000,36,0,1200*54
$PAIRSAT,4,40,3,0,400,7,0,1,9,0,201,10,0,201,11,0,200,12,0,200,13,0,200,14,0,200,16,0,201,19,0,600,20,0,600,21,0,600,22,0,600,23,0,621,24,0,400,25,0,421,26,0,400,27,0,400,28,0,421,29,0,400,30,0,400,32,0,400,33,0,400,34,0,421,35,0,400,36,0,400,37,0,421,38,0,400,39,0,421,40,0,421,41,0,400,42,0,400,43,0,421,44,0,400,45,0,400,46,0,400,59,0,400,60,0,400,61,0,400,62,0,400*43
$PAIRDGP,7,2,7,8,16,21,26,27*56
$GNGGA,035929.200,2500.7913166,N,12132.4417975,E,4,41,0.67,16.795,M,15.25,M,1,3335*49
$GNRMC,035929.200,A,2500.7913166,N,12132.4417975,E,0.01,135.00,090324,,,R,V*11
$GPHDT,95.214,T*0E
$GNACCURACY,5.2*11
$GNGGA,035929.300,2500.7913145,N,12132.4418008,E,4,41,0.67,16.775,M,15.25,M,1,3335*4B
$GNRMC,035929.300,A,2500.7913145,N,12132.4418008,E,0.01,135.00,090324,,,R,V*1D
$GPHDT,,T*1B
$GNACCURACY,5.2*11
$GNGGA,035929.400,2500.7913141,N,12132.4418012,E,4,41,0.67,16.785,M,15.25,M,1,3335*4C
$GNRMC,035929.400,A,2500.7913141,N,12132.4418012,E,0.01,135.00,090324,,,R,V*15
$GPHDT,95.149,T*05
$GNACCURACY,5.2*11
$GNGGA,035929.500,2500.7913147,N,12132.4417976,E,4,41,0.67,16.791,M,15.25,M,0,3335*4B
$GNRMC,035929.500,A,2500.7913147,N,12132.4417976,E,0.01,135.00,090324,,,R,V*16
$GPHDT,,T*1B
$GNACCURACY,5.2*11
$GNGGA,035929.600,2500.7913133,N,12132.4417954,E,4,41,0.67,16.776,M,15.25,M,0,3335*42
$GNRMC,035929.600,A,2500.7913133,N,12132.4417954,E,0.01,135.00,090324,,,R,V*16
$GPHDT,95.076,T*08
$GNACCURACY,5.2*11
$GNGGA,035929.700,2500.7913147,N,12132.4417968,E,4,41,0.67,16.780,M,15.25,M,0,3335*46
$GNRMC,035929.700,A,2500.7913147,N,12132.4417968,E,0.01,135.00,090324,,,R,V*1B
$GPHDT,,T*1B
$GNACCURACY,5.2*11
$GNGGA,035929.800,2500.7913143,N,12132.4417964,E,4,41,0.67,16.773,M,15.25,M,0,3335*4D
$GNRMC,035929.800,A,2500.7913143,N,12132.4417964,E,0.09,135.00,090324,,,R,V*14
$GPHDT,95.141,T*0D
$GNACCURACY,5.2*11
$GNGGA,035929.900,2500.7913163,N,12132.4417958,E,4,41,0.67,16.785,M,15.25,M,0,3335*48
$GNRMC,035929.900,A,2500.7913163,N,12132.4417958,E,0.05,135.00,090324,,,R,V*14
$GPHDT,,T*1B
$GNACCURACY,5.2*11
$GNGGA,035930.000,2500.7913162,N,12132.4417953,E,4,41,0.67,16.776,M,15.25,M,1,3335*4E
$GNRMC,035930.000,A,2500.7913162,N,12132.4417953,E,0.05,135.00,090324,,,R,V*1F
$GPHDT,95.358,T*07
$GNACCURACY,5.0*13
$GNGGA,035930.100,2500.7913180,N,12132.4417908,E,4,43,0.60,16.788,M,15.25,M,1,3335*49
$GNRMC,035930.100,A,2500.7913180,N,12132.4417908,E,0.04,135.00,090324,,,R,V*1D
$GPHDT,,T*1B
$GNGSA,A,3,08,194,195,199,21,02,27,07,16,04,26,,1.09,0.60,0.91,1*3B
$GNGSA,A,3,88,78,77,79,,,,,,,,,1.09,0.60,0.91,2*05
$GNGSA,A,3,13,21,26,27,,,,,,,,,1.09,0.60,0.91,3*05
$GNGSA,A,3,09,23,16,40,43,07,39,25,37,,,,1.09,0.60,0.91,4*00
$GPGSV,4,1,13,08,65,347,45,194,64,051,38,195,63,117,42,199,60,167,38,1*5D
$GPGSV,4,2,13,50,60,167,41,21,55,160,46,02,43,178,46,27,37,033,42,1*6E
$GPGSV,4,3,13,07,37,318,40,16,29,071,42,04,21,206,25,196,20,170,31,1*5C
$GPGSV,4,4,13,26,10,096,19,1*54
$GPGSV,2,1,08,08,65,347,45,194,64,051,46,195,63,117,43,199,60,167,45,8*5A
$GPGSV,2,2,08,27,37,033,47,04,21,206,23,196,20,170,27,26,10,096,19,8*58
$GLGSV,2,1,05,88,60,036,42,78,54,029,44,77,26,105,15,79,22,331,26,1*71
$GLGSV,2,2,05,87,07,026,13,1*43
$GAGSV,2,1,05,13,54,088,41,21,54,006,39,26,40,172,42,27,30,075,39,7*71
$GAGSV,2,2,05,04,12,302,16,7*47
$GAGSV,1,1,04,21,54,006,44,13,54,088,42,26,40,172,43,27,30,075,42,1*71
$GBGSV,4,1,13,09,74,273,42,23,71,020,45,16,71,197,44,40,62,326,42,1*70
$GBGSV,4,2,13,43,62,039,44,07,61,305,37,39,60,185,42,28,52,217,,1*76
$GBGSV,4,3,13,10,51,286,,25,40,113,35,37,27,320,37,34,15,040,,1*7F
$GBGSV,4,4,13,06,,,41,1*77
$GBGSV,2,1,06,23,71,020,48,40,62,326,43,43,62,039,45,39,60,185,46,4*75
$GBGSV,2,2,06,25,40,113,35,37,27,320,38,4*78
$GNACCURACY,5.0*13
$PAIRSAT,1,25,2,0,201,3,0,200,4,0,201,5,0,200,6,0,200,7,0,201,8,0,221,9,0,200,16,0,1,20,0,200,21,0,201,22,0,200,23,0,200,24,0,200,25,0,200,26,0,220,27,0,221,28,0,200,29,0,200,30,0,200,31,0,200,194,0,21,195,0,621,196,0,600,199,0,621*69
$PAIRSAT,2,17,70,0,200,71,0,200,73,0,200,74,0,200,75,0,200,76,0,200,77,0,1,78,0,201,79,0,201,80,0,200,81,0,200,83,0,200,84,0,200,85,0,200,86,0,200,87,0,201,88,0,201*5B
$PAIRSAT,3,21,2,0,1200,3,0,1200,4,0,1200,5,0,200,7,0,1200,8,0,1200,9,0,1200,10,0,200,11,0,200,12,0,200,13,0,221,15,0,200,21,0,21,25,0,1000,26,0,1021,27,0,1021,30,0,1000,31,0,1000,33,0,1200,34,0,1000,36,0,1200*54
$PAIRSAT,4,40,3,0,400,7,0,1,9,0,201,10,0,201,11,0,200,12,0,200,13,0,200,14,0,200,16,0,201,19,0,600,20,0,600,21,0,600,22,0,600,23,0,621,24,0,400,25,0,421,26,0,400,27,0,400,28,0,421,29,0,400,30,0,400,32,0,400,33,0,400,34,0,421,35,0,400,36,0,400,37,0,421,38,0,400,39,0,421,40,0,421,41,0,400,42,0,400,43,0,421,44,0,400,45,0,400,46,0,400,59,0,400,60,0,400,61,0,400,62,0,400*43
$PAIRDGP,8,2,4,7,8,16,21,26,27*41
$GNGGA,035930.200,2500.7913179,N,12132.4417923,E,4,43,0.60,16.792,M,15.25,M,1,3335*4E
$GNRMC,035930.200,A,2500.7913179,N,12132.4417923,E,0.04,135.00,090324,,,R,V*11
$GPHDT,95.322,T*0A
$GNACCURACY,4.9*1B
$GNGGA,035930.300,2500.7913180,N,12132.4417909,E,4,43,0.60,16.779,M,15.25,M,1,3335*44
$GNRMC,035930.300,A,2500.7913180,N,12132.4417909,E,0.04,135.00,090324,,,R,V*1E
$GPHDT,,T*1B
$GNACCURACY,4.9*1B
$GNGGA,035930.400,2500.7913192,N,12132.4417915,E,4,43,0.60,16.798,M,15.25,M,1,3335*42
$GNRMC,035930.400,A,2500.7913192,N,12132.4417915,E,0.04,135.00,090324,,,R,V*17
$GPHDT,95.399,T*0A
$GNACCURACY,4.9*1B
$GNGGA,035930.500,2500.7913170,N,12132.4417938,E,4,43,0.60,16.785,M,15.25,M,0,3335*4D
$GNRMC,035930.500,A,2500.7913170,N,12132.4417938,E,0.03,135.00,090324,,,R,V*12
$GPHDT,,T*1B
$GNACCURACY,4.9*1B
$GNGGA,035930.600,2500.7913190,N,12132.4417915,E,4,43,0.60,16.791,M,15.25,M,0,3335*4A
$GNRMC,035930.600,A,2500.7913190,N,12132.4417915,E,0.03,135.00,090324,,,R,V*10
$GPHDT,95.237,T*0F
$GNACCURACY,4.9*1B
$GNGGA,035930.700,2500.7913187,N,12132.4417926,E,4,43,0.60,16.794,M,15.25,M,0,3335*48
$GNRMC,035930.700,A,2500.7913187,N,12132.4417926,E,0.03,135.00,090324,,,R,V*17
$GPHDT,,T*1B
$GNACCURACY,4.9*1B
$GNGGA,035930.800,2500.7913187,N,12132.4417937,E,4,43,0.60,16.795,M,15.25,M,0,3335*46
$GNRMC,035930.800,A,2500.7913187,N,12132.4417937,E,0.04,135.00,090324,,,R,V*1F
$GPHDT,95.048,T*05
$GNACCURACY,4.9*1B
$GNGGA,035930.900,2500.7913187,N,12132.4417922,E,4,43,0.60,16.788,M,15.25,M,0,3335*4F
$GNRMC,035930.900,A,2500.7913187,N,12132.4417922,E,0.02,135.00,090324,,,R,V*1C
$GPHDT,,T*1B
$GNACCURACY,4.9*1B
$GNGGA,035931.000,2500.7913194,N,12132.4417927,E,4,43,0.60,16.797,M,15.25,M,1,3335*4F
$GNRMC,035931.000,A,2500.7913194,N,12132.4417927,E,0.01,135.00,090324,,,R,V*10
$GPHDT,95.322,T*0A
$GNACCURACY,4.9*1B
$GNGGA,035931.100,2500.7913172,N,12132.4417910,E,4,43,0.60,16.792,M,15.25,M,1,3335*47
$GNRMC,035931.100,A,2500.7913172,N,12132.4417910,E,0.01,135.00,090324,,,R,V*1D
$GPHDT,,T*1B
$GNGSA,A,3,08,194,195,199,21,02,27,07,16,04,26,,1.09,0.60,0.91,1*3B
$GNGSA,A,3,88,78,77,79,,,,,,,,,1.09,0.60,0.91,2*05
$GNGSA,A,3,13,21,26,27,,,,,,,,,1.09,0.60,0.91,3*05
$GNGSA,A,3,09,23,16,40,43,07,39,25,37,,,,1.09,0.60,0.91,4*00
$GPGSV,4,1,13,08,65,347,45,194,64,051,38,195,63,117,42,199,60,167,38,1*5D
$GPGSV,4,2,13,50,60,167,41,21,55,160,46,02,43,178,45,27,37,033,42,1*6D
$GPGSV,4,3,13,07,37,318,41,16,29,071,42,04,21,206,27,196,20,170,31,1*5F
$GPGSV,4,4,13,26,10,096,17,1*5A
$GPGSV,2,1,08,08,65,347,46,194,64,051,46,195,63,117,43,199,60,167,45,8*59
$GPGSV,2,2,08,27,37,033,47,04,21,206,24,196,20,170,27,26,10,096,18,8*5E
$GLGSV,2,1,05,88,60,036,42,78,54,029,44,77,26,105,11,79,22,331,32,1*70
$GLGSV,2,2,05,87,07,026,13,1*43
$GAGSV,2,1,05,13,54,088,42,21,54,006,40,26,40,172,42,27,30,075,39,7*7C
$GAGSV,2,2,05,04,12,302,16,7*47
$GAGSV,1,1,04,13,54,088,42,21,54,006,43,26,40,172,42,27,30,075,42,1*77
$GBGSV,4,1,13,09,74,273,42,23,71,020,45,16,71,197,44,40,62,326,42,1*70
$GBGSV,4,2,13,43,62,039,44,07,61,305,37,39,60,185,42,28,52,217,,1*76
$GBGSV,4,3,13,10,51,287,,25,40,113,35,37,27,320,38,34,15,040,,1*71
$GBGSV,4,4,13,06,,,41,1*77
$GBGSV,2,1,05,23,71,020,48,40,62,326,43,39,60,185,46,25,40,113,35,4*78
$GBGSV,2,2,05,37,27,320,39,4*4C
$GNACCURACY,4.9*1B
$PAIRSAT,1,25,2,0,201,3,0,200,4,0,201,5,0,200,6,0,200,7,0,201,8,0,221,9,0,200,16,0,1,20,0,200,21,0,201,22,0,200,23,0,200,24,0,200,25,0,200,26,0,220,27,0,221,28,0,200,29,0,200,30,0,200,31,0,200,194,0,21,195,0,621,196,0,600,199,0,621*69
$PAIRSAT,2,17,70,0,200,71,0,200,73,0,200,74,0,200,75,0,200,76,0,200,77,0,1,78,0,201,79,0,201,80,0,200,81,0,200,83,0,200,84,0,200,85,0,200,86,0,200,87,0,201,88,0,201*5B
$PAIRSAT,3,21,2,0,1200,3,0,1200,4,0,1200,5,0,200,7,0,1200,8,0,1200,9,0,1200,10,0,200,11,0,200,12,0,200,13,0,221,15,0,200,21,0,21,25,0,1000,26,0,1021,27,0,1021,30,0,1000,31,0,1000,33,0,1200,34,0,1000,36,0,1200*54
$PAIRSAT,4,40,3,0,400,7,0,1,9,0,201,10,0,201,11,0,200,12,0,200,13,0,200,14,0,200,16,0,201,19,0,600,20,0,600,21,0,600,22,0,600,23,0,621,24,0,400,25,0,421,26,0,400,27,0,400,28,0,421,29,0,400,30,0,400,32,0,400,33,0,400,34,0,421,35,0,400,36,0,400,37,0,421,38,0,400,39,0,421,40,0,421,41,0,400,42,0,400,43,0,421,44,0,400,45,0,400,46,0,400,59,0,400,60,0,400,61,0,400,62,0,400*43
$PAIRDGP,8,2,4,7,8,16,21,26,27*41
$GNGGA,035931.200,2500.7913174,N,12132.4417912,E,4,43,0.60,16.788,M,15.25,M,1,3335*4B
$GNRMC,035931.200,A,2500.7913174,N,12132.4417912,E,0.02,135.00,090324,,,R,V*19
$GPHDT,95.101,T*09
$GNACCURACY,4.9*1B
$GNGGA,035931.300,2500.7913191,N,12132.4417905,E,4,43,0.60,16.787,M,15.25,M,1,3335*48
$GNRMC,035931.300,A,2500.7913191,N,12132.4417905,E,0.01,135.00,090324,,,R,V*16
$GPHDT,,T*1B
$GNACCURACY,4.9*1B
$GNGGA,035931.400,2500.7913192,N,12132.4417920,E,4,42,0.61,16.786,M,15.25,M,1,3335*4A
$GNRMC,035931.400,A,2500.7913192,N,12132.4417920,E,0.02,135.00,090324,,,R,V*16
$GPHDT,95.120,T*0A
