$FW : RTK35X,V1.1X0314AS,Lib20210517,1*54
$Tool : LOCOSYS , GNSS Firebird , v1.0.0.19*39
$---------------------------------------------------*2D
25,M,4,3335*4D
$GNRMC,032502.800,A,2500.8242793,N,12132.4517051,E,0.00,246.18,270623,,,D,V*0C
$GPHDT,91.273,T*0B
$GNGSA,A,3,195,17,196,199,19,06,194,14,09,11,,,0.95,0.47,0.82,1*0E
$GNGSA,A,3,67,68,82,80,73,,,,,,,,0.95,0.47,0.82,2*0E
$GNGSA,A,3,24,12,10,31,11,19,04,33,,,,,0.95,0.47,0.82,3*0C
$GNGSA,A,3,40,07,10,14,08,43,33,13,42,11,28,37,0.95,0.47,0.82,4*03
$GNGSA,A,3,41,,,,,,,,,,,,0.95,0.47,0.82,4*04
$GPGSV,4,1,13,195,67,040,42,17,64,052,37,196,61,131,41,199,60,167,35,1*54
$GPGSV,4,2,13,19,59,002,41,06,50,324,40,194,45,169,40,41,38,242,43,1*5B
$GPGSV,4,3,13,14,35,178,37,09,28,116,37,11,23,276,40,20,21,224,,1*6A
$GPGSV,4,4,13,12,06,322,26,1*54
$GPGSV,2,1,08,195,67,040,47,196,61,131,46,199,60,167,45,06,50,324,44,8*55
$GPGSV,2,2,08,194,45,169,43,14,35,178,44,09,28,116,37,11,23,276,42,8*59
$GLGSV,3,1,09,67,49,079,30,68,38,155,36,82,37,024,30,80,32,240,44,1*77
$GLGSV,3,2,09,83,30,329,,73,22,301,37,66,13,033,16,79,08,191,18,1*71
$GLGSV,3,3,09,69,01,187,,1*41
$GAGSV,2,1,08,24,56,256,41,12,50,004,33,10,48,322,34,31,35,183,38,7*77
$GAGSV,2,2,08,11,33,291,37,19,28,095,33,04,21,158,27,33,18,057,34,7*79
$GAGSV,2,1,08,24,56,256,46,12,50,004,40,10,48,322,39,31,35,183,41,1*71
$GAGSV,2,2,08,11,33,291,38,19,28,095,34,04,21,158,26,33,18,057,16,1*76
$GBGSV,4,1,15,40,83,084,40,07,83,275,40,10,71,303,38,14,60,103,43,1*72
$GBGSV,4,2,15,08,59,259,38,43,54,040,38,33,54,158,42,13,49,249,41,1*72
$GBGSV,4,3,15,42,45,064,30,11,36,070,29,28,32,317,41,23,24,228,14,1*7B
$GBGSV,4,4,15,37,18,282,32,41,14,197,34,25,07,183,,1*44
$GBGSV,2,1,07,40,83,084,45,33,54,158,42,43,54,040,42,42,45,064,27,4*7A
$GBGSV,2,2,07,28,32,317,38,37,18,282,24,41,14,197,37,4*49
$GNGGA,032503.000,2500.8242853,N,12132.4517111,E,2,59,0.47,17.363,M,15.25,M,5,3335*49
$GNRMC,032503.000,A,2500.8242853,N,12132.4517111,E,0.00,246.18,270623,,,D,V*03
$GPHDT,91.713,T*08
$GNGGA,032503.200,2500.8242913,N,12132.4517111,E,2,58,0.50,17.343,M,15.25,M,5,3335*4B
$GNRMC,032503.200,A,2500.8242913,N,12132.4517111,E,0.00,246.18,270623,,,D,V*04
$GPHDT,91.504,T*0C
$GNGGA,032503.400,2500.8242973,N,12132.4517051,E,2,58,0.50,17.318,M,15.25,M,5,3335*40
$GNRMC,032503.400,A,2500.8242973,N,12132.4517051,E,0.00,246.18,270623,,,D,V*01
$GPHDT,91.422,T*09
$GNGGA,032503.600,2500.8242973,N,12132.4516991,E,2,58,0.50,17.292,M,15.25,M,5,3335*45
$GNRMC,032503.600,A,2500.8242973,N,12132.4516991,E,0.00,246.18,270623,,,D,V*07
$GPHDT,91.552,T*0F
$GNGGA,032503.800,2500.8243033,N,12132.4516991,E,2,58,0.50,17.266,M,15.25,M,5,3335*4C
$GNRMC,032503.800,A,2500.8243033,N,12132.4516991,E,0.00,246.18,270623,,,D,V*05
$GPHDT,91.020,T*0F
$GNGSA,A,3,195,17,196,199,19,06,194,14,09,11,,,0.97,0.50,0.83,1*0B
$GNGSA,A,3,67,68,82,80,73,,,,,,,,0.97,0.50,0.83,2*0B
$GNGSA,A,3,24,12,10,31,11,19,04,33,,,,,0.97,0.50,0.83,3*09
$GNGSA,A,3,40,07,10,14,08,43,33,13,42,28,37,41,0.97,0.50,0.83,4*03
$GPGSV,4,1,13,195,67,040,42,17,64,052,38,196,61,131,41,199,60,167,36,1*58
$GPGSV,4,2,13,19,59,002,41,06,50,324,40,194,45,169,40,41,38,242,43,1*5B
$GPGSV,4,3,13,14,35,178,38,09,28,116,38,11,23,276,40,20,21,224,,1*6A
$GPGSV,4,4,13,12,06,322,26,1*54
$GPGSV,2,1,08,195,67,040,47,196,61,131,46,199,60,167,46,06,50,324,45,8*57
$GPGSV,2,2,08,194,45,169,43,14,35,178,43,09,28,116,37,11,23,276,41,8*5D
$GLGSV,2,1,08,67,49,079,30,68,38,155,36,82,37,024,31,80,32,240,44,1*76
$GLGSV,2,2,08,83,30,329,27,73,22,301,37,66,13,033,16,79,08,191,19,1*75
$GAGSV,2,1,08,24,56,256,41,12,50,004,33,10,48,322,35,31,35,183,38,7*76
$GAGSV,2,2,08,11,33,291,37,19,28,095,33,04,21,158,26,33,18,057,35,7*79
$GAGSV,2,1,08,24,56,256,45,12,50,004,40,10,48,322,39,31,35,183,41,1*72
$GAGSV,2,2,08,11,33,291,38,19,28,095,34,04,21,158,24,33,18,057,16,1*74
$GBGSV,4,1,14,40,83,084,41,07,83,275,38,10,71,303,39,14,60,103,43,1*7C
$GBGSV,4,2,14,08,59,259,38,43,54,040,39,33,54,158,43,13,49,249,42,1*70
$GBGSV,4,3,14,42,45,064,32,11,36,070,,28,32,317,41,23,24,228,12,1*75
$GBGSV,4,4,14,37,18,282,35,41,14,197,34,1*78
$GBGSV,2,1,07,40,83,084,46,33,54,158,43,43,54,040,42,42,45,064,28,4*77
$GBGSV,2,2,07,28,32,317,38,37,18,282,22,41,14,197,36,4*4E
$GNGGA,032504.000,2500.8243093,N,12132.4516991,E,2,58,0.50,17.239,M,15.25,M,6,3335*40
$GNRMC,032504.000,A,2500.8243093,N,12132.4516991,E,0.00,246.18,270623,,,D,V*00
$GPHDT,90.901,T*04
$GNGGA,032504.200,2500.8243093,N,12132.4516991,E,2,58,0.50,17.213,M,15.25,M,6,3335*4A
$GNRMC,032504.200,A,2500.8243093,N,12132.4516991,E,0.00,246.18,270623,,,D,V*02
$GPHDT,91.277,T*0F
$GNGGA,032504.400,2500.8243213,N,12132.4516991,E,2,58,0.50,17.181,M,15.25,M,6,3335*4E
$GNRMC,032504.400,A,2500.8243213,N,12132.4516991,E,0.00,246.18,270623,,,D,V*0E
$GPHDT,91.399,T*0E
$GNGGA,032504.600,2500.8243273,N,12132.4516931,E,2,58,0.50,17.149,M,15.25,M,3,3335*41
$GNRMC,032504.600,A,2500.8243273,N,12132.4516931,E,0.00,246.18,270623,,,D,V*00
$GPHDT,91.111,T*0C
$GNGGA,032504.800,2500.8243393,N,12132.4516871,E,2,58,0.50,17.120,M,15.25,M,2,3335*4B
$GNRMC,032504.800,A,2500.8243393,N,12132.4516871,E,0.00,246.18,270623,,,D,V*04
$GPHDT,90.843,T*03
$GNGSA,A,3,195,17,196,199,19,06,194,14,09,11,,,0.97,0.50,0.83,1*0B
$GNGSA,A,3,67,68,82,80,73,,,,,,,,0.97,0.50,0.83,2*0B
$GNGSA,A,3,24,12,10,31,11,19,04,33,,,,,0.97,0.50,0.83,3*09
$GNGSA,A,3,40,07,10,14,08,43,33,13,42,28,37,41,0.97,0.50,0.83,4*03
$GPGSV,4,1,13,195,67,040,42,17,64,052,38,196,61,131,40,199,60,167,37,1*58
$GPGSV,4,2,13,19,59,002,41,06,50,324,40,194,45,169,40,41,38,242,43,1*5B
$GPGSV,4,3,13,14,35,178,40,09,28,116,38,11,23,276,40,20,21,224,,1*65
$GPGSV,4,4,13,12,06,322,26,1*54
$GPGSV,2,1,08,195,67,040,47,196,61,131,46,199,60,167,46,06,50,324,45,8*57
$GPGSV,2,2,08,194,45,169,43,14,35,178,44,09,28,116,38,11,23,276,41,8*55
$GLGSV,2,1,08,67,49,079,31,68,38,155,40,82,37,024,31,80,32,240,44,1*76
$GLGSV,2,2,08,83,30,329,29,73,22,301,38,66,13,033,14,79,08,191,19,1*76
$GAGSV,2,1,08,24,56,256,41,12,50,004,33,10,48,322,34,31,35,183,39,7*76
$GAGSV,2,2,08,11,33,291,37,19,28,095,33,04,21,158,26,33,18,057,32,7*7E
$GAGSV,2,1,08,24,56,256,45,12,50,004,40,10,48,322,39,31,35,183,42,1*71
$GAGSV,2,2,08,11,33,291,38,19,28,095,34,04,21,158,25,33,18,057,17,1*74
$GBGSV,4,1,14,40,83,084,40,07,83,275,39,10,71,303,39,14,60,103,43,1*7C
$GBGSV,4,2,14,08,59,259,38,43,54,040,39,33,54,158,44,13,49,249,42,1*77
$GBGSV,4,3,14,42,45,064,32,11,36,070,,28,32,317,41,23,24,228,13,1*74
$GBGSV,4,4,14,37,18,282,34,41,14,197,34,1*79
$GBGSV,2,1,07,40,83,084,46,33,54,158,45,43,54,040,42,42,45,064,26,4*7F
$GBGSV,2,2,07,28,32,317,38,37,18,282,22,41,14,197,35,4*4D
$GNGGA,032505.000,2500.8243453,N,12132.4516811,E,2,58,0.50,17.092,M,15.25,M,1,3335*44
$GNRMC,032505.000,A,2500.8243453,N,12132.4516811,E,0.00,246.18,270623,,,D,V*00
$GPHDT,91.111,T*0C
$GNGGA,032505.200,2500.8243573,N,12132.4516811,E,2,58,0.50,17.063,M,15.25,M,1,3335*4B
$GNRMC,032505.200,A,2500.8243573,N,12132.4516811,E,0.00,246.18,270623,,,D,V*01
$GPHDT,91.269,T*00
$GNGGA,032505.400,2500.8243693,N,12132.4516811,E,2,58,0.50,17.038,M,15.25,M,1,3335*4E
$GNRMC,032505.400,A,2500.8243693,N,12132.4516811,E,0.00,246.18,270623,,,D,V*0A
$GPHDT,91.506,T*0E
$GNGGA,032505.600,2500.8243753,N,12132.4516811,E,2,58,0.50,17.008,M,15.25,M,1,3335*42
$GNRMC,032505.600,A,2500.8243753,N,12132.4516811,E,0.00,246.18,270623,,,D,V*05
$GPHDT,91.332,T*0F
$GNGGA,032505.800,2500.8243813,N,12132.4516811,E,2,58,0.50,16.989,M,15.25,M,1,3335*46
$GNRMC,032505.800,A,2500.8243813,N,12132.4516811,E,0.00,246.18,270623,,,D,V*00
$GPHDT,91.356,T*0D
$GNGSA,A,3,195,17,196,199,19,06,194,14,09,11,,,0.97,0.50,0.83,1*0B
$GNGSA,A,3,67,68,82,80,73,,,,,,,,0.97,0.50,0.83,2*0B
$GNGSA,A,3,24,12,10,31,11,19,04,33,,,,,0.97,0.50,0.83,3*09
$GNGSA,A,3,40,07,10,14,08,43,33,13,42,28,37,41,0.97,0.50,0.83,4*03
$GPGSV,3,1,12,195,67,040,42,17,64,052,37,196,61,131,40,199,60,167,37,1*51
$GPGSV,3,2,12,19,59,002,40,06,50,324,39,194,45,169,41,41,38,242,43,1*53
$GPGSV,3,3,12,14,35,178,40,09,28,116,38,11,23,276,40,12,06,322,24,1*66
$GPGSV,2,1,08,195,67,040,47,196,61,131,45,199,60,167,46,06,50,324,45,8*54
$GPGSV,2,2,08,194,45,169,43,14,35,178,44,09,28,116,38,11,23,276,41,8*55
$GLGSV,2,1,08,67,49,079,31,68,38,155,41,82,37,024,32,80,32,240,44,1*74
$GLGSV,2,2,08,83,30,329,29,73,22,301,38,66,13,033,13,79,08,191,19,1*71
$GAGSV,3,1,09,24,56,256,41,12,50,004,34,10,48,322,34,31,35,183,39,7*71
$GAGSV,3,2,09,11,33,291,37,19,28,095,33,04,21,158,25,25,21,313,,7*72
$GAGSV,3,3,09,33,18,057,32,7*40
$GAGSV,2,1,08,24,56,256,45,12,50,004,40,10,48,322,39,31,35,183,42,1*71
$GAGSV,2,2,08,11,33,291,38,19,28,095,34,04,21,158,25,33,18,057,18,1*7B
$GBGSV,4,1,15,40,83,084,41,07,83,275,39,10,71,303,39,14,60,103,43,1*7C
$GBGSV,4,2,15,08,59,259,37,43,54,040,40,33,54,158,44,13,49,249,42,1*77
$GBGSV,4,3,15,42,45,064,32,11,36,070,,28,32,317,41,23,24,228,15,1*73
$GBGSV,4,4,15,37,18,282,33,41,14,197,34,21,03,035,,1*49
$GBGSV,2,1,07,40,83,084,46,33,54,158,45,43,54,040,42,42,45,064,28,4*71
$GBGSV,2,2,07,28,32,317,38,37,18,282,22,41,14,197,35,4*4D
$GNGGA,032506.000,2500.8243933,N,12132.4516811,E,2,58,0.50,16.962,M,15.25,M,2,3335*48
$GNRMC,032506.000,A,2500.8243933,N,12132.4516811,E,0.00,246.18,270623,,,D,V*08
$GPHDT,91.122,T*0C
$GNGGA,032506.200,2500.8243993,N,12132.4516811,E,2,58,0.50,16.935,M,15.25,M,2,3335*42
$GNRMC,032506.200,A,2500.8243993,N,12132.4516811,E,0.00,246.18,270623,,,D,V*00
$GPHDT,91.104,T*08
$GNGGA,032506.400,2500.8244113,N,12132.4516811,E,2,58,0.50,16.910,M,15.25,M,2,3335*44
$GNRMC,032506.400,A,2500.8244113,N,12132.4516811,E,0.00,246.18,270623,,,D,V*01
$GPHDT,91.028,T*07
$GNGGA,032506.600,2500.8244233,N,12132.4516871,E,2,58,0.50,16.890,M,15.25,M,2,3335*48
$GNRMC,032506.600,A,2500.8244233,N,12132.4516871,E,0.00,246.18,270623,,,D,V*04
$GPHDT,91.385,T*03
$GNGGA,032506.800,2500.8244293,N,12132.4516811,E,2,58,0.50,16.864,M,15.25,M,2,3335*41
$GNRMC,032506.800,A,2500.8244293,N,12132.4516811,E,0.01,246.18,270623,,,D,V*07
$GPHDT,90.956,T*06
$GNGSA,A,3,195,17,196,199,19,06,194,14,09,11,,,0.97,0.50,0.83,1*0B
$GNGSA,A,3,67,68,82,80,73,,,,,,,,0.97,0.50,0.83,2*0B
$GNGSA,A,3,24,12,10,31,11,19,04,33,,,,,0.97,0.50,0.83,3*09
$GNGSA,A,3,40,07,10,14,08,43,33,13,42,28,37,41,0.97,0.50,0.83,4*03
$GPGSV,3,1,12,195,67,040,42,17,64,052,38,196,61,131,40,199,60,167,37,1*5E
$GPGSV,3,2,12,19,59,002,40,06,50,324,39,194,45,169,41,41,38,242,43,1*53
$GPGSV,3,3,12,14,35,178,41,09,28,116,38,11,23,276,40,12,06,322,26,1*65
$GPGSV,2,1,08,195,67,040,47,196,61,131,45,199,60,167,46,06,50,324,45,8*54
$GPGSV,2,2,08,194,45,169,43,14,35,178,44,09,28,116,38,11,23,276,41,8*55
$GLGSV,2,1,08,67,49,079,30,68,38,155,41,82,37,024,31,80,32,240,45,1*77
$GLGSV,2,2,08,83,30,329,29,73,22,301,38,66,13,033,13,79,08,191,19,1*71
$GAGSV,2,1,08,24,56,256,41,12,50,004,34,10,48,322,34,31,35,183,39,7*71
$GAGSV,2,2,08,11,33,291,37,19,28,095,33,04,21,158,25,33,18,057,31,7*7E
$GAGSV,2,1,08,24,56,256,45,12,50,004,40,10,48,322,39,31,35,183,43,1*70
$GAGSV,2,2,08,11,33,291,38,19,28,095,34,04,21,158,26,33,18,057,18,1*78
$GBGSV,4,1,14,40,83,084,41,07,83,275,39,10,71,303,39,14,60,103,43,1*7D
$GBGSV,4,2,14,08,59,259,37,43,54,040,40,33,54,158,44,13,49,249,42,1*76
$GBGSV,4,3,14,42,45,064,32,11,36,070,,28,33,317,41,23,24,228,11,1*77
$GBGSV,4,4,14,37,18,282,33,41,14,197,34,1*7E
$GBGSV,2,1,07,40,83,084,46,33,54,158,45,43,54,040,42,42,45,064,28,4*71
$GBGSV,2,2,07,28,33,317,38,37,18,282,22,41,14,197,35,4*4C
$GNGGA,032507.000,2500.8244353,N,12132.4516811,E,2,58,0.50,16.839,M,15.25,M,3,3335*4C
$GNRMC,032507.000,A,2500.8244353,N,12132.4516811,E,0.00,246.18,270623,,,D,V*02
$GPHDT,91.428,T*03
$GNGGA,032507.200,2500.8244473,N,12132.4516871,E,2,58,0.50,16.824,M,15.25,M,3,3335*41
$GNRMC,032507.200,A,2500.8244473,N,12132.4516871,E,0.00,246.18,270623,,,D,V*03
$GPHDT,91.696,T*04
$GNGGA,032507.400,2500.8244533,N,12132.4516871,E,2,58,0.50,16.809,M,15.25,M,3,3335*4D
$GNRMC,032507.400,A,2500.8244533,N,12132.4516871,E,0.00,246.18,270623,,,D,V*00
$GPHDT,91.127,T*09
$GNGGA,032507.600,2500.8244653,N,12132.4516931,E,2,58,0.50,16.787,M,15.25,M,3,3335*46
$GNRMC,032507.600,A,2500.8244653,N,12132.4516931,E,0.00,246.18,270623,,,D,V*02
$GPHDT,91.474,T*0A
$GNGGA,032507.800,2500.8244713,N,12132.4516931,E,2,58,0.50,16.769,M,15.25,M,3,3335*4D
$GNRMC,032507.800,A,2500.8244713,N,12132.4516931,E,0.00,246.18,270623,,,D,V*09
$GPHDT,91.079,T*03
$GNGSA,A,3,195,17,196,199,19,06,194,14,09,11,,,0.97,0.50,0.83,1*0B
$GNGSA,A,3,67,68,82,80,73,,,,,,,,0.97,0.50,0.83,2*0B
$GNGSA,A,3,24,12,10,31,11,19,04,33,,,,,0.97,0.50,0.83,3*09
$GNGSA,A,3,40,07,10,14,08,43,33,13,42,28,37,41,0.97,0.50,0.83,4*03
$GPGSV,3,1,12,195,67,040,42,17,64,052,38,196,61,131,40,199,60,167,37,1*5E
$GPGSV,3,2,12,19,59,002,40,06,50,324,39,194,45,169,41,41,38,242,43,1*53
$GPGSV,3,3,12,14,35,178,41,09,28,116,38,11,23,276,40,12,06,322,26,1*65
$GPGSV,2,1,08,195,67,040,47,196,61,131,45,199,60,167,46,06,50,324,44,8*55
$GPGSV,2,2,08,194,45,169,43,14,35,178,45,09,28,116,38,11,23,276,41,8*54
$GLGSV,2,1,08,67,49,079,30,68,38,155,41,82,37,024,31,80,32,240,45,1*77
$GLGSV,2,2,08,83,30,329,29,73,22,301,38,66,13,033,12,79,08,191,20,1*7A
$GAGSV,2,1,08,24,56,256,41,12,50,004,34,10,48,322,34,31,35,183,40,7*7F
$GAGSV,2,2,08,11,33,291,37,19,28,095,33,04,21,158,22,33,18,057,32,7*7A
$GAGSV,2,1,08,24,56,256,45,12,50,004,40,10,48,322,39,31,35,183,43,1*70
$GAGSV,2,2,08,11,33,291,38,19,28,095,34,04,21,158,26,33,18,057,18,1*78
$GBGSV,4,1,14,40,83,084,41,07,83,275,39,10,71,303,40,14,60,103,43,1*73
$GBGSV,4,2,14,08,59,259,37,43,54,040,40,33,54,158,44,13,49,249,42,1*76
$GBGSV,4,3,14,42,45,064,33,11,36,070,,28,33,317,41,23,24,228,17,1*70
$GBGSV,4,4,14,37,18,282,33,41,14,197,35,1*7F
$GBGSV,2,1,07,40,83,084,46,33,54,158,45,43,54,040,42,42,45,064,27,4*7E
$GBGSV,2,2,07,28,33,317,38,37,18,282,23,41,14,197,35,4*4D
$GNGGA,032508.000,2500.8244833,N,12132.4516931,E,2,58,0.50,16.747,M,15.25,M,4,3335*4C
$GNRMC,032508.000,A,2500.8244833,N,12132.4516931,E,0.00,246.18,270623,,,D,V*03
$GPHDT,91.057,T*0F
$GNGGA,032508.200,2500.8244953,N,12132.4516991,E,2,57,0.50,16.717,M,15.25,M,4,3335*49
$GNRMC,032508.200,A,2500.8244953,N,12132.4516991,E,0.00,246.18,270623,,,D,V*0C
$GPHDT,91.249,T*02
$GNGGA,032508.400,2500.8245133,N,12132.4517051,E,2,57,0.50,16.696,M,15.25,M,1,3335*49
$GNRMC,032508.400,A,2500.8245133,N,12132.4517051,E,0.00,246.18,270623,,,D,V*01
$GPHDT,91.037,T*09
$GNGGA,032508.600,2500.8245193,N,12132.4517111,E,2,57,0.50,16.672,M,15.25,M,1,3335*4E
$GNRMC,032508.600,A,2500.8245193,N,12132.4517111,E,0.00,246.18,270623,,,D,V*0C
$GPHDT,91.156,T*0F
$GNGGA,032508.800,2500.8245313,N,12132.4517111,E,2,57,0.50,16.647,M,15.25,M,1,3335*4C
$GNRMC,032508.800,A,2500.8245313,N,12132.4517111,E,0.00,246.18,270623,,,D,V*08
$GPHDT,91.210,T*0E
$GNGSA,A,3,195,17,196,199,19,06,194,14,09,11,,,0.97,0.50,0.83,1*0B
$GNGSA,A,3,67,68,82,80,73,,,,,,,,0.97,0.50,0.83,2*0B
$GNGSA,A,3,24,12,10,31,11,19,04,33,,,,,0.97,0.50,0.83,3*09
$GNGSA,A,3,40,07,10,14,08,43,33,13,42,28,37,41,0.97,0.50,0.83,4*03
$GPGSV,3,1,12,195,67,040,42,17,64,052,36,196,61,131,39,199,60,167,37,1*5E
$GPGSV,3,2,12,19,59,002,42,06,50,324,39,194,45,169,41,41,38,242,43,1*51
$GPGSV,3,3,12,14,35,178,42,09,28,116,38,11,23,276,40,12,06,322,27,1*67
$GPGSV,2,1,08,195,67,040,47,196,61,131,45,199,60,167,46,06,50,324,44,8*55
$GPGSV,2,2,08,194,45,169,43,14,35,178,45,09,28,116,38,11,23,276,42,8*57
$GLGSV,2,1,08,67,49,079,30,68,38,155,42,82,37,024,30,80,32,240,45,1*75
$GLGSV,2,2,08,83,30,329,29,73,22,301,37,66,13,033,16,79,08,191,20,1*71
$GAGSV,2,1,08,24,56,256,40,12,50,004,33,10,48,322,34,31,35,183,40,7*79
$GAGSV,2,2,08,11,33,291,37,19,28,095,33,04,21,158,21,33,18,057,32,7*79
$GAGSV,2,1,08,24,56,256,45,12,50,004,40,10,48,322,39,31,35,183,43,1*70
$GAGSV,2,2,08,11,33,291,38,19,28,095,34,04,21,158,26,33,18,057,18,1*78
$GBGSV,4,1,14,40,83,085,41,07,83,275,40,10,71,303,40,14,60,103,43,1*7C
$GBGSV,4,2,14,08,59,259,37,43,54,040,40,33,54,158,44,13,49,249,42,1*76
$GBGSV,4,3,14,42,45,063,34,11,36,070,,28,33,317,41,23,24,228,17,1*70
$GBGSV,4,4,14,37,18,282,33,41,14,197,34,1*7E
$GBGSV,2,1,07,40,83,085,46,33,54,158,46,43,54,040,42,42,45,063,29,4*75
$GBGSV,2,2,07,28,33,317,37,37,18,282,24,41,14,197,36,4*46
$GNGGA,032509.000,2500.8245433,N,12132.4517171,E,2,57,0.50,16.630,M,15.25,M,2,3335*45
$GNRMC,032509.000,A,2500.8245433,N,12132.4517171,E,0.00,246.18,270623,,,D,V*02
$GPHDT,91.095,T*01
$GNGGA,032509.200,2500.8245553,N,12132.4517171,E,2,57,0.50,16.612,M,15.25,M,2,3335*40
$GNRMC,032509.200,A,2500.8245553,N,12132.4517171,E,0.00,246.18,270623,,,D,V*07
$GPHDT,91.036,T*08
$GNGGA,032509.400,2500.8245673,N,12132.4517231,E,2,57,0.50,16.587,M,15.25,M,2,3335*4F
$GNRMC,032509.400,A,2500.8245673,N,12132.4517231,E,0.00,246.18,270623,,,D,V*07
$GPHDT,91.035,T*0B
$GNGGA,032509.600,2500.8245793,N,12132.4517291,E,2,57,0.50,16.560,M,15.25,M,2,3335*41
$GNRMC,032509.600,A,2500.8245793,N,12132.4517291,E,0.00,246.18,270623,,,D,V*00
$GPHDT,91.399,T*0E
$GNGGA,032509.800,2500.8245913,N,12132.4517291,E,2,57,0.50,16.535,M,15.25,M,2,3335*49
$GNRMC,032509.800,A,2500.8245913,N,12132.4517291,E,0.00,246.18,270623,,,D,V*08
$GPHDT,91.459,T*05
$GNGSA,A,3,195,17,196,199,19,06,194,14,09,11,,,0.97,0.50,0.83,1*0B
$GNGSA,A,3,67,68,82,80,73,,,,,,,,0.97,0.50,0.83,2*0B
$GNGSA,A,3,24,12,10,31,11,19,04,33,,,,,0.97,0.50,0.83,3*09
$GNGSA,A,3,40,07,10,14,08,43,33,13,42,28,37,41,0.97,0.50,0.83,4*03
$GPGSV,3,1,12,195,67,040,42,17,64,052,37,196,61,131,39,199,60,167,38,1*50
$GPGSV,3,2,12,19,59,002,42,06,50,324,38,194,45,169,41,41,38,242,43,1*50
$GPGSV,3,3,12,14,35,178,42,09,28,116,39,11,23,276,40,12,06,322,26,1*67
$GPGSV,2,1,08,195,67,040,47,196,61,131,45,199,60,167,46,06,50,324,44,8*55
$GPGSV,2,2,08,194,45,169,44,14,35,178,45,09,28,116,38,11,23,276,42,8*50
$GLGSV,2,1,08,67,49,079,31,68,38,155,42,82,37,024,30,80,32,240,45,1*74
$GLGSV,2,2,08,83,30,329,29,73,22,301,37,66,13,033,16,79,08,191,20,1*71
$GAGSV,2,1,08,24,56,256,40,12,50,004,32,10,48,322,33,31,35,183,40,7*7F
$GAGSV,2,2,08,11,33,291,37,19,28,095,33,04,21,158,21,33,18,057,31,7*7A
$GAGSV,2,1,08,24,56,256,45,12,50,004,40,10,48,322,40,31,35,183,43,1*7E
$GAGSV,2,2,08,11,33,291,38,19,28,095,34,04,21,158,26,33,18,057,18,1*78
$GBGSV,4,1,14,40,83,085,41,07,83,275,40,10,71,303,40,14,60,103,43,1*7C
$GBGSV,4,2,14,08,59,259,37,43,54,040,40,33,54,158,45,13,49,249,42,1*77
$GBGSV,4,3,14,42,45,063,34,11,36,070,,28,33,317,41,23,24,228,15,1*72
$GBGSV,4,4,14,37,18,282,34,41,14,197,34,1*79
$GBGSV,2,1,07,40,83,085,46,33,54,158,46,43,54,040,42,42,45,063,29,4*75
$GBGSV,2,2,07,28,33,317,37,37,18,282,25,41,14,197,36,4*47
$GNGGA,032510.000,2500.8246033,N,12132.4517291,E,2,57,0.50,16.506,M,15.25,M,3,3335*40
$GNRMC,032510.000,A,2500.8246033,N,12132.4517291,E,0.00,246.18,270623,,,D,V*00
$GPHDT,91.104,T*08
$GNGGA,032510.200,2500.8246153,N,12132.4517291,E,2,57,0.50,16.480,M,15.25,M,3,3335*4A
$GNRMC,032510.200,A,2500.8246153,N,12132.4517291,E,0.00,246.18,270623,,,D,V*05
$GPHDT,91.116,T*0B
$GNGGA,032510.400,2500.8246273,N,12132.4517291,E,2,57,0.50,16.457,M,15.25,M,3,3335*47
$GNRMC,032510.400,A,2500.8246273,N,12132.4517291,E,0.00,246.18,270623,,,D,V*02
$GPHDT,91.267,T*0E
$GNGGA,032510.600,2500.8246333,N,12132.4517291,E,2,57,0.50,16.431,M,15.25,M,3,3335*40
$GNRMC,032510.600,A,2500.8246333,N,12132.4517291,E,0.00,246.18,270623,,,D,V*05
$GPHDT,91.007,T*0A
$GNGGA,032510.800,2500.8246453,N,12132.4517351,E,2,57,0.50,16.403,M,15.25,M,3,3335*43
$GNRMC,032510.800,A,2500.8246453,N,12132.4517351,E,0.00,246.18,270623,,,D,V*07
$GPHDT,91.443,T*0E
$GNGSA,A,3,195,17,196,199,19,06,194,14,09,11,,,0.97,0.50,0.83,1*0B
$GNGSA,A,3,67,68,82,80,73,,,,,,,,0.97,0.50,0.83,2*0B
$GNGSA,A,3,24,12,10,31,11,19,04,33,,,,,0.97,0.50,0.83,3*09
$GNGSA,A,3,40,07,10,14,08,43,33,13,42,28,37,41,0.97,0.50,0.83,4*03
$GPGSV,3,1,12,195,67,040,42,17,64,052,37,196,61,131,39,199,60,167,38,1*50
$GPGSV,3,2,12,19,59,002,42,06,50,324,37,194,45,169,41,41,38,242,43,1*5F
$GPGSV,3,3,12,14,35,178,42,09,28,116,39,11,23,276,40,12,06,322,26,1*67
$GPGSV,2,1,08,195,67,040,47,196,61,131,45,199,60,167,47,06,50,324,44,8*54
$GPGSV,2,2,08,194,45,169,44,14,35,178,45,09,28,116,38,11,23,276,42,8*50
$GLGSV,2,1,08,67,49,079,31,68,38,155,42,82,37,024,31,80,32,240,45,1*75
$GLGSV,2,2,08,83,30,329,29,73,22,301,37,66,13,033,14,79,08,191,20,1*73
$GAGSV,2,1,08,24,56,256,40,12,50,004,32,10,48,322,32,31,35,183,40,7*7E
$GAGSV,2,2,08,11,33,291,37,19,28,095,33,04,21,158,21,33,18,057,31,7*7A
$GAGSV,2,1,08,24,56,256,45,12,50,004,40,10,48,322,41,31,35,183,43,1*7F
$GAGSV,2,2,08,11,33,291,38,19,28,095,34,04,21,158,26,33,18,057,18,1*78
$GBGSV,4,1,14,40,83,085,40,07,83,275,40,10,71,303,40,14,60,103,43,1*7D
$GBGSV,4,2,14,08,59,259,37,43,54,040,40,33,54,158,45,13,49,249,42,1*77
$GBGSV,4,3,14,42,45,063,34,11,36,070,,28,33,317,41,23,24,228,17,1*70
$GBGSV,4,4,14,37,18,282,34,41,14,197,34,1*79
$GBGSV,2,1,07,40,83,085,46,33,54,158,46,43,54,040,42,42,45,063,29,4*75
$GBGSV,2,2,07,28,33,317,38,37,18,282,26,41,14,197,36,4*4B
$GNGGA,032511.000,2500.8246573,N,12132.4517351,E,2,57,0.50,16.376,M,15.25,M,4,3335*4B
$GNRMC,032511.000,A,2500.8246573,N,12132.4517351,E,0.00,246.18,270623,,,D,V*0D
$GPHDT,91.179,T*02
$GNGGA,032511.200,2500.8246633,N,12132.4517351,E,2,58,0.47,16.351,M,15.25,M,4,3335*42
$GNRMC,032511.200,A,2500.8246633,N,12132.4517351,E,0.00,246.18,270623,,,D,V*08
$GPHDT,90.882,T*0E
$GNGGA,032511.400,2500.8246693,N,12132.4517351,E,2,58,0.47,16.325,M,15.25,M,4,3335*4D
$GNRMC,032511.400,A,2500.8246693,N,12132.4517351,E,0.00,246.18,270623,,,D,V*04
$GPHDT,91.110,T*0D
$GNGGA,032511.600,2500.8246813,N,12132.4517351,E,2,58,0.47,16.297,M,15.25,M,2,3335*47
$GNRMC,032511.600,A,2500.8246813,N,12132.4517351,E,0.00,246.18,270623,,,D,V*00
$GPHDT,90.908,T*0D
$GNGGA,032511.800,2500.8246933,N,12132.4517291,E,2,58,0.47,16.266,M,15.25,M,0,3335*4B
$GNRMC,032511.800,A,2500.8246933,N,12132.4517291,E,0.00,246.18,270623,,,D,V*00
$GPHDT,90.879,T*0A
$GNGSA,A,3,195,17,196,199,19,06,194,14,09,11,,,0.97,0.50,0.83,1*0B
$GNGSA,A,3,67,68,82,80,73,,,,,,,,0.97,0.50,0.83,2*0B
$GNGSA,A,3,24,12,10,31,11,19,04,33,,,,,0.97,0.50,0.83,3*09
$GNGSA,A,3,40,07,10,14,08,43,33,13,42,28,37,41,0.97,0.50,0.83,4*03
$GPGSV,3,1,12,195,67,040,42,17,64,052,37,196,61,131,39,199,60,167,38,1*50
$GPGSV,3,2,12,19,59,002,41,06,50,324,36,194,45,169,42,41,38,242,43,1*5E
$GPGSV,3,3,12,14,35,178,42,09,28,116,40,11,23,276,40,12,06,322,25,1*6A
$GPGSV,2,1,08,195,67,040,47,196,61,131,46,199,60,167,47,06,50,324,44,8*57
$GPGSV,2,2,08,194,45,169,44,14,35,178,45,09,28,116,38,11,23,276,42,8*50
$GLGSV,2,1,08,67,49,079,32,68,38,155,42,82,37,024,31,80,32,240,45,1*76
$GLGSV,2,2,08,83,30,329,29,73,22,301,37,66,13,033,17,79,08,191,19,1*7A
$GAGSV,2,1,08,24,56,256,40,12,50,004,31,10,48,322,31,31,35,183,40,7*7E
$GAGSV,2,2,08,11,33,291,38,19,28,095,33,04,21,158,20,33,18,057,31,7*74
$GAGSV,2,1,08,24,56,256,45,12,50,004,40,10,48,322,41,31,35,183,44,1*78
$GAGSV,2,2,08,11,33,291,38,19,28,095,34,04,21,158,26,33,18,057,18,1*78
$GBGSV,4,1,14,40,83,085,40,07,83,275,40,10,71,303,40,14,60,103,43,1*7D
$GBGSV,4,2,14,08,59,259,37,43,54,040,40,33,54,158,45,13,49,249,42,1*77
$GBGSV,4,3,14,42,45,063,34,11,36,070,,28,33,317,41,23,24,228,,1*76
$GBGSV,4,4,14,37,18,282,33,41,14,197,34,1*7E
$GBGSV,2,1,07,40,83,085,46,33,54,158,46,43,54,040,42,42,45,063,29,4*75
$GBGSV,2,2,07,28,33,317,38,37,18,282,26,41,14,197,36,4*4B
$GNGGA,032512.000,2500.8247053,N,12132.4517291,E,2,57,0.50,16.233,M,15.25,M,1,3335*46
$GNRMC,032512.000,A,2500.8247053,N,12132.4517291,E,0.00,246.18,270623,,,D,V*05
$GPHDT,91.110,T*0D
$GNGGA,032512.200,2500.8247113,N,12132.4517291,E,2,57,0.50,16.207,M,15.25,M,1,3335*46
$GNRMC,032512.200,A,2500.8247113,N,12132.4517291,E,0.00,246.18,270623,,,D,V*02
$GPHDT,90.992,T*0E
$GNGGA,032512.400,2500.8247233,N,12132.4517291,E,2,57,0.50,16.180,M,15.25,M,1,3335*4D
$GNRMC,032512.400,A,2500.8247233,N,12132.4517291,E,0.00,246.18,270623,,,D,V*05
$GPHDT,91.245,T*0E
$GNGGA,032512.600,2500.8247353,N,12132.4517231,E,2,57,0.50,16.159,M,15.25,M,1,3335*46
$GNRMC,032512.600,A,2500.8247353,N,12132.4517231,E,0.00,246.18,270623,,,D,V*0A
$GPHDT,91.080,T*05
$GNGGA,032512.800,2500.8247473,N,12132.4517291,E,2,57,0.50,16.139,M,15.25,M,1,3335*41
$GNRMC,032512.800,A,2500.8247473,N,12132.4517291,E,0.00,246.18,270623,,,D,V*0B
$GPHDT,90.836,T*01
$GNGSA,A,3,195,17,196,199,19,06,194,14,09,11,,,0.97,0.50,0.83,1*0B
$GNGSA,A,3,67,68,82,80,73,,,,,,,,0.97,0.50,0.83,2*0B
$GNGSA,A,3,24,12,10,31,11,19,04,33,,,,,0.97,0.50,0.83,3*09
$GNGSA,A,3,40,07,10,14,08,43,33,13,42,28,37,41,0.97,0.50,0.83,4*03
$GPGSV,3,1,12,195,67,040,42,17,64,052,37,196,61,131,39,199,60,167,38,1*50
$GPGSV,3,2,12,19,59,002,41,06,50,324,37,194,45,169,42,41,38,242,43,1*5F
$GPGSV,3,3,12,14,35,178,42,09,28,116,40,11,23,276,40,12,06,322,25,1*6A
$GPGSV,2,1,08,195,67,040,47,196,61,131,46,199,60,167,47,06,50,324,44,8*57
$GPGSV,2,2,08,194,45,169,44,14,35,178,45,09,28,116,38,11,23,276,42,8*50
$GLGSV,2,1,08,67,49,079,30,68,38,155,42,82,37,024,31,80,32,240,45,1*74
$GLGSV,2,2,08,83,30,329,29,73,22,301,37,66,13,033,17,79,08,191,19,1*7A
$GAGSV,2,1,08,24,56,256,40,12,50,004,32,10,48,322,31,31,35,183,40,7*7D
$GAGSV,2,2,08,11,33,291,38,19,28,095,33,04,21,158,21,33,18,057,30,7*74
$GAGSV,2,1,08,24,56,256,45,12,50,004,40,10,48,322,41,31,35,183,44,1*78
$GAGSV,2,2,08,11,33,291,38,19,28,095,34,04,21,158,26,33,18,057,17,1*77
$GBGSV,4,1,14,40,83,085,40,07,83,275,40,10,71,303,40,14,60,103,43,1*7D
$GBGSV,4,2,14,08,59,259,37,43,54,040,40,33,54,158,45,13,49,249,42,1*77
$GBGSV,4,3,14,42,45,063,33,11,36,070,,28,33,317,41,23,24,228,,1*71
$GBGSV,4,4,14,37,18,282,34,41,14,197,34,1*79
$GBGSV,2,1,07,40,83,085,46,33,54,158,46,43,54,040,42,42,45,063,29,4*75
$GBGSV,2,2,07,28,33,317,38,37,18,282,26,41,14,197,36,4*4B
$GNGGA,032513.000,2500.8247593,N,12132.4517231,E,2,57,0.50,16.110,M,15.25,M,2,3335*45
$GNRMC,032513.000,A,2500.8247593,N,12132.4517231,E,0.00,246.18,270623,,,D,V*07
$GPHDT,91.277,T*0F
$GNGGA,032513.200,2500.8247713,N,12132.4517231,E,2,57,0.50,16.083,M,15.25,M,1,3335*45
$GNRMC,032513.200,A,2500.8247713,N,12132.4517231,E,0.00,246.18,270623,,,D,V*0F
$GPHDT,91.288,T*0F
$GNGGA,032513.400,2500.8247833,N,12132.4517231,E,2,58,0.47,16.059,M,15.25,M,1,3335*40
$GNRMC,032513.400,A,2500.8247833,N,12132.4517231,E,0.00,246.18,270623,,,D,V*04
$GPHDT,91.236,T*0A
$GNGGA,032513.600,2500.8247953,N,12132.4517231,E,2,58,0.47,16.038,M,15.25,M,0,3335*43
$GNRMC,032513.600,A,2500.8247953,N,12132.4517231,E,0.00,246.18,270623,,,D,V*01
