$FW : RTK35X,V1.1X0314AS,Lib20210517,1*54
$Tool : LOCOSYS , GNSS Firebird , v1.0.0.19*39
$---------------------------------------------------*2D
$GNGSA,A,3,195,17,196,199,19,06,194,14,09,11,,,0.94,0.47,0.81,1*0C
$GNGSA,A,3,67,82,68,80,73,,,,,,,,0.94,0.47,0.81,2*0C
$GNGSA,A,3,24,12,10,31,11,19,04,33,,,,,0.94,0.47,0.81,3*0E
$GNGSA,A,3,07,40,10,14,08,43,33,13,42,11,28,37,0.94,0.47,0.81,4*01
$GNGSA,A,3,41,23,,,,,,,,,,,0.94,0.47,0.81,4*07
$GPGSV,3,1,12,195,67,040,41,17,64,050,36,196,60,131,40,199,60,167,36,1*51
$GPGSV,3,2,12,19,59,001,37,06,50,324,42,194,45,169,43,41,38,242,38,1*52
$GPGSV,3,3,12,14,36,179,43,09,28,117,39,11,23,275,33,12,06,322,28,1*6C
$GPGSV,2,1,08,195,67,040,46,199,60,167,46,196,60,131,45,06,50,324,41,8*50
$GPGSV,2,2,08,194,45,169,43,14,36,179,44,09,28,117,41,11,23,275,31,8*5C
$GLGSV,2,1,06,67,48,081,21,82,37,022,32,68,37,155,43,80,33,241,40,1*72
$GLGSV,2,2,06,73,22,302,31,79,09,192,18,1*7D
$GAGSV,2,1,08,24,56,257,38,12,50,004,27,10,48,322,36,31,36,183,39,7*7D
$GAGSV,2,2,08,11,32,290,23,19,28,096,33,04,21,158,22,33,18,056,32,7*7D
$GAGSV,2,1,08,24,56,257,43,12,50,004,31,10,48,322,38,31,36,183,42,1*72
$GAGSV,2,2,08,11,32,290,32,19,28,096,32,04,21,158,30,33,18,056,33,1*78
$GBGSV,4,1,14,07,83,278,40,40,83,082,41,10,71,303,41,14,60,104,41,1*72
$GBGSV,4,2,14,08,59,258,36,43,54,039,40,33,54,158,45,13,49,248,38,1*75
$GBGSV,4,3,14,42,45,064,23,11,36,069,30,28,32,316,39,23,25,228,,1*72
$GBGSV,4,4,14,37,18,282,19,41,13,197,35,1*70
$GBGSV,2,1,08,40,83,082,44,33,54,158,47,43,54,039,39,42,45,064,25,4*77
$GBGSV,2,2,08,28,32,316,37,23,25,228,19,37,18,282,29,41,13,197,35,4*76
$GNGGA,032348.000,2500.8235307,N,12132.4514969,E,2,60,0.47,18.250,M,15.25,M,1,3335*4E
$GNRMC,032348.000,A,2500.8235307,N,12132.4514969,E,0.00,246.18,270623,,,D,V*04
$GPHDT,227.156,T*30
$GNGGA,032348.200,2500.8235307,N,12132.4515029,E,2,60,0.47,18.270,M,15.25,M,1,3335*42
$GNRMC,032348.200,A,2500.8235307,N,12132.4515029,E,0.00,246.18,270623,,,D,V*0A
$GPHDT,227.424,T*30
$GNGGA,032348.400,2500.8235247,N,12132.4515149,E,2,60,0.47,18.292,M,15.25,M,1,3335*4A
$GNRMC,032348.400,A,2500.8235247,N,12132.4515149,E,0.00,246.18,270623,,,D,V*0E
$GPHDT,227.016,T*35
$GNGGA,032348.600,2500.8235247,N,12132.4515269,E,2,60,0.47,18.313,M,15.25,M,0,3335*40
$GNRMC,032348.600,A,2500.8235247,N,12132.4515269,E,0.00,246.18,270623,,,D,V*0D
$GPHDT,227.153,T*35
$GNGGA,032348.800,2500.8235187,N,12132.4515269,E,2,60,0.47,18.335,M,15.25,M,0,3335*45
$GNRMC,032348.800,A,2500.8235187,N,12132.4515269,E,0.00,246.18,270623,,,D,V*0C
$GPHDT,227.167,T*32
$GNGSA,A,3,195,17,196,199,19,06,194,14,09,11,,,0.94,0.47,0.81,1*0C
$GNGSA,A,3,67,82,68,80,73,,,,,,,,0.94,0.47,0.81,2*0C
$GNGSA,A,3,24,12,10,31,11,19,04,33,,,,,0.94,0.47,0.81,3*0E
$GNGSA,A,3,07,40,10,14,08,43,33,13,42,11,28,37,0.94,0.47,0.81,4*01
$GNGSA,A,3,41,23,,,,,,,,,,,0.94,0.47,0.81,4*07
$GPGSV,3,1,12,195,67,040,41,17,64,050,35,196,60,131,40,199,60,167,36,1*52
$GPGSV,3,2,12,19,59,001,37,06,50,324,42,194,45,169,43,41,38,242,38,1*52
$GPGSV,3,3,12,14,36,179,43,09,28,117,39,11,23,275,32,12,06,322,28,1*6D
$GPGSV,2,1,08,195,67,040,46,199,60,167,46,196,60,131,45,06,50,324,41,8*50
$GPGSV,2,2,08,194,45,169,44,14,36,179,43,09,28,117,41,11,23,275,31,8*5C
$GLGSV,2,1,06,67,48,081,22,82,37,022,32,68,37,155,43,80,33,241,41,1*70
$GLGSV,2,2,06,73,22,302,32,79,09,192,17,1*71
$GAGSV,2,1,08,24,56,257,38,12,50,004,29,10,48,322,36,31,36,183,39,7*73
$GAGSV,2,2,08,11,32,290,23,19,28,096,33,04,21,158,21,33,18,056,34,7*78
$GAGSV,2,1,08,24,56,257,43,12,50,004,33,10,48,322,38,31,36,183,40,1*72
$GAGSV,2,2,08,11,32,290,33,19,28,096,32,04,21,158,30,33,18,056,34,1*7E
$GBGSV,4,1,14,07,83,278,40,40,83,082,42,10,71,303,41,14,60,104,41,1*71
$GBGSV,4,2,14,08,59,258,37,43,54,039,40,33,54,158,45,13,49,248,38,1*74
$GBGSV,4,3,14,42,45,064,23,11,36,069,28,28,32,316,40,23,25,228,,1*75
$GBGSV,4,4,14,37,18,282,16,41,13,197,36,1*7C
$GBGSV,2,1,08,40,83,082,44,33,54,158,46,43,54,039,39,42,45,064,28,4*7B
$GBGSV,2,2,08,28,32,316,37,23,25,228,19,37,18,282,29,41,13,197,35,4*76
$GNGGA,032349.000,2500.8235187,N,12132.4515329,E,2,60,0.47,18.362,M,15.25,M,1,3335*4A
$GNRMC,032349.000,A,2500.8235187,N,12132.4515329,E,0.00,246.18,270623,,,D,V*00
$GPHDT,227.210,T*31
$GNGGA,032349.200,2500.8235187,N,12132.4515329,E,2,60,0.47,18.387,M,15.25,M,1,3335*43
$GNRMC,032349.200,A,2500.8235187,N,12132.4515329,E,0.00,246.18,270623,,,D,V*02
$GPHDT,227.198,T*32
$GNGGA,032349.400,2500.8235187,N,12132.4515389,E,2,60,0.47,18.405,M,15.25,M,1,3335*42
$GNRMC,032349.400,A,2500.8235187,N,12132.4515389,E,0.00,246.18,270623,,,D,V*0E
$GPHDT,227.211,T*30
$GNGGA,032349.600,2500.8235187,N,12132.4515449,E,2,60,0.47,18.427,M,15.25,M,1,3335*4B
$GNRMC,032349.600,A,2500.8235187,N,12132.4515449,E,0.00,246.18,270623,,,D,V*07
$GPHDT,227.234,T*37
$GNGGA,032349.800,2500.8235127,N,12132.4515449,E,2,59,0.48,18.440,M,15.25,M,1,3335*4B
$GNRMC,032349.800,A,2500.8235127,N,12132.4515449,E,0.00,246.18,270623,,,D,V*03
$GPHDT,227.151,T*37
$GNGSA,A,3,195,17,196,199,19,06,194,14,09,11,,,0.95,0.48,0.82,1*01
$GNGSA,A,3,67,68,82,80,73,,,,,,,,0.95,0.48,0.82,2*01
$GNGSA,A,3,24,12,10,31,11,19,04,33,,,,,0.95,0.48,0.82,3*03
$GNGSA,A,3,40,07,10,14,08,43,33,13,42,28,37,41,0.95,0.48,0.82,4*09
$GNGSA,A,3,23,,,,,,,,,,,,0.95,0.48,0.82,4*0F
$GPGSV,3,1,12,195,67,040,41,17,64,050,36,196,60,131,40,199,60,167,36,1*51
$GPGSV,3,2,12,19,59,001,37,06,50,324,42,194,45,169,43,41,38,242,39,1*53
$GPGSV,3,3,12,14,36,179,43,09,28,117,39,11,23,275,31,12,06,322,29,1*6F
$GPGSV,2,1,08,195,67,040,46,199,60,167,46,196,60,131,45,06,50,324,41,8*50
$GPGSV,2,2,08,194,45,169,44,14,36,179,43,09,28,117,41,11,23,275,24,8*58
$GLGSV,2,1,07,67,48,081,24,68,37,155,42,82,37,022,33,80,33,241,41,1*77
$GLGSV,2,2,07,83,30,328,,73,22,302,33,79,09,192,14,1*43
$GAGSV,2,1,08,24,56,257,39,12,50,004,29,10,48,322,36,31,36,183,39,7*72
$GAGSV,2,2,08,11,32,290,27,19,28,096,33,04,21,158,20,33,18,056,34,7*7D
$GAGSV,2,1,08,24,56,257,43,12,50,004,34,10,48,322,38,31,36,183,40,1*75
$GAGSV,2,2,08,11,32,290,33,19,28,096,32,04,21,158,31,33,18,056,32,1*79
$GBGSV,4,1,14,40,83,082,42,07,83,278,40,10,71,303,41,14,60,104,41,1*71
$GBGSV,4,2,14,08,59,258,37,43,54,039,40,33,54,158,45,13,49,248,39,1*75
$GBGSV,4,3,14,42,45,064,23,11,36,069,,28,32,316,40,23,25,228,,1*7F
$GBGSV,4,4,14,37,18,282,18,41,13,197,36,1*72
$GBGSV,2,1,08,40,83,082,44,33,54,158,46,43,54,039,39,42,45,064,29,4*7A
$GBGSV,2,2,08,28,32,316,37,23,25,228,20,37,18,282,21,41,13,197,35,4*74
$GNGGA,032350.000,2500.8235127,N,12132.4515629,E,2,59,0.48,18.465,M,15.25,M,2,3335*4B
$GNRMC,032350.000,A,2500.8235127,N,12132.4515629,E,0.00,246.18,270623,,,D,V*07
$GPHDT,227.076,T*33
$GNGGA,032350.200,2500.8235127,N,12132.4515749,E,2,59,0.48,18.493,M,15.25,M,2,3335*47
$GNRMC,032350.200,A,2500.8235127,N,12132.4515749,E,0.00,246.18,270623,,,D,V*02
$GPHDT,226.955,T*3A
$GNGGA,032350.400,2500.8235067,N,12132.4515869,E,2,58,0.48,18.526,M,15.25,M,2,3335*47
$GNRMC,032350.400,A,2500.8235067,N,12132.4515869,E,0.00,246.18,270623,,,D,V*0C
$GPHDT,227.109,T*3A
$GNGGA,032350.600,2500.8234947,N,12132.4515989,E,2,59,0.48,18.555,M,15.25,M,2,3335*45
$GNRMC,032350.600,A,2500.8234947,N,12132.4515989,E,0.00,246.18,270623,,,D,V*0B
$GPHDT,226.966,T*3A
$GNGGA,032350.800,2500.8234887,N,12132.4515929,E,2,59,0.48,18.569,M,15.25,M,2,3335*43
$GNRMC,032350.800,A,2500.8234887,N,12132.4515929,E,0.00,246.18,270623,,,D,V*02
$GPHDT,227.172,T*36
$GNGSA,A,3,195,17,196,199,19,06,194,14,09,11,,,0.95,0.48,0.82,1*01
$GNGSA,A,3,67,68,82,80,73,,,,,,,,0.95,0.48,0.82,2*01
$GNGSA,A,3,24,12,10,31,11,19,04,33,,,,,0.95,0.48,0.82,3*03
$GNGSA,A,3,40,07,10,14,08,43,33,13,42,28,37,41,0.95,0.48,0.82,4*09
$GNGSA,A,3,23,,,,,,,,,,,,0.95,0.48,0.82,4*0F
$GPGSV,3,1,12,195,67,040,41,17,64,050,36,196,60,131,40,199,60,167,36,1*51
$GPGSV,3,2,12,19,59,001,37,06,50,324,41,194,45,169,43,41,38,242,39,1*50
$GPGSV,3,3,12,14,36,179,43,09,28,117,39,11,23,275,32,12,06,322,28,1*6D
$GPGSV,2,1,08,195,67,040,46,199,60,167,46,196,60,131,45,06,50,324,41,8*50
$GPGSV,2,2,08,194,45,169,44,14,36,179,43,09,28,117,41,11,23,275,23,8*5F
$GLGSV,2,1,07,67,48,081,27,68,37,155,42,82,37,022,33,80,33,241,41,1*74
$GLGSV,2,2,07,83,30,328,,73,22,302,33,79,09,192,13,1*44
$GAGSV,2,1,08,24,56,257,39,12,50,004,30,10,48,322,36,31,36,183,39,7*7A
$GAGSV,2,2,08,11,32,290,29,19,28,096,33,04,21,158,20,33,18,057,34,7*72
$GAGSV,2,1,08,24,56,257,43,12,50,004,34,10,48,322,38,31,36,183,40,1*75
$GAGSV,2,2,08,11,32,290,32,19,28,096,33,04,21,158,31,33,18,057,32,1*78
$GBGSV,4,1,14,40,83,082,42,07,83,278,40,10,71,303,41,14,60,104,41,1*71
$GBGSV,4,2,14,08,59,258,37,43,54,039,40,33,54,158,45,13,49,248,39,1*75
$GBGSV,4,3,14,42,45,064,21,11,36,069,,28,32,316,40,23,25,228,,1*7D
$GBGSV,4,4,14,37,18,282,21,41,13,197,36,1*78
$GBGSV,2,1,08,40,83,082,45,33,54,158,46,43,54,039,39,42,45,064,30,4*73
$GBGSV,2,2,08,28,32,316,38,23,25,228,22,37,18,282,22,41,13,197,35,4*7A
$GNGGA,032351.000,2500.8234827,N,12132.4515929,E,2,59,0.48,18.582,M,15.25,M,3,3335*44
$GNRMC,032351.000,A,2500.8234827,N,12132.4515929,E,0.00,246.18,270623,,,D,V*01
$GPHDT,227.278,T*3F
$GNGGA,032351.200,2500.8234767,N,12132.4515989,E,2,59,0.48,18.597,M,15.25,M,3,3335*43
$GNRMC,032351.200,A,2500.8234767,N,12132.4515989,E,0.00,246.18,270623,,,D,V*02
$GPHDT,227.262,T*34
$GNGGA,032351.400,2500.8234707,N,12132.4515989,E,2,58,0.48,18.612,M,15.25,M,3,3335*4C
$GNRMC,032351.400,A,2500.8234707,N,12132.4515989,E,0.00,246.18,270623,,,D,V*02
$GPHDT,227.144,T*33
$GNGGA,032351.600,2500.8234647,N,12132.4516049,E,2,58,0.48,18.626,M,15.25,M,3,3335*4A
$GNRMC,032351.600,A,2500.8234647,N,12132.4516049,E,0.00,246.18,270623,,,D,V*03
$GPHDT,227.131,T*31
$GNGGA,032351.800,2500.8234647,N,12132.4516109,E,2,58,0.48,18.636,M,15.25,M,3,3335*40
$GNRMC,032351.800,A,2500.8234647,N,12132.4516109,E,0.00,246.18,270623,,,D,V*08
$GPHDT,227.054,T*33
$GNGSA,A,3,195,17,196,199,19,06,194,14,09,11,,,0.95,0.48,0.82,1*01
$GNGSA,A,3,67,68,82,80,73,,,,,,,,0.95,0.48,0.82,2*01
$GNGSA,A,3,24,12,10,31,11,19,04,33,,,,,0.95,0.48,0.82,3*03
$GNGSA,A,3,07,40,10,14,08,43,33,13,42,28,37,41,0.95,0.48,0.82,4*09
$GNGSA,A,3,23,,,,,,,,,,,,0.95,0.48,0.82,4*0F
$GPGSV,3,1,12,195,67,040,41,17,64,050,36,196,60,131,41,199,60,167,36,1*50
$GPGSV,3,2,12,19,59,001,37,06,50,324,41,194,45,169,43,41,38,242,39,1*50
$GPGSV,3,3,12,14,36,179,43,09,28,117,39,11,23,275,31,12,06,322,29,1*6F
$GPGSV,2,1,08,195,67,040,46,196,60,131,45,199,60,167,46,06,50,324,40,8*51
$GPGSV,2,2,08,194,45,169,44,14,36,179,43,09,28,117,41,11,23,275,23,8*5F
$GLGSV,2,1,06,67,48,080,27,68,38,155,42,82,37,022,33,80,33,241,41,1*7B
$GLGSV,2,2,06,73,22,302,33,79,09,192,15,1*72
$GAGSV,2,1,08,24,56,257,39,12,50,004,29,10,48,322,35,31,36,183,39,7*71
$GAGSV,2,2,08,11,32,290,29,19,28,096,33,04,21,158,23,33,18,057,35,7*70
$GAGSV,2,1,08,24,56,257,43,12,50,004,34,10,48,322,38,31,36,183,40,1*75
$GAGSV,2,2,08,11,32,290,32,19,28,096,33,04,21,158,31,33,18,057,32,1*78
$GBGSV,4,1,14,07,83,278,40,40,83,082,42,10,71,303,41,14,60,104,41,1*71
$GBGSV,4,2,14,08,59,258,37,43,54,039,40,33,54,158,45,13,49,248,38,1*74
$GBGSV,4,3,14,42,45,064,19,11,36,069,,28,32,316,40,23,25,228,,1*76
$GBGSV,4,4,14,37,18,282,23,41,13,197,36,1*7A
$GBGSV,2,1,07,40,83,082,45,33,54,158,46,43,54,039,39,42,45,064,29,4*74
$GBGSV,2,2,07,28,32,316,38,23,25,228,22,41,13,197,35,4*40
$GNGGA,032352.000,2500.8234587,N,12132.4516049,E,2,58,0.48,18.652,M,15.25,M,4,3335*44
$GNRMC,032352.000,A,2500.8234587,N,12132.4516049,E,0.00,246.18,270623,,,D,V*09
$GPHDT,226.854,T*3A
$GNGGA,032352.200,2500.8234527,N,12132.4516109,E,2,58,0.48,18.659,M,15.25,M,4,3335*42
$GNRMC,032352.200,A,2500.8234527,N,12132.4516109,E,0.00,246.18,270623,,,D,V*04
$GPHDT,227.165,T*30
$GNGGA,032352.400,2500.8234467,N,12132.4516049,E,2,58,0.48,18.670,M,15.25,M,1,3335*4A
$GNRMC,032352.400,A,2500.8234467,N,12132.4516049,E,0.00,246.18,270623,,,D,V*02
$GPHDT,227.188,T*33
$GNGGA,032352.600,2500.8234467,N,12132.4516049,E,2,58,0.48,18.673,M,15.25,M,1,3335*4B
$GNRMC,032352.600,A,2500.8234467,N,12132.4516049,E,0.00,246.18,270623,,,D,V*00
$GPHDT,227.326,T*35
$GNGGA,032352.800,2500.8234407,N,12132.4515989,E,2,58,0.48,18.683,M,15.25,M,1,3335*4A
$GNRMC,032352.800,A,2500.8234407,N,12132.4515989,E,0.00,246.18,270623,,,D,V*0E
$GPHDT,226.943,T*3D
$GNGSA,A,3,195,17,196,199,19,06,194,14,09,11,,,0.94,0.47,0.81,1*0C
$GNGSA,A,3,67,68,82,80,73,,,,,,,,0.94,0.47,0.81,2*0C
$GNGSA,A,3,24,12,10,31,11,19,04,33,,,,,0.94,0.47,0.81,3*0E
$GNGSA,A,3,07,40,10,14,08,43,33,13,42,11,28,37,0.94,0.47,0.81,4*01
$GNGSA,A,3,41,23,,,,,,,,,,,0.94,0.47,0.81,4*07
$GPGSV,3,1,12,195,67,040,41,17,64,050,36,196,60,131,41,199,60,167,35,1*53
$GPGSV,3,2,12,19,59,001,37,06,50,324,41,194,45,169,43,41,38,242,39,1*50
$GPGSV,3,3,12,14,36,179,43,09,28,117,39,11,23,275,31,12,06,322,28,1*6E
$GPGSV,2,1,08,195,67,040,46,196,60,131,45,199,60,167,46,06,50,324,40,8*51
$GPGSV,2,2,08,194,45,169,44,14,36,179,43,09,28,117,41,11,23,275,24,8*58
$GLGSV,2,1,06,67,48,080,27,68,38,155,42,82,37,022,33,80,33,241,41,1*7B
$GLGSV,2,2,06,73,22,302,33,79,09,192,11,1*76
$GAGSV,2,1,08,24,56,257,39,12,50,004,29,10,48,322,35,31,36,183,39,7*71
$GAGSV,2,2,08,11,32,290,29,19,28,096,33,04,21,158,22,33,18,057,35,7*71
$GAGSV,2,1,08,24,56,257,43,12,50,004,34,10,48,322,38,31,36,183,40,1*75
$GAGSV,2,2,08,11,32,290,32,19,28,096,33,04,21,158,30,33,18,057,32,1*79
$GBGSV,4,1,14,07,83,278,40,40,83,082,42,10,71,303,41,14,60,104,41,1*71
$GBGSV,4,2,14,08,59,258,37,43,54,039,40,33,54,158,45,13,49,248,38,1*74
$GBGSV,4,3,14,42,45,064,20,11,36,069,28,28,32,316,40,23,25,228,,1*76
$GBGSV,4,4,14,37,18,282,25,41,13,197,36,1*7C
$GBGSV,2,1,07,40,83,082,45,33,54,158,46,43,54,039,39,42,45,064,28,4*75
$GBGSV,2,2,07,28,32,316,38,23,25,228,22,41,13,197,35,4*40
$GNGGA,032353.000,2500.8234347,N,12132.4515989,E,2,59,0.47,18.689,M,15.25,M,2,3335*47
$GNRMC,032353.000,A,2500.8234347,N,12132.4515989,E,0.00,246.18,270623,,,D,V*04
$GPHDT,227.093,T*38
$GNGGA,032353.200,2500.8234347,N,12132.4515989,E,2,59,0.47,18.698,M,15.25,M,2,3335*45
$GNRMC,032353.200,A,2500.8234347,N,12132.4515989,E,0.00,246.18,270623,,,D,V*06
$GPHDT,227.266,T*30
$GNGGA,032353.400,2500.8234227,N,12132.4515929,E,2,59,0.47,18.703,M,15.25,M,2,3335*4D
$GNRMC,032353.400,A,2500.8234227,N,12132.4515929,E,0.00,246.18,270623,,,D,V*0D
$GPHDT,227.100,T*33
$GNGGA,032353.600,2500.8234167,N,12132.4515869,E,2,59,0.47,18.707,M,15.25,M,2,3335*49
$GNRMC,032353.600,A,2500.8234167,N,12132.4515869,E,0.00,246.18,270623,,,D,V*0D
$GPHDT,226.896,T*34
$GNGGA,032353.800,2500.8234107,N,12132.4515809,E,2,59,0.47,18.715,M,15.25,M,2,3335*44
$GNRMC,032353.800,A,2500.8234107,N,12132.4515809,E,0.00,246.18,270623,,,D,V*03
$GPHDT,226.989,T*3B
$GNGSA,A,3,195,17,196,199,19,06,194,14,09,11,,,0.94,0.47,0.81,1*0C
$GNGSA,A,3,67,68,82,80,73,,,,,,,,0.94,0.47,0.81,2*0C
$GNGSA,A,3,24,12,10,31,11,19,04,33,,,,,0.94,0.47,0.81,3*0E
$GNGSA,A,3,07,40,10,14,08,43,33,13,42,11,28,37,0.94,0.47,0.81,4*01
$GNGSA,A,3,41,23,,,,,,,,,,,0.94,0.47,0.81,4*07
$GPGSV,3,1,12,195,67,040,41,17,64,050,36,196,60,131,41,199,60,167,35,1*53
$GPGSV,3,2,12,19,59,001,37,06,50,324,41,194,45,169,43,41,38,242,39,1*50
$GPGSV,3,3,12,14,36,179,43,09,28,117,39,11,23,275,30,12,06,322,28,1*6F
$GPGSV,2,1,08,195,67,040,46,196,60,131,45,199,60,167,46,06,50,324,40,8*51
$GPGSV,2,2,08,194,45,169,44,14,36,179,43,09,28,117,41,11,23,275,24,8*58
$GLGSV,2,1,06,67,48,080,27,68,38,155,42,82,37,022,34,80,33,241,41,1*7C
$GLGSV,2,2,06,73,22,302,33,79,09,191,12,1*76
$GAGSV,2,1,08,24,56,257,39,12,50,004,29,10,48,322,35,31,36,183,39,7*71
$GAGSV,2,2,08,11,32,290,28,19,28,096,33,04,21,158,22,33,18,057,35,7*70
$GAGSV,2,1,08,24,56,257,43,12,50,004,33,10,48,322,37,31,36,183,40,1*7D
$GAGSV,2,2,08,11,32,290,32,19,28,096,33,04,21,158,30,33,18,057,32,1*79
$GBGSV,4,1,14,07,83,278,40,40,83,082,42,10,71,303,41,14,60,104,41,1*71
$GBGSV,4,2,14,08,59,258,36,43,54,039,40,33,54,158,45,13,49,248,38,1*75
$GBGSV,4,3,14,42,45,064,23,11,36,069,30,28,32,316,40,23,25,228,,1*7C
$GBGSV,4,4,14,37,18,282,24,41,13,197,36,1*7D
$GBGSV,2,1,07,40,83,082,45,33,54,158,46,43,54,039,39,42,45,064,28,4*75
$GBGSV,2,2,07,28,32,316,38,23,25,228,22,41,13,197,35,4*40
$GNGGA,032354.000,2500.8234107,N,12132.4515809,E,2,59,0.47,18.727,M,15.25,M,3,3335*4B
$GNRMC,032354.000,A,2500.8234107,N,12132.4515809,E,0.00,246.18,270623,,,D,V*0C
$GPHDT,227.109,T*3A
$GNGGA,032354.200,2500.8234047,N,12132.4515749,E,2,59,0.47,18.733,M,15.25,M,3,3335*42
$GNRMC,032354.200,A,2500.8234047,N,12132.4515749,E,0.00,246.18,270623,,,D,V*00
$GPHDT,227.090,T*3B
$GNGGA,032354.400,2500.8233927,N,12132.4515749,E,2,59,0.47,18.736,M,15.25,M,3,3335*49
$GNRMC,032354.400,A,2500.8233927,N,12132.4515749,E,0.00,246.18,270623,,,D,V*0E
$GPHDT,227.097,T*3C
$GNGGA,032354.600,2500.8233867,N,12132.4515689,E,2,59,0.47,18.742,M,15.25,M,3,3335*40
$GNRMC,032354.600,A,2500.8233867,N,12132.4515689,E,0.00,246.18,270623,,,D,V*04
$GPHDT,227.089,T*33
$GNGGA,032354.800,2500.8233747,N,12132.4515629,E,2,59,0.47,18.747,M,15.25,M,3,3335*4C
$GNRMC,032354.800,A,2500.8233747,N,12132.4515629,E,0.00,246.18,270623,,,D,V*0D
$GPHDT,227.123,T*32
$GNGSA,A,3,195,17,196,199,19,06,194,14,09,11,,,0.95,0.48,0.82,1*01
$GNGSA,A,3,67,68,82,80,73,,,,,,,,0.95,0.48,0.82,2*01
$GNGSA,A,3,24,12,10,31,11,19,04,33,,,,,0.95,0.48,0.82,3*03
$GNGSA,A,3,07,40,10,14,08,43,33,13,42,28,37,41,0.95,0.48,0.82,4*09
$GNGSA,A,3,23,,,,,,,,,,,,0.95,0.48,0.82,4*0F
$GPGSV,3,1,12,195,67,040,42,17,64,050,36,196,60,131,41,199,60,167,35,1*50
$GPGSV,3,2,12,19,59,001,37,06,50,324,41,194,45,169,43,41,38,242,39,1*50
$GPGSV,3,3,12,14,36,179,43,09,28,117,38,11,23,275,27,12,06,322,28,1*68
$GPGSV,2,1,08,195,67,040,46,196,60,131,45,199,60,167,46,06,50,324,40,8*51
$GPGSV,2,2,08,194,45,169,44,14,36,179,43,09,28,117,41,11,23,275,29,8*55
$GLGSV,2,1,06,67,48,080,27,68,38,155,42,82,37,023,34,80,33,240,41,1*7C
$GLGSV,2,2,06,73,22,302,32,79,09,191,11,1*74
$GAGSV,2,1,08,24,56,257,39,12,50,004,29,10,48,322,35,31,36,183,39,7*71
$GAGSV,2,2,08,11,32,290,26,19,28,096,33,04,21,158,22,33,18,057,35,7*7E
$GAGSV,2,1,08,24,56,257,43,12,50,004,33,10,48,322,37,31,36,183,41,1*7C
$GAGSV,2,2,08,11,32,290,32,19,28,096,33,04,21,158,30,33,18,057,33,1*78
$GBGSV,4,1,14,07,83,278,40,40,83,082,42,10,71,303,41,14,60,104,41,1*71
$GBGSV,4,2,14,08,59,258,36,43,54,039,40,33,54,158,45,13,49,248,38,1*75
$GBGSV,4,3,14,42,45,064,24,11,36,069,24,28,32,316,40,23,25,228,,1*7E
$GBGSV,4,4,14,37,18,282,23,41,13,197,36,1*7A
$GBGSV,2,1,07,40,83,082,45,33,54,158,46,43,54,039,39,42,45,064,27,4*7A
$GBGSV,2,2,07,28,32,316,38,23,25,228,22,41,13,197,35,4*40
$GNGGA,032355.000,2500.8233687,N,12132.4515629,E,2,58,0.48,18.757,M,15.25,M,4,3335*40
$GNRMC,032355.000,A,2500.8233687,N,12132.4515629,E,0.00,246.18,270623,,,D,V*09
$GPHDT,227.410,T*37
$GNGGA,032355.200,2500.8233627,N,12132.4515569,E,2,59,0.47,18.771,M,15.25,M,4,3335*45
$GNRMC,032355.200,A,2500.8233627,N,12132.4515569,E,0.00,246.18,270623,,,D,V*06
$GPHDT,227.128,T*39
$GNGGA,032355.400,2500.8233567,N,12132.4515509,E,2,60,0.47,18.775,M,15.25,M,2,3335*4A
$GNRMC,032355.400,A,2500.8233567,N,12132.4515509,E,0.00,246.18,270623,,,D,V*01
$GPHDT,227.105,T*36
$GNGGA,032355.600,2500.8233507,N,12132.4515449,E,2,60,0.47,18.783,M,15.25,M,1,3335*41
$GNRMC,032355.600,A,2500.8233507,N,12132.4515449,E,0.00,246.18,270623,,,D,V*00
$GPHDT,227.051,T*36
$GNGGA,032355.800,2500.8233387,N,12132.4515449,E,2,60,0.47,18.789,M,15.25,M,0,3335*4A
$GNRMC,032355.800,A,2500.8233387,N,12132.4515449,E,0.01,246.18,270623,,,D,V*01
$GPHDT,227.402,T*34
$GNGSA,A,3,195,17,196,199,19,06,194,14,09,11,,,0.94,0.47,0.81,1*0C
$GNGSA,A,3,67,68,82,80,73,,,,,,,,0.94,0.47,0.81,2*0C
$GNGSA,A,3,24,12,10,31,11,19,04,33,,,,,0.94,0.47,0.81,3*0E
$GNGSA,A,3,07,40,10,14,08,43,33,13,42,11,28,37,0.94,0.47,0.81,4*01
$GNGSA,A,3,41,23,,,,,,,,,,,0.94,0.47,0.81,4*07
$GPGSV,3,1,12,195,67,040,42,17,64,050,36,196,60,131,41,199,60,167,35,1*50
$GPGSV,3,2,12,19,59,001,37,06,50,324,41,194,45,169,43,41,38,242,39,1*50
$GPGSV,3,3,12,14,36,179,43,09,28,117,38,11,23,275,27,12,06,322,28,1*68
$GPGSV,2,1,08,195,67,040,46,199,60,167,46,196,60,131,45,06,50,324,40,8*51
$GPGSV,2,2,08,194,45,169,44,14,36,179,43,09,28,117,41,11,23,275,33,8*5E
$GLGSV,2,1,06,67,48,080,27,68,38,155,42,82,37,023,34,80,33,240,41,1*7C
$GLGSV,2,2,06,73,22,302,31,79,09,191,,1*77
$GAGSV,2,1,08,24,56,257,39,12,50,004,29,10,48,322,35,31,36,183,39,7*71
$GAGSV,2,2,08,11,32,290,24,19,28,096,33,04,21,158,21,33,18,057,35,7*7F
$GAGSV,2,1,08,24,56,257,43,12,50,004,33,10,48,322,37,31,36,183,41,1*7C
$GAGSV,2,2,08,11,32,290,32,19,28,096,33,04,21,158,30,33,18,057,33,1*78
$GBGSV,4,1,14,07,83,278,40,40,83,082,42,10,71,303,41,14,60,104,41,1*71
$GBGSV,4,2,14,08,59,258,36,43,54,039,40,33,54,158,45,13,49,248,38,1*75
$GBGSV,4,3,14,42,45,064,25,11,36,069,31,28,32,316,41,23,25,228,,1*7A
$GBGSV,4,4,14,37,18,282,18,41,13,197,36,1*72
$GBGSV,2,1,08,40,83,082,45,33,54,158,46,43,54,039,38,42,45,064,26,4*75
$GBGSV,2,2,08,28,32,316,38,23,25,228,22,37,18,282,28,41,13,197,35,4*70
$GNGGA,032356.000,2500.8233327,N,12132.4515449,E,2,60,0.47,18.790,M,15.25,M,1,3335*42
$GNRMC,032356.000,A,2500.8233327,N,12132.4515449,E,0.00,246.18,270623,,,D,V*01
$GPHDT,227.004,T*36
$GNGGA,032356.200,2500.8233267,N,12132.4515449,E,2,60,0.47,18.799,M,15.25,M,1,3335*4C
$GNRMC,032356.200,A,2500.8233267,N,12132.4515449,E,0.00,246.18,270623,,,D,V*06
$GPHDT,227.366,T*31
$GNGGA,032356.400,2500.8233147,N,12132.4515449,E,2,60,0.47,18.807,M,15.25,M,1,3335*43
$GNRMC,032356.400,A,2500.8233147,N,12132.4515449,E,0.00,246.18,270623,,,D,V*01
$GPHDT,227.171,T*35
$GNGGA,032356.600,2500.8233147,N,12132.4515449,E,2,60,0.47,18.820,M,15.25,M,1,3335*44
$GNRMC,032356.600,A,2500.8233147,N,12132.4515449,E,0.00,246.18,270623,,,D,V*03
$GPHDT,227.322,T*31
$GNGGA,032356.800,2500.8233087,N,12132.4515449,E,2,59,0.47,18.829,M,15.25,M,1,3335*44
$GNRMC,032356.800,A,2500.8233087,N,12132.4515449,E,0.00,246.18,270623,,,D,V*00
$GPHDT,227.131,T*31
$GNGSA,A,3,195,17,196,199,19,06,194,14,09,11,,,0.94,0.47,0.81,1*0C
$GNGSA,A,3,67,68,82,80,73,,,,,,,,0.94,0.47,0.81,2*0C
$GNGSA,A,3,24,12,10,31,11,19,04,33,,,,,0.94,0.47,0.81,3*0E
$GNGSA,A,3,07,40,10,14,08,43,33,13,42,11,28,37,0.94,0.47,0.81,4*01
$GNGSA,A,3,41,23,,,,,,,,,,,0.94,0.47,0.81,4*07
$GPGSV,3,1,12,195,67,040,42,17,64,050,36,196,60,131,41,199,60,167,36,1*53
$GPGSV,3,2,12,19,59,001,37,06,50,324,41,194,45,169,43,41,38,242,39,1*50
$GPGSV,3,3,12,14,36,179,43,09,28,117,38,11,23,275,28,12,06,322,28,1*67
$GPGSV,2,1,08,195,67,040,46,199,60,167,46,196,60,131,45,06,50,324,40,8*51
$GPGSV,2,2,08,194,45,169,44,14,36,179,43,09,28,117,41,11,23,275,33,8*5E
$GLGSV,2,1,06,67,48,080,27,68,38,155,42,82,37,023,34,80,33,240,41,1*7C
$GLGSV,2,2,06,73,22,302,30,79,09,191,,1*76
$GAGSV,2,1,08,24,56,257,39,12,50,004,29,10,48,322,35,31,36,183,39,7*71
$GAGSV,2,2,08,11,32,290,23,19,28,096,33,04,21,158,22,33,18,057,35,7*7B
$GAGSV,2,1,08,24,56,257,43,12,50,004,33,10,48,322,37,31,36,183,41,1*7C
$GAGSV,2,2,08,11,32,290,33,19,28,096,32,04,21,158,30,33,18,057,33,1*78
$GBGSV,4,1,14,07,83,278,40,40,83,082,42,10,71,303,41,14,60,104,41,1*71
$GBGSV,4,2,14,08,59,258,36,43,54,039,40,33,54,158,45,13,49,248,38,1*75
$GBGSV,4,3,14,42,45,064,24,11,36,069,31,28,32,316,41,23,25,228,,1*7B
$GBGSV,4,4,14,37,18,282,15,41,13,197,36,1*7F
$GBGSV,2,1,08,40,83,082,45,33,54,158,46,43,54,039,38,42,45,064,28,4*7B
$GBGSV,2,2,08,28,32,316,37,23,25,228,22,37,18,282,28,41,13,197,35,4*7F
$GNGGA,032357.000,2500.8233027,N,12132.4515509,E,2,60,0.47,18.837,M,15.25,M,2,3335*44
$GNRMC,032357.000,A,2500.8233027,N,12132.4515509,E,0.00,246.18,270623,,,D,V*06
$GPHDT,227.216,T*37
$GNGGA,032357.200,2500.8232907,N,12132.4515509,E,2,60,0.47,18.848,M,15.25,M,2,3335*44
$GNRMC,032357.200,A,2500.8232907,N,12132.4515509,E,0.00,246.18,270623,,,D,V*0E
$GPHDT,227.278,T*3F
$GNGGA,032357.400,2500.8232847,N,12132.4515509,E,2,60,0.47,18.862,M,15.25,M,2,3335*4F
$GNRMC,032357.400,A,2500.8232847,N,12132.4515509,E,0.00,246.18,270623,,,D,V*0D
$GPHDT,227.232,T*31
$GNGGA,032357.600,2500.8232787,N,12132.4515509,E,2,60,0.47,18.872,M,15.25,M,2,3335*4F
$GNRMC,032357.600,A,2500.8232787,N,12132.4515509,E,0.00,246.18,270623,,,D,V*0C
$GPHDT,227.302,T*33
$GNGGA,032357.800,2500.8232727,N,12132.4515509,E,2,60,0.47,18.885,M,15.25,M,2,3335*43
$GNRMC,032357.800,A,2500.8232727,N,12132.4515509,E,0.00,246.18,270623,,,D,V*08
$GPHDT,227.149,T*3E
$GNGSA,A,3,195,17,196,199,19,06,194,14,09,11,,,0.94,0.47,0.81,1*0C
$GNGSA,A,3,67,68,82,80,73,,,,,,,,0.94,0.47,0.81,2*0C
$GNGSA,A,3,24,12,10,31,11,19,04,33,,,,,0.94,0.47,0.81,3*0E
$GNGSA,A,3,07,40,10,14,08,43,33,13,42,11,28,37,0.94,0.47,0.81,4*01
$GNGSA,A,3,41,23,,,,,,,,,,,0.94,0.47,0.81,4*07
$GPGSV,3,1,12,195,67,040,42,17,64,050,36,196,60,131,41,199,60,167,36,1*53
$GPGSV,3,2,12,19,59,001,37,06,50,324,41,194,45,169,43,41,38,242,39,1*50
$GPGSV,3,3,12,14,36,179,43,09,28,117,38,11,23,275,31,12,06,322,28,1*6F
$GPGSV,2,1,08,195,67,040,46,199,60,167,46,196,60,131,45,06,50,324,40,8*51
$GPGSV,2,2,08,194,45,169,44,14,36,179,43,09,28,117,41,11,23,275,33,8*5E
$GLGSV,2,1,06,67,48,080,25,68,38,155,42,82,37,023,35,80,33,240,41,1*7F
$GLGSV,2,2,06,73,22,302,28,79,09,191,,1*7F
$GAGSV,2,1,08,24,56,257,39,12,50,004,30,10,48,322,34,31,36,183,39,7*78
$GAGSV,2,2,08,11,32,290,24,19,28,096,33,04,21,158,21,33,18,057,35,7*7F
$GAGSV,2,1,08,24,56,257,43,12,50,004,33,10,48,322,37,31,36,183,41,1*7C
$GAGSV,2,2,08,11,32,290,33,19,28,096,32,04,21,158,30,33,18,057,33,1*78
$GBGSV,4,1,14,07,83,277,40,40,83,082,42,10,71,303,41,14,60,104,41,1*7E
$GBGSV,4,2,14,08,59,258,36,43,54,039,40,33,54,158,45,13,49,248,38,1*75
$GBGSV,4,3,14,42,45,064,25,11,36,069,31,28,32,316,41,23,25,228,,1*7A
$GBGSV,4,4,14,37,18,282,17,41,13,197,36,1*7D
$GBGSV,2,1,08,40,83,082,45,33,54,158,46,43,54,039,38,42,45,064,29,4*7A
$GBGSV,2,2,08,28,32,316,37,23,25,228,23,37,18,282,28,41,13,197,35,4*7E
$GNGGA,032358.000,2500.8232607,N,12132.4515389,E,2,60,0.47,18.903,M,15.25,M,3,3335*47
$GNRMC,032358.000,A,2500.8232607,N,12132.4515389,E,0.00,246.18,270623,,,D,V*02
$GPHDT,227.174,T*30
$GNGGA,032358.200,2500.8232487,N,12132.4515329,E,2,60,0.47,18.921,M,15.25,M,3,3335*45
$GNRMC,032358.200,A,2500.8232487,N,12132.4515329,E,0.00,246.18,270623,,,D,V*00
$GPHDT,226.831,T*39
$GNGGA,032358.400,2500.8232427,N,12132.4515329,E,2,60,0.47,18.923,M,15.25,M,3,3335*4B
$GNRMC,032358.400,A,2500.8232427,N,12132.4515329,E,0.00,246.18,270623,,,D,V*0C
$GPHDT,227.132,T*32
$GNGGA,032358.600,2500.8232367,N,12132.4515269,E,2,60,0.47,18.943,M,15.25,M,3,3335*49
$GNRMC,032358.600,A,2500.8232367,N,12132.4515269,E,0.00,246.18,270623,,,D,V*08
$GPHDT,227.068,T*3C
$GNGGA,032358.800,2500.8232307,N,12132.4515329,E,2,60,0.47,18.953,M,15.25,M,3,3335*45
$GNRMC,032358.800,A,2500.8232307,N,12132.4515329,E,0.00,246.18,270623,,,D,V*05
$GPHDT,226.790,T*3D
$GNGSA,A,3,195,17,196,199,19,06,194,14,09,11,,,0.94,0.47,0.81,1*0C
$GNGSA,A,3,67,68,82,80,73,,,,,,,,0.94,0.47,0.81,2*0C
$GNGSA,A,3,24,12,10,31,11,19,04,33,,,,,0.94,0.47,0.81,3*0E
$GNGSA,A,3,07,40,10,14,08,43,33,13,42,11,28,37,0.94,0.47,0.81,4*01
$GNGSA,A,3,41,23,,,,,,,,,,,0.94,0.47,0.81,4*07
$GPGSV,3,1,12,195,67,040,42,17,64,050,37,196,60,131,41,199,60,167,36,1*52
$GPGSV,3,2,12,19,59,001,36,06,50,324,42,194,45,169,43,41,38,242,39,1*52
$GPGSV,3,3,12,14,36,179,43,09,28,117,38,11,23,275,32,12,06,322,27,1*63
$GPGSV,2,1,08,195,67,040,46,199,60,167,46,196,60,131,45,06,50,324,39,8*5F
$GPGSV,2,2,08,194,45,169,44,14,36,179,42,09,28,117,41,11,23,275,33,8*5F
$GLGSV,2,1,06,67,48,080,23,68,38,155,42,82,37,023,34,80,33,240,41,1*78
$GLGSV,2,2,06,73,22,302,29,79,09,191,,1*7E
$GAGSV,2,1,08,24,56,257,39,12,50,004,27,10,48,322,34,31,36,183,38,7*7F
$GAGSV,2,2,08,11,32,290,25,19,28,096,33,04,21,158,21,33,18,057,36,7*7D
$GAGSV,2,1,08,24,56,257,43,12,50,004,29,10,48,322,36,31,36,183,40,1*77
$GAGSV,2,2,08,11,32,290,34,19,28,096,32,04,21,158,29,33,18,057,31,1*75
$GBGSV,4,1,14,07,83,277,40,40,83,082,42,10,71,303,41,14,60,104,42,1*7D
$GBGSV,4,2,14,08,59,258,36,43,54,039,41,33,54,158,45,13,49,249,38,1*75
$GBGSV,4,3,14,42,45,064,26,11,36,069,30,28,32,316,41,23,25,228,,1*78
$GBGSV,4,4,14,37,18,282,20,41,13,197,36,1*79
$GBGSV,2,1,08,40,83,082,45,33,54,158,45,43,54,039,39,42,45,064,27,4*76
$GBGSV,2,2,08,28,32,316,37,23,25,228,22,37,18,282,29,41,13,197,35,4*7E
$GNGGA,032359.000,2500.8232247,N,12132.4515509,E,2,60,0.47,18.963,M,15.25,M,4,3335*49
$GNRMC,032359.000,A,2500.8232247,N,12132.4515509,E,0.01,246.18,270623,,,D,V*0C
$GPHDT,227.095,T*3E
$GNGGA,032359.200,2500.8232067,N,12132.4515569,E,2,60,0.47,18.982,M,15.25,M,4,3335*42
$GNRMC,032359.200,A,2500.8232067,N,12132.4515569,E,0.01,246.18,270623,,,D,V*08
$GPHDT,227.155,T*33
$GNGGA,032359.400,2500.8239213,N,12132.4513177,E,4,60,0.47,17.675,M,15.25,M,4,3335*4D
$GNRMC,032359.400,A,2500.8239213,N,12132.4513177,E,0.00,246.18,270623,,,R,V*1E
$GPHDT,227.462,T*32
