$FW : RTK35X,V1.1X0314AS,Lib20210517,1*54
$Tool : LOCOSYS , GNSS Firebird , v1.0.0.19*39
$---------------------------------------------------*2D
$GNGGA,032203.800,2500.8242036,N,12132.4519558,E,2,55,0.50,18.704,M,15.25,M,1,3335*4E
$GNRMC,032203.800,A,2500.8242036,N,12132.4519558,E,0.08,110.95,270623,,,D,V*0D
$GPHDT,47.504,T*07
$GNGSA,A,3,195,17,196,199,19,06,194,14,09,11,,,0.79,0.48,0.63,1*0C
$GNGSA,A,3,67,82,68,80,73,79,,,,,,,0.79,0.48,0.63,2*02
$GNGSA,A,3,24,12,10,31,04,33,,,,,,,0.79,0.48,0.63,3*06
$GNGSA,A,3,40,07,10,14,08,43,33,13,42,11,28,23,0.79,0.48,0.63,4*04
$GNGSA,A,3,37,,,,,,,,,,,,0.79,0.48,0.63,4*07
$GPGSV,3,1,12,195,67,039,41,17,64,049,40,196,60,131,42,199,60,167,36,1*54
$GPGSV,3,2,12,19,58,000,43,06,50,322,36,194,45,169,44,41,38,242,41,1*5D
$GPGSV,3,3,12,14,36,179,43,09,28,118,40,11,23,274,42,12,05,323,21,1*61
$GPGSV,2,1,08,195,67,039,46,199,60,167,46,196,60,131,46,06,50,322,39,8*54
$GPGSV,2,2,08,194,45,169,44,14,36,179,45,09,28,118,45,11,23,274,43,8*55
$GLGSV,2,1,06,67,48,082,27,82,37,021,30,68,36,155,43,80,33,242,42,1*76
$GLGSV,2,2,06,73,22,303,38,79,10,192,20,1*76
$GAGSV,2,1,08,24,56,258,41,12,51,002,35,10,48,321,32,31,37,183,40,7*70
$GAGSV,2,2,08,11,32,289,36,19,28,096,30,04,20,159,24,33,18,056,28,7*7F
$GAGSV,2,1,08,24,56,258,44,12,51,002,40,10,48,321,38,31,37,183,42,1*79
$GAGSV,2,2,08,11,32,289,41,19,28,096,34,04,20,159,30,33,18,056,22,1*72
$GBGSV,4,1,15,40,83,079,42,07,83,281,40,10,71,304,41,14,60,106,45,1*73
$GBGSV,4,2,15,08,59,257,38,43,54,038,36,33,53,159,45,13,49,248,42,1*7E
$GBGSV,4,3,15,42,45,065,33,11,36,068,30,28,32,316,35,23,25,229,24,1*79
$GBGSV,4,4,15,37,18,283,30,41,13,197,29,58,,,24,1*7D
$GBGSV,2,1,07,40,83,079,44,43,54,038,38,33,53,159,45,42,45,065,35,4*78
$GBGSV,2,2,07,28,32,316,32,23,25,229,23,37,18,283,28,4*4A
$GNGGA,032204.000,2500.8242036,N,12132.4519498,E,2,56,0.48,18.728,M,15.25,M,1,3335*48
$GNRMC,032204.000,A,2500.8242036,N,12132.4519498,E,0.06,110.95,270623,,,D,V*01
$GPHDT,47.754,T*00
$GNGGA,032204.200,2500.8241976,N,12132.4519438,E,2,56,0.48,18.748,M,15.25,M,1,3335*48
$GNRMC,032204.200,A,2500.8241976,N,12132.4519438,E,0.09,110.95,270623,,,D,V*08
$GPHDT,47.649,T*0D
$GNGGA,032204.400,2500.8241916,N,12132.4519498,E,2,56,0.48,18.768,M,15.25,M,1,3335*40
$GNRMC,032204.400,A,2500.8241916,N,12132.4519498,E,0.08,110.95,270623,,,D,V*03
$GPHDT,47.640,T*04
$GNGGA,032204.600,2500.8241856,N,12132.4519498,E,2,55,0.50,18.794,M,15.25,M,1,3335*4E
$GNRMC,032204.600,A,2500.8241856,N,12132.4519498,E,0.10,110.95,270623,,,D,V*0D
$GPHDT,48.019,T*01
$GNGGA,032204.800,2500.8241796,N,12132.4519498,E,2,55,0.50,18.820,M,15.25,M,1,3335*43
$GNRMC,032204.800,A,2500.8241796,N,12132.4519498,E,0.10,110.95,270623,,,D,V*00
$GPHDT,47.794,T*0C
$GNGSA,A,3,195,17,196,199,19,06,194,14,09,11,,,0.79,0.48,0.63,1*0C
$GNGSA,A,3,67,82,68,80,73,79,,,,,,,0.79,0.48,0.63,2*02
$GNGSA,A,3,24,12,10,31,04,33,,,,,,,0.79,0.48,0.63,3*06
$GNGSA,A,3,40,07,10,14,08,43,33,13,42,11,28,23,0.79,0.48,0.63,4*04
$GNGSA,A,3,37,,,,,,,,,,,,0.79,0.48,0.63,4*07
$GPGSV,3,1,12,195,67,039,41,17,64,049,41,196,60,131,42,199,60,167,36,1*55
$GPGSV,3,2,12,19,58,000,43,06,50,322,34,194,45,169,44,41,38,242,41,1*5F
$GPGSV,3,3,12,14,36,179,44,09,28,118,40,11,23,274,41,12,05,323,22,1*66
$GPGSV,2,1,08,195,67,039,46,199,60,167,46,196,60,131,46,06,50,322,37,8*5A
$GPGSV,2,2,08,194,45,169,45,14,36,179,45,09,28,118,45,11,23,274,44,8*53
$GLGSV,2,1,06,67,48,082,24,82,37,021,30,68,36,155,43,80,33,242,42,1*75
$GLGSV,2,2,06,73,22,303,38,79,10,192,19,1*7C
$GAGSV,2,1,08,24,56,258,41,12,51,002,34,10,48,321,31,31,37,183,40,7*72
$GAGSV,2,2,08,11,32,289,34,19,28,096,30,04,20,159,24,33,18,056,26,7*73
$GAGSV,2,1,08,24,56,258,44,12,51,002,40,10,48,321,37,31,37,183,42,1*76
$GAGSV,2,2,08,11,32,289,41,19,28,096,34,04,20,159,30,33,18,056,21,1*71
$GBGSV,4,1,15,40,83,079,42,07,83,281,40,10,71,304,40,14,60,106,45,1*72
$GBGSV,4,2,15,08,59,257,38,43,54,038,36,33,53,159,45,13,49,248,42,1*7E
$GBGSV,4,3,15,42,45,065,33,11,36,068,29,28,32,316,35,23,25,229,24,1*71
$GBGSV,4,4,15,37,18,283,31,41,13,197,29,58,,,24,1*7C
$GBGSV,2,1,07,40,83,079,44,43,54,038,38,33,53,159,45,42,45,065,35,4*78
$GBGSV,2,2,07,28,32,316,35,23,25,229,23,37,18,283,23,4*46
$GNGGA,032205.000,2500.8241736,N,12132.4519438,E,2,56,0.48,18.840,M,15.25,M,2,3335*45
$GNRMC,032205.000,A,2500.8241736,N,12132.4519438,E,0.11,110.95,270623,,,D,V*08
$GPHDT,48.225,T*0C
$GNGGA,032205.200,2500.8241676,N,12132.4519438,E,2,56,0.48,18.863,M,15.25,M,2,3335*43
$GNRMC,032205.200,A,2500.8241676,N,12132.4519438,E,0.09,110.95,270623,,,D,V*06
$GPHDT,47.527,T*06
$GNGGA,032205.400,2500.8241616,N,12132.4519318,E,2,55,0.48,18.878,M,15.25,M,2,3335*4F
$GNRMC,032205.400,A,2500.8241616,N,12132.4519318,E,0.11,110.95,270623,,,D,V*0A
$GPHDT,47.546,T*01
$GNGGA,032205.600,2500.8241496,N,12132.4519318,E,2,56,0.48,18.892,M,15.25,M,2,3335*40
$GNRMC,032205.600,A,2500.8241496,N,12132.4519318,E,0.12,110.95,270623,,,D,V*01
$GPHDT,47.334,T*02
$GNGGA,032205.800,2500.8241436,N,12132.4519258,E,2,55,0.48,18.910,M,15.25,M,2,3335*49
$GNRMC,032205.800,A,2500.8241436,N,12132.4519258,E,0.12,110.95,270623,,,D,V*00
$GPHDT,47.278,T*0B
$GNGSA,A,3,195,17,196,199,19,06,194,14,09,11,,,0.79,0.48,0.63,1*0C
$GNGSA,A,3,67,82,68,80,73,79,,,,,,,0.79,0.48,0.63,2*02
$GNGSA,A,3,24,12,10,31,04,33,,,,,,,0.79,0.48,0.63,3*06
$GNGSA,A,3,40,07,10,14,08,43,33,13,42,11,28,23,0.79,0.48,0.63,4*04
$GNGSA,A,3,37,,,,,,,,,,,,0.79,0.48,0.63,4*07
$GPGSV,3,1,12,195,67,040,41,17,64,049,41,196,60,131,42,199,60,167,36,1*5B
$GPGSV,3,2,12,19,58,000,43,06,50,322,33,194,45,169,44,41,38,242,41,1*58
$GPGSV,3,3,12,14,36,179,44,09,28,118,40,11,23,274,41,12,05,323,22,1*66
$GPGSV,2,1,08,195,67,040,46,199,60,167,46,196,60,131,46,06,50,322,36,8*55
$GPGSV,2,2,08,194,45,169,45,14,36,179,45,09,28,118,45,11,23,274,44,8*53
$GLGSV,2,1,06,67,48,082,21,82,37,021,30,68,36,155,44,80,33,242,42,1*77
$GLGSV,2,2,06,73,22,303,38,79,10,192,18,1*7D
$GAGSV,2,1,08,24,56,258,41,12,51,002,34,10,48,321,31,31,37,183,40,7*72
$GAGSV,2,2,08,11,32,289,34,19,28,096,30,04,20,159,26,33,18,056,27,7*70
$GAGSV,2,1,08,24,56,258,44,12,51,002,40,10,48,321,37,31,37,183,41,1*75
$GAGSV,2,2,08,11,32,289,40,19,28,096,33,04,20,159,30,33,18,056,20,1*76
$GBGSV,4,1,15,40,83,079,42,07,83,281,40,10,71,304,40,14,60,106,45,1*72
$GBGSV,4,2,15,08,59,257,38,43,54,038,35,33,53,159,45,13,49,248,42,1*7D
$GBGSV,4,3,15,42,45,065,33,11,36,068,29,28,32,316,36,23,25,229,24,1*72
$GBGSV,4,4,15,37,18,283,32,41,13,197,29,58,,,24,1*7F
$GBGSV,2,1,06,40,83,079,44,43,54,038,38,33,53,159,45,42,45,065,35,4*79
$GBGSV,2,2,06,28,32,316,35,23,25,229,24,4*75
$GNGGA,032206.000,2500.8241376,N,12132.4519198,E,2,55,0.48,18.932,M,15.25,M,3,3335*4F
$GNRMC,032206.000,A,2500.8241376,N,12132.4519198,E,0.10,110.95,270623,,,D,V*05
$GPHDT,47.114,T*02
$GNGGA,032206.200,2500.8241316,N,12132.4519198,E,2,55,0.48,18.953,M,15.25,M,3,3335*4C
$GNRMC,032206.200,A,2500.8241316,N,12132.4519198,E,0.07,110.95,270623,,,D,V*07
$GPHDT,47.513,T*01
$GNGGA,032206.400,2500.8241316,N,12132.4519138,E,2,55,0.48,18.966,M,15.25,M,3,3335*46
$GNRMC,032206.400,A,2500.8241316,N,12132.4519138,E,0.07,110.95,270623,,,D,V*0B
$GPHDT,47.803,T*0D
$GNGGA,032206.600,2500.8241316,N,12132.4519138,E,2,56,0.48,18.974,M,15.25,M,3,3335*44
$GNRMC,032206.600,A,2500.8241316,N,12132.4519138,E,0.08,110.95,270623,,,D,V*06
$GPHDT,47.782,T*0B
$GNGGA,032206.800,2500.8241316,N,12132.4519198,E,2,56,0.48,18.983,M,15.25,M,3,3335*48
$GNRMC,032206.800,A,2500.8241316,N,12132.4519198,E,0.09,110.95,270623,,,D,V*03
$GPHDT,47.924,T*09
$GNGSA,A,3,195,17,196,199,19,06,194,14,09,11,,,0.79,0.48,0.63,1*0C
$GNGSA,A,3,67,82,68,80,73,79,,,,,,,0.79,0.48,0.63,2*02
$GNGSA,A,3,24,12,10,31,04,33,,,,,,,0.79,0.48,0.63,3*06
$GNGSA,A,3,40,07,10,14,08,43,33,13,42,11,28,23,0.79,0.48,0.63,4*04
$GNGSA,A,3,37,,,,,,,,,,,,0.79,0.48,0.63,4*07
$GPGSV,3,1,12,195,67,040,41,17,64,049,41,196,60,131,42,199,60,167,36,1*5B
$GPGSV,3,2,12,19,58,000,43,06,50,322,37,194,45,169,44,41,38,242,41,1*5C
$GPGSV,3,3,12,14,36,179,44,09,28,118,40,11,23,274,41,12,05,323,21,1*65
$GPGSV,2,1,08,195,67,040,46,199,60,167,46,196,60,131,46,06,50,322,38,8*5B
$GPGSV,2,2,08,194,45,169,45,14,36,179,45,09,28,118,45,11,23,274,44,8*53
$GLGSV,2,1,06,67,48,082,22,82,37,021,29,68,36,155,44,80,33,242,42,1*7C
$GLGSV,2,2,06,73,22,303,38,79,10,192,18,1*7D
$GAGSV,2,1,08,24,56,258,41,12,51,002,33,10,48,321,31,31,37,183,40,7*75
$GAGSV,2,2,08,11,32,289,35,19,28,096,30,04,20,159,26,33,18,056,28,7*7E
$GAGSV,2,1,08,24,56,258,44,12,51,002,39,10,48,321,38,31,37,183,41,1*74
$GAGSV,2,2,08,11,32,289,39,19,28,096,34,04,20,159,30,33,18,056,19,1*75
$GBGSV,4,1,15,40,83,079,42,07,83,281,40,10,71,304,40,14,60,106,45,1*72
$GBGSV,4,2,15,08,59,257,38,43,54,038,35,33,53,159,45,13,49,248,42,1*7D
$GBGSV,4,3,15,42,45,065,33,11,36,068,30,28,32,316,37,23,25,229,25,1*7A
$GBGSV,4,4,15,37,18,283,32,41,13,197,29,58,,,24,1*7F
$GBGSV,2,1,07,40,83,079,44,43,54,038,38,33,53,159,45,42,45,065,35,4*78
$GBGSV,2,2,07,28,32,316,35,23,25,229,24,37,18,283,28,4*4A
$GNGGA,032207.000,2500.8241256,N,12132.4519198,E,2,56,0.48,18.995,M,15.25,M,4,3335*44
$GNRMC,032207.000,A,2500.8241256,N,12132.4519198,E,0.10,110.95,270623,,,D,V*07
$GPHDT,47.820,T*0C
$GNGGA,032207.200,2500.8241256,N,12132.4519198,E,2,60,0.47,19.009,M,15.25,M,4,3335*41
$GNRMC,032207.200,A,2500.8241256,N,12132.4519198,E,0.08,110.95,270623,,,D,V*0C
$GPHDT,47.818,T*07
$GNGGA,032207.400,2500.8241196,N,12132.4519138,E,2,60,0.47,19.023,M,15.25,M,4,3335*4A
$GNRMC,032207.400,A,2500.8241196,N,12132.4519138,E,0.09,110.95,270623,,,D,V*0E
$GPHDT,47.848,T*02
$GNGGA,032207.600,2500.8241136,N,12132.4519138,E,2,60,0.47,19.033,M,15.25,M,4,3335*43
$GNRMC,032207.600,A,2500.8241136,N,12132.4519138,E,0.09,110.95,270623,,,D,V*06
$GPHDT,47.796,T*0E
$GNGGA,032207.800,2500.8241136,N,12132.4519078,E,2,60,0.47,19.042,M,15.25,M,4,3335*4E
$GNRMC,032207.800,A,2500.8241136,N,12132.4519078,E,0.09,110.95,270623,,,D,V*0D
$GPHDT,48.051,T*0D
$GNGSA,A,3,195,17,196,199,19,06,194,14,09,11,,,0.78,0.47,0.62,1*03
$GNGSA,A,3,67,82,68,80,73,79,,,,,,,0.78,0.47,0.62,2*0D
$GNGSA,A,3,24,12,10,31,11,19,04,33,,,,,0.78,0.47,0.62,3*01
$GNGSA,A,3,40,07,10,14,08,43,33,13,42,11,28,23,0.78,0.47,0.62,4*0B
$GNGSA,A,3,37,,,,,,,,,,,,0.78,0.47,0.62,4*08
$GPGSV,3,1,12,195,67,040,41,17,64,049,41,196,60,131,42,199,60,167,36,1*5B
$GPGSV,3,2,12,19,58,000,43,06,50,322,38,194,45,169,44,41,38,242,41,1*53
$GPGSV,3,3,12,14,36,179,44,09,28,118,40,11,23,274,41,12,05,323,22,1*66
$GPGSV,2,1,08,195,67,040,46,196,60,131,46,199,60,167,46,06,50,322,40,8*54
$GPGSV,2,2,08,194,45,169,45,14,36,179,46,09,28,118,45,11,23,274,44,8*50
$GLGSV,2,1,06,67,48,082,21,82,37,021,29,68,36,155,44,80,33,242,42,1*7F
$GLGSV,2,2,06,73,22,303,38,79,10,192,18,1*7D
$GAGSV,2,1,08,24,56,258,41,12,51,002,32,10,48,321,31,31,37,183,40,7*74
$GAGSV,2,2,08,11,32,289,35,19,28,096,30,04,20,159,26,33,18,056,30,7*77
$GAGSV,2,1,08,24,56,258,44,12,51,002,40,10,48,321,39,31,37,183,42,1*78
$GAGSV,2,2,08,11,32,289,40,19,28,096,35,04,20,159,30,33,18,056,20,1*70
$GBGSV,4,1,15,40,83,079,42,07,83,281,40,10,71,304,40,14,60,106,45,1*72
$GBGSV,4,2,15,08,59,257,38,43,54,038,36,33,53,159,45,13,49,248,42,1*7E
$GBGSV,4,3,15,42,45,065,33,11,36,068,30,28,32,316,37,23,25,229,24,1*7B
$GBGSV,4,4,15,37,18,283,33,41,13,197,29,58,,,23,1*79
$GBGSV,2,1,07,40,83,079,44,43,54,038,38,33,53,159,45,42,45,065,35,4*78
$GBGSV,2,2,07,28,32,316,35,23,25,229,24,37,18,283,28,4*4A
$GNGGA,032208.000,2500.8241136,N,12132.4519078,E,2,60,0.47,19.055,M,15.25,M,5,3335*4E
$GNRMC,032208.000,A,2500.8241136,N,12132.4519078,E,0.09,110.95,270623,,,D,V*0A
$GPHDT,48.007,T*0E
$GNGGA,032208.200,2500.8241136,N,12132.4519138,E,2,60,0.47,19.063,M,15.25,M,5,3335*4C
$GNRMC,032208.200,A,2500.8241136,N,12132.4519138,E,0.09,110.95,270623,,,D,V*0D
$GPHDT,47.711,T*01
$GNGGA,032208.400,2500.8241076,N,12132.4519198,E,2,60,0.47,19.074,M,15.25,M,5,3335*43
$GNRMC,032208.400,A,2500.8241076,N,12132.4519198,E,0.10,110.95,270623,,,D,V*0C
$GPHDT,47.838,T*05
$GNGGA,032208.600,2500.8241076,N,12132.4519198,E,2,60,0.47,19.088,M,15.25,M,5,3335*42
$GNRMC,032208.600,A,2500.8241076,N,12132.4519198,E,0.09,110.95,270623,,,D,V*06
$GPHDT,47.918,T*06
$GNGGA,032208.800,2500.8241016,N,12132.4519198,E,2,60,0.47,19.103,M,15.25,M,5,3335*48
$GNRMC,032208.800,A,2500.8241016,N,12132.4519198,E,0.10,110.95,270623,,,D,V*06
$GPHDT,47.780,T*09
$GNGSA,A,3,195,17,196,199,19,06,194,14,09,11,,,0.78,0.47,0.62,1*03
$GNGSA,A,3,67,82,68,80,73,79,,,,,,,0.78,0.47,0.62,2*0D
$GNGSA,A,3,24,12,10,31,11,19,04,33,,,,,0.78,0.47,0.62,3*01
$GNGSA,A,3,40,07,10,14,08,43,33,13,42,11,28,23,0.78,0.47,0.62,4*0B
$GNGSA,A,3,37,,,,,,,,,,,,0.78,0.47,0.62,4*08
$GPGSV,4,1,13,195,67,040,41,17,64,049,41,196,60,131,42,199,60,167,36,1*5D
$GPGSV,4,2,13,19,58,000,43,06,50,322,38,194,45,169,44,41,38,242,41,1*55
$GPGSV,4,3,13,14,36,179,44,09,28,118,40,11,23,274,41,12,05,323,23,1*61
$GPGSV,4,4,13,18,,,20,1*6D
$GPGSV,2,1,08,195,67,040,46,196,60,131,46,199,60,167,46,06,50,322,40,8*54
$GPGSV,2,2,08,194,45,169,45,14,36,179,46,09,28,118,45,11,23,274,45,8*51
$GLGSV,2,1,06,67,48,082,23,82,37,021,28,68,36,155,44,80,33,242,42,1*7C
$GLGSV,2,2,06,73,22,303,37,79,10,192,19,1*73
$GAGSV,2,1,08,24,56,258,41,12,51,003,35,10,48,321,33,31,37,183,40,7*70
$GAGSV,2,2,08,11,32,289,35,19,28,096,30,04,20,159,26,33,18,056,30,7*77
$GAGSV,2,1,08,24,56,258,44,12,51,003,40,10,48,321,39,31,37,183,42,1*79
$GAGSV,2,2,08,11,32,289,40,19,28,096,35,04,20,159,30,33,18,056,21,1*71
$GBGSV,4,1,15,40,83,079,42,07,83,281,40,10,71,304,40,14,60,106,45,1*72
$GBGSV,4,2,15,08,59,257,38,43,54,038,36,33,53,159,45,13,49,248,42,1*7E
$GBGSV,4,3,15,42,45,065,31,11,36,068,31,28,32,316,37,23,25,229,23,1*7F
$GBGSV,4,4,15,37,18,283,32,41,13,197,30,58,,,24,1*77
$GBGSV,2,1,07,40,83,079,44,43,54,038,38,33,53,159,45,42,45,065,35,4*78
$GBGSV,2,2,07,28,32,316,37,23,25,229,23,37,18,283,25,4*42
$GNGGA,032209.000,2500.8241016,N,12132.4519258,E,2,60,0.47,19.116,M,15.25,M,6,3335*49
$GNRMC,032209.000,A,2500.8241016,N,12132.4519258,E,0.10,110.95,270623,,,D,V*00
$GPHDT,47.718,T*08
$GNGGA,032209.200,2500.8240836,N,12132.4519258,E,2,60,0.47,19.154,M,15.25,M,6,3335*46
$GNRMC,032209.200,A,2500.8240836,N,12132.4519258,E,0.10,110.95,270623,,,D,V*09
$GPHDT,47.741,T*04
$GNGGA,032209.400,2500.8240716,N,12132.4519198,E,2,60,0.47,19.182,M,15.25,M,4,3335*4B
$GNRMC,032209.400,A,2500.8240716,N,12132.4519198,E,0.10,110.95,270623,,,D,V*0D
$GPHDT,47.811,T*0E
$GNGGA,032209.600,2500.8240656,N,12132.4519258,E,2,60,0.47,19.203,M,15.25,M,2,3335*4F
$GNRMC,032209.600,A,2500.8240656,N,12132.4519258,E,0.09,110.95,270623,,,D,V*0D
$GPHDT,47.830,T*0D
$GNGGA,032209.800,2500.8240656,N,12132.4519378,E,2,60,0.47,19.217,M,15.25,M,2,3335*47
$GNRMC,032209.800,A,2500.8240656,N,12132.4519378,E,0.08,110.95,270623,,,D,V*01
$GPHDT,47.804,T*0A
$GNGSA,A,3,195,17,196,199,19,06,194,14,09,11,,,0.78,0.47,0.62,1*03
$GNGSA,A,3,67,82,68,80,73,79,,,,,,,0.78,0.47,0.62,2*0D
$GNGSA,A,3,24,12,10,31,11,19,04,33,,,,,0.78,0.47,0.62,3*01
$GNGSA,A,3,40,07,10,14,08,43,33,13,42,11,28,23,0.78,0.47,0.62,4*0B
$GNGSA,A,3,37,,,,,,,,,,,,0.78,0.47,0.62,4*08
$GPGSV,4,1,14,195,67,040,41,17,64,049,41,196,60,131,42,199,60,167,36,1*5A
$GPGSV,4,2,14,19,58,000,43,06,50,322,38,194,45,169,44,41,38,242,41,1*52
$GPGSV,4,3,14,14,36,179,44,09,28,118,40,11,23,274,41,12,05,323,23,1*66
$GPGSV,4,4,14,18,,,18,04,,,24,1*63
$GPGSV,2,1,08,195,67,040,46,196,60,131,46,199,60,167,46,06,50,322,40,8*54
$GPGSV,2,2,08,194,45,169,44,14,36,179,46,09,28,118,45,11,23,274,45,8*50
$GLGSV,2,1,06,67,48,082,24,82,37,021,28,68,36,155,44,80,33,242,42,1*7B
$GLGSV,2,2,06,73,22,303,37,79,10,192,19,1*73
$GAGSV,2,1,08,24,56,258,41,12,51,003,35,10,48,321,34,31,37,183,40,7*77
$GAGSV,2,2,08,11,32,289,35,19,28,096,30,04,20,159,27,33,18,056,30,7*76
$GAGSV,2,1,08,24,56,258,44,12,51,003,40,10,48,321,39,31,37,183,42,1*79
$GAGSV,2,2,08,11,32,289,39,19,28,096,34,04,20,159,30,33,18,056,21,1*7E
$GBGSV,4,1,15,40,83,079,42,07,83,281,40,10,71,304,40,14,60,106,45,1*72
$GBGSV,4,2,15,08,59,257,38,43,54,038,37,33,53,159,45,13,49,248,42,1*7F
$GBGSV,4,3,15,42,45,065,31,11,36,068,30,28,32,316,37,23,25,229,23,1*7E
$GBGSV,4,4,15,37,18,283,31,41,13,197,30,58,,,24,1*74
$GBGSV,2,1,07,40,83,079,43,43,54,038,38,33,53,159,45,42,45,065,35,4*7F
$GBGSV,2,2,07,28,32,316,37,23,25,229,23,37,18,283,27,4*40
$GNGGA,032210.000,2500.8240596,N,12132.4519498,E,2,60,0.47,19.238,M,15.25,M,1,3335*4F
$GNRMC,032210.000,A,2500.8240596,N,12132.4519498,E,0.09,110.95,270623,,,D,V*06
$GPHDT,47.619,T*08
$GNGGA,032210.200,2500.8240596,N,12132.4519558,E,2,60,0.47,19.252,M,15.25,M,1,3335*4C
$GNRMC,032210.200,A,2500.8240596,N,12132.4519558,E,0.10,110.95,270623,,,D,V*01
$GPHDT,47.594,T*0E
$GNGGA,032210.400,2500.8240536,N,12132.4519678,E,2,60,0.47,19.274,M,15.25,M,1,3335*45
$GNRMC,032210.400,A,2500.8240536,N,12132.4519678,E,0.08,110.95,270623,,,D,V*05
$GPHDT,47.678,T*0F
$GNGGA,032210.600,2500.8240536,N,12132.4519738,E,2,60,0.47,19.291,M,15.25,M,1,3335*49
$GNRMC,032210.600,A,2500.8240536,N,12132.4519738,E,0.08,110.95,270623,,,D,V*02
$GPHDT,47.734,T*06
$GNGGA,032210.800,2500.8240536,N,12132.4519798,E,2,60,0.47,19.312,M,15.25,M,1,3335*47
$GNRMC,032210.800,A,2500.8240536,N,12132.4519798,E,0.08,110.95,270623,,,D,V*06
$GPHDT,47.885,T*03
$GNGSA,A,3,195,17,196,199,19,06,194,14,09,11,,,0.78,0.47,0.62,1*03
$GNGSA,A,3,67,82,68,80,73,79,,,,,,,0.78,0.47,0.62,2*0D
$GNGSA,A,3,24,12,10,31,11,19,04,33,,,,,0.78,0.47,0.62,3*01
$GNGSA,A,3,40,07,10,14,08,43,33,13,42,11,28,23,0.78,0.47,0.62,4*0B
$GNGSA,A,3,37,,,,,,,,,,,,0.78,0.47,0.62,4*08
$GPGSV,4,1,14,195,67,040,41,17,64,049,41,196,60,131,42,199,60,167,36,1*5A
$GPGSV,4,2,14,19,58,000,43,06,50,322,38,194,45,169,44,41,38,242,41,1*52
$GPGSV,4,3,14,14,36,179,44,09,28,118,40,11,23,274,41,12,05,323,21,1*64
$GPGSV,4,4,14,18,,,18,04,,,27,1*60
$GPGSV,2,1,08,195,67,040,46,196,60,131,46,199,60,167,46,06,50,322,40,8*54
$GPGSV,2,2,08,194,45,169,44,14,36,179,46,09,28,118,45,11,23,274,45,8*50
$GLGSV,2,1,06,67,48,082,28,82,37,021,28,68,36,155,44,80,33,242,42,1*77
$GLGSV,2,2,06,73,22,303,37,79,10,192,19,1*73
$GAGSV,2,1,08,24,56,258,40,12,51,003,35,10,48,321,34,31,37,183,40,7*76
$GAGSV,2,2,08,11,32,289,35,19,28,096,31,04,20,159,27,33,18,056,30,7*77
$GAGSV,2,1,08,24,56,258,44,12,51,003,40,10,48,321,38,31,37,183,42,1*78
$GAGSV,2,2,08,11,32,289,39,19,28,096,33,04,20,159,30,33,18,056,20,1*78
$GBGSV,4,1,15,40,83,079,42,07,83,281,40,10,71,304,40,14,60,106,45,1*72
$GBGSV,4,2,15,08,59,257,38,43,54,038,37,33,53,159,45,13,49,248,42,1*7F
$GBGSV,4,3,15,42,45,065,31,11,36,068,30,28,32,316,37,23,25,229,23,1*7E
$GBGSV,4,4,15,37,18,283,32,41,13,197,31,58,,,24,1*76
$GBGSV,2,1,07,40,83,079,43,43,54,038,38,33,53,159,45,42,45,065,35,4*7F
$GBGSV,2,2,07,28,32,316,37,23,25,229,23,37,18,283,28,4*4F
$GNGGA,032211.000,2500.8240536,N,12132.4519858,E,2,60,0.47,19.332,M,15.25,M,2,3335*4C
$GNRMC,032211.000,A,2500.8240536,N,12132.4519858,E,0.09,110.95,270623,,,D,V*0D
$GPHDT,47.748,T*0D
$GNGGA,032211.200,2500.8240536,N,12132.4519978,E,2,60,0.47,19.349,M,15.25,M,2,3335*41
$GNRMC,032211.200,A,2500.8240536,N,12132.4519978,E,0.08,110.95,270623,,,D,V*0D
$GPHDT,47.803,T*0D
$GNGGA,032211.400,2500.8240536,N,12132.4519978,E,2,60,0.47,19.373,M,15.25,M,2,3335*4E
$GNRMC,032211.400,A,2500.8240536,N,12132.4519978,E,0.06,110.95,270623,,,D,V*05
$GPHDT,47.986,T*01
$GNGGA,032211.600,2500.8240476,N,12132.4520038,E,2,60,0.47,19.393,M,15.25,M,2,3335*40
$GNRMC,032211.600,A,2500.8240476,N,12132.4520038,E,0.08,110.95,270623,,,D,V*0B
$GPHDT,47.639,T*0A
$GNGGA,032211.800,2500.8240476,N,12132.4520158,E,2,60,0.47,19.409,M,15.25,M,2,3335*4D
$GNRMC,032211.800,A,2500.8240476,N,12132.4520158,E,0.09,110.95,270623,,,D,V*03
$GPHDT,47.861,T*09
$GNGSA,A,3,195,17,196,199,19,06,194,14,09,11,,,0.78,0.47,0.62,1*03
$GNGSA,A,3,67,82,68,80,73,79,,,,,,,0.78,0.47,0.62,2*0D
$GNGSA,A,3,24,12,10,31,11,19,04,33,,,,,0.78,0.47,0.62,3*01
$GNGSA,A,3,40,07,10,14,08,43,33,13,42,11,28,23,0.78,0.47,0.62,4*0B
$GNGSA,A,3,37,,,,,,,,,,,,0.78,0.47,0.62,4*08
$GPGSV,4,1,14,195,67,040,41,17,64,049,41,196,60,131,42,199,60,167,36,1*5A
$GPGSV,4,2,14,19,58,000,43,06,50,322,38,194,45,169,44,41,38,242,41,1*52
$GPGSV,4,3,14,14,36,179,44,09,28,118,39,11,23,274,41,12,05,323,21,1*6A
$GPGSV,4,4,14,18,,,19,04,,,25,1*63
$GPGSV,2,1,08,195,67,040,46,199,60,167,46,196,60,131,46,06,50,322,40,8*54
$GPGSV,2,2,08,194,45,169,44,14,36,179,46,09,28,118,45,11,23,274,45,8*50
$GLGSV,2,1,06,67,48,082,29,82,37,021,28,68,36,155,44,80,33,242,42,1*76
$GLGSV,2,2,06,73,22,303,37,79,10,192,19,1*73
$GAGSV,2,1,08,24,56,258,40,12,51,003,35,10,48,321,34,31,37,183,40,7*76
$GAGSV,2,2,08,11,32,289,36,19,28,096,31,04,20,159,27,33,18,056,30,7*74
$GAGSV,2,1,08,24,56,258,44,12,51,003,40,10,48,321,38,31,37,183,42,1*78
$GAGSV,2,2,08,11,32,289,39,19,28,096,34,04,20,159,30,33,18,056,20,1*7F
$GBGSV,4,1,15,40,83,079,42,07,83,281,40,10,71,304,40,14,60,106,45,1*72
$GBGSV,4,2,15,08,59,257,38,43,54,038,37,33,53,159,45,13,49,248,42,1*7F
$GBGSV,4,3,15,42,45,065,33,11,36,068,30,28,32,316,37,23,25,229,24,1*7B
$GBGSV,4,4,15,37,18,283,33,41,13,197,31,58,,,24,1*77
$GBGSV,2,1,08,40,83,079,43,43,54,038,38,33,53,159,45,42,45,065,35,4*70
$GBGSV,2,2,08,28,32,316,37,23,25,229,24,37,18,283,27,41,13,197,25,4*77
$GNGGA,032212.000,2500.8240416,N,12132.4520218,E,2,60,0.47,19.430,M,15.25,M,3,3335*4C
$GNRMC,032212.000,A,2500.8240416,N,12132.4520218,E,0.10,110.95,270623,,,D,V*01
$GPHDT,47.934,T*08
$GNGGA,032212.200,2500.8240416,N,12132.4520278,E,2,60,0.47,19.450,M,15.25,M,3,3335*4E
$GNRMC,032212.200,A,2500.8240416,N,12132.4520278,E,0.09,110.95,270623,,,D,V*0D
$GPHDT,47.836,T*0B
$GNGGA,032212.400,2500.8240416,N,12132.4520398,E,2,60,0.47,19.469,M,15.25,M,3,3335*4D
$GNRMC,032212.400,A,2500.8240416,N,12132.4520398,E,0.10,110.95,270623,,,D,V*0C
$GPHDT,48.065,T*0A
$GNGGA,032212.600,2500.8240356,N,12132.4520398,E,2,60,0.47,19.490,M,15.25,M,3,3335*4A
$GNRMC,032212.600,A,2500.8240356,N,12132.4520398,E,0.11,110.95,270623,,,D,V*0C
$GPHDT,47.734,T*06
$GNGGA,032212.800,2500.8240356,N,12132.4520458,E,2,60,0.47,19.515,M,15.25,M,3,3335*43
$GNRMC,032212.800,A,2500.8240356,N,12132.4520458,E,0.11,110.95,270623,,,D,V*09
$GPHDT,48.201,T*0A
$GNGSA,A,3,195,17,196,199,19,06,194,14,09,11,,,0.78,0.47,0.62,1*03
$GNGSA,A,3,67,82,68,80,73,79,,,,,,,0.78,0.47,0.62,2*0D
$GNGSA,A,3,24,12,10,31,11,19,04,33,,,,,0.78,0.47,0.62,3*01
$GNGSA,A,3,40,07,10,14,08,43,33,13,42,11,28,23,0.78,0.47,0.62,4*0B
$GNGSA,A,3,37,,,,,,,,,,,,0.78,0.47,0.62,4*08
$GPGSV,4,1,14,195,67,040,41,17,64,049,41,196,60,131,42,199,60,167,36,1*5A
$GPGSV,4,2,14,19,58,000,43,06,50,322,38,194,45,169,44,41,38,242,41,1*52
$GPGSV,4,3,14,14,36,179,44,09,28,118,39,11,23,274,41,12,05,323,21,1*6A
$GPGSV,4,4,14,18,,,20,04,,,26,1*6A
$GPGSV,2,1,08,195,67,040,46,199,60,167,46,196,60,131,46,06,50,322,40,8*54
$GPGSV,2,2,08,194,45,169,44,14,36,179,46,09,28,118,45,11,23,274,45,8*50
$GLGSV,2,1,06,67,48,082,29,82,37,021,26,68,36,155,44,80,33,242,42,1*78
$GLGSV,2,2,06,73,22,303,37,79,10,192,19,1*73
$GAGSV,2,1,08,24,56,258,40,12,51,003,35,10,48,321,34,31,36,183,40,7*77
$GAGSV,2,2,08,11,32,289,36,19,28,096,31,04,20,159,27,33,18,056,30,7*74
$GAGSV,2,1,08,24,56,258,44,12,51,003,40,10,48,321,38,31,36,183,42,1*79
$GAGSV,2,2,08,11,32,289,39,19,28,096,34,04,20,159,30,33,18,056,21,1*7E
$GBGSV,4,1,15,40,83,079,42,07,83,281,40,10,71,304,40,14,60,106,45,1*72
$GBGSV,4,2,15,08,59,257,38,43,54,038,37,33,53,159,45,13,49,248,42,1*7F
$GBGSV,4,3,15,42,45,065,33,11,36,068,30,28,32,316,37,23,25,229,22,1*7D
$GBGSV,4,4,15,37,18,283,34,41,13,197,31,58,,,24,1*70
$GBGSV,2,1,08,40,83,079,43,43,54,038,38,33,53,159,45,42,45,065,35,4*70
$GBGSV,2,2,08,28,32,316,37,23,25,229,24,37,18,283,27,41,13,197,36,4*75
$GNGGA,032213.000,2500.8240356,N,12132.4520578,E,2,60,0.47,19.529,M,15.25,M,4,3335*41
$GNRMC,032213.000,A,2500.8240356,N,12132.4520578,E,0.09,110.95,270623,,,D,V*0A
$GPHDT,48.008,T*01
$GNGGA,032213.200,2500.8240356,N,12132.4520698,E,2,60,0.47,19.542,M,15.25,M,4,3335*43
$GNRMC,032213.200,A,2500.8240356,N,12132.4520698,E,0.09,110.95,270623,,,D,V*05
$GPHDT,47.841,T*0B
$GNGGA,032213.400,2500.8240356,N,12132.4520698,E,2,60,0.47,19.570,M,15.25,M,4,3335*44
$GNRMC,032213.400,A,2500.8240356,N,12132.4520698,E,0.08,110.95,270623,,,D,V*02
$GPHDT,47.972,T*0A
$GNGGA,032213.600,2500.8240356,N,12132.4520758,E,2,60,0.47,19.583,M,15.25,M,4,3335*47
$GNRMC,032213.600,A,2500.8240356,N,12132.4520758,E,0.09,110.95,270623,,,D,V*0C
$GPHDT,48.004,T*0D
$GNGGA,032213.800,2500.8240356,N,12132.4520698,E,2,60,0.47,19.604,M,15.25,M,4,3335*48
$GNRMC,032213.800,A,2500.8240356,N,12132.4520698,E,0.08,110.95,270623,,,D,V*0E
$GPHDT,48.004,T*0D
$GNGSA,A,3,195,17,196,199,19,06,194,14,09,11,,,0.78,0.47,0.62,1*03
$GNGSA,A,3,67,82,68,80,73,79,,,,,,,0.78,0.47,0.62,2*0D
$GNGSA,A,3,24,12,10,31,11,19,04,33,,,,,0.78,0.47,0.62,3*01
$GNGSA,A,3,40,07,10,14,08,43,33,13,42,11,28,23,0.78,0.47,0.62,4*0B
$GNGSA,A,3,37,,,,,,,,,,,,0.78,0.47,0.62,4*08
$GPGSV,4,1,13,195,67,040,41,17,64,049,41,196,60,131,42,199,60,167,36,1*5D
$GPGSV,4,2,13,19,58,000,43,06,50,322,38,194,45,169,44,41,38,242,41,1*55
$GPGSV,4,3,13,14,36,179,44,09,28,118,39,11,23,274,41,12,05,323,21,1*6D
$GPGSV,4,4,13,04,,,25,1*65
$GPGSV,2,1,08,195,67,040,46,199,60,167,46,196,60,131,46,06,50,322,40,8*54
$GPGSV,2,2,08,194,45,169,44,14,36,179,46,09,28,118,45,11,23,274,45,8*50
$GLGSV,2,1,06,67,48,082,30,82,37,021,27,68,36,155,44,80,33,242,42,1*71
$GLGSV,2,2,06,73,22,303,37,79,10,192,18,1*72
$GAGSV,2,1,08,24,56,258,40,12,51,003,35,10,48,321,34,31,36,183,40,7*77
$GAGSV,2,2,08,11,32,289,36,19,28,096,31,04,20,159,27,33,18,056,29,7*7C
$GAGSV,2,1,08,24,56,258,44,12,51,003,40,10,48,321,38,31,36,183,42,1*79
$GAGSV,2,2,08,11,32,289,39,19,28,096,34,04,20,159,30,33,18,056,21,1*7E
$GBGSV,4,1,15,40,83,079,42,07,83,281,40,10,71,304,40,14,60,106,45,1*72
$GBGSV,4,2,15,08,59,257,38,43,54,038,37,33,53,159,45,13,49,248,42,1*7F
$GBGSV,4,3,15,42,45,065,32,11,36,068,30,28,32,316,38,23,25,229,23,1*72
$GBGSV,4,4,15,37,18,283,34,41,13,197,31,58,,,24,1*70
$GBGSV,2,1,08,40,83,079,43,43,54,038,38,33,53,159,45,42,45,065,35,4*70
$GBGSV,2,2,08,28,32,316,36,23,25,229,23,37,18,283,26,41,13,197,36,4*72
$GNGGA,032214.000,2500.8240416,N,12132.4520818,E,2,60,0.47,19.619,M,15.25,M,5,3335*4F
$GNRMC,032214.000,A,2500.8240416,N,12132.4520818,E,0.07,110.95,270623,,,D,V*0B
$GPHDT,48.104,T*0C
$GNGGA,032214.200,2500.8240416,N,12132.4520878,E,2,60,0.47,19.635,M,15.25,M,5,3335*45
$GNRMC,032214.200,A,2500.8240416,N,12132.4520878,E,0.07,110.95,270623,,,D,V*0F
