$FW : RTK35X,V1.1X0314AS,Lib20210517,1*54
$Tool : LOCOSYS , GNSS Firebird , v1.0.0.19*39
$---------------------------------------------------*2D
LGSV,2,2,07,83,30,327,,73,22,303,38,79,10,192,22,1*4B
$GAGSV,2,1,08,24,56,258,41,12,51,003,38,10,48,321,36,31,36,183,40,7*79
$GAGSV,2,2,08,11,32,289,37,19,28,096,27,04,20,159,24,33,18,056,30,7*71
$GAGSV,2,1,08,24,56,258,44,12,51,003,40,10,48,321,39,31,36,183,41,1*7B
$GAGSV,2,2,08,11,32,289,40,19,28,096,29,04,20,159,29,33,18,056,18,1*7E
$GBGSV,4,1,16,40,83,080,41,07,83,280,41,10,71,304,40,14,60,105,44,1*76
$GBGSV,4,2,16,08,59,257,40,43,54,038,36,33,53,158,45,13,49,248,39,1*7F
$GBGSV,4,3,16,42,45,065,33,11,36,068,27,28,32,316,43,23,25,229,22,1*7B
$GBGSV,4,4,16,37,18,283,30,41,13,197,35,21,04,036,,58,,,17,1*41
$GBGSV,2,1,08,40,83,080,44,43,54,038,37,33,53,158,44,42,45,065,32,4*79
$GBGSV,2,2,08,28,32,316,38,23,25,229,26,37,18,283,30,41,13,197,33,4*7B
$GNGGA,032231.000,2500.8239234,N,12132.4513287,E,4,62,0.46,17.616,M,15.25,M,2,3335*4F
$GNRMC,032231.000,A,2500.8239234,N,12132.4513287,E,0.07,110.95,270623,,,R,V*1E
$GPHDT,356.665,T*30
$GNGGA,032231.200,2500.8239231,N,12132.4513263,E,4,62,0.46,17.624,M,15.25,M,2,3335*43
$GNRMC,032231.200,A,2500.8239231,N,12132.4513263,E,0.06,110.95,270623,,,R,V*12
$GPHDT,356.925,T*3B
$GNGGA,032231.400,2500.8239236,N,12132.4513257,E,4,62,0.46,17.620,M,15.25,M,2,3335*41
$GNRMC,032231.400,A,2500.8239236,N,12132.4513257,E,0.06,110.95,270623,,,R,V*14
$GPHDT,356.753,T*34
$GNGGA,032231.600,2500.8239252,N,12132.4513283,E,4,62,0.46,17.618,M,15.25,M,2,3335*43
$GNRMC,032231.600,A,2500.8239252,N,12132.4513283,E,0.05,110.95,270623,,,R,V*1E
$GPHDT,356.804,T*39
$GNGGA,032231.800,2500.8239248,N,12132.4513273,E,4,62,0.46,17.612,M,15.25,M,2,3335*43
$GNRMC,032231.800,A,2500.8239248,N,12132.4513273,E,0.06,110.95,270623,,,R,V*17
$GPHDT,357.049,T*39
$GNGSA,A,3,195,17,196,199,19,06,194,14,09,11,,,0.76,0.46,0.61,1*0F
$GNGSA,A,3,67,68,82,80,73,79,,,,,,,0.76,0.46,0.61,2*01
$GNGSA,A,3,24,12,10,31,11,19,04,33,,,,,0.76,0.46,0.61,3*0D
$GNGSA,A,3,07,40,10,14,08,43,33,13,42,11,28,23,0.76,0.46,0.61,4*07
$GNGSA,A,3,37,41,,,,,,,,,,,0.76,0.46,0.61,4*01
$GPGSV,4,1,13,195,67,040,42,17,64,049,41,196,60,131,40,199,60,167,34,1*5E
$GPGSV,4,2,13,19,58,000,44,06,50,322,40,194,45,169,43,41,38,242,41,1*5A
$GPGSV,4,3,13,14,36,179,43,09,28,118,39,11,23,274,39,12,05,323,24,1*60
$GPGSV,4,4,13,04,,,19,1*6A
$GPGSV,2,1,08,195,67,040,46,199,60,167,45,196,60,131,44,06,50,322,45,8*50
$GPGSV,2,2,08,194,45,169,44,14,36,179,44,09,28,118,45,11,23,274,46,8*51
$GLGSV,2,1,06,67,48,082,32,68,37,155,43,82,37,022,20,80,33,241,38,1*7F
$GLGSV,2,2,06,73,22,303,38,79,10,192,22,1*74
$GAGSV,2,1,08,24,56,258,41,12,51,003,38,10,48,321,36,31,36,183,39,7*77
$GAGSV,2,2,08,11,32,289,37,19,28,096,27,04,20,159,22,33,18,056,31,7*76
$GAGSV,2,1,08,24,56,258,44,12,51,003,40,10,48,321,39,31,36,183,41,1*7B
$GAGSV,2,2,08,11,32,289,39,19,28,096,29,04,20,159,30,33,18,056,18,1*78
$GBGSV,4,1,15,07,83,280,41,40,83,080,41,10,71,304,40,14,60,105,44,1*75
$GBGSV,4,2,15,08,59,257,40,43,54,038,36,33,53,158,45,13,49,248,39,1*7C
$GBGSV,4,3,15,42,45,065,31,11,36,068,29,28,32,316,43,23,25,229,22,1*74
$GBGSV,4,4,15,37,18,283,30,41,13,197,38,58,,,17,1*7D
$GBGSV,2,1,08,40,83,080,44,43,54,038,37,33,53,158,45,42,45,065,32,4*78
$GBGSV,2,2,08,28,32,316,38,23,25,229,26,37,18,283,31,41,13,197,33,4*7A
$GNGGA,032232.000,2500.8239248,N,12132.4513310,E,4,62,0.46,17.612,M,15.25,M,3,3335*4D
$GNRMC,032232.000,A,2500.8239248,N,12132.4513310,E,0.06,110.95,270623,,,R,V*18
$GPHDT,356.930,T*3F
$GNGGA,032232.200,2500.8239251,N,12132.4513307,E,4,62,0.46,17.609,M,15.25,M,3,3335*4B
$GNRMC,032232.200,A,2500.8239251,N,12132.4513307,E,0.05,110.95,270623,,,R,V*17
$GPHDT,356.624,T*35
$GNGGA,032232.400,2500.8239230,N,12132.4513277,E,4,62,0.46,17.616,M,15.25,M,3,3335*42
$GNRMC,032232.400,A,2500.8239230,N,12132.4513277,E,0.06,110.95,270623,,,R,V*13
$GPHDT,356.791,T*3A
$GNGGA,032232.600,2500.8239222,N,12132.4513262,E,4,62,0.46,17.623,M,15.25,M,3,3335*41
$GNRMC,032232.600,A,2500.8239222,N,12132.4513262,E,0.07,110.95,270623,,,R,V*17
$GPHDT,357.023,T*35
$GNGGA,032232.800,2500.8239214,N,12132.4513257,E,4,62,0.46,17.633,M,15.25,M,3,3335*4D
$GNRMC,032232.800,A,2500.8239214,N,12132.4513257,E,0.08,110.95,270623,,,R,V*15
$GPHDT,357.030,T*37
$GNGSA,A,3,195,17,196,199,19,06,194,14,09,11,,,0.76,0.46,0.61,1*0F
$GNGSA,A,3,67,82,68,80,73,79,,,,,,,0.76,0.46,0.61,2*01
$GNGSA,A,3,24,12,10,31,11,19,04,33,,,,,0.76,0.46,0.61,3*0D
$GNGSA,A,3,40,07,10,14,08,43,33,13,42,11,28,23,0.76,0.46,0.61,4*07
$GNGSA,A,3,37,41,,,,,,,,,,,0.76,0.46,0.61,4*01
$GPGSV,4,1,13,195,67,040,42,17,64,049,41,196,60,131,40,199,60,167,34,1*5E
$GPGSV,4,2,13,19,58,000,44,06,50,323,40,194,45,169,43,41,38,242,41,1*5B
$GPGSV,4,3,13,14,36,179,43,09,28,117,39,11,23,274,40,12,05,323,24,1*61
$GPGSV,4,4,13,04,,,19,1*6A
$GPGSV,2,1,08,195,67,040,46,199,60,167,45,196,60,131,44,06,50,323,45,8*51
$GPGSV,2,2,08,194,45,169,44,14,36,179,44,09,28,117,45,11,23,274,46,8*5E
$GLGSV,2,1,06,67,48,082,32,82,37,022,20,68,37,155,43,80,33,241,38,1*7F
$GLGSV,2,2,06,73,22,303,38,79,10,192,22,1*74
$GAGSV,2,1,08,24,56,258,41,12,51,003,38,10,48,321,36,31,36,183,39,7*77
$GAGSV,2,2,08,11,32,289,37,19,28,096,27,04,20,159,22,33,18,056,29,7*7F
$GAGSV,2,1,08,24,56,258,44,12,51,003,41,10,48,321,39,31,36,183,41,1*7A
$GAGSV,2,2,08,11,32,289,39,19,28,096,30,04,20,159,30,33,18,056,18,1*70
$GBGSV,5,1,18,40,83,080,41,07,83,280,41,10,71,304,40,14,60,105,44,1*79
$GBGSV,5,2,18,08,59,257,40,43,54,038,36,33,53,158,45,13,49,248,39,1*70
$GBGSV,5,3,18,42,45,065,31,11,36,068,30,28,32,316,43,23,25,229,25,1*77
$GBGSV,5,4,18,37,18,283,29,41,13,197,37,25,08,184,,16,01,189,,1*79
$GBGSV,5,5,18,39,01,181,,58,,,16,1*46
$GBGSV,2,1,08,40,83,080,44,43,54,038,37,33,53,158,45,42,45,065,33,4*79
$GBGSV,2,2,08,28,32,316,38,23,25,229,24,37,18,283,31,41,13,197,34,4*7F
$GNGGA,032233.000,2500.8239231,N,12132.4513281,E,4,62,0.46,17.629,M,15.25,M,4,3335*44
$GNRMC,032233.000,A,2500.8239231,N,12132.4513281,E,0.07,110.95,270623,,,R,V*1F
$GPHDT,356.866,T*3D
$GNGGA,032233.200,2500.8239239,N,12132.4513293,E,4,62,0.46,17.615,M,15.25,M,4,3335*42
$GNRMC,032233.200,A,2500.8239239,N,12132.4513293,E,0.07,110.95,270623,,,R,V*16
$GPHDT,356.612,T*30
$GNGGA,032233.400,2500.8239228,N,12132.4513310,E,4,62,0.46,17.625,M,15.25,M,4,3335*4D
$GNRMC,032233.400,A,2500.8239228,N,12132.4513310,E,0.07,110.95,270623,,,R,V*1A
$GPHDT,356.289,T*36
$GNGGA,032233.600,2500.8239221,N,12132.4513283,E,4,62,0.46,17.628,M,15.25,M,4,3335*40
$GNRMC,032233.600,A,2500.8239221,N,12132.4513283,E,0.06,110.95,270623,,,R,V*1B
$GPHDT,356.647,T*30
$GNGGA,032233.800,2500.8239224,N,12132.4513267,E,4,62,0.46,17.631,M,15.25,M,4,3335*49
$GNRMC,032233.800,A,2500.8239224,N,12132.4513267,E,0.05,110.95,270623,,,R,V*19
$GPHDT,357.562,T*35
$GNGSA,A,3,195,17,196,199,19,06,194,14,09,11,,,0.76,0.46,0.61,1*0F
$GNGSA,A,3,67,68,82,80,73,79,,,,,,,0.76,0.46,0.61,2*01
$GNGSA,A,3,24,12,10,31,11,19,04,33,,,,,0.76,0.46,0.61,3*0D
$GNGSA,A,3,07,40,10,14,08,43,33,13,42,11,28,23,0.76,0.46,0.61,4*07
$GNGSA,A,3,37,41,,,,,,,,,,,0.76,0.46,0.61,4*01
$GPGSV,4,1,13,195,67,040,42,17,64,049,40,196,60,131,40,199,60,167,34,1*5F
$GPGSV,4,2,13,19,58,000,44,06,50,323,40,194,45,169,43,41,38,242,41,1*5B
$GPGSV,4,3,13,14,36,179,43,09,28,117,38,11,23,275,39,12,05,323,24,1*6F
$GPGSV,4,4,13,04,,,18,1*6B
$GPGSV,2,1,08,195,67,040,46,199,60,167,45,196,60,131,45,06,50,323,45,8*50
$GPGSV,2,2,08,194,45,169,44,14,36,179,44,09,28,117,44,11,23,275,46,8*5E
$GLGSV,2,1,06,67,48,082,31,68,37,155,43,82,37,022,22,80,33,241,39,1*7F
$GLGSV,2,2,06,73,22,303,39,79,10,192,21,1*76
$GAGSV,2,1,08,24,56,258,41,12,51,003,38,10,48,321,35,31,36,183,39,7*74
$GAGSV,2,2,08,11,32,289,37,19,28,096,28,04,20,159,20,33,18,056,30,7*7A
$GAGSV,2,1,08,24,56,258,44,12,51,003,41,10,48,321,40,31,36,183,41,1*74
$GAGSV,2,2,08,11,32,289,39,19,28,096,31,04,20,159,31,33,18,056,17,1*7F
$GBGSV,4,1,16,07,83,280,40,40,83,080,41,10,71,304,40,14,60,105,44,1*77
$GBGSV,4,2,16,08,59,257,40,43,54,038,35,33,53,158,45,13,49,248,39,1*7C
$GBGSV,4,3,16,42,45,065,36,11,36,068,29,28,32,316,43,23,25,229,25,1*77
$GBGSV,4,4,16,34,22,088,,37,18,283,30,41,13,197,37,58,,,15,1*44
$GBGSV,2,1,08,40,83,080,45,43,54,038,34,33,53,158,45,42,45,065,34,4*7C
$GBGSV,2,2,08,28,32,316,38,23,25,229,24,37,18,283,32,41,13,197,34,4*7C
$GNGGA,032234.000,2500.8239251,N,12132.4513318,E,4,62,0.46,17.610,M,15.25,M,5,3335*4F
$GNRMC,032234.000,A,2500.8239251,N,12132.4513318,E,0.04,110.95,270623,,,R,V*1C
$GPHDT,357.065,T*37
$GNGGA,032234.200,2500.8239253,N,12132.4513297,E,4,62,0.46,17.617,M,15.25,M,5,3335*4E
$GNRMC,032234.200,A,2500.8239253,N,12132.4513297,E,0.04,110.95,270623,,,R,V*1A
$GPHDT,357.025,T*33
$GNGGA,032234.400,2500.8239242,N,12132.4513319,E,4,61,0.47,17.625,M,15.25,M,5,3335*4C
$GNRMC,032234.400,A,2500.8239242,N,12132.4513319,E,0.05,110.95,270623,,,R,V*1A
$GPHDT,356.838,T*36
$GNGGA,032234.600,2500.8239238,N,12132.4513336,E,4,61,0.47,17.610,M,15.25,M,5,3335*48
$GNRMC,032234.600,A,2500.8239238,N,12132.4513336,E,0.06,110.95,270623,,,R,V*1B
$GPHDT,356.649,T*3E
$GNGGA,032234.800,2500.8239242,N,12132.4513314,E,4,61,0.47,17.620,M,15.25,M,5,3335*48
$GNRMC,032234.800,A,2500.8239242,N,12132.4513314,E,0.07,110.95,270623,,,R,V*19
$GPHDT,357.286,T*38
$GNGSA,A,3,195,17,196,199,19,06,194,14,09,11,,,0.78,0.47,0.62,1*03
$GNGSA,A,3,67,68,82,80,73,79,,,,,,,0.78,0.47,0.62,2*0D
$GNGSA,A,3,24,12,10,31,11,19,04,33,,,,,0.78,0.47,0.62,3*01
$GNGSA,A,3,07,40,10,14,08,43,33,13,42,28,23,37,0.78,0.47,0.62,4*0F
$GNGSA,A,3,41,,,,,,,,,,,,0.78,0.47,0.62,4*09
$GPGSV,4,1,13,195,67,040,42,17,64,049,41,196,60,131,40,199,60,167,34,1*5E
$GPGSV,4,2,13,19,59,000,44,06,50,323,40,194,45,169,43,41,38,242,41,1*5A
$GPGSV,4,3,13,14,36,179,43,09,28,117,35,11,23,275,39,12,05,323,24,1*62
$GPGSV,4,4,13,04,,,17,1*64
$GPGSV,3,1,09,195,67,040,46,196,60,131,45,199,60,167,45,06,50,323,45,8*50
$GPGSV,3,2,09,194,45,169,44,14,36,179,45,09,28,117,41,11,23,275,46,8*5A
$GPGSV,3,3,09,04,,,23,8*61
$GLGSV,2,1,06,67,48,082,31,68,37,155,44,82,37,022,27,80,33,241,39,1*7D
$GLGSV,2,2,06,73,22,303,38,79,10,192,22,1*74
$GAGSV,2,1,08,24,56,258,41,12,51,003,38,10,48,321,36,31,36,183,39,7*77
$GAGSV,2,2,08,11,32,289,37,19,28,096,27,04,20,159,21,33,18,056,31,7*75
$GAGSV,2,1,08,24,56,258,45,12,51,003,40,10,48,321,40,31,36,183,42,1*77
$GAGSV,2,2,08,11,32,289,39,19,28,096,31,04,20,159,31,33,18,056,13,1*7B
$GBGSV,4,1,15,07,83,280,40,40,83,080,41,10,71,304,40,14,60,105,42,1*72
$GBGSV,4,2,15,08,59,257,40,43,54,038,34,33,53,158,44,13,49,248,40,1*71
$GBGSV,4,3,15,42,45,065,36,11,36,068,,28,32,316,43,23,25,229,26,1*7C
$GBGSV,4,4,15,37,18,283,30,41,13,197,38,58,,,17,1*7D
$GBGSV,2,1,08,40,83,080,45,43,54,038,36,33,53,158,45,42,45,065,34,4*7E
$GBGSV,2,2,08,28,32,316,38,23,25,229,23,37,18,283,33,41,13,197,34,4*7A
$GNGGA,032235.000,2500.8239227,N,12132.4513316,E,4,61,0.47,17.607,M,15.25,M,6,3335*46
$GNRMC,032235.000,A,2500.8239227,N,12132.4513316,E,0.07,110.95,270623,,,R,V*11
$GPHDT,357.010,T*35
$GNGGA,032235.200,2500.8239226,N,12132.4513304,E,4,61,0.47,17.628,M,15.25,M,6,3335*4B
$GNRMC,032235.200,A,2500.8239226,N,12132.4513304,E,0.07,110.95,270623,,,R,V*11
$GPHDT,356.866,T*3D
$GNGGA,032235.400,2500.8239225,N,12132.4513338,E,4,61,0.47,17.618,M,15.25,M,6,3335*42
$GNRMC,032235.400,A,2500.8239225,N,12132.4513338,E,0.09,110.95,270623,,,R,V*15
$GPHDT,357.018,T*3D
$GNGGA,032235.600,2500.8239206,N,12132.4513319,E,4,60,0.47,17.620,M,15.25,M,5,3335*4B
$GNRMC,032235.600,A,2500.8239206,N,12132.4513319,E,0.10,110.95,270623,,,R,V*1D
$GPHDT,356.727,T*37
$GNGGA,032235.800,2500.8239201,N,12132.4513331,E,4,60,0.47,17.615,M,15.25,M,5,3335*4E
$GNRMC,032235.800,A,2500.8239201,N,12132.4513331,E,0.12,110.95,270623,,,R,V*1C
$GPHDT,356.726,T*36
$GNGSA,A,3,195,17,196,199,19,06,194,14,09,11,,,0.78,0.47,0.62,1*03
$GNGSA,A,3,67,68,82,80,73,79,,,,,,,0.78,0.47,0.62,2*0D
$GNGSA,A,3,24,12,10,31,11,19,04,33,,,,,0.78,0.47,0.62,3*01
$GNGSA,A,3,07,40,10,14,08,43,33,13,42,28,23,37,0.78,0.47,0.62,4*0F
$GNGSA,A,3,41,,,,,,,,,,,,0.78,0.47,0.62,4*09
$GPGSV,3,1,12,195,67,040,42,17,64,049,41,196,60,131,41,199,60,167,34,1*59
$GPGSV,3,2,12,19,59,000,43,06,50,323,40,194,45,169,43,41,38,242,41,1*5B
$GPGSV,3,3,12,14,36,179,43,09,28,117,37,11,23,275,39,12,05,323,24,1*66
$GPGSV,2,1,08,195,67,040,46,196,60,131,45,199,60,167,45,06,50,323,45,8*50
$GPGSV,2,2,08,194,45,169,44,14,36,179,44,09,28,117,42,11,23,275,45,8*5B
$GLGSV,2,1,06,67,48,082,29,68,37,155,44,82,37,022,26,80,33,241,39,1*75
$GLGSV,2,2,06,73,22,303,38,79,10,192,20,1*76
$GAGSV,2,1,08,24,56,258,41,12,51,003,38,10,48,321,35,31,36,183,39,7*74
$GAGSV,2,2,08,11,32,289,37,19,28,096,26,04,20,159,22,33,18,056,30,7*76
$GAGSV,2,1,07,24,56,258,45,12,51,003,41,10,48,321,39,31,36,183,40,1*75
$GAGSV,2,2,07,11,32,289,39,19,28,096,30,04,20,159,31,1*4D
$GBGSV,4,1,15,07,83,280,39,40,83,080,41,10,71,304,40,14,60,105,42,1*7C
$GBGSV,4,2,15,08,59,257,40,43,54,038,37,33,53,158,44,13,49,248,40,1*72
$GBGSV,4,3,15,42,45,065,36,11,36,068,,28,32,316,43,23,25,229,23,1*79
$GBGSV,4,4,15,37,18,283,31,41,13,197,38,58,,,18,1*73
$GBGSV,2,1,08,40,83,080,45,43,54,038,35,33,53,158,45,42,45,065,32,4*7B
$GBGSV,2,2,08,28,32,316,38,23,25,229,21,37,18,283,33,41,13,197,32,4*7E
$GNGGA,032236.000,2500.8239247,N,12132.4513370,E,4,60,0.47,17.593,M,15.25,M,3,3335*49
$GNRMC,032236.000,A,2500.8239247,N,12132.4513370,E,0.11,110.95,270623,,,R,V*13
$GPHDT,356.672,T*36
$GNGGA,032236.200,2500.8239220,N,12132.4513283,E,4,60,0.47,17.598,M,15.25,M,1,3335*4E
$GNRMC,032236.200,A,2500.8239220,N,12132.4513283,E,0.09,110.95,270623,,,R,V*14
$GPHDT,356.849,T*30
$GNGGA,032236.400,2500.8239221,N,12132.4513273,E,4,60,0.47,17.609,M,15.25,M,1,3335*4D
$GNRMC,032236.400,A,2500.8239221,N,12132.4513273,E,0.08,110.95,270623,,,R,V*1D
$GPHDT,356.689,T*32
$GNGGA,032236.600,2500.8239228,N,12132.4513308,E,4,60,0.47,17.589,M,15.25,M,1,3335*40
$GNRMC,032236.600,A,2500.8239228,N,12132.4513308,E,0.08,110.95,270623,,,R,V*1B
$GPHDT,356.457,T*33
$GNGGA,032236.800,2500.8239207,N,12132.4513296,E,4,61,0.46,17.601,M,15.25,M,1,3335*46
$GNRMC,032236.800,A,2500.8239207,N,12132.4513296,E,0.08,110.95,270623,,,R,V*1E
$GPHDT,356.152,T*33
$GNGSA,A,3,195,17,196,199,19,06,194,14,09,11,,,0.76,0.46,0.61,1*0F
$GNGSA,A,3,67,68,82,80,73,79,,,,,,,0.76,0.46,0.61,2*01
$GNGSA,A,3,24,12,10,31,11,19,04,33,,,,,0.76,0.46,0.61,3*0D
$GNGSA,A,3,07,40,10,14,08,43,33,13,42,11,28,23,0.76,0.46,0.61,4*07
$GNGSA,A,3,37,41,,,,,,,,,,,0.76,0.46,0.61,4*01
$GPGSV,4,1,13,195,67,040,42,17,64,049,40,196,60,131,40,199,60,167,34,1*5F
$GPGSV,4,2,13,19,59,000,43,06,50,323,40,194,45,169,43,41,38,242,41,1*5D
$GPGSV,4,3,13,14,36,179,43,09,28,117,37,11,23,275,40,12,05,323,25,1*6F
$GPGSV,4,4,13,04,,,19,1*6A
$GPGSV,3,1,09,195,67,040,46,196,60,131,44,199,60,167,45,06,50,323,45,8*51
$GPGSV,3,2,09,194,45,169,44,14,36,179,44,09,28,117,43,11,23,275,45,8*5A
$GPGSV,3,3,09,04,,,20,8*62
$GLGSV,2,1,06,67,48,082,32,68,37,155,44,82,37,022,25,80,33,241,40,1*72
$GLGSV,2,2,06,73,22,303,38,79,10,192,19,1*7C
$GAGSV,2,1,08,24,56,258,41,12,51,003,38,10,48,321,35,31,36,183,39,7*74
$GAGSV,2,2,08,11,32,289,37,19,28,096,28,04,20,159,21,33,18,056,31,7*7A
$GAGSV,2,1,07,24,56,258,45,12,51,003,41,10,48,321,40,31,36,183,40,1*7B
$GAGSV,2,2,07,11,32,289,39,19,28,096,32,04,20,159,31,1*4F
$GBGSV,4,1,15,07,83,280,39,40,83,080,41,10,71,304,40,14,60,105,44,1*7A
$GBGSV,4,2,15,08,59,257,41,43,54,038,37,33,53,158,44,13,49,248,40,1*73
$GBGSV,4,3,15,42,45,065,28,11,36,068,28,28,32,316,43,23,25,229,25,1*7A
$GBGSV,4,4,15,37,18,283,30,41,13,197,38,58,,,18,1*72
$GBGSV,2,1,08,40,83,080,45,43,54,038,35,33,53,158,45,42,45,065,34,4*7D
$GBGSV,2,2,08,28,32,316,38,23,25,229,22,37,18,283,33,41,13,197,34,4*7B
$GNGGA,032237.000,2500.8239231,N,12132.4513311,E,4,61,0.46,17.596,M,15.25,M,2,3335*4A
$GNRMC,032237.000,A,2500.8239231,N,12132.4513311,E,0.06,110.95,270623,,,R,V*12
$GPHDT,356.141,T*31
$GNGGA,032237.200,2500.8239222,N,12132.4513306,E,4,61,0.46,17.600,M,15.25,M,2,3335*40
$GNRMC,032237.200,A,2500.8239222,N,12132.4513306,E,0.04,110.95,270623,,,R,V*16
$GPHDT,356.487,T*3E
$GNGGA,032237.400,2500.8239222,N,12132.4513305,E,4,61,0.46,17.592,M,15.25,M,2,3335*4D
$GNRMC,032237.400,A,2500.8239222,N,12132.4513305,E,0.05,110.95,270623,,,R,V*12
$GPHDT,356.417,T*37
$GNGGA,032237.600,2500.8239203,N,12132.4513312,E,4,61,0.46,17.610,M,15.25,M,2,3335*43
$GNRMC,032237.600,A,2500.8239203,N,12132.4513312,E,0.07,110.95,270623,,,R,V*17
$GPHDT,356.385,T*3B
$GNGGA,032237.800,2500.8239209,N,12132.4513299,E,4,61,0.46,17.604,M,15.25,M,2,3335*40
$GNRMC,032237.800,A,2500.8239209,N,12132.4513299,E,0.08,110.95,270623,,,R,V*1E
$GPHDT,356.787,T*3D
$GNGSA,A,3,195,17,196,199,19,06,194,14,09,11,,,0.76,0.46,0.61,1*0F
$GNGSA,A,3,67,68,82,80,73,79,,,,,,,0.76,0.46,0.61,2*01
$GNGSA,A,3,24,12,10,31,11,19,04,33,,,,,0.76,0.46,0.61,3*0D
$GNGSA,A,3,40,07,10,14,08,43,33,13,42,11,28,23,0.76,0.46,0.61,4*07
$GNGSA,A,3,37,41,,,,,,,,,,,0.76,0.46,0.61,4*01
$GPGSV,4,1,13,195,67,040,42,17,64,049,40,196,60,131,40,199,60,167,34,1*5F
$GPGSV,4,2,13,19,59,000,43,06,50,323,40,194,45,169,43,41,38,242,41,1*5D
$GPGSV,4,3,13,14,36,179,43,09,28,117,36,11,23,275,40,12,05,323,25,1*6E
$GPGSV,4,4,13,04,,,22,1*62
$GPGSV,2,1,08,195,67,040,46,196,60,131,44,199,60,167,45,06,50,323,45,8*51
$GPGSV,2,2,08,194,45,169,44,14,36,179,44,09,28,117,43,11,23,275,45,8*5A
$GLGSV,2,1,06,67,48,082,32,68,37,155,44,82,37,022,26,80,33,241,40,1*71
$GLGSV,2,2,06,73,22,303,38,79,10,192,21,1*77
$GAGSV,2,1,08,24,56,258,41,12,51,003,38,10,48,321,35,31,36,183,39,7*74
$GAGSV,2,2,08,11,32,289,37,19,28,096,30,04,20,159,20,33,18,056,31,7*72
$GAGSV,2,1,07,24,56,258,45,12,51,003,41,10,48,321,40,31,36,183,40,1*7B
$GAGSV,2,2,07,11,32,289,39,19,28,096,33,04,20,159,31,1*4E
$GBGSV,4,1,14,40,83,080,41,07,83,280,39,10,71,304,40,14,60,105,44,1*7B
$GBGSV,4,2,14,08,59,257,41,43,54,038,38,33,53,158,44,13,49,248,40,1*7D
$GBGSV,4,3,14,42,45,065,29,11,36,068,28,28,32,316,43,23,25,229,25,1*7A
$GBGSV,4,4,14,37,18,283,30,41,13,197,37,1*78
$GBGSV,2,1,08,40,83,080,45,43,54,038,35,33,53,158,45,42,45,065,34,4*7D
$GBGSV,2,2,08,28,32,316,37,23,25,229,23,37,18,283,33,41,13,197,34,4*75
$GNGGA,032238.000,2500.8239229,N,12132.4513321,E,4,61,0.46,17.605,M,15.25,M,3,3335*47
$GNRMC,032238.000,A,2500.8239229,N,12132.4513321,E,0.05,110.95,270623,,,R,V*14
$GPHDT,356.564,T*32
$GNGGA,032238.200,2500.8239223,N,12132.4513327,E,4,61,0.46,17.600,M,15.25,M,3,3335*4C
$GNRMC,032238.200,A,2500.8239223,N,12132.4513327,E,0.05,110.95,270623,,,R,V*1A
$GPHDT,356.522,T*30
$GNGGA,032238.400,2500.8239225,N,12132.4513319,E,4,61,0.46,17.610,M,15.25,M,3,3335*40
$GNRMC,032238.400,A,2500.8239225,N,12132.4513319,E,0.05,110.95,270623,,,R,V*17
$GPHDT,356.411,T*31
$GNGGA,032238.600,2500.8239208,N,12132.4513305,E,4,61,0.46,17.615,M,15.25,M,3,3335*45
$GNRMC,032238.600,A,2500.8239208,N,12132.4513305,E,0.04,110.95,270623,,,R,V*16
$GPHDT,356.681,T*3A
$GNGGA,032238.800,2500.8239245,N,12132.4513331,E,4,62,0.46,17.600,M,15.25,M,3,3335*42
$GNRMC,032238.800,A,2500.8239245,N,12132.4513331,E,0.04,110.95,270623,,,R,V*16
$GPHDT,356.675,T*31
$GNGSA,A,3,195,17,196,199,19,06,194,14,09,11,,,0.76,0.46,0.61,1*0F
$GNGSA,A,3,67,68,82,80,73,79,,,,,,,0.76,0.46,0.61,2*01
$GNGSA,A,3,24,12,10,31,11,19,04,33,,,,,0.76,0.46,0.61,3*0D
$GNGSA,A,3,40,07,10,14,08,43,33,13,42,11,28,23,0.76,0.46,0.61,4*07
$GNGSA,A,3,37,41,,,,,,,,,,,0.76,0.46,0.61,4*01
$GPGSV,4,1,13,195,67,040,42,17,64,049,40,196,60,131,40,199,60,167,34,1*5F
$GPGSV,4,2,13,19,59,000,43,06,50,323,40,194,45,169,43,41,38,242,41,1*5D
$GPGSV,4,3,13,14,36,179,43,09,28,117,36,11,23,275,40,12,05,323,26,1*6D
$GPGSV,4,4,13,04,,,23,1*63
$GPGSV,3,1,09,195,67,040,46,196,60,131,44,199,60,167,45,06,50,323,45,8*51
$GPGSV,3,2,09,194,45,169,44,14,36,179,44,09,28,117,43,11,23,275,45,8*5A
$GPGSV,3,3,09,04,,,20,8*62
$GLGSV,2,1,06,67,48,082,31,68,37,155,44,82,37,022,22,80,33,241,40,1*76
$GLGSV,2,2,06,73,22,303,39,79,10,192,19,1*7D
$GAGSV,2,1,08,24,56,258,41,12,51,003,38,10,48,321,35,31,36,183,39,7*74
$GAGSV,2,2,08,11,32,289,37,19,28,096,31,04,20,159,20,33,18,056,31,7*73
$GAGSV,2,1,08,24,56,258,45,12,51,003,41,10,48,321,40,31,36,183,40,1*74
$GAGSV,2,2,08,11,32,289,39,19,28,096,33,04,20,159,30,33,18,056,34,1*7D
$GBGSV,4,1,14,40,83,080,41,07,83,280,39,10,71,304,40,14,60,105,44,1*7B
$GBGSV,4,2,14,08,59,257,41,43,54,038,37,33,53,158,44,13,49,248,40,1*72
$GBGSV,4,3,14,42,45,065,30,11,36,068,31,28,32,316,43,23,25,229,23,1*7C
$GBGSV,4,4,14,37,18,283,30,41,13,197,37,1*78
$GBGSV,2,1,08,40,83,080,45,43,54,038,34,33,53,158,45,42,45,065,34,4*7C
$GBGSV,2,2,08,28,32,316,37,23,25,229,23,37,18,283,33,41,13,197,34,4*75
$GNGGA,032239.000,2500.8239237,N,12132.4513331,E,4,62,0.46,17.607,M,15.25,M,4,3335*4E
$GNRMC,032239.000,A,2500.8239237,N,12132.4513331,E,0.03,110.95,270623,,,R,V*1D
$GPHDT,356.392,T*3D
$GNGGA,032239.200,2500.8239230,N,12132.4513340,E,4,62,0.46,17.597,M,15.25,M,4,3335*47
$GNRMC,032239.200,A,2500.8239230,N,12132.4513340,E,0.04,110.95,270623,,,R,V*19
$GPHDT,356.521,T*33
$GNGGA,032239.400,2500.8239236,N,12132.4513333,E,4,62,0.46,17.601,M,15.25,M,4,3335*4F
$GNRMC,032239.400,A,2500.8239236,N,12132.4513333,E,0.02,110.95,270623,,,R,V*1B
$GPHDT,356.514,T*35
$GNGGA,032239.600,2500.8239226,N,12132.4513313,E,4,62,0.46,17.615,M,15.25,M,4,3335*4B
$GNRMC,032239.600,A,2500.8239226,N,12132.4513313,E,0.03,110.95,270623,,,R,V*1B
$GPHDT,356.680,T*3B
$GNGGA,032239.800,2500.8239196,N,12132.4513311,E,4,62,0.46,17.611,M,15.25,M,4,3335*4B
$GNRMC,032239.800,A,2500.8239196,N,12132.4513311,E,0.05,110.95,270623,,,R,V*19
$GPHDT,356.541,T*35
$GNGSA,A,3,195,17,196,199,19,06,194,14,09,11,,,0.76,0.46,0.61,1*0F
$GNGSA,A,3,67,68,82,80,73,79,,,,,,,0.76,0.46,0.61,2*01
$GNGSA,A,3,24,12,10,31,11,19,04,33,,,,,0.76,0.46,0.61,3*0D
$GNGSA,A,3,40,07,10,14,08,43,33,13,42,11,28,23,0.76,0.46,0.61,4*07
$GNGSA,A,3,37,41,,,,,,,,,,,0.76,0.46,0.61,4*01
$GPGSV,4,1,13,195,67,040,42,17,64,049,40,196,60,131,40,199,60,167,34,1*5F
$GPGSV,4,2,13,19,59,000,43,06,50,323,40,194,45,169,43,41,38,242,41,1*5D
$GPGSV,4,3,13,14,36,179,43,09,28,117,36,11,23,275,40,12,05,323,27,1*6C
$GPGSV,4,4,13,04,,,22,1*62
$GPGSV,3,1,09,195,67,040,46,196,60,131,44,199,60,167,45,06,50,323,45,8*51
$GPGSV,3,2,09,194,45,169,44,14,36,179,44,09,28,117,43,11,23,275,45,8*5A
$GPGSV,3,3,09,04,,,22,8*60
$GLGSV,2,1,06,67,48,082,31,68,37,155,44,82,37,022,23,80,33,241,40,1*77
$GLGSV,2,2,06,73,22,303,39,79,10,192,19,1*7D
$GAGSV,2,1,08,24,56,258,41,12,51,003,38,10,48,321,34,31,36,183,39,7*75
$GAGSV,2,2,08,11,32,289,37,19,28,096,31,04,20,159,21,33,18,056,32,7*71
$GAGSV,2,1,08,24,56,258,45,12,51,003,41,10,48,321,40,31,36,183,40,1*74
$GAGSV,2,2,08,11,32,289,39,19,28,096,33,04,20,159,30,33,18,056,34,1*7D
$GBGSV,4,1,14,40,83,080,41,07,83,280,40,10,71,304,40,14,60,105,44,1*75
$GBGSV,4,2,14,08,59,257,41,43,54,038,37,33,53,158,44,13,49,248,40,1*72
$GBGSV,4,3,14,42,45,065,26,11,36,068,29,28,32,316,43,23,25,229,22,1*73
$GBGSV,4,4,14,37,18,283,30,41,13,197,37,1*78
$GBGSV,2,1,08,40,83,080,45,43,54,038,34,33,53,158,45,42,45,065,34,4*7C
$GBGSV,2,2,08,28,32,316,37,23,25,229,23,37,18,283,34,41,13,197,34,4*72
$GNGGA,032240.000,2500.8239203,N,12132.4513323,E,4,62,0.46,17.610,M,15.25,M,5,3335*43
$GNRMC,032240.000,A,2500.8239203,N,12132.4513323,E,0.04,110.95,270623,,,R,V*10
$GPHDT,356.342,T*30
$GNGGA,032240.200,2500.8239229,N,12132.4513313,E,4,62,0.46,17.610,M,15.25,M,5,3335*4A
$GNRMC,032240.200,A,2500.8239229,N,12132.4513313,E,0.05,110.95,270623,,,R,V*18
$GPHDT,357.174,T*36
$GNGGA,032240.400,2500.8239234,N,12132.4513334,E,4,62,0.46,17.596,M,15.25,M,5,3335*48
$GNRMC,032240.400,A,2500.8239234,N,12132.4513334,E,0.06,110.95,270623,,,R,V*14
$GPHDT,357.121,T*36
$GNGGA,032240.600,2500.8239201,N,12132.4513335,E,4,62,0.46,17.616,M,15.25,M,5,3335*46
$GNRMC,032240.600,A,2500.8239201,N,12132.4513335,E,0.07,110.95,270623,,,R,V*10
$GPHDT,356.435,T*37
$GNGGA,032240.800,2500.8239210,N,12132.4513335,E,4,62,0.46,17.620,M,15.25,M,5,3335*4D
$GNRMC,032240.800,A,2500.8239210,N,12132.4513335,E,0.05,110.95,270623,,,R,V*1C
$GPHDT,356.476,T*30
$GNGSA,A,3,195,17,196,199,19,06,194,14,09,11,,,0.76,0.46,0.61,1*0F
$GNGSA,A,3,67,68,82,80,73,79,,,,,,,0.76,0.46,0.61,2*01
$GNGSA,A,3,24,12,10,31,11,19,04,33,,,,,0.76,0.46,0.61,3*0D
$GNGSA,A,3,40,07,10,14,08,43,33,13,42,11,28,23,0.76,0.46,0.61,4*07
$GNGSA,A,3,37,41,,,,,,,,,,,0.76,0.46,0.61,4*01
$GPGSV,4,1,13,195,67,040,42,17,64,049,40,196,60,131,40,199,60,167,34,1*5F
$GPGSV,4,2,13,19,59,000,43,06,50,323,40,194,45,169,43,41,38,242,41,1*5D
$GPGSV,4,3,13,14,36,179,43,09,28,117,36,11,23,275,40,12,05,323,27,1*6C
$GPGSV,4,4,13,04,,,25,1*65
$GPGSV,3,1,09,195,67,040,46,196,60,131,44,199,60,167,45,06,50,323,45,8*51
$GPGSV,3,2,09,194,45,169,44,14,36,179,44,09,28,117,43,11,23,275,45,8*5A
$GPGSV,3,3,09,04,,,20,8*62
$GLGSV,2,1,06,67,48,082,29,68,37,155,44,82,37,022,27,80,33,241,40,1*7A
$GLGSV,2,2,06,73,22,303,40,79,10,192,19,1*73
$GAGSV,2,1,08,24,56,258,41,12,51,003,38,10,48,321,34,31,36,183,39,7*75
$GAGSV,2,2,08,11,32,289,37,19,28,096,31,04,20,159,21,33,18,056,32,7*71
$GAGSV,2,1,08,24,56,258,45,12,51,003,41,10,48,321,40,31,36,183,40,1*74
$GAGSV,2,2,08,11,32,289,39,19,28,096,33,04,20,159,30,33,18,056,31,1*78
$GBGSV,4,1,14,40,83,080,40,07,83,280,40,10,71,304,40,14,60,105,44,1*74
$GBGSV,4,2,14,08,59,257,41,43,54,038,37,33,53,158,44,13,49,248,40,1*72
$GBGSV,4,3,14,42,45,065,27,11,36,068,31,28,32,316,43,23,25,229,22,1*7B
$GBGSV,4,4,14,37,18,283,31,41,13,197,37,1*79
$GBGSV,2,1,08,40,83,080,45,43,54,038,35,33,53,158,45,42,45,065,35,4*7C
$GBGSV,2,2,08,28,32,316,37,23,25,229,23,37,18,283,34,41,13,197,34,4*72
$GNGGA,032241.000,2500.8239214,N,12132.4513340,E,4,62,0.46,17.610,M,15.25,M,6,3335*42
$GNRMC,032241.000,A,2500.8239214,N,12132.4513340,E,0.05,110.95,270623,,,R,V*13
$GPHDT,356.532,T*31
$GNGGA,032241.200,2500.8239222,N,12132.4513352,E,4,62,0.46,17.606,M,15.25,M,6,3335*41
$GNRMC,032241.200,A,2500.8239222,N,12132.4513352,E,0.05,110.95,270623,,,R,V*17
$GPHDT,356.552,T*37
$GNGGA,032241.400,2500.8239212,N,12132.4513331,E,4,62,0.46,17.620,M,15.25,M,6,3335*45
$GNRMC,032241.400,A,2500.8239212,N,12132.4513331,E,0.05,110.95,270623,,,R,V*17
$GPHDT,356.681,T*3A
$GNGGA,032241.600,2500.8239225,N,12132.4513339,E,4,62,0.46,17.609,M,15.25,M,6,3335*40
$GNRMC,032241.600,A,2500.8239225,N,12132.4513339,E,0.07,110.95,270623,,,R,V*1B
$GPHDT,356.450,T*34
$GNGGA,032241.800,2500.8239228,N,12132.4513345,E,4,62,0.46,17.621,M,15.25,M,4,3335*40
$GNRMC,032241.800,A,2500.8239228,N,12132.4513345,E,0.07,110.95,270623,,,R,V*13
$GPHDT,356.413,T*33
$GNGSA,A,3,195,17,196,199,19,06,194,14,09,11,,,0.76,0.46,0.61,1*0F
$GNGSA,A,3,67,68,8