$FW : RTK35X,V1.1X0314AS,Lib20210517,1*54
$Tool : LOCOSYS , GNSS Firebird , v1.0.0.19*39
$---------------------------------------------------*2D
040,42,17,64,051,37,196,61,131,39,199,60,167,35,1*5E
$GPGSV,3,2,12,19,59,001,41,06,50,324,37,194,45,169,40,41,38,242,44,1*59
$GPGSV,3,3,12,14,35,179,42,09,28,117,35,11,23,275,42,12,06,322,21,1*6D
$GPGSV,2,1,08,195,67,040,47,196,61,131,46,199,60,167,47,06,50,324,39,8*5D
$GPGSV,2,2,08,194,45,169,42,14,35,179,44,09,28,117,39,11,23,275,40,8*57
$GLGSV,2,1,07,67,48,080,30,68,38,155,43,82,37,023,20,80,32,240,43,1*7C
$GLGSV,2,2,07,73,22,302,34,66,13,033,20,79,09,191,22,1*43
$GAGSV,2,1,08,24,56,256,42,12,50,004,36,10,48,322,24,31,36,183,38,7*73
$GAGSV,2,2,08,11,32,290,33,19,28,095,33,04,21,158,21,33,18,057,30,7*7F
$GAGSV,2,1,07,24,56,256,43,12,50,004,39,10,48,322,36,31,36,183,40,1*78
$GAGSV,2,2,07,11,32,290,33,19,28,095,36,04,21,158,29,1*43
$GBGSV,4,1,14,40,83,084,43,07,83,276,38,10,71,303,33,14,60,103,45,1*71
$GBGSV,4,2,14,08,59,258,39,43,54,040,39,33,54,158,46,13,49,249,44,1*73
$GBGSV,4,3,14,42,45,064,29,11,36,070,,28,32,317,38,23,24,228,24,1*74
$GBGSV,4,4,14,37,18,282,29,41,14,197,29,1*79
$GBGSV,2,1,07,40,83,084,45,33,54,158,46,43,54,040,40,42,45,064,28,4*73
$GBGSV,2,2,07,28,32,317,34,37,18,282,30,41,14,197,24,4*42
$GNGGA,032442.000,2500.8237273,N,12132.4514051,E,2,56,0.50,18.479,M,15.25,M,4,3335*4A
$GNRMC,032442.000,A,2500.8237273,N,12132.4514051,E,0.00,246.18,270623,,,D,V*0B
$GPHDT,136.374,T*31
$GNGGA,032442.200,2500.8237393,N,12132.4514051,E,2,57,0.50,18.479,M,15.25,M,4,3335*46
$GNRMC,032442.200,A,2500.8237393,N,12132.4514051,E,0.00,246.18,270623,,,D,V*06
$GPHDT,136.752,T*31
$GNGGA,032442.400,2500.8237453,N,12132.4514051,E,2,57,0.50,18.472,M,15.25,M,2,3335*46
$GNRMC,032442.400,A,2500.8237453,N,12132.4514051,E,0.00,246.18,270623,,,D,V*0B
$GPHDT,136.622,T*37
$GNGGA,032442.600,2500.8237513,N,12132.4513991,E,2,57,0.50,18.476,M,15.25,M,1,3335*44
$GNRMC,032442.600,A,2500.8237513,N,12132.4513991,E,0.00,246.18,270623,,,D,V*0E
$GPHDT,136.551,T*30
$GNGGA,032442.800,2500.8237573,N,12132.4513931,E,2,57,0.50,18.477,M,15.25,M,0,3335*46
$GNRMC,032442.800,A,2500.8237573,N,12132.4513931,E,0.01,246.18,270623,,,D,V*0D
$GPHDT,136.603,T*34
$GNGSA,A,3,195,17,196,199,19,06,194,14,09,11,,,0.97,0.50,0.83,1*0B
$GNGSA,A,3,67,68,82,80,73,,,,,,,,0.97,0.50,0.83,2*0B
$GNGSA,A,3,24,12,10,31,11,19,04,33,,,,,0.97,0.50,0.83,3*09
$GNGSA,A,3,40,07,10,14,08,43,33,13,42,28,37,41,0.97,0.50,0.83,4*03
$GPGSV,4,1,13,195,67,040,42,17,64,051,37,196,61,131,38,199,60,167,35,1*59
$GPGSV,4,2,13,19,59,001,42,06,50,324,37,194,45,169,41,41,38,242,42,1*5B
$GPGSV,4,3,13,14,35,179,42,09,28,116,36,11,23,276,42,12,06,322,25,1*6E
$GPGSV,4,4,13,26,,,20,1*60
$GPGSV,2,1,08,195,67,040,46,196,61,131,46,199,60,167,47,06,50,324,39,8*5C
$GPGSV,2,2,08,194,45,169,42,14,35,179,44,09,28,116,39,11,23,276,42,8*57
$GLGSV,2,1,07,67,48,080,30,68,38,155,44,82,37,023,22,80,32,240,44,1*7E
$GLGSV,2,2,07,73,22,302,33,66,13,033,21,79,09,191,22,1*45
$GAGSV,2,1,08,24,56,256,42,12,50,004,32,10,48,322,25,31,36,183,38,7*76
$GAGSV,2,2,08,11,32,290,30,19,28,095,32,04,21,158,20,33,18,057,30,7*7C
$GAGSV,2,1,07,24,56,256,44,12,50,004,39,10,48,322,36,31,36,183,40,1*7F
$GAGSV,2,2,07,11,32,290,31,19,28,095,37,04,21,158,30,1*48
$GBGSV,4,1,14,40,83,084,43,07,83,276,38,10,71,303,36,14,60,103,45,1*74
$GBGSV,4,2,14,08,59,258,40,43,54,040,39,33,54,158,46,13,49,249,44,1*7D
$GBGSV,4,3,14,42,45,064,29,11,36,070,,28,32,317,35,23,24,228,18,1*76
$GBGSV,4,4,14,37,18,282,33,41,14,197,29,1*72
$GBGSV,2,1,07,40,83,084,45,33,54,158,46,43,54,040,40,42,45,064,29,4*72
$GBGSV,2,2,07,28,32,317,33,37,18,282,31,41,14,197,26,4*46
$GNGGA,032443.000,2500.8237693,N,12132.4513931,E,2,57,0.50,18.475,M,15.25,M,1,3335*41
$GNRMC,032443.000,A,2500.8237693,N,12132.4513931,E,0.00,246.18,270623,,,D,V*08
$GPHDT,136.733,T*36
$GNGGA,032443.200,2500.8237693,N,12132.4513871,E,2,57,0.50,18.474,M,15.25,M,1,3335*47
$GNRMC,032443.200,A,2500.8237693,N,12132.4513871,E,0.00,246.18,270623,,,D,V*0F
$GPHDT,136.662,T*33
$GNGGA,032443.400,2500.8237753,N,12132.4513871,E,2,57,0.50,18.471,M,15.25,M,1,3335*49
$GNRMC,032443.400,A,2500.8237753,N,12132.4513871,E,0.00,246.18,270623,,,D,V*04
$GPHDT,136.720,T*34
$GNGGA,032443.600,2500.8237693,N,12132.4513811,E,2,57,0.50,18.474,M,15.25,M,1,3335*45
$GNRMC,032443.600,A,2500.8237693,N,12132.4513811,E,0.00,246.18,270623,,,D,V*0D
$GPHDT,136.728,T*3C
$GNGGA,032443.800,2500.8237693,N,12132.4513751,E,2,57,0.50,18.471,M,15.25,M,1,3335*45
$GNRMC,032443.800,A,2500.8237693,N,12132.4513751,E,0.00,246.18,270623,,,D,V*08
$GPHDT,136.613,T*35
$GNGSA,A,3,195,17,196,199,19,06,194,14,09,11,,,0.97,0.50,0.83,1*0B
$GNGSA,A,3,67,68,82,80,73,,,,,,,,0.97,0.50,0.83,2*0B
$GNGSA,A,3,24,12,10,31,11,19,04,33,,,,,0.97,0.50,0.83,3*09
$GNGSA,A,3,40,07,10,14,08,43,33,13,42,28,37,41,0.97,0.50,0.83,4*03
$GPGSV,3,1,12,195,67,040,42,17,64,051,36,196,61,131,38,199,60,167,35,1*5E
$GPGSV,3,2,12,19,59,001,41,06,50,324,40,194,45,169,41,41,38,242,43,1*5F
$GPGSV,3,3,12,14,35,178,42,09,28,116,36,11,23,276,40,12,06,322,27,1*69
$GPGSV,2,1,08,195,67,040,46,196,61,131,46,199,60,167,47,06,50,324,43,8*51
$GPGSV,2,2,08,194,45,169,42,14,35,178,44,09,28,116,39,11,23,276,41,8*55
$GLGSV,2,1,07,67,48,080,31,68,38,155,44,82,37,023,26,80,32,240,45,1*7A
$GLGSV,2,2,07,73,22,302,34,66,13,033,24,79,09,191,21,1*44
$GAGSV,2,1,08,24,56,256,42,12,50,004,32,10,48,322,28,31,36,183,38,7*7B
$GAGSV,2,2,08,11,32,290,31,19,28,095,32,04,21,158,20,33,18,057,30,7*7D
$GAGSV,2,1,08,24,56,256,44,12,50,004,37,10,48,322,40,31,36,183,40,1*7F
$GAGSV,2,2,08,11,32,290,31,19,28,095,36,04,21,158,30,33,18,057,19,1*75
$GBGSV,4,1,13,40,83,084,43,07,83,276,38,10,71,303,40,14,60,103,45,1*72
$GBGSV,4,2,13,08,59,258,40,43,54,040,39,33,54,158,46,13,49,249,43,1*7D
$GBGSV,4,3,13,42,45,064,27,28,32,317,44,23,24,228,22,37,18,282,33,1*77
$GBGSV,4,4,13,41,14,197,30,1*48
$GBGSV,2,1,07,40,83,084,45,33,54,158,46,43,54,040,39,42,45,064,29,4*7C
$GBGSV,2,2,07,28,32,317,36,37,18,282,29,41,14,197,25,4*49
$GNGGA,032444.000,2500.8237693,N,12132.4513751,E,2,58,0.50,18.485,M,15.25,M,2,3335*4D
$GNRMC,032444.000,A,2500.8237693,N,12132.4513751,E,0.00,246.18,270623,,,D,V*07
$GPHDT,136.269,T*3C
$GNGGA,032444.200,2500.8237693,N,12132.4513691,E,2,57,0.50,18.492,M,15.25,M,2,3335*4B
$GNRMC,032444.200,A,2500.8237693,N,12132.4513691,E,0.00,246.18,270623,,,D,V*08
$GPHDT,136.431,T*37
$GNGGA,032444.400,2500.8237753,N,12132.4513691,E,2,57,0.50,18.481,M,15.25,M,2,3335*42
$GNRMC,032444.400,A,2500.8237753,N,12132.4513691,E,0.00,246.18,270623,,,D,V*03
$GPHDT,137.261,T*35
$GNGGA,032444.600,2500.8237813,N,12132.4513691,E,2,57,0.50,18.482,M,15.25,M,2,3335*48
$GNRMC,032444.600,A,2500.8237813,N,12132.4513691,E,0.00,246.18,270623,,,D,V*0A
$GPHDT,136.621,T*34
$GNGGA,032444.800,2500.8237933,N,12132.4513691,E,2,57,0.50,18.467,M,15.25,M,2,3335*4E
$GNRMC,032444.800,A,2500.8237933,N,12132.4513691,E,0.00,246.18,270623,,,D,V*07
$GPHDT,137.295,T*3E
$GNGSA,A,3,195,17,196,199,19,06,194,14,09,11,,,0.97,0.50,0.83,1*0B
$GNGSA,A,3,67,68,82,80,73,,,,,,,,0.97,0.50,0.83,2*0B
$GNGSA,A,3,24,12,10,31,11,19,04,33,,,,,0.97,0.50,0.83,3*09
$GNGSA,A,3,40,07,10,14,08,43,33,13,42,28,37,41,0.97,0.50,0.83,4*03
$GPGSV,3,1,12,195,67,040,42,17,64,052,35,196,61,131,39,199,60,167,35,1*5F
$GPGSV,3,2,12,19,59,002,41,06,50,324,41,194,45,169,41,41,38,242,41,1*5F
$GPGSV,3,3,12,14,35,178,42,09,28,116,36,11,23,276,40,12,06,322,29,1*67
$GPGSV,2,1,08,195,67,040,46,196,61,131,46,199,60,167,47,06,50,324,44,8*56
$GPGSV,2,2,08,194,45,169,42,14,35,178,44,09,28,116,39,11,23,276,41,8*55
$GLGSV,2,1,07,67,48,080,30,68,38,155,44,82,37,023,26,80,32,240,42,1*7C
$GLGSV,2,2,07,73,22,302,37,66,13,033,24,79,09,191,23,1*45
$GAGSV,2,1,08,24,56,256,39,12,50,004,33,10,48,322,31,31,36,183,38,7*7E
$GAGSV,2,2,08,11,32,290,39,19,28,095,32,04,21,158,20,33,18,057,31,7*74
$GAGSV,2,1,08,24,56,256,43,12,50,004,37,10,48,322,41,31,36,183,40,1*79
$GAGSV,2,2,08,11,32,290,36,19,28,095,36,04,21,158,30,33,18,057,18,1*73
$GBGSV,4,1,14,40,83,084,43,07,83,276,37,10,71,303,40,14,60,103,45,1*7A
$GBGSV,4,2,14,08,59,258,37,43,54,040,39,33,54,158,46,13,49,249,39,1*77
$GBGSV,4,3,14,42,45,064,25,11,36,070,,28,32,317,44,23,24,228,21,1*76
$GBGSV,4,4,14,37,18,282,34,41,14,197,31,1*7C
$GBGSV,2,1,07,40,83,084,45,33,54,158,46,43,54,040,39,42,45,064,29,4*7C
$GBGSV,2,2,07,28,32,317,38,37,18,282,31,41,14,197,24,4*4F
$GNGGA,032445.000,2500.8237993,N,12132.4513691,E,2,57,0.50,18.465,M,15.25,M,3,3335*4E
$GNRMC,032445.000,A,2500.8237993,N,12132.4513691,E,0.00,246.18,270623,,,D,V*04
$GPHDT,137.063,T*35
$GNGGA,032445.200,2500.8238113,N,12132.4513751,E,2,57,0.50,18.461,M,15.25,M,3,3335*4A
$GNRMC,032445.200,A,2500.8238113,N,12132.4513751,E,0.00,246.18,270623,,,D,V*04
$GPHDT,136.917,T*3E
$GNGGA,032445.400,2500.8238173,N,12132.4513751,E,2,57,0.50,18.464,M,15.25,M,3,3335*4F
$GNRMC,032445.400,A,2500.8238173,N,12132.4513751,E,0.00,246.18,270623,,,D,V*04
$GPHDT,136.892,T*32
$GNGGA,032445.600,2500.8238173,N,12132.4513751,E,2,57,0.50,18.461,M,15.25,M,3,3335*48
$GNRMC,032445.600,A,2500.8238173,N,12132.4513751,E,0.00,246.18,270623,,,D,V*06
$GPHDT,136.639,T*3D
$GNGGA,032445.800,2500.8238233,N,12132.4513811,E,2,57,0.50,18.456,M,15.25,M,3,3335*4E
$GNRMC,032445.800,A,2500.8238233,N,12132.4513811,E,0.00,246.18,270623,,,D,V*04
$GPHDT,136.792,T*3D
$GNGSA,A,3,195,17,196,199,19,06,194,14,09,11,,,0.97,0.50,0.83,1*0B
$GNGSA,A,3,67,68,82,80,73,,,,,,,,0.97,0.50,0.83,2*0B
$GNGSA,A,3,24,12,10,31,11,19,04,33,,,,,0.97,0.50,0.83,3*09
$GNGSA,A,3,40,07,10,14,08,43,33,13,42,28,37,41,0.97,0.50,0.83,4*03
$GPGSV,3,1,12,195,67,040,42,17,64,052,35,196,61,131,38,199,60,167,35,1*5E
$GPGSV,3,2,12,19,59,002,41,06,50,324,41,194,45,169,41,41,38,242,36,1*5F
$GPGSV,3,3,12,14,35,178,42,09,28,116,35,11,23,276,42,12,06,322,25,1*6A
$GPGSV,2,1,08,195,67,040,45,196,61,131,46,199,60,167,47,06,50,324,44,8*55
$GPGSV,2,2,08,194,45,169,42,14,35,178,44,09,28,116,40,11,23,276,44,8*5E
$GLGSV,2,1,07,67,48,080,28,68,38,155,44,82,37,023,26,80,32,240,38,1*78
$GLGSV,2,2,07,73,22,302,38,66,13,033,24,79,09,191,23,1*4A
$GAGSV,2,1,08,24,56,256,38,12,50,004,33,10,48,322,29,31,36,183,37,7*79
$GAGSV,2,2,08,11,32,290,37,19,28,095,32,04,21,158,22,33,18,057,29,7*71
$GAGSV,2,1,08,24,56,256,43,12,50,004,38,10,48,322,41,31,36,183,41,1*77
$GAGSV,2,2,08,11,32,290,37,19,28,095,36,04,21,158,31,33,18,057,19,1*72
$GBGSV,4,1,14,40,83,084,42,07,83,276,37,10,71,303,40,14,60,103,45,1*7B
$GBGSV,4,2,14,08,59,258,36,43,54,040,40,33,54,158,46,13,49,249,39,1*78
$GBGSV,4,3,14,42,45,064,26,11,36,070,,28,32,317,44,23,24,228,20,1*74
$GBGSV,4,4,14,37,18,282,36,41,14,197,27,1*79
$GBGSV,2,1,07,40,83,084,46,33,54,158,47,43,54,040,39,42,45,064,31,4*77
$GBGSV,2,2,07,28,32,317,38,37,18,282,30,41,14,197,24,4*4E
$GNGGA,032446.000,2500.8238353,N,12132.4513811,E,2,57,0.50,18.446,M,15.25,M,2,3335*42
$GNRMC,032446.000,A,2500.8238353,N,12132.4513811,E,0.00,246.18,270623,,,D,V*08
$GPHDT,136.734,T*31
$GNGGA,032446.200,2500.8238413,N,12132.4513811,E,2,57,0.50,18.445,M,15.25,M,1,3335*43
$GNRMC,032446.200,A,2500.8238413,N,12132.4513811,E,0.00,246.18,270623,,,D,V*09
$GPHDT,136.755,T*36
$GNGGA,032446.400,2500.8238533,N,12132.4513871,E,2,57,0.50,18.437,M,15.25,M,1,3335*45
$GNRMC,032446.400,A,2500.8238533,N,12132.4513871,E,0.00,246.18,270623,,,D,V*0A
$GPHDT,137.327,T*36
$GNGGA,032446.600,2500.8238713,N,12132.4513931,E,2,57,0.50,18.436,M,15.25,M,1,3335*43
$GNRMC,032446.600,A,2500.8238713,N,12132.4513931,E,0.00,246.18,270623,,,D,V*0D
$GPHDT,136.908,T*30
$GNGGA,032446.800,2500.8238833,N,12132.4513931,E,2,57,0.50,18.428,M,15.25,M,1,3335*4F
$GNRMC,032446.800,A,2500.8238833,N,12132.4513931,E,0.00,246.18,270623,,,D,V*0E
$GPHDT,136.904,T*3C
$GNGSA,A,3,195,17,196,199,19,06,194,14,09,11,,,0.97,0.50,0.83,1*0B
$GNGSA,A,3,67,68,82,80,73,,,,,,,,0.97,0.50,0.83,2*0B
$GNGSA,A,3,24,12,10,31,11,19,04,33,,,,,0.97,0.50,0.83,3*09
$GNGSA,A,3,40,07,10,14,08,43,33,13,42,28,37,41,0.97,0.50,0.83,4*03
$GPGSV,3,1,12,195,67,040,42,17,64,052,35,196,61,131,38,199,60,167,35,1*5E
$GPGSV,3,2,12,19,59,002,41,06,50,324,41,194,45,169,41,41,38,242,36,1*5F
$GPGSV,3,3,12,14,35,178,42,09,28,116,35,11,23,276,42,12,06,322,25,1*6A
$GPGSV,2,1,08,195,67,040,45,196,61,131,46,199,60,167,47,06,50,324,44,8*55
$GPGSV,2,2,08,194,45,169,42,14,35,178,44,09,28,116,40,11,23,276,44,8*5E
$GLGSV,2,1,07,67,48,080,29,68,38,155,44,82,37,023,26,80,32,240,37,1*76
$GLGSV,2,2,07,73,22,302,38,66,13,033,21,79,09,191,23,1*4F
$GAGSV,2,1,08,24,56,256,37,12,50,004,33,10,48,322,27,31,36,183,37,7*78
$GAGSV,2,2,08,11,32,290,37,19,28,095,32,04,21,158,24,33,18,057,26,7*78
$GAGSV,2,1,08,24,56,256,42,12,50,004,38,10,48,322,41,31,36,183,40,1*77
$GAGSV,2,2,08,11,32,290,36,19,28,095,36,04,21,158,31,33,18,057,17,1*7D
$GBGSV,4,1,14,40,83,084,42,07,83,276,37,10,71,303,40,14,60,103,44,1*7A
$GBGSV,4,2,14,08,59,258,37,43,54,040,40,33,54,158,46,13,49,249,39,1*79
$GBGSV,4,3,14,42,45,064,30,11,36,070,,28,32,317,44,23,24,228,19,1*79
$GBGSV,4,4,14,37,18,282,38,41,14,197,27,1*77
$GBGSV,2,1,07,40,83,084,46,33,54,158,47,43,54,040,39,42,45,064,31,4*77
$GBGSV,2,2,07,28,32,317,38,37,18,282,29,41,14,197,23,4*41
$GNGGA,032447.000,2500.8238893,N,12132.4513991,E,2,57,0.50,18.426,M,15.25,M,2,3335*4B
$GNRMC,032447.000,A,2500.8238893,N,12132.4513991,E,0.00,246.18,270623,,,D,V*07
$GPHDT,136.834,T*3E
$GNGGA,032447.200,2500.8239073,N,12132.4513991,E,2,57,0.50,18.422,M,15.25,M,2,3335*4A
$GNRMC,032447.200,A,2500.8239073,N,12132.4513991,E,0.00,246.18,270623,,,D,V*02
$GPHDT,136.581,T*3D
$GNGGA,032447.400,2500.8239193,N,12132.4514051,E,2,57,0.50,18.416,M,15.25,M,2,3335*46
$GNRMC,032447.400,A,2500.8239193,N,12132.4514051,E,0.00,246.18,270623,,,D,V*09
$GPHDT,136.859,T*35
$GNGGA,032447.600,2500.8239253,N,12132.4514051,E,2,57,0.50,18.405,M,15.25,M,2,3335*49
$GNRMC,032447.600,A,2500.8239253,N,12132.4514051,E,0.00,246.18,270623,,,D,V*04
$GPHDT,136.814,T*3C
$GNGGA,032447.800,2500.8239313,N,12132.4514111,E,2,57,0.50,18.391,M,15.25,M,2,3335*4D
$GNRMC,032447.800,A,2500.8239313,N,12132.4514111,E,0.00,246.18,270623,,,D,V*0A
$GPHDT,136.883,T*32
$GNGSA,A,3,195,17,196,199,19,06,194,14,09,11,,,0.97,0.50,0.83,1*0B
$GNGSA,A,3,67,68,82,80,73,,,,,,,,0.97,0.50,0.83,2*0B
$GNGSA,A,3,24,12,10,31,11,19,04,33,,,,,0.97,0.50,0.83,3*09
$GNGSA,A,3,40,07,10,14,08,43,33,13,42,28,37,41,0.97,0.50,0.83,4*03
$GPGSV,3,1,12,195,67,040,42,17,64,052,34,196,61,131,38,199,60,167,36,1*5C
$GPGSV,3,2,12,19,59,002,41,06,50,324,41,194,45,169,41,41,38,242,36,1*5F
$GPGSV,3,3,12,14,35,178,42,09,28,116,35,11,23,276,42,12,06,322,25,1*6A
$GPGSV,2,1,08,195,67,040,45,196,61,131,46,199,60,167,47,06,50,324,44,8*55
$GPGSV,2,2,08,194,45,169,42,14,35,178,43,09,28,116,40,11,23,276,44,8*59
$GLGSV,2,1,07,67,48,080,28,68,38,155,44,82,37,023,26,80,32,240,37,1*77
$GLGSV,2,2,07,73,22,302,38,66,13,033,21,79,09,191,23,1*4F
$GAGSV,2,1,08,24,56,256,37,12,50,004,33,10,48,322,28,31,36,183,37,7*77
$GAGSV,2,2,08,11,32,290,37,19,28,095,32,04,21,158,24,33,18,057,26,7*78
$GAGSV,2,1,08,24,56,256,42,12,50,004,39,10,48,322,41,31,36,183,40,1*76
$GAGSV,2,2,08,11,32,290,36,19,28,095,36,04,21,158,30,33,18,057,17,1*7C
$GBGSV,4,1,14,40,83,084,42,07,83,276,37,10,71,303,40,14,60,103,44,1*7A
$GBGSV,4,2,14,08,59,258,37,43,54,040,40,33,54,158,46,13,49,249,40,1*77
$GBGSV,4,3,14,42,45,064,29,11,36,070,,28,32,317,44,23,24,228,19,1*71
$GBGSV,4,4,14,37,18,282,38,41,14,197,27,1*77
$GBGSV,2,1,07,40,83,084,46,33,54,158,47,43,54,040,39,42,45,064,31,4*77
$GBGSV,2,2,07,28,32,317,37,37,18,282,27,41,14,197,24,4*47
$GNGGA,032448.000,2500.8239433,N,12132.4514171,E,2,57,0.50,18.388,M,15.25,M,3,3335*40
$GNRMC,032448.000,A,2500.8239433,N,12132.4514171,E,0.00,246.18,270623,,,D,V*0E
$GPHDT,136.542,T*32
$GNGGA,032448.200,2500.8239553,N,12132.4514231,E,2,57,0.50,18.374,M,15.25,M,3,3335*41
$GNRMC,032448.200,A,2500.8239553,N,12132.4514231,E,0.00,246.18,270623,,,D,V*0C
$GPHDT,136.648,T*3B
$GNGGA,032448.400,2500.8239613,N,12132.4514291,E,2,57,0.50,18.364,M,15.25,M,3,3335*4B
$GNRMC,032448.400,A,2500.8239613,N,12132.4514291,E,0.00,246.18,270623,,,D,V*07
$GPHDT,136.332,T*33
$GNGGA,032448.600,2500.8239673,N,12132.4514351,E,2,57,0.50,18.354,M,15.25,M,3,3335*41
$GNRMC,032448.600,A,2500.8239673,N,12132.4514351,E,0.00,246.18,270623,,,D,V*0E
$GPHDT,136.481,T*3C
$GNGGA,032448.800,2500.8239733,N,12132.4514351,E,2,57,0.50,18.339,M,15.25,M,3,3335*41
$GNRMC,032448.800,A,2500.8239733,N,12132.4514351,E,0.00,246.18,270623,,,D,V*05
$GPHDT,136.467,T*34
$GNGSA,A,3,195,17,196,199,19,06,194,14,09,11,,,0.97,0.50,0.83,1*0B
$GNGSA,A,3,67,68,82,80,73,,,,,,,,0.97,0.50,0.83,2*0B
$GNGSA,A,3,24,12,10,31,11,19,04,33,,,,,0.97,0.50,0.83,3*09
$GNGSA,A,3,40,07,10,14,08,43,33,13,42,28,37,41,0.97,0.50,0.83,4*03
$GPGSV,3,1,12,195,67,040,42,17,64,052,34,196,61,131,38,199,60,167,36,1*5C
$GPGSV,3,2,12,19,59,002,41,06,50,324,41,194,45,169,41,41,38,242,36,1*5F
$GPGSV,3,3,12,14,35,178,42,09,28,116,35,11,23,276,42,12,06,322,25,1*6A
$GPGSV,2,1,08,195,67,040,45,196,61,131,46,199,60,167,47,06,50,324,44,8*55
$GPGSV,2,2,08,194,45,169,42,14,35,178,43,09,28,116,40,11,23,276,44,8*59
$GLGSV,2,1,07,67,48,080,28,68,38,155,44,82,37,023,26,80,32,240,37,1*77
$GLGSV,2,2,07,73,22,302,38,66,13,033,20,79,09,191,23,1*4E
$GAGSV,2,1,08,24,56,256,37,12,50,004,33,10,48,322,26,31,36,183,36,7*78
$GAGSV,2,2,08,11,32,290,37,19,28,095,32,04,21,158,24,33,18,057,26,7*78
$GAGSV,2,1,08,24,56,256,42,12,50,004,39,10,48,322,41,31,36,183,40,1*76
$GAGSV,2,2,08,11,32,290,36,19,28,095,36,04,21,158,30,33,18,057,17,1*7C
$GBGSV,4,1,14,40,83,084,42,07,83,276,37,10,71,303,40,14,60,103,44,1*7A
$GBGSV,4,2,14,08,59,258,37,43,54,040,40,33,54,158,46,13,49,249,40,1*77
$GBGSV,4,3,14,42,45,064,30,11,36,070,,28,32,317,44,23,24,228,19,1*79
$GBGSV,4,4,14,37,18,282,38,41,14,197,26,1*76
$GBGSV,2,1,07,40,83,084,46,33,54,158,47,43,54,040,39,42,45,064,31,4*77
$GBGSV,2,2,07,28,32,317,37,37,18,282,26,41,14,197,25,4*47
$GNGGA,032449.000,2500.8239793,N,12132.4514411,E,2,57,0.50,18.326,M,15.25,M,4,3335*48
$GNRMC,032449.000,A,2500.8239793,N,12132.4514411,E,0.00,246.18,270623,,,D,V*05
$GPHDT,136.715,T*32
$GNGGA,032449.200,2500.8239913,N,12132.4514411,E,2,57,0.50,18.312,M,15.25,M,4,3335*4B
$GNRMC,032449.200,A,2500.8239913,N,12132.4514411,E,0.00,246.18,270623,,,D,V*01
$GPHDT,136.466,T*35
$GNGGA,032449.400,2500.8240033,N,12132.4514471,E,2,57,0.50,18.292,M,15.25,M,4,3335*47
$GNRMC,032449.400,A,2500.8240033,N,12132.4514471,E,0.00,246.18,270623,,,D,V*04
$GPHDT,136.638,T*3C
$GNGGA,032449.600,2500.8240213,N,12132.4514531,E,2,57,0.50,18.275,M,15.25,M,2,3335*4F
$GNRMC,032449.600,A,2500.8240213,N,12132.4514531,E,0.00,246.18,270623,,,D,V*03
$GPHDT,136.412,T*36
$GNGGA,032449.800,2500.8240333,N,12132.4514531,E,2,57,0.50,18.265,M,15.25,M,0,3335*41
$GNRMC,032449.800,A,2500.8240333,N,12132.4514531,E,0.00,246.18,270623,,,D,V*0E
$GPHDT,136.823,T*38
$GNGSA,A,3,195,17,196,199,19,06,194,14,09,11,,,0.97,0.50,0.83,1*0B
$GNGSA,A,3,67,68,82,80,73,,,,,,,,0.97,0.50,0.83,2*0B
$GNGSA,A,3,24,12,10,31,11,19,04,33,,,,,0.97,0.50,0.83,3*09
$GNGSA,A,3,40,07,10,14,08,43,33,13,42,28,37,41,0.97,0.50,0.83,4*03
$GPGSV,3,1,12,195,67,040,42,17,64,052,34,196,61,131,38,199,60,167,36,1*5C
$GPGSV,3,2,12,19,59,002,41,06,50,324,41,194,45,169,41,41,38,242,36,1*5F
$GPGSV,3,3,12,14,35,178,42,09,28,116,35,11,23,276,42,12,06,322,25,1*6A
$GPGSV,2,1,08,195,67,040,45,196,61,131,46,199,60,167,47,06,50,324,44,8*55
$GPGSV,2,2,08,194,45,169,42,14,35,178,43,09,28,116,40,11,23,276,44,8*59
$GLGSV,2,1,07,67,48,080,28,68,38,155,44,82,37,023,28,80,32,240,37,1*79
$GLGSV,2,2,07,73,22,302,38,66,13,033,20,79,09,191,23,1*4E
$GAGSV,2,1,08,24,56,256,37,12,50,004,33,10,48,322,27,31,36,183,36,7*79
$GAGSV,2,2,08,11,32,290,37,19,28,095,32,04,21,158,24,33,18,057,25,7*7B
$GAGSV,2,1,08,24,56,256,42,12,50,004,39,10,48,322,41,31,36,183,40,1*76
$GAGSV,2,2,08,11,32,290,36,19,28,095,36,04,21,158,30,33,18,057,17,1*7C
$GBGSV,4,1,14,40,83,084,42,07,83,276,37,10,71,303,40,14,60,103,44,1*7A
$GBGSV,4,2,14,08,59,258,37,43,54,040,40,33,54,158,46,13,49,249,40,1*77
$GBGSV,4,3,14,42,45,064,30,11,36,070,,28,32,317,44,23,24,228,19,1*79
$GBGSV,4,4,14,37,18,282,38,41,14,197,26,1*76
$GBGSV,2,1,07,40,83,084,46,33,54,158,47,43,54,040,39,42,45,064,31,4*77
$GBGSV,2,2,07,28,32,317,37,37,18,282,26,41,14,197,24,4*46
$GNGGA,032450.000,2500.8240453,N,12132.4514591,E,2,57,0.50,18.252,M,15.25,M,1,3335*4F
$GNRMC,032450.000,A,2500.8240453,N,12132.4514591,E,0.00,246.18,270623,,,D,V*05
$GPHDT,136.896,T*36
$GNGGA,032450.200,2500.8240573,N,12132.4514591,E,2,58,0.50,18.237,M,15.25,M,1,3335*42
$GNRMC,032450.200,A,2500.8240573,N,12132.4514591,E,0.00,246.18,270623,,,D,V*04
$GPHDT,136.681,T*3E
$GNGGA,032450.400,2500.8240693,N,12132.4514711,E,2,58,0.50,18.220,M,15.25,M,1,3335*45
$GNRMC,032450.400,A,2500.8240693,N,12132.4514711,E,0.00,246.18,270623,,,D,V*05
$GPHDT,136.812,T*3A
$GNGGA,032450.600,2500.8240813,N,12132.4514711,E,2,58,0.50,18.208,M,15.25,M,1,3335*4B
$GNRMC,032450.600,A,2500.8240813,N,12132.4514711,E,0.00,246.18,270623,,,D,V*01
$GPHDT,136.565,T*37
$GNGGA,032450.800,2500.8240933,N,12132.4514711,E,2,58,0.50,18.196,M,15.25,M,1,3335*42
$GNRMC,032450.800,A,2500.8240933,N,12132.4514711,E,0.00,246.18,270623,,,D,V*0C
$GPHDT,136.119,T*38
$GNGSA,A,3,195,17,196,199,19,06,194,14,09,11,,,0.97,0.50,0.83,1*0B
$GNGSA,A,3,67,68,82,80,73,,,,,,,,0.97,0.50,0.83,2*0B
$GNGSA,A,3,24,12,10,31,11,19,04,33,,,,,0.97,0.50,0.83,3*09
$GNGSA,A,3,40,07,10,14,08,43,33,13,42,28,37,41,0.97,0.50,0.83,4*03
$GPGSV,3,1,12,195,67,040,42,17,64,052,34,196,61,131,38,199,60,167,36,1*5C
$GPGSV,3,2,12,19,59,002,41,06,50,324,41,194,45,169,41,41,38,242,36,1*5F
$GPGSV,3,3,12,14,35,178,42,09,28,116,35,11,23,276,42,12,06,322,25,1*6A
$GPGSV,2,1,08,195,67,040,44,196,61,131,45,199,60,167,47,06,50,324,44,8*57
$GPGSV,2,2,08,194,45,169,41,14,35,178,43,09,28,116,40,11,23,276,44,8*5A
$GLGSV,2,1,07,67,48,080,27,68,38,155,44,82,37,023,29,80,32,240,37,1*77
$GLGSV,2,2,07,73,22,302,38,66,13,033,18,79,09,191,21,1*47
$GAGSV,2,1,08,24,56,256,37,12,50,004,33,10,48,322,28,31,36,183,36,7*76
$GAGSV,2,2,08,11,33,291,37,19,28,095,32,04,21,158,24,33,18,057,25,7*7B
$GAGSV,2,1,08,24,56,256,41,12,50,004,39,10,48,322,41,31,36,183,40,1*75
$GAGSV,2,2,08,11,33,291,36,19,28,095,36,04,21,158,30,33,18,057,17,1*7C
$GBGSV,4,1,14,40,83,084,42,07,83,276,37,10,71,303,40,14,60,103,44,1*7A
$GBGSV,4,2,14,08,59,258,37,43,54,040,40,33,54,158,46,13,49,249,40,1*77
$GBGSV,4,3,14,42,45,064,30,11,36,070,,28,32,317,44,23,24,228,19,1*79
$GBGSV,4,4,14,37,18,282,38,41,14,197,26,1*76
$GBGSV,2,1,07,40,83,084,46,33,54,158,47,43,54,040,39,42,45,064,31,4*77
$GBGSV,2,2,07,28,32,317,36,37,18,282,26,41,14,197,24,4*47
$GNGGA,032451.000,2500.8241053,N,12132.4514711,E,2,58,0.50,18.182,M,15.25,M,1,3335*40
$GNRMC,032451.000,A,2500.8241053,N,12132.4514711,E,0.00,246.18,270623,,,D,V*0B
$GPHDT,136.609,T*3E
$GNGGA,032451.200,2500.8241173,N,12132.4514711,E,2,58,0.50,18.173,M,15.25,M,1,3335*4F
$GNRMC,032451.200,A,2500.8241173,N,12132.4514711,E,0.00,246.18,270623,,,D,V*0A
$GPHDT,136.812,T*3A
$GNGGA,032451.400,2500.8241293,N,12132.4514771,E,2,58,0.50,18.158,M,15.25,M,1,3335*4B
$GNRMC,032451.400,A,2500.8241293,N,12132.4514771,E,0.00,246.18,270623,,,D,V*07
$GPHDT,136.266,T*33
$GNGGA,032451.600,2500.8241353,N,12132.4514771,E,2,58,0.50,18.139,M,15.25,M,0,3335*42
$GNRMC,032451.600,A,2500.8241353,N,12132.4514771,E,0.00,246.18,270623,,,D,V*08
$GPHDT,136.148,T*3C
$GNGGA,032451.800,2500.8241473,N,12132.4514831,E,2,58,0.50,18.124,M,15.25,M,0,3335*4E
$GNRMC,032451.800,A,2500.8241473,N,12132.4514831,E,0.00,246.18,270623,,,D,V*08
$GPHDT,136.192,T*3B
$GNGSA,A,3,195,17,196,199,19,06,194,14,09,11,,,0.97,0.50,0.83,1*0B
$GNGSA,A,3,67,68,82,80,73,,,,,,,,0.97,0.50,0.83,2*0B
$GNGSA,A,3,24,12,10,31,11,19,04,33,,,,,0.97,0.50,0.83,3*09
$GNGSA,A,3,40,07,10,14,08,43,33,13,42,28,37,41,0.97,0.50,0.83,4*03
$GPGSV,3,1,12,195,67,040,42,17,64,052,34,196,61,131,38,199,60,167,36,1*5C
$GPGSV,3,2,12,19,59,002,41,06,50,324,41,194,45,169,42,41,38,242,36,1*5C
$GPGSV,3,3,12,14,35,178,42,09,28,116,36,11,23,276,41,12,06,322,25,1*6A
$GPGSV,2,1,08,195,67,040,44,196,61,131,45,199,60,167,47,06,50,324,44,8*57
$GPGSV,2,2,08,194,45,169,41,14,35,178,43,09,28,116,40,11,23,276,44,8*5A
$GLGSV,2,1,07,67,48,080,27,68,38,155,44,82,37,023,27,80,32,240,37,1*79
$GLGSV,2,2,07,73,22,302,38,66,13,033,18,79,09,191,20,1*46
$GAGSV,2,1,08,24,56,256,37,12,50,004,33,10,48,322,28,31,36,183,36,7*76
$GAGSV,2,2,08,11,33,291,37,19,28,095,32,04,21,158,24,33,18,057,24,7*7A
$GAGSV,2,1,08,24,56,256,41,12,50,004,39,10,48,322,41,31,36,183,40,1*75
$GAGSV,2,2,08,11,33,291,36,19,28,095,36,04,21,158,30,33,18,057,16,1*7D
$GBGSV,4,1,14,40,83,084,42,07,83,276,37,10,71,303,40,14,60,103,44,1*7A
$GBGSV,4,2,14,08,59,258,37,43,54,040,40,33,54,158,46,13,49,249,40,1*77
$GBGSV,4,3,14,42,45,064,30,11,36,070,,28,32,317,44,23,24,228,19,1*79
$GBGSV,4,4,14,37,18,282,38,41,14,197,27,1*77
$GBGSV,2,1,07,40,83,084,46,33,54,158,47,43,54,040,40,42,45,064,31,4*79
$GBGSV,2,2,07,28,32,317,36,37,18,282,26,41,14,197,23,4*40
$GNGGA,032452.000,2500.8241533,N,12132.4514831,E,2,58,0.50,18.108,M,15.25,M,1,3335*4F
$GNRMC,032452.000,A,2500.8241533,N,12132.4514831,E,0.00,246.18,270623,,,D,V*06
$GPHDT,136.488,T*35
$GNGGA,032452.200,2500.8241713,N,12132.4514831,E,2,58,0.50,18.102,M,15.25,M,1,3335*47
$GNRMC,032452.200,A,2500.8241713,N,12132.4514831,E,0.00,246.18,270623,,,D,V*04
$GPHDT,136.549,T*39
$GNGGA,032452.400,2500.8241773,N,12132.4514831,E,2,58,0.50,18.082,M,15.25,M,1,3335*4E
$GNRMC,032452.400,A,2500.8241773,N,12132.4514831,E,0.00,246.18,270623,,,D,V*04
$GPHDT,137.055,T*30
$GNGGA,032452.600,2500.8241893,N,12132.4514831,E,2,58,0.50,18.067,M,15.25,M,1,3335*46
$GNRMC,032452.600,A,2500.8241893,N,12132.4514831,E,0.00,246.18,270623,,,D,V*07
$GPHDT,136.189,T*31
