$FW : RTK35X,V1.1X0314AS,Lib20210517,1*54
$Tool : LOCOSYS , GNSS Firebird , v1.0.0.19*39
$---------------------------------------------------*2D
$GNGGA,032417.800,2500.8239036,N,12132.4513345,E,4,59,0.47,17.612,M,15.25,M,2,3335*47
$GNRMC,032417.800,A,2500.8239036,N,12132.4513345,E,0.00,246.18,270623,,,R,V*19
$GPHDT,181.365,T*3D
$GNGSA,A,3,195,17,196,199,19,06,194,14,09,11,,,0.95,0.47,0.82,1*0E
$GNGSA,A,3,67,68,82,80,73,,,,,,,,0.95,0.47,0.82,2*0E
$GNGSA,A,3,24,12,10,31,11,19,04,33,,,,,0.95,0.47,0.82,3*0C
$GNGSA,A,3,40,07,10,14,08,43,33,13,42,11,28,37,0.95,0.47,0.82,4*03
$GNGSA,A,3,41,,,,,,,,,,,,0.95,0.47,0.82,4*04
$GPGSV,3,1,12,195,67,040,43,17,64,051,37,196,61,131,38,199,60,167,36,1*5D
$GPGSV,3,2,12,19,59,001,40,06,50,324,37,194,45,169,42,41,38,242,31,1*58
$GPGSV,3,3,12,14,35,179,44,09,28,117,38,11,23,275,40,12,06,322,21,1*64
$GPGSV,2,1,08,195,67,040,45,196,61,131,46,199,60,167,44,06,50,324,40,8*52
$GPGSV,2,2,08,194,45,169,44,14,35,179,41,09,28,117,38,11,23,275,42,8*57
$GLGSV,2,1,07,67,48,080,35,68,38,155,42,82,37,023,30,80,33,240,35,1*79
$GLGSV,2,2,07,83,30,328,,73,22,302,39,79,09,191,18,1*46
$GAGSV,2,1,08,24,56,257,40,12,50,004,30,10,48,322,31,31,36,183,39,7*73
$GAGSV,2,2,08,11,32,290,38,19,28,096,33,04,21,158,23,33,18,057,33,7*76
$GAGSV,2,1,08,24,56,257,40,12,50,004,38,10,48,322,37,31,36,183,37,1*75
$GAGSV,2,2,08,11,32,290,37,19,28,096,34,04,21,158,31,33,18,057,36,1*7E
$GBGSV,4,1,14,40,83,083,43,07,83,277,38,10,71,303,37,14,60,104,43,1*72
$GBGSV,4,2,14,08,59,258,38,43,54,040,40,33,54,158,44,13,49,249,39,1*74
$GBGSV,4,3,14,42,45,064,34,11,36,069,32,28,32,316,40,23,24,228,,1*79
$GBGSV,4,4,14,37,18,282,31,41,13,197,35,1*7A
$GBGSV,2,1,07,40,83,083,45,33,54,158,45,43,54,040,40,42,45,064,30,4*7E
$GBGSV,2,2,07,28,32,316,33,37,18,282,32,41,13,197,30,4*44
$GNGGA,032418.000,2500.8239037,N,12132.4513364,E,4,59,0.47,17.612,M,15.25,M,3,3335*43
$GNRMC,032418.000,A,2500.8239037,N,12132.4513364,E,0.00,246.18,270623,,,R,V*1C
$GPHDT,181.541,T*3D
$GNGGA,032418.200,2500.8239041,N,12132.4513354,E,4,59,0.47,17.607,M,15.25,M,3,3335*47
$GNRMC,032418.200,A,2500.8239041,N,12132.4513354,E,0.00,246.18,270623,,,R,V*1C
$GPHDT,181.372,T*3B
$GNGGA,032418.400,2500.8239041,N,12132.4513354,E,4,59,0.47,17.607,M,15.25,M,3,3335*41
$GNRMC,032418.400,A,2500.8239041,N,12132.4513354,E,0.00,246.18,270623,,,R,V*1A
$GPHDT,181.140,T*38
$GNGGA,032418.600,2500.8239041,N,12132.4513331,E,4,59,0.47,17.603,M,15.25,M,3,3335*44
$GNRMC,032418.600,A,2500.8239041,N,12132.4513331,E,0.00,246.18,270623,,,R,V*1B
$GPHDT,181.057,T*3F
$GNGGA,032418.800,2500.8239061,N,12132.4513324,E,4,59,0.47,17.611,M,15.25,M,3,3335*4F
$GNRMC,032418.800,A,2500.8239061,N,12132.4513324,E,0.00,246.18,270623,,,R,V*13
$GPHDT,181.006,T*3B
$GNGSA,A,3,195,17,196,199,19,06,194,14,09,11,,,0.95,0.47,0.82,1*0E
$GNGSA,A,3,67,68,82,80,73,,,,,,,,0.95,0.47,0.82,2*0E
$GNGSA,A,3,24,12,10,31,11,19,04,33,,,,,0.95,0.47,0.82,3*0C
$GNGSA,A,3,40,07,10,14,08,43,33,13,42,11,28,37,0.95,0.47,0.82,4*03
$GNGSA,A,3,41,,,,,,,,,,,,0.95,0.47,0.82,4*04
$GPGSV,3,1,12,195,67,040,43,17,64,051,37,196,61,131,38,199,60,167,36,1*5D
$GPGSV,3,2,12,19,59,001,40,06,50,324,37,194,45,169,42,41,38,242,30,1*59
$GPGSV,3,3,12,14,35,179,44,09,28,117,38,11,23,275,40,12,06,322,18,1*6E
$GPGSV,2,1,08,195,67,040,45,196,61,131,46,199,60,167,44,06,50,324,40,8*52
$GPGSV,2,2,08,194,45,169,44,14,35,179,41,09,28,117,38,11,23,275,42,8*57
$GLGSV,2,1,07,67,48,080,35,68,38,155,42,82,37,023,30,80,33,240,35,1*79
$GLGSV,2,2,07,73,22,302,39,66,14,033,,79,09,191,18,1*42
$GAGSV,2,1,08,24,56,257,40,12,50,004,30,10,48,322,31,31,36,183,39,7*73
$GAGSV,2,2,08,11,32,290,38,19,28,096,33,04,21,158,23,33,18,057,33,7*76
$GAGSV,2,1,08,24,56,257,40,12,50,004,38,10,48,322,36,31,36,183,37,1*74
$GAGSV,2,2,08,11,32,290,37,19,28,096,34,04,21,158,31,33,18,057,36,1*7E
$GBGSV,4,1,14,40,83,083,43,07,83,277,38,10,71,303,37,14,60,104,43,1*72
$GBGSV,4,2,14,08,59,258,38,43,54,040,40,33,54,158,44,13,49,249,39,1*74
$GBGSV,4,3,14,42,45,064,34,11,36,069,32,28,32,316,40,23,24,228,,1*79
$GBGSV,4,4,14,37,18,282,30,41,13,197,35,1*7B
$GBGSV,2,1,07,40,83,083,45,33,54,158,45,43,54,040,40,42,45,064,31,4*7F
$GBGSV,2,2,07,28,32,316,33,37,18,282,32,41,13,197,30,4*44
$GNGGA,032419.000,2500.8239033,N,12132.4513366,E,4,59,0.47,17.606,M,15.25,M,4,3335*46
$GNRMC,032419.000,A,2500.8239033,N,12132.4513366,E,0.00,246.18,270623,,,R,V*1B
$GPHDT,181.519,T*30
$GNGGA,032419.200,2500.8239133,N,12132.4513271,E,4,59,0.47,17.644,M,15.25,M,2,3335*42
$GNRMC,032419.200,A,2500.8239133,N,12132.4513271,E,0.00,246.18,270623,,,R,V*1F
$GPHDT,181.346,T*3C
$GNGGA,032419.400,2500.8239073,N,12132.4513271,E,2,59,0.47,17.663,M,15.25,M,2,3335*42
$GNRMC,032419.400,A,2500.8239073,N,12132.4513271,E,0.00,246.18,270623,,,D,V*0A
$GPHDT,181.559,T*34
$GNGGA,032419.600,2500.8238893,N,12132.4513031,E,2,59,0.47,17.704,M,15.25,M,0,3335*43
$GNRMC,032419.600,A,2500.8238893,N,12132.4513031,E,0.00,246.18,270623,,,D,V*09
$GPHDT,181.493,T*33
$GNGGA,032419.800,2500.8238713,N,12132.4512851,E,2,59,0.47,17.747,M,15.25,M,0,3335*42
$GNRMC,032419.800,A,2500.8238713,N,12132.4512851,E,0.01,246.18,270623,,,D,V*0E
$GPHDT,181.381,T*37
$GNGSA,A,3,195,17,196,199,19,06,194,14,09,11,,,0.95,0.47,0.82,1*0E
$GNGSA,A,3,67,68,82,80,73,,,,,,,,0.95,0.47,0.82,2*0E
$GNGSA,A,3,24,12,10,31,11,19,04,33,,,,,0.95,0.47,0.82,3*0C
$GNGSA,A,3,40,07,10,14,08,43,33,13,42,11,28,37,0.95,0.47,0.82,4*03
$GNGSA,A,3,41,,,,,,,,,,,,0.95,0.47,0.82,4*04
$GPGSV,3,1,12,195,67,040,43,17,64,051,37,196,61,131,38,199,60,167,36,1*5D
$GPGSV,3,2,12,19,59,001,40,06,50,324,37,194,45,169,43,41,38,242,29,1*50
$GPGSV,3,3,12,14,35,179,44,09,28,117,37,11,23,275,40,12,06,322,17,1*6E
$GPGSV,2,1,08,195,67,040,46,196,61,131,46,199,60,167,44,06,50,324,40,8*51
$GPGSV,2,2,08,194,45,169,44,14,35,179,41,09,28,117,38,11,23,275,42,8*57
$GLGSV,2,1,08,67,48,080,36,68,38,155,42,82,37,023,29,80,33,240,35,1*7D
$GLGSV,2,2,08,83,30,328,,73,22,302,39,66,14,033,25,79,09,191,18,1*7B
$GAGSV,2,1,08,24,56,257,40,12,50,004,30,10,48,322,31,31,36,183,39,7*73
$GAGSV,2,2,08,11,32,290,38,19,28,095,33,04,21,158,23,33,18,057,33,7*75
$GAGSV,2,1,08,24,56,257,40,12,50,004,38,10,48,322,36,31,36,183,37,1*74
$GAGSV,2,2,08,11,32,290,37,19,28,095,34,04,21,158,31,33,18,057,36,1*7D
$GBGSV,4,1,14,40,83,083,43,07,83,277,38,10,71,303,37,14,60,104,43,1*72
$GBGSV,4,2,14,08,59,258,38,43,54,040,40,33,54,158,44,13,49,249,39,1*74
$GBGSV,4,3,14,42,45,064,34,11,36,069,32,28,32,316,40,23,24,228,,1*79
$GBGSV,4,4,14,37,18,282,30,41,13,197,35,1*7B
$GBGSV,2,1,07,40,83,083,46,33,54,158,45,43,54,040,40,42,45,064,31,4*7C
$GBGSV,2,2,07,28,32,316,33,37,18,282,33,41,13,197,30,4*45
$GNGGA,032420.000,2500.8238653,N,12132.4512791,E,2,59,0.47,17.753,M,15.25,M,1,3335*42
$GNRMC,032420.000,A,2500.8238653,N,12132.4512791,E,0.00,246.18,270623,,,D,V*0B
$GPHDT,181.281,T*36
$GNGGA,032420.200,2500.8238593,N,12132.4512791,E,2,59,0.47,17.775,M,15.25,M,1,3335*4B
$GNRMC,032420.200,A,2500.8238593,N,12132.4512791,E,0.00,246.18,270623,,,D,V*06
$GPHDT,181.468,T*37
$GNGGA,032420.400,2500.8238473,N,12132.4512611,E,2,59,0.47,17.822,M,15.25,M,1,3335*46
$GNRMC,032420.400,A,2500.8238473,N,12132.4512611,E,0.00,246.18,270623,,,D,V*06
$GPHDT,181.220,T*3D
$GNGGA,032420.600,2500.8238293,N,12132.4512491,E,2,59,0.47,17.872,M,15.25,M,1,3335*43
$GNRMC,032420.600,A,2500.8238293,N,12132.4512491,E,0.00,246.18,270623,,,D,V*06
$GPHDT,181.347,T*3D
$GNGGA,032420.800,2500.8238173,N,12132.4512311,E,2,59,0.47,17.920,M,15.25,M,1,3335*49
$GNRMC,032420.800,A,2500.8238173,N,12132.4512311,E,0.00,246.18,270623,,,D,V*0A
$GPHDT,180.999,T*35
$GNGSA,A,3,195,17,196,199,19,06,194,14,09,11,,,0.95,0.47,0.82,1*0E
$GNGSA,A,3,67,68,82,80,73,,,,,,,,0.95,0.47,0.82,2*0E
$GNGSA,A,3,24,12,10,31,11,19,04,33,,,,,0.95,0.47,0.82,3*0C
$GNGSA,A,3,07,40,10,14,08,43,33,13,42,11,28,37,0.95,0.47,0.82,4*03
$GNGSA,A,3,41,,,,,,,,,,,,0.95,0.47,0.82,4*04
$GPGSV,3,1,12,195,67,040,43,17,64,051,37,196,61,131,38,199,60,167,36,1*5D
$GPGSV,3,2,12,19,59,001,40,06,50,324,37,194,45,169,43,41,38,242,28,1*51
$GPGSV,3,3,12,14,35,179,44,09,28,117,37,11,23,275,40,12,06,322,16,1*6F
$GPGSV,2,1,08,195,67,040,46,196,61,131,46,199,60,167,44,06,50,324,40,8*51
$GPGSV,2,2,08,194,45,169,44,14,35,179,41,09,28,117,38,11,23,275,42,8*57
$GLGSV,2,1,07,67,48,080,35,68,38,155,42,82,37,023,30,80,33,240,33,1*7F
$GLGSV,2,2,07,73,22,302,39,66,14,033,26,79,09,191,18,1*46
$GAGSV,2,1,08,24,56,256,39,12,50,004,30,10,48,322,31,31,36,183,39,7*7C
$GAGSV,2,2,08,11,32,290,38,19,28,095,33,04,21,158,23,33,18,057,31,7*77
$GAGSV,2,1,08,24,56,256,40,12,50,004,38,10,48,322,36,31,36,183,37,1*75
$GAGSV,2,2,08,11,32,290,37,19,28,095,34,04,21,158,32,33,18,057,32,1*7A
$GBGSV,4,1,16,07,83,277,38,40,83,083,43,10,71,303,37,14,60,104,43,1*70
$GBGSV,4,2,16,08,59,258,38,43,54,040,40,33,54,158,45,13,49,249,40,1*79
$GBGSV,4,3,16,42,45,064,34,11,36,069,33,28,32,316,40,23,24,228,,1*7A
$GBGSV,4,4,16,37,18,282,30,41,13,197,35,25,07,183,,16,01,189,,1*75
$GBGSV,2,1,07,40,83,083,46,33,54,158,45,43,54,040,40,42,45,064,30,4*7D
$GBGSV,2,2,07,28,32,316,33,37,18,282,33,41,13,197,30,4*45
$GNGGA,032421.000,2500.8238113,N,12132.4512371,E,2,59,0.47,17.937,M,15.25,M,1,3335*46
$GNRMC,032421.000,A,2500.8238113,N,12132.4512371,E,0.00,246.18,270623,,,D,V*03
$GPHDT,181.177,T*3C
$GNGGA,032421.200,2500.8238053,N,12132.4512251,E,2,59,0.47,17.973,M,15.25,M,1,3335*42
$GNRMC,032421.200,A,2500.8238053,N,12132.4512251,E,0.00,246.18,270623,,,D,V*07
$GPHDT,181.208,T*37
$GNGGA,032421.400,2500.8237993,N,12132.4512191,E,2,59,0.47,18.004,M,15.25,M,1,3335*47
$GNRMC,032421.400,A,2500.8237993,N,12132.4512191,E,0.00,246.18,270623,,,D,V*04
$GPHDT,181.180,T*34
$GNGGA,032421.600,2500.8237933,N,12132.4512191,E,2,59,0.47,18.023,M,15.25,M,1,3335*4A
$GNRMC,032421.600,A,2500.8237933,N,12132.4512191,E,0.00,246.18,270623,,,D,V*0C
$GPHDT,181.264,T*3D
$GNGGA,032421.800,2500.8237873,N,12132.4512191,E,2,59,0.47,18.057,M,15.25,M,1,3335*42
$GNRMC,032421.800,A,2500.8237873,N,12132.4512191,E,0.00,246.18,270623,,,D,V*07
$GPHDT,181.093,T*37
$GNGSA,A,3,195,17,196,199,19,06,194,14,09,11,,,0.95,0.47,0.82,1*0E
$GNGSA,A,3,67,68,82,80,73,,,,,,,,0.95,0.47,0.82,2*0E
$GNGSA,A,3,24,12,10,31,11,19,04,33,,,,,0.95,0.47,0.82,3*0C
$GNGSA,A,3,07,40,10,14,08,43,33,13,42,11,28,37,0.95,0.47,0.82,4*03
$GNGSA,A,3,41,,,,,,,,,,,,0.95,0.47,0.82,4*04
$GPGSV,3,1,12,195,67,040,43,17,64,051,37,196,61,131,38,199,60,167,36,1*5D
$GPGSV,3,2,12,19,59,001,40,06,50,324,36,194,45,169,43,41,38,242,28,1*50
$GPGSV,3,3,12,14,35,179,44,09,28,117,37,11,23,275,40,12,06,322,17,1*6E
$GPGSV,2,1,08,195,67,040,46,196,61,131,46,199,60,167,45,06,50,324,40,8*50
$GPGSV,2,2,08,194,45,169,44,14,35,179,42,09,28,117,38,11,23,275,42,8*54
$GLGSV,2,1,07,67,48,080,33,68,38,155,41,82,37,023,30,80,33,240,30,1*79
$GLGSV,2,2,07,73,22,302,39,66,14,033,26,79,09,191,18,1*46
$GAGSV,2,1,08,24,56,256,39,12,50,004,29,10,48,322,32,31,36,183,39,7*77
$GAGSV,2,2,08,11,32,290,38,19,28,095,32,04,21,158,23,33,18,057,29,7*7F
$GAGSV,2,1,08,24,56,256,41,12,50,004,39,10,48,322,37,31,36,183,37,1*74
$GAGSV,2,2,08,11,32,290,37,19,28,095,34,04,21,158,31,33,18,057,31,1*7A
$GBGSV,4,1,16,07,83,277,38,40,83,083,43,10,71,303,36,14,60,104,43,1*71
$GBGSV,4,2,16,08,59,258,38,43,54,040,40,33,54,158,45,13,49,249,40,1*79
$GBGSV,4,3,16,42,45,064,33,11,36,069,31,28,32,316,40,23,24,228,,1*7F
$GBGSV,4,4,16,37,18,282,30,41,13,197,35,21,03,036,,39,01,180,,1*7E
$GBGSV,2,1,07,40,83,083,46,33,54,158,45,43,54,040,40,42,45,064,31,4*7C
$GBGSV,2,2,07,28,32,316,34,37,18,282,33,41,13,197,31,4*43
$GNGGA,032422.000,2500.8237873,N,12132.4512191,E,2,59,0.47,18.083,M,15.25,M,2,3335*43
$GNRMC,032422.000,A,2500.8237873,N,12132.4512191,E,0.00,246.18,270623,,,D,V*0C
$GPHDT,181.471,T*3F
$GNGGA,032422.200,2500.8237813,N,12132.4512131,E,2,59,0.47,18.108,M,15.25,M,2,3335*4F
$GNRMC,032422.200,A,2500.8237813,N,12132.4512131,E,0.00,246.18,270623,,,D,V*02
$GPHDT,180.934,T*32
$GNGGA,032422.400,2500.8237753,N,12132.4512131,E,2,59,0.47,18.132,M,15.25,M,2,3335*4B
$GNRMC,032422.400,A,2500.8237753,N,12132.4512131,E,0.00,246.18,270623,,,D,V*0F
$GPHDT,181.236,T*3A
$GNGGA,032422.600,2500.8237693,N,12132.4512131,E,2,59,0.47,18.157,M,15.25,M,2,3335*47
$GNRMC,032422.600,A,2500.8237693,N,12132.4512131,E,0.00,246.18,270623,,,D,V*00
$GPHDT,180.549,T*34
$GNGGA,032422.800,2500.8237633,N,12132.4512131,E,2,59,0.47,18.170,M,15.25,M,2,3335*46
$GNRMC,032422.800,A,2500.8237633,N,12132.4512131,E,0.00,246.18,270623,,,D,V*04
$GPHDT,180.524,T*3F
$GNGSA,A,3,195,17,196,199,19,06,194,14,09,11,,,0.95,0.47,0.82,1*0E
$GNGSA,A,3,67,68,82,80,73,,,,,,,,0.95,0.47,0.82,2*0E
$GNGSA,A,3,24,12,10,31,11,19,04,33,,,,,0.95,0.47,0.82,3*0C
$GNGSA,A,3,40,07,10,14,08,43,33,13,42,11,28,37,0.95,0.47,0.82,4*03
$GNGSA,A,3,41,,,,,,,,,,,,0.95,0.47,0.82,4*04
$GPGSV,3,1,12,195,67,040,43,17,64,051,37,196,61,131,38,199,60,167,36,1*5D
$GPGSV,3,2,12,19,59,001,40,06,50,324,36,194,45,169,43,41,38,242,28,1*50
$GPGSV,3,3,12,14,35,179,44,09,28,117,37,11,23,275,40,12,06,322,17,1*6E
$GPGSV,2,1,08,195,67,040,46,196,61,131,46,199,60,167,45,06,50,324,39,8*5E
$GPGSV,2,2,08,194,45,169,44,14,35,179,43,09,28,117,38,11,23,275,42,8*55
$GLGSV,2,1,07,67,48,080,32,68,38,155,40,82,37,023,29,80,33,240,29,1*79
$GLGSV,2,2,07,73,22,302,39,66,14,033,25,79,09,191,15,1*48
$GAGSV,2,1,08,24,56,256,39,12,50,004,29,10,48,322,32,31,36,183,39,7*77
$GAGSV,2,2,08,11,32,290,38,19,28,095,32,04,21,158,22,33,18,057,30,7*76
$GAGSV,2,1,08,24,56,256,41,12,50,004,39,10,48,322,36,31,36,183,37,1*75
$GAGSV,2,2,08,11,32,290,37,19,28,095,34,04,21,158,30,33,18,057,30,1*7A
$GBGSV,4,1,14,40,83,083,43,07,83,277,38,10,71,303,36,14,60,104,43,1*73
$GBGSV,4,2,14,08,59,258,38,43,54,040,40,33,54,158,45,13,49,249,40,1*7B
$GBGSV,4,3,14,42,45,064,32,11,36,069,31,28,32,316,39,23,24,228,,1*72
$GBGSV,4,4,14,37,18,282,30,41,13,197,35,1*7B
$GBGSV,2,1,07,40,83,083,46,33,54,158,45,43,54,040,40,42,45,064,30,4*7D
$GBGSV,2,2,07,28,32,316,33,37,18,282,33,41,13,197,31,4*44
$GNGGA,032423.000,2500.8237633,N,12132.4512191,E,2,59,0.47,18.186,M,15.25,M,3,3335*4D
$GNRMC,032423.000,A,2500.8237633,N,12132.4512191,E,0.00,246.18,270623,,,D,V*07
$PAIR010,0,1,2268,185081*31
$GPHDT,181.130,T*3F
$GNGGA,032423.200,2500.8237573,N,12132.4512191,E,2,59,0.47,18.208,M,15.25,M,3,3335*4D
$GNRMC,032423.200,A,2500.8237573,N,12132.4512191,E,0.00,246.18,270623,,,D,V*02
$GPHDT,181.088,T*3D
$GNGGA,032423.400,2500.8237513,N,12132.4512251,E,2,59,0.47,18.222,M,15.25,M,3,3335*4A
$GNRMC,032423.400,A,2500.8237513,N,12132.4512251,E,0.00,246.18,270623,,,D,V*0D
$GPHDT,181.300,T*3E
$GNGGA,032423.600,2500.8237453,N,12132.4512191,E,2,59,0.47,18.250,M,15.25,M,3,3335*47
$GNRMC,032423.600,A,2500.8237453,N,12132.4512191,E,0.00,246.18,270623,,,D,V*05
$GPHDT,181.071,T*3B
$GNGGA,032423.800,2500.8237393,N,12132.4512191,E,2,59,0.47,18.272,M,15.25,M,3,3335*42
$GNRMC,032423.800,A,2500.8237393,N,12132.4512191,E,0.00,246.18,270623,,,D,V*00
$GPHDT,181.296,T*30
$GNGSA,A,3,195,17,196,199,19,06,194,14,09,11,,,0.95,0.47,0.82,1*0E
$GNGSA,A,3,67,68,82,80,73,,,,,,,,0.95,0.47,0.82,2*0E
$GNGSA,A,3,24,12,10,31,11,19,04,33,,,,,0.95,0.47,0.82,3*0C
$GNGSA,A,3,40,07,10,14,08,43,33,13,42,11,28,37,0.95,0.47,0.82,4*03
$GNGSA,A,3,41,,,,,,,,,,,,0.95,0.47,0.82,4*04
$GPGSV,3,1,12,195,67,040,43,17,64,051,37,196,61,131,38,199,60,167,37,1*5C
$GPGSV,3,2,12,19,59,001,40,06,50,324,36,194,45,169,43,41,38,242,28,1*50
$GPGSV,3,3,12,14,35,179,44,09,28,117,37,11,23,275,40,12,06,322,17,1*6E
$GPGSV,2,1,08,195,67,040,46,196,61,131,46,199,60,167,45,06,50,324,38,8*5F
$GPGSV,2,2,08,194,45,169,44,14,35,179,43,09,28,117,38,11,23,275,42,8*55
$GLGSV,2,1,07,67,48,080,31,68,38,155,40,82,37,023,29,80,33,240,30,1*72
$GLGSV,2,2,07,73,22,302,39,66,13,033,26,79,09,191,13,1*4A
$GAGSV,2,1,08,24,56,256,39,12,50,004,29,10,48,322,31,31,36,183,39,7*74
$GAGSV,2,2,08,11,32,290,38,19,28,095,32,04,21,158,21,33,18,057,30,7*75
$GAGSV,2,1,08,24,56,256,41,12,50,004,39,10,48,322,36,31,36,183,37,1*75
$GAGSV,2,2,08,11,32,290,37,19,28,095,35,04,21,158,31,33,18,057,31,1*7B
$GBGSV,4,1,14,40,83,083,43,07,83,277,38,10,71,303,35,14,60,104,43,1*70
$GBGSV,4,2,14,08,59,258,38,43,54,040,40,33,54,158,45,13,49,249,40,1*7B
$GBGSV,4,3,14,42,45,064,32,11,36,069,32,28,32,316,39,23,24,228,,1*71
$GBGSV,4,4,14,37,18,282,29,41,13,197,35,1*73
$GBGSV,2,1,07,40,83,083,46,33,54,158,45,43,54,040,40,42,45,064,30,4*7D
$GBGSV,2,2,07,28,32,316,32,37,18,282,33,41,13,197,31,4*45
$GNGGA,032424.000,2500.8237393,N,12132.4512251,E,2,59,0.47,18.297,M,15.25,M,4,3335*4E
$GNRMC,032424.000,A,2500.8237393,N,12132.4512251,E,0.00,246.18,270623,,,D,V*00
$GPHDT,181.006,T*3B
$GNGGA,032424.200,2500.8237333,N,12132.4512311,E,2,59,0.47,18.313,M,15.25,M,2,3335*48
$GNRMC,032424.200,A,2500.8237333,N,12132.4512311,E,0.00,246.18,270623,,,D,V*0D
$GPHDT,181.340,T*3A
$GNGGA,032424.400,2500.8237333,N,12132.4512311,E,2,59,0.47,18.328,M,15.25,M,1,3335*45
$GNRMC,032424.400,A,2500.8237333,N,12132.4512311,E,0.00,246.18,270623,,,D,V*0B
$GPHDT,181.607,T*3C
$GNGGA,032424.600,2500.8237273,N,12132.4512371,E,2,59,0.47,18.337,M,15.25,M,0,3335*4B
$GNRMC,032424.600,A,2500.8237273,N,12132.4512371,E,0.00,246.18,270623,,,D,V*0A
$GPHDT,180.819,T*3C
$GNGGA,032424.800,2500.8237273,N,12132.4512431,E,2,59,0.47,18.351,M,15.25,M,0,3335*46
$GNRMC,032424.800,A,2500.8237273,N,12132.4512431,E,0.00,246.18,270623,,,D,V*07
$GPHDT,180.947,T*36
$GNGSA,A,3,195,17,196,199,19,06,194,14,09,11,,,0.95,0.47,0.82,1*0E
$GNGSA,A,3,67,68,82,80,73,,,,,,,,0.95,0.47,0.82,2*0E
$GNGSA,A,3,24,12,10,31,11,19,04,33,,,,,0.95,0.47,0.82,3*0C
$GNGSA,A,3,40,07,10,14,08,43,33,13,42,11,28,37,0.95,0.47,0.82,4*03
$GNGSA,A,3,41,,,,,,,,,,,,0.95,0.47,0.82,4*04
$GPGSV,3,1,12,195,67,040,43,17,64,051,37,196,61,131,38,199,60,167,37,1*5C
$GPGSV,3,2,12,19,59,001,40,06,50,324,35,194,45,169,43,41,38,242,27,1*5C
$GPGSV,3,3,12,14,35,179,44,09,28,117,37,11,23,275,40,12,06,322,17,1*6E
$GPGSV,2,1,08,195,67,040,46,196,61,131,46,199,60,167,45,06,50,324,38,8*5F
$GPGSV,2,2,08,194,45,169,44,14,35,179,43,09,28,117,38,11,23,275,42,8*55
$GLGSV,2,1,07,67,48,080,28,68,38,155,40,82,37,023,29,80,33,240,31,1*7B
$GLGSV,2,2,07,73,22,302,39,66,13,033,25,79,09,191,14,1*4E
$GAGSV,2,1,08,24,56,256,39,12,50,004,27,10,48,322,31,31,36,183,39,7*7A
$GAGSV,2,2,08,11,32,290,38,19,28,095,32,04,21,158,22,33,18,057,29,7*7E
$GAGSV,2,1,08,24,56,256,41,12,50,004,38,10,48,322,35,31,36,183,37,1*77
$GAGSV,2,2,08,11,32,290,37,19,28,095,35,04,21,158,31,33,18,057,31,1*7B
$GBGSV,4,1,14,40,83,083,43,07,83,277,38,10,71,303,35,14,60,104,43,1*70
$GBGSV,4,2,14,08,59,258,38,43,54,040,41,33,54,158,45,13,49,249,40,1*7A
$GBGSV,4,3,14,42,45,064,33,11,36,069,30,28,32,316,39,23,24,228,,1*72
$GBGSV,4,4,14,37,18,282,30,41,13,197,35,1*7B
$GBGSV,2,1,07,40,83,083,46,33,54,158,45,43,54,040,40,42,45,064,30,4*7D
$GBGSV,2,2,07,28,32,316,31,37,18,282,33,41,13,197,31,4*46
$GNGGA,032425.000,2500.8237273,N,12132.4512491,E,2,59,0.47,18.363,M,15.25,M,1,3335*45
$GNRMC,032425.000,A,2500.8237273,N,12132.4512491,E,0.00,246.18,270623,,,D,V*04
$GPHDT,180.901,T*34
$GNGGA,032425.200,2500.8237273,N,12132.4512551,E,2,59,0.47,18.377,M,15.25,M,1,3335*4F
$GNRMC,032425.200,A,2500.8237273,N,12132.4512551,E,0.00,246.18,270623,,,D,V*0B
$GPHDT,180.903,T*36
$GNGGA,032425.400,2500.8237213,N,12132.4512611,E,2,59,0.47,18.379,M,15.25,M,1,3335*46
$GNRMC,032425.400,A,2500.8237213,N,12132.4512611,E,0.00,246.18,270623,,,D,V*0C
$GPHDT,180.570,T*3E
$GNGGA,032425.600,2500.8237213,N,12132.4512731,E,2,59,0.47,18.384,M,15.25,M,1,3335*45
$GNRMC,032425.600,A,2500.8237213,N,12132.4512731,E,0.00,246.18,270623,,,D,V*0D
$GPHDT,180.773,T*3F
$GNGGA,032425.800,2500.8237213,N,12132.4512791,E,2,59,0.47,18.398,M,15.25,M,1,3335*4C
$GNRMC,032425.800,A,2500.8237213,N,12132.4512791,E,0.00,246.18,270623,,,D,V*09
$GPHDT,180.612,T*39
$GNGSA,A,3,195,17,196,199,19,06,194,14,09,11,,,0.95,0.47,0.82,1*0E
$GNGSA,A,3,67,68,82,80,73,,,,,,,,0.95,0.47,0.82,2*0E
$GNGSA,A,3,24,12,10,31,11,19,04,33,,,,,0.95,0.47,0.82,3*0C
$GNGSA,A,3,40,07,10,14,08,43,33,13,42,11,28,37,0.95,0.47,0.82,4*03
$GNGSA,A,3,41,,,,,,,,,,,,0.95,0.47,0.82,4*04
$GPGSV,3,1,12,195,67,040,43,17,64,051,37,196,61,131,38,199,60,167,37,1*5C
$GPGSV,3,2,12,19,59,001,40,06,50,324,35,194,45,169,43,41,38,242,27,1*5C
$GPGSV,3,3,12,14,35,179,44,09,28,117,36,11,23,275,40,12,06,322,17,1*6F
$GPGSV,2,1,08,195,67,040,46,196,61,131,46,199,60,167,45,06,50,324,38,8*5F
$GPGSV,2,2,08,194,45,169,44,14,35,179,43,09,28,117,38,11,23,275,42,8*55
$GLGSV,2,1,07,67,48,080,28,68,38,155,40,82,37,023,29,80,33,240,30,1*7A
$GLGSV,2,2,07,73,22,302,39,66,13,033,26,79,09,191,12,1*4B
$GAGSV,2,1,08,24,56,256,39,12,50,004,27,10,48,322,31,31,36,183,39,7*7A
$GAGSV,2,2,08,11,32,290,38,19,28,095,32,04,21,158,24,33,18,057,29,7*78
$GAGSV,2,1,08,24,56,256,41,12,50,004,38,10,48,322,34,31,36,183,37,1*76
$GAGSV,2,2,08,11,32,290,37,19,28,095,35,04,21,158,31,33,18,057,31,1*7B
$GBGSV,4,1,14,40,83,083,43,07,83,277,38,10,71,303,35,14,60,104,43,1*70
$GBGSV,4,2,14,08,59,258,38,43,54,040,41,33,54,158,45,13,49,249,40,1*7A
$GBGSV,4,3,14,42,45,064,33,11,36,069,30,28,32,316,39,23,24,228,,1*72
$GBGSV,4,4,14,37,18,282,30,41,13,197,35,1*7B
$GBGSV,2,1,07,40,83,083,46,33,54,158,45,43,54,040,40,42,45,064,29,4*75
$GBGSV,2,2,07,28,32,316,31,37,18,282,33,41,13,197,30,4*47
$GNGGA,032426.000,2500.8237213,N,12132.4512851,E,2,59,0.47,18.405,M,15.25,M,1,3335*47
$GNRMC,032426.000,A,2500.8237213,N,12132.4512851,E,0.00,246.18,270623,,,D,V*01
$GPHDT,180.687,T*35
$GNGGA,032426.200,2500.8237153,N,12132.4512851,E,2,59,0.47,18.426,M,15.25,M,1,3335*43
$GNRMC,032426.200,A,2500.8237153,N,12132.4512851,E,0.00,246.18,270623,,,D,V*04
$GPHDT,181.016,T*3A
$GNGGA,032426.400,2500.8237153,N,12132.4512851,E,2,59,0.47,18.441,M,15.25,M,1,3335*44
$GNRMC,032426.400,A,2500.8237153,N,12132.4512851,E,0.00,246.18,270623,,,D,V*02
$GPHDT,180.983,T*3E
$GNGGA,032426.600,2500.8237153,N,12132.4512911,E,2,59,0.47,18.453,M,15.25,M,1,3335*40
$GNRMC,032426.600,A,2500.8237153,N,12132.4512911,E,0.00,246.18,270623,,,D,V*05
$GPHDT,180.915,T*31
$GNGGA,032426.800,2500.8237153,N,12132.4512911,E,2,59,0.47,18.460,M,15.25,M,1,3335*4E
$GNRMC,032426.800,A,2500.8237153,N,12132.4512911,E,0.00,246.18,270623,,,D,V*0B
$GPHDT,180.909,T*3C
$GNGSA,A,3,195,17,196,199,19,06,194,14,09,11,,,0.95,0.47,0.82,1*0E
$GNGSA,A,3,67,68,82,80,73,,,,,,,,0.95,0.47,0.82,2*0E
$GNGSA,A,3,24,12,10,31,11,19,04,33,,,,,0.95,0.47,0.82,3*0C
$GNGSA,A,3,40,07,10,14,08,43,33,13,42,11,28,37,0.95,0.47,0.82,4*03
$GNGSA,A,3,41,,,,,,,,,,,,0.95,0.47,0.82,4*04
$GPGSV,3,1,12,195,67,040,43,17,64,051,37,196,61,131,38,199,60,167,37,1*5C
$GPGSV,3,2,12,19,59,001,40,06,50,324,35,194,45,169,43,41,38,242,27,1*5C
$GPGSV,3,3,12,14,35,179,44,09,28,117,36,11,23,275,40,12,06,322,17,1*6F
$GPGSV,2,1,08,195,67,040,46,196,61,131,46,199,60,167,45,06,50,324,38,8*5F
$GPGSV,2,2,08,194,45,169,44,14,35,179,43,09,28,117,38,11,23,275,42,8*55
$GLGSV,2,1,07,67,48,080,28,68,38,155,40,82,37,023,29,80,32,240,26,1*7C
$GLGSV,2,2,07,73,22,302,39,66,13,033,26,79,09,191,13,1*4A
$GAGSV,2,1,08,24,56,256,39,12,50,004,28,10,48,322,31,31,36,183,39,7*75
$GAGSV,2,2,08,11,32,290,37,19,28,095,32,04,21,158,24,33,18,057,29,7*77
$GAGSV,2,1,08,24,56,256,41,12,50,004,38,10,48,322,34,31,36,183,38,1*79
$GAGSV,2,2,08,11,32,290,37,19,28,095,35,04,21,158,31,33,18,057,30,1*7A
$GBGSV,4,1,14,40,83,083,43,07,83,277,38,10,71,303,35,14,60,104,43,1*70
$GBGSV,4,2,14,08,59,258,38,43,54,040,41,33,54,158,45,13,49,249,40,1*7A
$GBGSV,4,3,14,42,45,064,31,11,36,069,31,28,32,316,39,23,24,228,,1*71
$GBGSV,4,4,14,37,18,282,30,41,13,197,35,1*7B
$GBGSV,2,1,07,40,83,083,46,33,54,158,45,43,54,040,40,42,45,064,29,4*75
$GBGSV,2,2,07,28,32,316,32,37,18,282,33,41,13,197,30,4*44
$GNGGA,032427.000,2500.8237153,N,12132.4512971,E,2,59,0.47,18.466,M,15.25,M,2,3335*44
$GNRMC,032427.000,A,2500.8237153,N,12132.4512971,E,0.00,246.18,270623,,,D,V*04
$GPHDT,180.935,T*33
$GNGGA,032427.200,2500.8237153,N,12132.4513031,E,2,59,0.47,18.471,M,15.25,M,2,3335*4C
$GNRMC,032427.200,A,2500.8237153,N,12132.4513031,E,0.00,246.18,270623,,,D,V*0A
$GPHDT,181.253,T*39
$GNGGA,032427.400,2500.8237153,N,12132.4513091,E,2,59,0.47,18.482,M,15.25,M,2,3335*4C
$GNRMC,032427.400,A,2500.8237153,N,12132.4513091,E,0.00,246.18,270623,,,D,V*06
$GPHDT,181.226,T*3B
$GNGGA,032427.600,2500.8237093,N,12132.4513151,E,2,59,0.47,18.481,M,15.25,M,2,3335*4D
$GNRMC,032427.600,A,2500.8237093,N,12132.4513151,E,0.00,246.18,270623,,,D,V*04
$GPHDT,181.200,T*3F
$GNGGA,032427.800,2500.8237093,N,12132.4513151,E,2,59,0.47,18.485,M,15.25,M,2,3335*47
$GNRMC,032427.800,A,2500.8237093,N,12132.4513151,E,0.00,246.18,270623,,,D,V*0A
$GPHDT,180.914,T*30
$GNGSA,A,3,195,17,196,199,19,06,194,14,09,11,,,0.95,0.47,0.82,1*0E
$GNGSA,A,3,67,68,82,80,73,,,,,,,,0.95,0.47,0.82,2*0E
$GNGSA,A,3,24,12,10,31,11,19,04,33,,,,,0.95,0.47,0.82,3*0C
$GNGSA,A,3,40,07,10,14,08,43,33,13,42,11,28,37,0.95,0.47,0.82,4*03
$GNGSA,A,3,41,,,,,,,,,,,,0.95,0.47,0.82,4*04
$GPGSV,3,1,12,195,67,040,43,17,64,051,37,196,61,131,38,199,60,167,37,1*5C
$GPGSV,3,2,12,19,59,001,40,06,50,324,35,194,45,169,43,41,38,242,27,1*5C
$GPGSV,3,3,12,14,35,179,44,09,28,117,36,11,23,275,40,12,06,322,17,1*6F
$GPGSV,2,1,08,195,67,040,46,196,61,131,46,199,60,167,45,06,50,324,38,8*5F
$GPGSV,2,2,08,194,45,169,44,14,35,179,43,09,28,117,38,11,23,275,42,8*55
$GLGSV,2,1,07,67,48,080,28,68,38,155,39,82,37,023,30,80,32,240,26,1*7A
$GLGSV,2,2,07,73,22,302,39,66,13,033,26,79,09,191,15,1*4C
$GAGSV,2,1,08,24,56,256,39,12,50,004,28,10,48,322,32,31,36,183,39,7*76
$GAGSV,2,2,08,11,32,290,37,19,28,095,32,04,21,158,24,33,18,057,29,7*77
$GAGSV,2,1,08,24,56,256,41,12,50,004,38,10,48,322,35,31,36,183,38,1*78
$GAGSV,2,2,08,11,32,290,37,19,28,095,35,04,21,158,31,33,18,057,31,1*7B
$GBGSV,4,1,14,40,83,083,43,07,83,277,38,10,71,303,35,14,60,104,43,1*70
$GBGSV,4,2,14,08,59,258,38,43,54,040,41,33,54,158,45,13,49,249,40,1*7A
$GBGSV,4,3,14,42,45,064,31,11,36,069,31,28,32,316,39,23,24,228,,1*71
$GBGSV,4,4,14,37,18,282,29,41,13,197,35,1*73
$GBGSV,2,1,07,40,83,083,46,33,54,158,45,43,54,040,40,42,45,064,30,4*7D
$GBGSV,2,2,07,28,32,316,32,37,18,282,33,41,13,197,30,4*44
$GNGGA,032428.000,2500.8237093,N,12132.4513151,E,2,59,0.47,18.495,M,15.25,M,3,3335*40
$GNRMC,032428.000,A,2500.8237093,N,12132.4513151,E,0.00,246.18,270623,,,D,V*0D
$GPHDT,181.403,T*3A
$GNGGA,032428.200,2500.8237093,N,12132.4513211,E,2,59,0.47,18.506,M,15.25,M,3,3335*4E
$GNRMC,032428.200,A,2500.8237093,N,12132.4513211,E,0.00,246.18,270623,,,D,V*08
$GPHDT,180.702,T*39
$GNGGA,032428.400,2500.8237093,N,12132.4513271,E,2,59,0.47,18.505,M,15.25,M,3,3335*4D
$GNRMC,032428.400,A,2500.8237093,N,12132.4513271,E,0.00,246.18,270623,,,D,V*08
$GPHDT,180.857,T*36
$GNGGA,032428.600,2500.8237093,N,12132.4513271,E,2,59,0.47,18.508,M,15.25,M,3,3335*42
$GNRMC,032428.600,A,2500.8237093,N,12132.4513271,E,0.00,246.18,270623,,,D,V*0A
