$FW : RTK35X,V1.1X0314AS,Lib20210517,1*54
$Tool : LOCOSYS , GNSS Firebird , v1.0.0.19*39
$---------------------------------------------------*2D
626,M,15.25,M,3,3335*40
$GNRMC,032321.800,A,2500.8239179,N,12132.4513224,E,0.06,246.18,270623,,,R,V*11
$GPHDT,270.801,T*39
$GNGSA,A,3,195,17,196,199,19,06,194,14,09,11,,,0.79,0.48,0.63,1*0C
$GNGSA,A,3,67,82,68,80,73,,,,,,,,0.79,0.48,0.63,2*0C
$GNGSA,A,3,24,12,10,31,11,19,04,33,,,,,0.79,0.48,0.63,3*0E
$GNGSA,A,3,07,40,10,14,08,43,33,13,42,28,37,41,0.79,0.48,0.63,4*04
$GNGSA,A,3,23,,,,,,,,,,,,0.79,0.48,0.63,4*02
$GPGSV,3,1,12,195,67,040,41,17,64,050,37,196,60,131,39,199,60,167,36,1*5E
$GPGSV,3,2,12,19,59,001,43,06,50,323,42,194,45,169,42,41,38,242,42,1*5A
$GPGSV,3,3,12,14,36,179,44,09,28,117,40,11,23,275,42,12,06,323,32,1*69
$GPGSV,2,1,08,195,67,040,44,199,60,167,45,196,60,131,43,06,50,323,40,8*51
$GPGSV,2,2,08,194,45,169,45,14,36,179,45,09,28,117,40,11,23,275,41,8*5D
$GLGSV,2,1,06,67,48,081,31,82,37,022,26,68,37,155,42,80,33,241,42,1*75
$GLGSV,2,2,06,73,22,302,40,79,09,192,18,1*7B
$GAGSV,2,1,08,24,56,257,42,12,50,003,36,10,48,321,34,31,36,183,39,7*76
$GAGSV,2,2,08,11,32,290,39,19,28,096,31,04,21,159,24,33,18,056,34,7*75
$GAGSV,2,1,08,24,56,257,44,12,50,003,36,10,48,321,38,31,36,183,42,1*76
$GAGSV,2,2,08,11,32,290,34,19,28,096,30,04,21,159,31,33,18,056,26,1*78
$GBGSV,4,1,14,07,83,279,41,40,83,081,41,10,71,304,41,14,60,105,42,1*74
$GBGSV,4,2,14,08,59,258,41,43,54,039,38,33,54,158,46,13,49,248,42,1*74
$GBGSV,4,3,14,42,45,065,29,11,36,069,,28,32,316,41,23,25,229,,1*74
$GBGSV,4,4,14,37,18,283,32,41,13,197,36,1*7B
$GBGSV,2,1,08,40,83,081,44,33,54,158,45,43,54,039,36,42,45,065,32,4*7E
$GBGSV,2,2,08,28,32,316,35,23,25,229,14,37,18,283,32,41,13,197,38,4*7E
$GNGGA,032322.000,2500.8239178,N,12132.4513215,E,4,59,0.48,17.632,M,15.25,M,4,3335*4A
$GNRMC,032322.000,A,2500.8239178,N,12132.4513215,E,0.05,246.18,270623,,,R,V*1A
$GPHDT,270.795,T*3B
$GNGGA,032322.200,2500.8239130,N,12132.4513231,E,4,59,0.48,17.615,M,15.25,M,1,3335*42
$GNRMC,032322.200,A,2500.8239130,N,12132.4513231,E,0.05,246.18,270623,,,R,V*12
$GPHDT,270.788,T*37
$GNGGA,032322.400,2500.8239124,N,12132.4513218,E,4,59,0.48,17.602,M,15.25,M,1,3335*4C
$GNRMC,032322.400,A,2500.8239124,N,12132.4513218,E,0.05,246.18,270623,,,R,V*1A
$GPHDT,270.682,T*3C
$GNGGA,032322.600,2500.8239134,N,12132.4513234,E,4,59,0.48,17.603,M,15.25,M,1,3335*40
$GNRMC,032322.600,A,2500.8239134,N,12132.4513234,E,0.05,246.18,270623,,,R,V*17
$GPHDT,270.546,T*37
$GNGGA,032322.800,2500.8239128,N,12132.4513216,E,4,59,0.48,17.615,M,15.25,M,0,3335*45
$GNRMC,032322.800,A,2500.8239128,N,12132.4513216,E,0.05,246.18,270623,,,R,V*14
$GPHDT,270.659,T*3A
$GNGSA,A,3,195,17,196,199,19,06,194,14,09,11,,,0.79,0.48,0.63,1*0C
$GNGSA,A,3,67,68,82,80,73,,,,,,,,0.79,0.48,0.63,2*0C
$GNGSA,A,3,24,12,10,31,11,19,04,33,,,,,0.79,0.48,0.63,3*0E
$GNGSA,A,3,07,40,10,14,08,33,43,13,42,28,37,41,0.79,0.48,0.63,4*04
$GNGSA,A,3,23,,,,,,,,,,,,0.79,0.48,0.63,4*02
$GPGSV,3,1,12,195,67,040,41,17,64,050,37,196,60,131,39,199,60,167,36,1*5E
$GPGSV,3,2,12,19,59,001,43,06,50,323,42,194,45,169,42,41,38,242,42,1*5A
$GPGSV,3,3,12,14,36,179,44,09,28,117,40,11,23,275,42,12,06,323,32,1*69
$GPGSV,2,1,08,195,67,040,45,199,60,167,45,196,60,131,44,06,50,323,40,8*57
$GPGSV,2,2,08,194,45,169,45,14,36,179,45,09,28,117,40,11,23,275,41,8*5D
$GLGSV,2,1,07,67,48,081,28,68,37,155,42,82,37,022,27,80,33,241,43,1*7C
$GLGSV,2,2,07,83,30,328,,73,22,302,39,79,09,192,18,1*45
$GAGSV,2,1,08,24,56,257,42,12,50,003,35,10,48,321,34,31,36,183,39,7*75
$GAGSV,2,2,08,11,32,290,39,19,28,096,31,04,21,159,25,33,18,056,35,7*75
$GAGSV,2,1,08,24,56,257,44,12,50,003,36,10,48,321,38,31,36,183,42,1*76
$GAGSV,2,2,08,11,32,290,34,19,28,096,30,04,21,159,32,33,18,056,29,1*74
$GBGSV,4,1,15,07,83,279,41,40,83,081,41,10,71,304,41,14,60,105,42,1*75
$GBGSV,4,2,15,08,59,258,41,33,54,158,45,43,54,039,38,13,49,248,42,1*76
$GBGSV,4,3,15,42,45,065,29,11,36,069,,28,32,316,41,23,25,229,,1*75
$GBGSV,4,4,15,37,18,283,32,41,13,197,34,25,07,184,,1*45
$GBGSV,2,1,08,40,83,081,44,33,54,158,45,43,54,039,36,42,45,065,32,4*7E
$GBGSV,2,2,08,28,32,316,35,23,25,229,16,37,18,283,33,41,13,197,37,4*72
$GNGGA,032323.000,2500.8239192,N,12132.4513188,E,4,59,0.48,17.628,M,15.25,M,1,3335*46
$GNRMC,032323.000,A,2500.8239192,N,12132.4513188,E,0.03,246.18,270623,,,R,V*1E
$PAIR010,0,1,2268,185021*3B
$GPHDT,270.392,T*38
$GNGGA,032323.200,2500.8239198,N,12132.4513206,E,4,59,0.48,17.607,M,15.25,M,1,3335*46
$GNRMC,032323.200,A,2500.8239198,N,12132.4513206,E,0.05,246.18,270623,,,R,V*15
$GPHDT,270.583,T*3E
$GNGGA,032323.400,2500.8239186,N,12132.4513186,E,4,59,0.48,17.625,M,15.25,M,1,3335*44
$GNRMC,032323.400,A,2500.8239186,N,12132.4513186,E,0.07,246.18,270623,,,R,V*15
$GPHDT,271.118,T*39
$GNGGA,032323.600,2500.8239187,N,12132.4513198,E,4,59,0.48,17.631,M,15.25,M,1,3335*4D
$GNRMC,032323.600,A,2500.8239187,N,12132.4513198,E,0.07,246.18,270623,,,R,V*19
$GPHDT,270.711,T*37
$GNGGA,032323.800,2500.8239180,N,12132.4513204,E,4,59,0.48,17.623,M,15.25,M,1,3335*41
$GNRMC,032323.800,A,2500.8239180,N,12132.4513204,E,0.09,246.18,270623,,,R,V*18
$GPHDT,270.734,T*30
$GNGSA,A,3,195,17,196,199,19,06,194,14,09,11,,,0.79,0.48,0.63,1*0C
$GNGSA,A,3,67,68,82,80,73,,,,,,,,0.79,0.48,0.63,2*0C
$GNGSA,A,3,24,12,10,31,11,19,04,33,,,,,0.79,0.48,0.63,3*0E
$GNGSA,A,3,40,07,10,14,08,43,33,13,42,28,37,41,0.79,0.48,0.63,4*04
$GNGSA,A,3,23,,,,,,,,,,,,0.79,0.48,0.63,4*02
$GPGSV,4,1,13,195,67,040,41,17,64,050,37,196,60,131,39,199,60,167,36,1*58
$GPGSV,4,2,13,19,59,001,43,06,50,323,42,194,45,169,42,41,38,242,42,1*5C
$GPGSV,4,3,13,14,36,179,44,09,28,117,40,11,23,275,42,12,06,323,32,1*6F
$GPGSV,4,4,13,20,,,19,1*6C
$GPGSV,2,1,08,195,67,040,45,199,60,167,45,196,60,131,44,06,50,323,39,8*59
$GPGSV,2,2,08,194,45,169,45,14,36,179,45,09,28,117,40,11,23,275,41,8*5D
$GLGSV,2,1,06,67,48,081,27,68,37,155,42,82,37,022,28,80,33,241,43,1*7D
$GLGSV,2,2,06,73,22,302,39,79,09,192,18,1*75
$GAGSV,2,1,08,24,56,257,42,12,50,003,35,10,48,321,34,31,36,183,39,7*75
$GAGSV,2,2,08,11,32,290,38,19,28,096,32,04,21,159,24,33,18,056,33,7*70
$GAGSV,2,1,08,24,56,257,43,12,50,003,36,10,48,321,38,31,36,183,42,1*71
$GAGSV,2,2,08,11,32,290,33,19,28,096,28,04,21,159,32,33,18,056,27,1*74
$GBGSV,4,1,14,40,83,081,41,07,83,279,41,10,71,304,41,14,60,105,42,1*74
$GBGSV,4,2,14,08,59,258,41,43,54,039,38,33,54,158,45,13,49,248,42,1*77
$GBGSV,4,3,14,42,45,065,30,11,36,069,25,28,32,316,41,23,25,229,,1*7B
$GBGSV,4,4,14,37,18,283,32,41,13,197,35,1*78
$GBGSV,2,1,08,40,83,081,44,33,54,158,45,43,54,039,35,42,45,065,32,4*7D
$GBGSV,2,2,08,28,32,316,35,23,25,229,15,37,18,283,33,41,13,197,37,4*71
$GNGGA,032324.000,2500.8239180,N,12132.4513180,E,4,59,0.48,17.628,M,15.25,M,2,3335*49
$GNRMC,032324.000,A,2500.8239180,N,12132.4513180,E,0.09,246.18,270623,,,R,V*18
$GPHDT,270.454,T*35
$GNGGA,032324.200,2500.8239208,N,12132.4513201,E,4,59,0.47,17.615,M,15.25,M,2,3335*43
$GNRMC,032324.200,A,2500.8239208,N,12132.4513201,E,0.09,246.18,270623,,,R,V*13
$GPHDT,270.682,T*3C
$GNGGA,032324.400,2500.8239173,N,12132.4513184,E,4,59,0.47,17.628,M,15.25,M,2,3335*4A
$GNRMC,032324.400,A,2500.8239173,N,12132.4513184,E,0.09,246.18,270623,,,R,V*14
$GPHDT,270.962,T*3D
$GNGGA,032324.600,2500.8239184,N,12132.4513191,E,4,59,0.47,17.629,M,15.25,M,2,3335*45
$GNRMC,032324.600,A,2500.8239184,N,12132.4513191,E,0.07,246.18,270623,,,R,V*14
$GPHDT,271.077,T*31
$GNGGA,032324.800,2500.8239176,N,12132.4513199,E,4,59,0.47,17.627,M,15.25,M,2,3335*40
$GNRMC,032324.800,A,2500.8239176,N,12132.4513199,E,0.08,246.18,270623,,,R,V*10
$GPHDT,271.112,T*33
$GNGSA,A,3,195,17,196,199,19,06,194,14,09,11,,,0.79,0.47,0.63,1*03
$GNGSA,A,3,67,68,82,80,73,,,,,,,,0.79,0.47,0.63,2*03
$GNGSA,A,3,24,12,10,31,11,19,04,33,,,,,0.79,0.47,0.63,3*01
$GNGSA,A,3,07,40,10,14,08,43,33,13,42,11,28,37,0.79,0.47,0.63,4*0E
$GNGSA,A,3,41,,,,,,,,,,,,0.79,0.47,0.63,4*09
$GPGSV,4,1,13,195,67,040,41,17,64,050,37,196,60,131,39,199,60,167,36,1*58
$GPGSV,4,2,13,19,59,001,43,06,50,323,42,194,45,169,42,41,38,242,42,1*5C
$GPGSV,4,3,13,14,36,179,44,09,28,117,40,11,23,275,42,12,06,323,32,1*6F
$GPGSV,4,4,13,20,,,21,1*67
$GPGSV,2,1,08,195,67,040,45,196,60,131,44,199,60,167,45,06,50,323,39,8*59
$GPGSV,2,2,08,194,45,169,45,14,36,179,45,09,28,117,40,11,23,275,42,8*5E
$GLGSV,2,1,06,67,48,081,28,68,37,155,42,82,37,022,28,80,33,241,43,1*72
$GLGSV,2,2,06,73,22,302,39,79,09,192,18,1*75
$GAGSV,2,1,08,24,56,257,42,12,50,003,35,10,48,321,34,31,36,183,39,7*75
$GAGSV,2,2,08,11,32,290,38,19,28,096,32,04,21,159,23,33,18,056,34,7*70
$GAGSV,2,1,08,24,56,257,43,12,50,003,36,10,48,321,38,31,36,183,42,1*71
$GAGSV,2,2,08,11,32,290,34,19,28,096,28,04,21,159,32,33,18,056,29,1*7D
$GBGSV,4,1,16,07,83,278,41,40,83,081,41,10,71,304,41,14,60,105,41,1*74
$GBGSV,4,2,16,08,59,258,41,43,54,039,38,33,54,158,45,13,49,248,42,1*75
$GBGSV,4,3,16,42,45,065,30,11,36,069,28,28,32,316,41,23,25,229,,1*74
$GBGSV,4,4,16,37,18,283,32,41,13,197,36,21,03,036,,39,01,181,,1*7F
$GBGSV,2,1,07,40,83,081,44,33,54,158,45,43,54,039,36,42,45,065,32,4*71
$GBGSV,2,2,07,28,32,316,35,37,18,283,33,41,13,197,37,4*45
$GNGGA,032325.000,2500.8239166,N,12132.4513202,E,4,59,0.47,17.631,M,15.25,M,3,3335*4F
$GNRMC,032325.000,A,2500.8239166,N,12132.4513202,E,0.09,246.18,270623,,,R,V*18
$GPHDT,270.769,T*38
$GNGGA,032325.200,2500.8239170,N,12132.4513197,E,4,59,0.47,17.632,M,15.25,M,3,3335*46
$GNRMC,032325.200,A,2500.8239170,N,12132.4513197,E,0.10,246.18,270623,,,R,V*1A
$GPHDT,270.877,T*38
$GNGGA,032325.400,2500.8239185,N,12132.4513215,E,4,60,0.47,17.617,M,15.25,M,3,3335*4E
$GNRMC,032325.400,A,2500.8239185,N,12132.4513215,E,0.09,246.18,270623,,,R,V*17
$GPHDT,270.774,T*34
$GNGGA,032325.600,2500.8239176,N,12132.4513202,E,4,60,0.47,17.625,M,15.25,M,3,3335*47
$GNRMC,032325.600,A,2500.8239176,N,12132.4513202,E,0.11,246.18,270623,,,R,V*16
$GPHDT,270.718,T*3E
$GNGGA,032325.800,2500.8239168,N,12132.4513248,E,4,60,0.47,17.621,M,15.25,M,3,3335*4C
$GNRMC,032325.800,A,2500.8239168,N,12132.4513248,E,0.12,246.18,270623,,,R,V*1A
$GPHDT,270.621,T*35
$GNGSA,A,3,195,17,196,199,19,06,194,14,09,11,,,0.78,0.47,0.63,1*02
$GNGSA,A,3,67,82,68,80,73,,,,,,,,0.78,0.47,0.63,2*02
$GNGSA,A,3,24,12,10,31,11,19,04,33,,,,,0.78,0.47,0.63,3*00
$GNGSA,A,3,07,40,10,14,08,43,33,13,42,11,28,37,0.78,0.47,0.63,4*0F
$GNGSA,A,3,41,23,,,,,,,,,,,0.78,0.47,0.63,4*09
$GPGSV,3,1,12,195,67,040,42,17,64,050,37,196,60,131,39,199,60,167,36,1*5D
$GPGSV,3,2,12,19,59,001,43,06,50,323,41,194,45,169,42,41,38,242,42,1*59
$GPGSV,3,3,12,14,36,179,44,09,28,117,41,11,23,275,42,12,06,323,32,1*68
$GPGSV,2,1,08,195,67,040,45,199,60,167,45,196,60,131,44,06,50,323,41,8*56
$GPGSV,2,2,08,194,45,169,45,14,36,179,45,09,28,117,40,11,23,275,42,8*5E
$GLGSV,2,1,06,67,48,081,29,82,37,022,28,68,37,155,42,80,33,241,43,1*73
$GLGSV,2,2,06,73,22,302,40,79,09,192,19,1*7A
$GAGSV,2,1,08,24,56,257,42,12,50,003,37,10,48,321,34,31,36,183,39,7*77
$GAGSV,2,2,08,11,32,290,38,19,28,096,32,04,21,159,24,33,18,056,34,7*77
$GAGSV,2,1,08,24,56,257,43,12,50,003,40,10,48,321,39,31,36,183,42,1*71
$GAGSV,2,2,08,11,32,290,35,19,28,096,30,04,21,159,32,33,18,056,26,1*7A
$GBGSV,4,1,14,07,83,278,41,40,83,081,41,10,71,303,40,14,60,105,41,1*70
$GBGSV,4,2,14,08,59,258,41,43,54,039,38,33,54,158,45,13,49,248,42,1*77
$GBGSV,4,3,14,42,45,065,32,11,36,069,25,28,32,316,41,23,25,229,,1*79
$GBGSV,4,4,14,37,18,283,32,41,13,197,36,1*7B
$GBGSV,2,1,08,40,83,081,44,33,54,158,45,43,54,039,36,42,45,065,33,4*7F
$GBGSV,2,2,08,28,32,316,34,23,25,229,17,37,18,283,33,41,13,197,37,4*72
$GNGGA,032326.000,2500.8239140,N,12132.4513230,E,4,60,0.47,17.627,M,15.25,M,4,3335*43
$GNRMC,032326.000,A,2500.8239140,N,12132.4513230,E,0.10,246.18,270623,,,R,V*16
$GPHDT,270.842,T*3E
$GNGGA,032326.200,2500.8239166,N,12132.4513241,E,4,60,0.47,17.613,M,15.25,M,4,3335*44
$GNRMC,032326.200,A,2500.8239166,N,12132.4513241,E,0.08,246.18,270623,,,R,V*1F
$GPHDT,270.563,T*30
$GNGGA,032326.400,2500.8239177,N,12132.4513240,E,4,60,0.47,17.618,M,15.25,M,4,3335*48
$GNRMC,032326.400,A,2500.8239177,N,12132.4513240,E,0.07,246.18,270623,,,R,V*17
$GPHDT,270.543,T*32
$GNGGA,032326.600,2500.8239164,N,12132.4513233,E,4,60,0.47,17.616,M,15.25,M,4,3335*42
$GNRMC,032326.600,A,2500.8239164,N,12132.4513233,E,0.08,246.18,270623,,,R,V*1C
$GPHDT,270.773,T*33
$GNGGA,032326.800,2500.8239191,N,12132.4513228,E,4,60,0.47,17.624,M,15.25,M,4,3335*4D
$GNRMC,032326.800,A,2500.8239191,N,12132.4513228,E,0.07,246.18,270623,,,R,V*1D
$GPHDT,270.707,T*30
$GNGSA,A,3,195,17,196,199,19,06,194,14,09,11,,,0.78,0.47,0.63,1*02
$GNGSA,A,3,67,68,82,80,73,,,,,,,,0.78,0.47,0.63,2*02
$GNGSA,A,3,24,12,10,31,11,19,04,33,,,,,0.78,0.47,0.63,3*00
$GNGSA,A,3,40,07,10,14,08,43,33,13,42,11,28,37,0.78,0.47,0.63,4*0F
$GNGSA,A,3,41,23,,,,,,,,,,,0.78,0.47,0.63,4*09
$GPGSV,4,1,13,195,67,040,42,17,64,050,37,196,60,131,39,199,60,167,36,1*5B
$GPGSV,4,2,13,19,59,001,43,06,50,323,41,194,45,169,42,41,38,242,42,1*5F
$GPGSV,4,3,13,14,36,179,44,09,28,117,41,11,23,275,42,12,06,323,33,1*6F
$GPGSV,4,4,13,18,,,18,1*66
$GPGSV,2,1,08,195,67,040,45,199,60,167,45,196,60,131,44,06,50,323,41,8*56
$GPGSV,2,2,08,194,45,169,45,14,36,179,45,09,28,117,40,11,23,275,42,8*5E
$GLGSV,2,1,06,67,48,081,29,68,37,155,42,82,37,022,29,80,33,241,43,1*72
$GLGSV,2,2,06,73,22,302,40,79,09,192,20,1*70
$GAGSV,2,1,08,24,56,257,42,12,50,003,37,10,48,321,34,31,36,183,39,7*77
$GAGSV,2,2,08,11,32,290,38,19,28,096,32,04,21,159,23,33,18,056,33,7*77
$GAGSV,2,1,08,24,56,257,43,12,50,003,40,10,48,321,39,31,36,183,42,1*71
$GAGSV,2,2,08,11,32,290,35,19,28,096,30,04,21,159,31,33,18,056,20,1*7F
$GBGSV,4,1,14,40,83,081,41,07,83,278,41,10,71,303,40,14,60,104,41,1*71
$GBGSV,4,2,14,08,59,258,41,43,54,039,38,33,54,158,45,13,49,248,42,1*77
$GBGSV,4,3,14,42,45,065,31,11,36,069,27,28,32,316,41,23,25,229,,1*78
$GBGSV,4,4,14,37,18,283,33,41,13,197,36,1*7A
$GBGSV,2,1,08,40,83,081,44,33,54,158,45,43,54,039,36,42,45,065,33,4*7F
$GBGSV,2,2,08,28,32,316,35,23,25,229,18,37,18,283,33,41,13,197,37,4*7C
$GNGGA,032327.000,2500.8239169,N,12132.4513216,E,4,60,0.47,17.635,M,15.25,M,5,3335*4F
$GNRMC,032327.000,A,2500.8239169,N,12132.4513216,E,0.06,246.18,270623,,,R,V*1F
$GPHDT,270.707,T*30
$GNGGA,032327.200,2500.8239145,N,12132.4513213,E,4,60,0.47,17.642,M,15.25,M,5,3335*46
$GNRMC,032327.200,A,2500.8239145,N,12132.4513213,E,0.05,246.18,270623,,,R,V*15
$GPHDT,270.850,T*3D
$GNGGA,032327.400,2500.8239177,N,12132.4513258,E,4,60,0.47,17.635,M,15.25,M,5,3335*4E
$GNRMC,032327.400,A,2500.8239177,N,12132.4513258,E,0.04,246.18,270623,,,R,V*1C
$GPHDT,270.726,T*33
$GNGGA,032327.600,2500.8239175,N,12132.4513254,E,4,60,0.47,17.632,M,15.25,M,5,3335*45
$GNRMC,032327.600,A,2500.8239175,N,12132.4513254,E,0.05,246.18,270623,,,R,V*11
$GPHDT,270.767,T*36
$GNGGA,032327.800,2500.8239174,N,12132.4513251,E,4,60,0.47,17.633,M,15.25,M,5,3335*4E
$GNRMC,032327.800,A,2500.8239174,N,12132.4513251,E,0.07,246.18,270623,,,R,V*19
$GPHDT,270.659,T*3A
$GNGSA,A,3,195,17,196,199,19,06,194,14,09,11,,,0.78,0.47,0.63,1*02
$GNGSA,A,3,67,82,68,80,73,,,,,,,,0.78,0.47,0.63,2*02
$GNGSA,A,3,24,12,10,31,11,19,04,33,,,,,0.78,0.47,0.63,3*00
$GNGSA,A,3,07,40,10,14,08,43,33,13,42,11,28,37,0.78,0.47,0.63,4*0F
$GNGSA,A,3,41,23,,,,,,,,,,,0.78,0.47,0.63,4*09
$GPGSV,3,1,12,195,67,040,42,17,64,050,37,196,60,131,39,199,60,167,36,1*5D
$GPGSV,3,2,12,19,59,001,43,06,50,323,41,194,45,169,42,41,38,242,41,1*5A
$GPGSV,3,3,12,14,36,179,44,09,28,117,41,11,23,275,42,12,06,323,31,1*6B
$GPGSV,2,1,08,195,67,040,45,199,60,167,45,196,60,131,43,06,50,323,41,8*51
$GPGSV,2,2,08,194,45,169,45,14,36,179,45,09,28,117,40,11,23,275,41,8*5D
$GLGSV,2,1,06,67,48,081,29,82,37,022,29,68,37,155,42,80,33,241,42,1*73
$GLGSV,2,2,06,73,22,302,40,79,09,192,19,1*7A
$GAGSV,2,1,08,24,56,257,42,12,50,003,36,10,48,321,32,31,36,183,39,7*70
$GAGSV,2,2,08,11,32,290,38,19,28,096,32,04,21,159,23,33,18,056,33,7*77
$GAGSV,2,1,08,24,56,257,43,12,50,003,39,10,48,321,39,31,36,183,42,1*7F
$GAGSV,2,2,08,11,32,290,35,19,28,096,30,04,21,159,31,33,18,056,21,1*7E
$GBGSV,4,1,14,07,83,278,41,40,83,081,41,10,71,303,41,14,60,104,40,1*71
$GBGSV,4,2,14,08,59,258,41,43,54,039,38,33,54,158,45,13,49,248,42,1*77
$GBGSV,4,3,14,42,45,065,30,11,36,069,29,28,32,316,41,23,25,228,,1*76
$GBGSV,4,4,14,37,18,283,32,41,13,197,36,1*7B
$GBGSV,2,1,08,40,83,081,44,33,54,158,45,43,54,039,36,42,45,065,33,4*7F
$GBGSV,2,2,08,28,32,316,35,23,25,228,17,37,18,283,33,41,13,197,37,4*72
$GNGGA,032328.000,2500.8239163,N,12132.4513267,E,4,60,0.47,17.630,M,15.25,M,6,3335*4A
$GNRMC,032328.000,A,2500.8239163,N,12132.4513267,E,0.08,246.18,270623,,,R,V*12
$GPHDT,270.676,T*37
$GNGGA,032328.200,2500.8239154,N,12132.4513246,E,4,60,0.47,17.632,M,15.25,M,6,3335*4D
$GNRMC,032328.200,A,2500.8239154,N,12132.4513246,E,0.09,246.18,270623,,,R,V*16
$GPHDT,270.553,T*33
$GNGGA,032328.400,2500.8239171,N,12132.4513245,E,4,60,0.47,17.632,M,15.25,M,4,3335*4D
$GNRMC,032328.400,A,2500.8239171,N,12132.4513245,E,0.09,246.18,270623,,,R,V*14
$GPHDT,270.797,T*39
$GNGGA,032328.600,2500.8239144,N,12132.4513235,E,4,60,0.47,17.636,M,15.25,M,2,3335*4C
$GNRMC,032328.600,A,2500.8239144,N,12132.4513235,E,0.09,246.18,270623,,,R,V*17
$GPHDT,270.867,T*39
$GNGGA,032328.800,2500.8239145,N,12132.4513220,E,4,60,0.47,17.643,M,15.25,M,2,3335*45
$GNRMC,032328.800,A,2500.8239145,N,12132.4513220,E,0.09,246.18,270623,,,R,V*1C
$GPHDT,270.583,T*3E
$GNGSA,A,3,195,17,196,199,19,06,194,14,09,11,,,0.78,0.47,0.63,1*02
$GNGSA,A,3,67,82,68,80,73,,,,,,,,0.78,0.47,0.63,2*02
$GNGSA,A,3,24,12,10,31,11,19,04,33,,,,,0.78,0.47,0.63,3*00
$GNGSA,A,3,07,40,10,14,08,43,33,13,42,11,28,37,0.78,0.47,0.63,4*0F
$GNGSA,A,3,41,23,,,,,,,,,,,0.78,0.47,0.63,4*09
$GPGSV,3,1,12,195,67,040,42,17,64,050,37,196,60,131,39,199,60,167,36,1*5D
$GPGSV,3,2,12,19,59,001,43,06,50,323,41,194,45,169,42,41,38,242,41,1*5A
$GPGSV,3,3,12,14,36,179,44,09,28,117,41,11,23,275,42,12,06,323,30,1*6A
$GPGSV,2,1,08,195,67,040,45,199,60,167,45,196,60,131,43,06,50,323,41,8*51
$GPGSV,2,2,08,194,45,169,45,14,36,179,45,09,28,117,40,11,23,275,42,8*5E
$GLGSV,2,1,06,67,48,081,31,82,37,022,29,68,37,155,42,80,33,241,42,1*7A
$GLGSV,2,2,06,73,22,302,40,79,09,192,19,1*7A
$GAGSV,2,1,08,24,56,257,42,12,50,003,36,10,48,321,32,31,36,183,39,7*70
$GAGSV,2,2,08,11,32,290,38,19,28,096,32,04,21,159,24,33,18,056,33,7*70
$GAGSV,2,1,08,24,56,257,43,12,50,003,39,10,48,321,39,31,36,183,42,1*7F
$GAGSV,2,2,08,11,32,290,35,19,28,096,30,04,21,159,31,33,18,056,24,1*7B
$GBGSV,4,1,14,07,83,278,41,40,83,081,41,10,71,303,41,14,60,104,40,1*71
$GBGSV,4,2,14,08,59,258,41,43,54,039,38,33,54,158,45,13,49,248,42,1*77
$GBGSV,4,3,14,42,45,065,29,11,36,069,28,28,32,316,41,23,25,228,,1*7F
$GBGSV,4,4,14,37,18,283,32,41,13,197,36,1*7B
$GBGSV,2,1,08,40,83,081,44,33,54,158,45,43,54,039,36,42,45,065,33,4*7F
$GBGSV,2,2,08,28,32,316,35,23,25,228,17,37,18,283,33,41,13,197,37,4*72
$GNGGA,032329.000,2500.8239195,N,12132.4513188,E,4,60,0.47,17.617,M,15.25,M,1,3335*42
$GNRMC,032329.000,A,2500.8239195,N,12132.4513188,E,0.07,246.18,270623,,,R,V*17
$GPHDT,270.540,T*31
$GNGGA,032329.200,2500.8239181,N,12132.4513188,E,4,60,0.47,17.627,M,15.25,M,1,3335*46
$GNRMC,032329.200,A,2500.8239181,N,12132.4513188,E,0.07,246.18,270623,,,R,V*10
$GPHDT,270.738,T*3C
$GNGGA,032329.400,2500.8239185,N,12132.4513166,E,4,60,0.47,17.636,M,15.25,M,1,3335*44
$GNRMC,032329.400,A,2500.8239185,N,12132.4513166,E,0.06,246.18,270623,,,R,V*13
$GPHDT,270.776,T*36
$GNGGA,032329.600,2500.8239181,N,12132.4513169,E,4,60,0.47,17.636,M,15.25,M,1,3335*4D
$GNRMC,032329.600,A,2500.8239181,N,12132.4513169,E,0.06,246.18,270623,,,R,V*1A
$GPHDT,270.486,T*3A
$GNGGA,032329.800,2500.8239162,N,12132.4513208,E,4,60,0.47,17.620,M,15.25,M,0,3335*4C
$GNRMC,032329.800,A,2500.8239162,N,12132.4513208,E,0.08,246.18,270623,,,R,V*13
$GPHDT,270.420,T*36
$GNGSA,A,3,195,17,196,199,19,06,194,14,09,11,,,0.78,0.47,0.63,1*02
$GNGSA,A,3,67,82,68,80,73,,,,,,,,0.78,0.47,0.63,2*02
$GNGSA,A,3,24,12,10,31,11,19,04,33,,,,,0.78,0.47,0.63,3*00
$GNGSA,A,3,07,40,10,14,08,43,33,13,42,11,28,37,0.78,0.47,0.63,4*0F
$GNGSA,A,3,41,23,,,,,,,,,,,0.78,0.47,0.63,4*09
$GPGSV,3,1,12,195,67,040,42,17,64,050,38,196,60,131,39,199,60,167,36,1*52
$GPGSV,3,2,12,19,59,001,43,06,50,323,41,194,45,169,42,41,38,242,41,1*5A
$GPGSV,3,3,12,14,36,179,44,09,28,117,41,11,23,275,42,12,06,323,30,1*6A
$GPGSV,2,1,08,195,67,040,45,199,60,167,45,196,60,131,44,06,50,323,41,8*56
$GPGSV,2,2,08,194,45,169,45,14,36,179,45,09,28,117,40,11,23,275,42,8*5E
$GLGSV,2,1,06,67,48,081,31,82,37,022,29,68,37,155,42,80,33,241,42,1*7A
$GLGSV,2,2,06,73,22,302,39,79,09,192,19,1*74
$GAGSV,2,1,08,24,56,257,42,12,50,003,36,10,48,321,33,31,36,183,39,7*71
$GAGSV,2,2,08,11,32,290,38,19,28,096,32,04,21,159,24,33,18,056,33,7*70
$GAGSV,2,1,08,24,56,257,43,12,50,003,38,10,48,321,39,31,36,183,42,1*7E
$GAGSV,2,2,08,11,32,290,35,19,28,096,30,04,21,159,32,33,18,056,25,1*79
$GBGSV,4,1,14,07,83,278,41,40,83,081,41,10,71,303,41,14,60,104,40,1*71
$GBGSV,4,2,14,08,59,258,41,43,54,039,38,33,54,158,45,13,49,248,42,1*77
$GBGSV,4,3,14,42,45,065,29,11,36,069,28,28,32,316,41,23,25,228,,1*7F
$GBGSV,4,4,14,37,18,283,32,41,13,197,36,1*7B
$GBGSV,2,1,08,40,83,081,44,33,54,158,45,43,54,039,36,42,45,065,33,4*7F
$GBGSV,2,2,08,28,32,316,35,23,25,228,18,37,18,283,33,41,13,197,37,4*7D
$GNGGA,032330.000,2500.8239181,N,12132.4513217,E,4,60,0.47,17.619,M,15.25,M,1,3335*44
$GNRMC,032330.000,A,2500.8239181,N,12132.4513217,E,0.07,246.18,270623,,,R,V*1F
$GPHDT,270.313,T*31
$GNGGA,032330.200,2500.8239172,N,12132.4513200,E,4,60,0.47,17.630,M,15.25,M,1,3335*47
$GNRMC,032330.200,A,2500.8239172,N,12132.4513200,E,0.06,246.18,270623,,,R,V*16
$GPHDT,270.267,T*33
$GNGGA,032330.400,2500.8239162,N,12132.4513195,E,4,60,0.47,17.625,M,15.25,M,1,3335*4B
$GNRMC,032330.400,A,2500.8239162,N,12132.4513195,E,0.06,246.18,270623,,,R,V*1E
$GPHDT,270.299,T*32
$GNGGA,032330.600,2500.8239163,N,12132.4513215,E,4,60,0.47,17.629,M,15.25,M,1,3335*4F
$GNRMC,032330.600,A,2500.8239163,N,12132.4513215,E,0.09,246.18,270623,,,R,V*19
$GPHDT,270.852,T*3F
$GNGGA,032330.800,2500.8239163,N,12132.4513187,E,4,60,0.47,17.642,M,15.25,M,1,3335*44
$GNRMC,032330.800,A,2500.8239163,N,12132.4513187,E,0.08,246.18,270623,,,R,V*1E
$GPHDT,270.544,T*35
$GNGSA,A,3,195,17,196,199,19,06,194,14,09,11,,,0.78,0.47,0.63,1*02
$GNGSA,A,3,67,82,68,80,73,,,,,,,,0.78,0.47,0.63,2*02
$GNGSA,A,3,24,12,10,31,11,19,04,33,,,,,0.78,0.47,0.63,3*00
$GNGSA,A,3,07,40,10,14,08,43,33,13,42,11,28,37,0.78,0.47,0.63,4*0F
$GNGSA,A,3,41,23,,,,,,,,,,,0.78,0.47,0.63,4*09
$GPGSV,3,1,12,195,67,040,42,17,64,050,38,196,60,131,39,199,60,167,36,1*52
$GPGSV,3,2,12,19,59,001,43,06,50,323,41,194,45,169,42,41,38,242,41,1*5A
$GPGSV,3,3,12,14,36,179,44,09,28,117,41,11,23,275,42,12,06,323,31,1*6B
$GPGSV,2,1,08,195,67,040,45,199,60,167,45,196,60,131,44,06,50,323,40,8*57
$GPGSV,2,2,08,194,45,169,45,14,36,179,45,09,28,117,40,11,23,275,42,8*5E
$GLGSV,2,1,06,67,48,081,31,82,37,022,29,68,37,155,42,80,33,241,42,1*7A
$GLGSV,2,2,06,73,22,302,39,79,09,192,18,1*75
$GAGSV,2,1,08,24,56,257,42,12,50,003,36,10,48,321,33,31,36,183,39,7*71
$GAGSV,2,2,08,11,32,290,38,19,28,096,32,04,21,159,23,33,18,056,33,7*77
$GAGSV,2,1,08,24,56,257,43,12,50,003,38,10,48,321,39,31,36,183,42,1*7E
$GAGSV,2,2,08,11,32,290,35,19,28,096,29,04,21,159,32,33,18,056,24,1*70
$GBGSV,4,1,14,07,83,278,41,40,83,081,41,10,71,303,41,14,60,104,40,1*71
$GBGSV,4,2,14,08,59,258,41,43,54,039,38,33,54,158,45,13,49,248,42,1*77
$GBGSV,4,3,14,42,45,065,29,11,36,069,28,28,32,316,41,23,25,228,,1*7F
$GBGSV,4,4,14,37,18,282,31,41,13,197,36,1*79
$GBGSV,2,1,08,40,83,081,44,33,54,158,45,43,54,039,36,42,45,065,33,4*7F
$GBGSV,2,2,08,28,32,316,35,23,25,228,19,37,18,282,33,41,13,197,37,4*7D
$GNGGA,032331.000,2500.8239138,N,12132.4513204,E,4,60,0.47,17.634,M,15.25,M,2,3335*49
$GNRMC,032331.000,A,2500.8239138,N,12132.4513204,E,0.07,246.18,270623,,,R,V*1E
$GPHDT,270.586,T*3B
$GNGGA,032331.200,2500.8239150,N,12132.4513211,E,4,60,0.47,17.637,M,15.25,M,2,3335*42
$GNRMC,032331.200,A,2500.8239150,N,12132.4513211,E,0.08,246.18,270623,,,R,V*19
$GPHDT,270.364,T*31
$GNGGA,032331.400,2500.8239151,N,12132.4513203,E,4,60,0.47,17.635,M,15.25,M,2,3335*44
$GNRMC,032331.400,A,2500.8239151,N,12132.4513203,E,0.08,246.18,270623,,,R,V*1D
$GPHDT,270.447,T*37
$GNGGA,032331.600,2500.8239171,N,12132.4513219,E,4,60,0.47,17.644,M,15.25,M,2,3335*49
$GNRMC,032331.600,A,2500.8239171,N,12132.4513219,E,0.07,246.18,270623,,,R,V*19
$GPHDT,270.392,T*38
$GNGGA,032331.800,2500.8239150,N,12132.4513199,E,4,60,0.47,17.645,M,15.25,M,2,3335*4E
$GNRMC,032331.800,A,2500.8239150,N,12132.4513199,E,0.08,246.18,270623,,,R,V*10
$GPHDT,270.462,T*30
$GNGSA,A,3,195,17,196,199,19,06,194,14,09,11,,,0.78,0.47,0.63,1*02
$GNGSA,A,3,67,68,82,80,73,,,,,,,,0.78,0.47,0.63,2*02
$GNGSA,A,3,24,12,10,31,11,19,04,33,,,,,0.78,0.47,0.63,3*00
$GNGSA,A,3,40,07,10,14,08,43,33,13,42,11,28,37,0.78,0.47,0.63,4*0F
$GNGSA,A,3,41,23,,,,,,,,,,,0.78,0.47,0.63,4*09
$GPGSV,4,1,13,195,67,040,42,17,64,050,38,196,60,131,38,199,60,167,36,1*55
$GPGSV,4,2,13,19,59,001,43,06,50,323,41,194,45,169,42,41,38,242,41,1*5C
$GPGSV,4,3,13,14,36,179,44,09,28,117,41,11,23,275,42,12,06,323,31,1*6D
$GPGSV,4,4,13,04,,,19,1*6A
$GPGSV,2,1,08,195,67,040,45,199,60,167,45,196,60,131,44,06,50,323,40,8*57
$GPGSV,2,2,08,194,45,169,45,14,36,179,45,09,28,117,40,11,23,275,42,8*5E
$GLGSV,2,1,06,67,48,081,32,68,37,155,42,82,37,022,30,80,33,241,42,1*71
$GLGSV,2,2,06,73,22,302,39,79,09,192,18,1*75
$GAGSV,2,1,08,24,56,257,42,12,50,003,35,10,48,321,33,31,36,183,39,7*72
$GAGSV,2,2,08,11,32,290,38,19,28,096,31,04,21,159,23,33,18,056,33,7*74
$GAGSV,2,1,08,24,56,257,43,12,50,003,38,10,48,321,39,31,36,183,42,1*7E
$GAGSV,2,2,08,11,32,290,34,19,28,096,30,04,21,159,31,33,18,056,25,1*7B
$GBGSV,4,1,14,40,83,082,41,07,83,278,41,10,71,303,41,14,60,104,40,1*72
$GBGSV,4,2,14,08,59,258,40,43,54,039,38,33,54,158,45,13,49,248,42,1*76
$GBGSV,4,3,14,42,45,064,29,11,36,069,27,28,32,316,41,23,25,228,,1*71
$GBGSV,4,4,14,37,18,282,31,41,13,197,36,1*79
$GBGSV,2,1,08,40,83,082,44,33,54,158,45,43,54,039,36,42,45,064,33,4*7D
$GBGSV,2,2,08,28,32,316,35,23,25,228,18,37,18,282,33,41,13,197,37,4*7C
$GNGGA,032332.000,2500.8239162,N,12132.4513200,E,4,60,0.47,17.642,M,15.25,M,3,3335*41
$GNRMC,032332.000,A,2500.8239162,N,12132.4513200,E,0.07,246.18,270623,,,R,V*16
$GPHDT,270.378,T*3C
