$FW : RTK35X,V1.1X0314AS,Lib20210517,1*54
$Tool : LOCOSYS , GNSS Firebird , v1.0.0.19*39
$---------------------------------------------------*2D
,,0.79,0.48,0.63,2*0C
$GNGSA,A,3,24,12,10,31,11,19,04,33,,,,,0.79,0.48,0.63,3*0E
$GNGSA,A,3,40,07,10,14,08,43,33,13,42,28,23,37,0.79,0.48,0.63,4*00
$GNGSA,A,3,41,,,,,,,,,,,,0.79,0.48,0.63,4*06
$GPGSV,3,1,12,195,67,040,41,17,64,049,38,196,60,131,40,199,60,167,34,1*55
$GPGSV,3,2,12,19,59,000,41,06,50,323,40,194,45,169,43,41,38,242,42,1*5A
$GPGSV,3,3,12,14,36,179,43,09,28,117,38,11,23,275,40,12,05,323,27,1*64
$GPGSV,3,1,09,195,67,040,45,196,60,131,46,199,60,167,45,06,50,323,44,8*51
$GPGSV,3,2,09,194,45,169,43,14,36,179,45,09,28,117,40,11,23,275,44,8*5E
$GPGSV,3,3,09,04,,,17,8*66
$GLGSV,2,1,06,67,48,081,28,82,37,022,27,68,37,155,42,80,33,241,41,1*7F
$GLGSV,2,2,06,73,22,303,40,79,09,192,16,1*74
$GAGSV,2,1,08,24,56,257,41,12,50,003,34,10,48,321,33,31,36,183,38,7*71
$GAGSV,2,2,08,11,32,290,37,19,28,096,32,04,20,159,26,33,18,056,32,7*7D
$GAGSV,2,1,08,24,56,257,45,12,50,003,39,10,48,321,40,31,36,183,42,1*77
$GAGSV,2,2,08,11,32,290,34,19,28,096,35,04,20,159,30,33,18,056,31,1*7B
$GBGSV,4,1,14,40,83,080,41,07,83,280,40,10,71,304,41,14,60,105,43,1*73
$GBGSV,4,2,14,08,59,257,41,43,54,038,34,33,53,158,44,13,49,248,41,1*70
$GBGSV,4,3,14,42,45,065,28,11,36,068,26,28,32,316,45,23,25,229,23,1*75
$GBGSV,4,4,14,37,18,283,32,41,13,197,36,1*7B
$GBGSV,2,1,08,40,83,080,44,43,54,038,31,33,53,158,46,42,45,065,34,4*7B
$GBGSV,2,2,08,28,32,316,34,23,25,229,20,37,18,283,35,41,13,197,35,4*72
$GNGGA,032251.000,2500.8240377,N,12132.4513936,E,4,60,0.48,17.263,M,15.25,M,3,3335*4B
$GNRMC,032251.000,A,2500.8240377,N,12132.4513936,E,0.16,246.18,270623,,,R,V*14
$GPHDT,315.928,T*31
$GNGGA,032251.200,2500.8240353,N,12132.4513879,E,4,61,0.47,17.269,M,15.25,M,3,3335*41
$GNRMC,032251.200,A,2500.8240353,N,12132.4513879,E,0.16,246.18,270623,,,R,V*1A
$GPHDT,316.197,T*3E
$GNGGA,032251.400,2500.8240373,N,12132.4513904,E,4,61,0.47,17.267,M,15.25,M,3,3335*40
$GNRMC,032251.400,A,2500.8240373,N,12132.4513904,E,0.14,246.18,270623,,,R,V*17
$GPHDT,315.914,T*3E
$GNGGA,032251.600,2500.8240358,N,12132.4513899,E,4,61,0.47,17.258,M,15.25,M,3,3335*42
$GNRMC,032251.600,A,2500.8240358,N,12132.4513899,E,0.13,246.18,270623,,,R,V*1E
$GPHDT,315.784,T*39
$GNGGA,032251.800,2500.8240367,N,12132.4513939,E,4,61,0.47,17.259,M,15.25,M,3,3335*4A
$GNRMC,032251.800,A,2500.8240367,N,12132.4513939,E,0.14,246.18,270623,,,R,V*10
$GPHDT,316.049,T*3C
$GNGSA,A,3,195,17,196,199,19,06,194,14,09,11,,,0.78,0.47,0.63,1*02
$GNGSA,A,3,67,82,68,80,73,,,,,,,,0.78,0.47,0.63,2*02
$GNGSA,A,3,24,12,10,31,11,19,04,33,,,,,0.78,0.47,0.63,3*00
$GNGSA,A,3,40,07,10,14,08,43,33,13,42,11,28,23,0.78,0.47,0.63,4*0A
$GNGSA,A,3,37,41,,,,,,,,,,,0.78,0.47,0.63,4*0C
$GPGSV,3,1,12,195,67,040,41,17,64,049,38,196,60,131,40,199,60,167,35,1*54
$GPGSV,3,2,12,19,59,000,41,06,50,323,41,194,45,169,43,41,38,242,41,1*58
$GPGSV,3,3,12,14,36,179,43,09,28,117,38,11,23,275,41,12,05,323,29,1*6B
$GPGSV,3,1,09,195,67,040,46,196,60,131,46,199,60,167,45,06,50,323,44,8*52
$GPGSV,3,2,09,194,45,169,43,14,36,179,45,09,28,117,37,11,23,275,44,8*5E
$GPGSV,3,3,09,04,,,15,8*64
$GLGSV,2,1,06,67,48,081,28,82,37,022,28,68,37,155,42,80,33,241,41,1*70
$GLGSV,2,2,06,73,22,303,40,79,09,192,16,1*74
$GAGSV,2,1,08,24,56,257,41,12,50,003,34,10,48,321,34,31,36,183,38,7*76
$GAGSV,2,2,08,11,32,290,37,19,28,096,31,04,20,159,26,33,18,056,32,7*7E
$GAGSV,2,1,08,24,56,257,45,12,50,003,39,10,48,321,40,31,36,183,42,1*77
$GAGSV,2,2,08,11,32,290,34,19,28,096,34,04,20,159,30,33,18,056,33,1*78
$GBGSV,4,1,14,40,83,080,41,07,83,280,40,10,71,304,41,14,60,105,43,1*73
$GBGSV,4,2,14,08,59,257,41,43,54,038,33,33,53,158,44,13,49,248,41,1*77
$GBGSV,4,3,14,42,45,065,28,11,36,068,30,28,32,316,45,23,25,229,20,1*71
$GBGSV,4,4,14,37,18,283,31,41,13,197,36,1*78
$GBGSV,2,1,08,40,83,080,44,43,54,038,31,33,53,158,46,42,45,065,34,4*7B
$GBGSV,2,2,08,28,32,316,35,23,25,229,20,37,18,283,35,41,13,197,35,4*73
$GNGGA,032252.000,2500.8240353,N,12132.4513902,E,4,61,0.47,17.262,M,15.25,M,4,3335*41
$GNRMC,032252.000,A,2500.8240353,N,12132.4513902,E,0.12,246.18,270623,,,R,V*12
$GPHDT,315.488,T*36
$GNGGA,032252.200,2500.8240357,N,12132.4513931,E,4,61,0.47,17.261,M,15.25,M,4,3335*44
$GNRMC,032252.200,A,2500.8240357,N,12132.4513931,E,0.12,246.18,270623,,,R,V*14
$GPHDT,315.689,T*35
$GNGGA,032252.400,2500.8240383,N,12132.4513870,E,4,61,0.47,17.265,M,15.25,M,1,3335*4E
$GNRMC,032252.400,A,2500.8240383,N,12132.4513870,E,0.11,246.18,270623,,,R,V*1C
$GPHDT,315.568,T*39
$GNGGA,032252.600,2500.8240365,N,12132.4513772,E,4,61,0.47,17.288,M,15.25,M,1,3335*4A
$GNRMC,032252.600,A,2500.8240365,N,12132.4513772,E,0.10,246.18,270623,,,R,V*1A
$GPHDT,315.650,T*31
$GNGGA,032252.800,2500.8240229,N,12132.4513636,E,4,61,0.47,17.348,M,15.25,M,0,3335*40
$GNRMC,032252.800,A,2500.8240229,N,12132.4513636,E,0.11,246.18,270623,,,R,V*1D
$GPHDT,315.673,T*30
$GNGSA,A,3,195,17,196,199,19,06,194,14,09,11,,,0.78,0.47,0.63,1*02
$GNGSA,A,3,67,82,68,80,73,,,,,,,,0.78,0.47,0.63,2*02
$GNGSA,A,3,24,12,10,31,11,19,04,33,,,,,0.78,0.47,0.63,3*00
$GNGSA,A,3,40,07,10,14,08,43,33,13,42,11,28,23,0.78,0.47,0.63,4*0A
$GNGSA,A,3,37,41,,,,,,,,,,,0.78,0.47,0.63,4*0C
$GPGSV,3,1,12,195,67,040,41,17,64,049,39,196,60,131,40,199,60,167,35,1*55
$GPGSV,3,2,12,19,59,000,41,06,50,323,41,194,45,169,43,41,38,242,41,1*58
$GPGSV,3,3,12,14,36,179,43,09,28,117,37,11,23,275,41,12,05,323,29,1*64
$GPGSV,2,1,08,195,67,040,46,199,60,167,45,196,60,131,46,06,50,323,44,8*52
$GPGSV,2,2,08,194,45,169,43,14,36,179,45,09,28,117,37,11,23,275,44,8*5E
$GLGSV,2,1,06,67,48,081,28,82,37,022,27,68,37,155,43,80,33,241,41,1*7E
$GLGSV,2,2,06,73,22,303,40,79,09,192,19,1*7B
$GAGSV,2,1,08,24,56,257,41,12,50,003,34,10,48,321,34,31,36,183,38,7*76
$GAGSV,2,2,08,11,32,290,37,19,28,096,31,04,20,159,26,33,18,056,31,7*7D
$GAGSV,2,1,08,24,56,257,45,12,50,003,39,10,48,321,40,31,36,183,42,1*77
$GAGSV,2,2,08,11,32,290,34,19,28,096,34,04,20,159,28,33,18,056,33,1*71
$GBGSV,4,1,14,40,83,080,41,07,83,279,40,10,71,304,41,14,60,105,43,1*75
$GBGSV,4,2,14,08,59,258,41,43,54,038,30,33,53,158,44,13,49,248,41,1*7B
$GBGSV,4,3,14,42,45,065,29,11,36,068,30,28,32,316,45,23,25,229,21,1*71
$GBGSV,4,4,14,37,18,283,30,41,13,197,36,1*79
$GBGSV,2,1,08,40,83,080,44,43,54,038,30,33,53,158,46,42,45,065,32,4*7C
$GBGSV,2,2,08,28,32,316,34,23,25,229,21,37,18,283,35,41,13,197,35,4*73
$GNGGA,032253.000,2500.8240242,N,12132.4513655,E,4,61,0.47,17.348,M,15.25,M,1,3335*40
$GNRMC,032253.000,A,2500.8240242,N,12132.4513655,E,0.11,246.18,270623,,,R,V*1C
$GPHDT,315.320,T*33
$GNGGA,032253.200,2500.8240244,N,12132.4513645,E,4,61,0.47,17.350,M,15.25,M,1,3335*4C
$GNRMC,032253.200,A,2500.8240244,N,12132.4513645,E,0.11,246.18,270623,,,R,V*19
$GPHDT,315.711,T*35
$GNGGA,032253.400,2500.8240239,N,12132.4513656,E,4,61,0.47,17.347,M,15.25,M,1,3335*44
$GNRMC,032253.400,A,2500.8240239,N,12132.4513656,E,0.12,246.18,270623,,,R,V*14
$GPHDT,315.348,T*3D
$GNGGA,032253.600,2500.8240231,N,12132.4513644,E,4,61,0.47,17.358,M,15.25,M,1,3335*43
$GNRMC,032253.600,A,2500.8240231,N,12132.4513644,E,0.13,246.18,270623,,,R,V*1C
$GPHDT,315.700,T*35
$GNGGA,032253.800,2500.8240223,N,12132.4513667,E,4,61,0.47,17.354,M,15.25,M,1,3335*43
$GNRMC,032253.800,A,2500.8240223,N,12132.4513667,E,0.11,246.18,270623,,,R,V*12
$GPHDT,315.478,T*39
$GNGSA,A,3,195,17,196,199,19,06,194,14,09,11,,,0.78,0.47,0.63,1*02
$GNGSA,A,3,67,82,68,80,73,,,,,,,,0.78,0.47,0.63,2*02
$GNGSA,A,3,24,12,10,31,11,19,04,33,,,,,0.78,0.47,0.63,3*00
$GNGSA,A,3,40,07,10,14,08,43,33,13,42,11,28,23,0.78,0.47,0.63,4*0A
$GNGSA,A,3,37,41,,,,,,,,,,,0.78,0.47,0.63,4*0C
$GPGSV,3,1,12,195,67,040,41,17,64,049,39,196,60,131,40,199,60,167,35,1*55
$GPGSV,3,2,12,19,59,000,41,06,50,323,40,194,45,169,43,41,38,242,41,1*59
$GPGSV,3,3,12,14,36,179,43,09,28,117,37,11,23,275,41,12,05,323,29,1*64
$GPGSV,2,1,08,195,67,040,46,199,60,167,45,196,60,131,46,06,50,323,44,8*52
$GPGSV,2,2,08,194,45,169,43,14,36,179,45,09,28,117,37,11,23,275,43,8*59
$GLGSV,2,1,06,67,48,081,29,82,37,022,26,68,37,155,43,80,33,241,41,1*7E
$GLGSV,2,2,06,73,22,303,40,79,09,192,19,1*7B
$GAGSV,2,1,08,24,56,257,41,12,50,003,33,10,48,321,34,31,36,183,38,7*71
$GAGSV,2,2,08,11,32,290,37,19,28,096,31,04,20,159,26,33,18,056,31,7*7D
$GAGSV,2,1,08,24,56,257,45,12,50,003,39,10,48,321,40,31,36,183,42,1*77
$GAGSV,2,2,08,11,32,290,33,19,28,096,34,04,20,159,30,33,18,056,33,1*7F
$GBGSV,4,1,14,40,83,080,41,07,83,279,40,10,71,304,41,14,60,105,43,1*75
$GBGSV,4,2,14,08,59,258,41,43,54,038,31,33,53,158,44,13,49,248,41,1*7A
$GBGSV,4,3,14,42,45,065,29,11,36,069,31,28,32,316,45,23,25,229,22,1*72
$GBGSV,4,4,14,37,18,283,31,41,13,197,36,1*78
$GBGSV,2,1,08,40,83,080,44,43,54,038,30,33,53,158,46,42,45,065,32,4*7C
$GBGSV,2,2,08,28,32,316,34,23,25,229,19,37,18,283,35,41,13,197,35,4*78
$GNGGA,032254.000,2500.8240216,N,12132.4513652,E,4,61,0.47,17.361,M,15.25,M,2,3335*49
$GNRMC,032254.000,A,2500.8240216,N,12132.4513652,E,0.12,246.18,270623,,,R,V*1E
$GPHDT,315.860,T*3C
$GNGGA,032254.200,2500.8240238,N,12132.4513670,E,4,61,0.47,17.355,M,15.25,M,2,3335*40
$GNRMC,032254.200,A,2500.8240238,N,12132.4513670,E,0.11,246.18,270623,,,R,V*13
$GPHDT,315.324,T*37
$GNGGA,032254.400,2500.8240227,N,12132.4513673,E,4,61,0.47,17.361,M,15.25,M,2,3335*4C
$GNRMC,032254.400,A,2500.8240227,N,12132.4513673,E,0.09,246.18,270623,,,R,V*11
$GPHDT,315.375,T*33
$GNGGA,032254.600,2500.8240222,N,12132.4513671,E,4,61,0.47,17.367,M,15.25,M,2,3335*4F
$GNRMC,032254.600,A,2500.8240222,N,12132.4513671,E,0.10,246.18,270623,,,R,V*1C
$GPHDT,315.576,T*36
$GNGGA,032254.800,2500.8240226,N,12132.4513647,E,4,61,0.47,17.382,M,15.25,M,2,3335*4B
$GNRMC,032254.800,A,2500.8240226,N,12132.4513647,E,0.08,246.18,270623,,,R,V*1A
$GPHDT,315.614,T*31
$GNGSA,A,3,195,17,196,199,19,06,194,14,09,11,,,0.78,0.47,0.63,1*02
$GNGSA,A,3,67,82,68,80,73,,,,,,,,0.78,0.47,0.63,2*02
$GNGSA,A,3,24,12,10,31,11,19,04,33,,,,,0.78,0.47,0.63,3*00
$GNGSA,A,3,40,07,10,14,08,43,33,13,42,11,28,23,0.78,0.47,0.63,4*0A
$GNGSA,A,3,37,41,,,,,,,,,,,0.78,0.47,0.63,4*0C
$GPGSV,3,1,12,195,67,040,41,17,64,049,39,196,60,131,40,199,60,167,35,1*55
$GPGSV,3,2,12,19,59,000,41,06,50,323,40,194,45,169,43,41,38,242,40,1*58
$GPGSV,3,3,12,14,36,179,43,09,28,117,37,11,23,275,41,12,05,323,29,1*64
$GPGSV,2,1,08,195,67,040,46,199,60,167,45,196,60,131,46,06,50,323,44,8*52
$GPGSV,2,2,08,194,45,169,43,14,36,179,45,09,28,117,37,11,23,275,43,8*59
$GLGSV,2,1,06,67,48,081,30,82,37,022,25,68,37,155,43,80,33,241,41,1*75
$GLGSV,2,2,06,73,22,303,40,79,09,192,19,1*7B
$GAGSV,2,1,08,24,56,257,41,12,50,003,33,10,48,321,34,31,36,183,38,7*71
$GAGSV,2,2,08,11,32,290,38,19,28,096,31,04,20,159,26,33,18,056,32,7*71
$GAGSV,2,1,08,24,56,257,45,12,50,003,40,10,48,321,40,31,36,183,40,1*7B
$GAGSV,2,2,08,11,32,290,32,19,28,096,34,04,20,159,29,33,18,056,33,1*76
$GBGSV,4,1,14,40,83,080,41,07,83,279,40,10,71,304,41,14,60,105,43,1*75
$GBGSV,4,2,14,08,59,258,41,43,54,038,31,33,53,158,44,13,49,248,42,1*79
$GBGSV,4,3,14,42,45,065,30,11,36,069,31,28,32,316,45,23,25,229,20,1*78
$GBGSV,4,4,14,37,18,283,32,41,13,197,34,1*79
$GBGSV,2,1,08,40,83,080,44,43,54,038,30,33,53,158,46,42,45,065,32,4*7C
$GBGSV,2,2,08,28,32,316,35,23,25,229,18,37,18,283,35,41,13,197,35,4*78
$GNGGA,032255.000,2500.8240238,N,12132.4513678,E,4,61,0.47,17.369,M,15.25,M,3,3335*45
$GNRMC,032255.000,A,2500.8240238,N,12132.4513678,E,0.08,246.18,270623,,,R,V*10
$GPHDT,315.322,T*31
$GNGGA,032255.200,2500.8240298,N,12132.4513729,E,4,61,0.47,17.345,M,15.25,M,3,3335*46
$GNRMC,032255.200,A,2500.8240298,N,12132.4513729,E,0.08,246.18,270623,,,R,V*1D
$GPHDT,315.353,T*37
$GNGGA,032255.400,2500.8240287,N,12132.4513707,E,4,61,0.47,17.357,M,15.25,M,3,3335*41
$GNRMC,032255.400,A,2500.8240287,N,12132.4513707,E,0.08,246.18,270623,,,R,V*19
$GPHDT,315.869,T*35
$GNGGA,032255.600,2500.8240315,N,12132.4513730,E,4,61,0.47,17.345,M,15.25,M,3,3335*4E
$GNRMC,032255.600,A,2500.8240315,N,12132.4513730,E,0.07,246.18,270623,,,R,V*1A
$GPHDT,315.352,T*36
$GNGGA,032255.800,2500.8240244,N,12132.4513667,E,4,61,0.47,17.372,M,15.25,M,3,3335*42
$GNRMC,032255.800,A,2500.8240244,N,12132.4513667,E,0.07,246.18,270623,,,R,V*12
$GPHDT,315.227,T*35
$GNGSA,A,3,195,17,196,199,19,06,194,14,09,11,,,0.78,0.47,0.63,1*02
$GNGSA,A,3,67,82,68,80,73,,,,,,,,0.78,0.47,0.63,2*02
$GNGSA,A,3,24,12,10,31,11,19,04,33,,,,,0.78,0.47,0.63,3*00
$GNGSA,A,3,40,07,10,14,08,43,33,13,42,11,28,23,0.78,0.47,0.63,4*0A
$GNGSA,A,3,37,41,,,,,,,,,,,0.78,0.47,0.63,4*0C
$GPGSV,3,1,12,195,67,040,42,17,64,049,39,196,60,131,40,199,60,167,35,1*56
$GPGSV,3,2,12,19,59,000,42,06,50,323,40,194,45,169,43,41,38,242,40,1*5B
$GPGSV,3,3,12,14,36,179,43,09,28,117,36,11,23,275,42,12,05,323,29,1*66
$GPGSV,2,1,08,195,67,040,46,199,60,167,45,196,60,131,46,06,50,323,44,8*52
$GPGSV,2,2,08,194,45,169,43,14,36,179,45,09,28,117,37,11,23,275,42,8*58
$GLGSV,2,1,06,67,48,081,31,82,37,022,24,68,37,155,43,80,33,241,41,1*75
$GLGSV,2,2,06,73,22,303,40,79,09,192,19,1*7B
$GAGSV,2,1,08,24,56,257,41,12,50,003,34,10,48,321,34,31,36,183,38,7*76
$GAGSV,2,2,08,11,32,290,38,19,28,096,31,04,20,159,25,33,18,056,34,7*74
$GAGSV,2,1,08,24,56,257,45,12,50,003,40,10,48,321,40,31,36,183,40,1*7B
$GAGSV,2,2,08,11,32,290,32,19,28,096,33,04,20,159,29,33,18,056,32,1*70
$GBGSV,4,1,14,40,83,080,42,07,83,279,41,10,71,304,41,14,60,105,43,1*77
$GBGSV,4,2,14,08,59,258,41,43,54,038,32,33,53,158,44,13,49,248,42,1*7A
$GBGSV,4,3,14,42,45,065,30,11,36,069,32,28,32,316,45,23,25,229,22,1*79
$GBGSV,4,4,14,37,18,283,31,41,13,197,36,1*78
$GBGSV,2,1,08,40,83,080,44,43,54,038,31,33,53,158,46,42,45,065,32,4*7D
$GBGSV,2,2,08,28,32,316,35,23,25,229,17,37,18,283,35,41,13,197,36,4*74
$GNGGA,032256.000,2500.8240232,N,12132.4513663,E,4,61,0.47,17.376,M,15.25,M,4,3335*4F
$GNRMC,032256.000,A,2500.8240232,N,12132.4513663,E,0.07,246.18,270623,,,R,V*1C
$GPHDT,315.516,T*30
$GNGGA,032256.200,2500.8240216,N,12132.4513666,E,4,61,0.47,17.381,M,15.25,M,4,3335*46
$GNRMC,032256.200,A,2500.8240216,N,12132.4513666,E,0.08,246.18,270623,,,R,V*12
$GPHDT,315.457,T*34
$GNGGA,032256.400,2500.8240230,N,12132.4513673,E,4,61,0.47,17.376,M,15.25,M,4,3335*48
$GNRMC,032256.400,A,2500.8240230,N,12132.4513673,E,0.08,246.18,270623,,,R,V*14
$GPHDT,315.375,T*33
$GNGGA,032256.600,2500.8240212,N,12132.4513651,E,4,61,0.47,17.388,M,15.25,M,4,3335*4B
$GNRMC,032256.600,A,2500.8240212,N,12132.4513651,E,0.09,246.18,270623,,,R,V*17
$GPHDT,315.532,T*36
$GNGGA,032256.800,2500.8240217,N,12132.4513690,E,4,61,0.47,17.373,M,15.25,M,4,3335*49
$GNRMC,032256.800,A,2500.8240217,N,12132.4513690,E,0.08,246.18,270623,,,R,V*10
$GPHDT,315.730,T*36
$GNGSA,A,3,195,17,196,199,19,06,194,14,09,11,,,0.78,0.47,0.63,1*02
$GNGSA,A,3,67,82,68,80,73,,,,,,,,0.78,0.47,0.63,2*02
$GNGSA,A,3,24,12,10,31,11,19,04,33,,,,,0.78,0.47,0.63,3*00
$GNGSA,A,3,40,07,10,14,08,43,33,13,42,11,28,23,0.78,0.47,0.63,4*0A
$GNGSA,A,3,37,41,,,,,,,,,,,0.78,0.47,0.63,4*0C
$GPGSV,3,1,12,195,67,040,42,17,64,049,39,196,60,131,40,199,60,167,35,1*56
$GPGSV,3,2,12,19,59,000,42,06,50,323,40,194,45,169,43,41,38,242,40,1*5B
$GPGSV,3,3,12,14,36,179,43,09,28,117,36,11,23,275,42,12,05,323,29,1*66
$GPGSV,2,1,08,195,67,040,46,199,60,167,45,196,60,131,46,06,50,323,44,8*52
$GPGSV,2,2,08,194,45,169,43,14,36,179,45,09,28,117,37,11,23,275,42,8*58
$GLGSV,2,1,06,67,48,081,31,82,37,022,26,68,37,155,43,80,33,241,41,1*77
$GLGSV,2,2,06,73,22,303,40,79,09,192,20,1*71
$GAGSV,2,1,08,24,56,257,41,12,50,003,34,10,48,321,34,31,36,183,38,7*76
$GAGSV,2,2,08,11,32,290,38,19,28,096,31,04,20,159,25,33,18,056,32,7*72
$GAGSV,2,1,08,24,56,257,45,12,50,003,40,10,48,321,40,31,36,183,40,1*7B
$GAGSV,2,2,08,11,32,290,32,19,28,096,34,04,20,159,29,33,18,056,31,1*74
$GBGSV,4,1,14,40,83,080,42,07,83,279,41,10,71,304,41,14,60,105,43,1*77
$GBGSV,4,2,14,08,59,258,41,43,54,038,31,33,53,158,44,13,49,248,42,1*79
$GBGSV,4,3,14,42,45,065,30,11,36,069,31,28,32,316,45,23,25,229,21,1*79
$GBGSV,4,4,14,37,18,283,33,41,13,197,35,1*79
$GBGSV,2,1,08,40,83,080,44,43,54,038,31,33,53,158,45,42,45,065,32,4*7E
$GBGSV,2,2,08,28,32,316,35,23,25,229,17,37,18,283,35,41,13,197,36,4*74
$GNGGA,032257.000,2500.8240218,N,12132.4513692,E,4,61,0.47,17.369,M,15.25,M,5,3335*47
$GNRMC,032257.000,A,2500.8240218,N,12132.4513692,E,0.08,246.18,270623,,,R,V*14
$GPHDT,315.655,T*34
$GNGGA,032257.200,2500.8240233,N,12132.4513679,E,4,61,0.47,17.361,M,15.25,M,5,3335*41
$GNRMC,032257.200,A,2500.8240233,N,12132.4513679,E,0.08,246.18,270623,,,R,V*1A
$GPHDT,315.197,T*3D
$GNGGA,032257.400,2500.8240328,N,12132.4513862,E,4,61,0.47,17.332,M,15.25,M,5,3335*4E
$GNRMC,032257.400,A,2500.8240328,N,12132.4513862,E,0.08,246.18,270623,,,R,V*13
$GPHDT,315.879,T*34
$GNGGA,032257.600,2500.8240309,N,12132.4513812,E,4,61,0.47,17.349,M,15.25,M,5,3335*44
$GNRMC,032257.600,A,2500.8240309,N,12132.4513812,E,0.08,246.18,270623,,,R,V*15
$GPHDT,315.613,T*36
$GNGGA,032257.800,2500.8240338,N,12132.4513855,E,4,61,0.47,17.332,M,15.25,M,5,3335*47
$GNRMC,032257.800,A,2500.8240338,N,12132.4513855,E,0.08,246.18,270623,,,R,V*1A
$GPHDT,315.278,T*3F
$GNGSA,A,3,195,17,196,199,19,06,194,14,09,11,,,0.78,0.47,0.63,1*02
$GNGSA,A,3,67,82,68,80,73,,,,,,,,0.78,0.47,0.63,2*02
$GNGSA,A,3,24,12,10,31,11,19,04,33,,,,,0.78,0.47,0.63,3*00
$GNGSA,A,3,07,40,10,14,08,43,33,13,42,11,28,23,0.78,0.47,0.63,4*0A
$GNGSA,A,3,37,41,,,,,,,,,,,0.78,0.47,0.63,4*0C
$GPGSV,3,1,12,195,67,040,42,17,64,049,40,196,60,131,40,199,60,167,35,1*58
$GPGSV,3,2,12,19,59,000,42,06,50,323,40,194,45,169,43,41,38,242,40,1*5B
$GPGSV,3,3,12,14,36,179,43,09,28,117,37,11,23,275,42,12,05,323,28,1*66
$GPGSV,2,1,08,195,67,040,46,199,60,167,45,196,60,131,45,06,50,323,44,8*51
$GPGSV,2,2,08,194,45,169,43,14,36,179,45,09,28,117,37,11,23,275,42,8*58
$GLGSV,2,1,06,67,48,081,29,82,37,022,25,68,37,155,43,80,33,241,41,1*7D
$GLGSV,2,2,06,73,22,303,40,79,09,192,18,1*7A
$GAGSV,2,1,08,24,56,257,40,12,50,003,37,10,48,321,34,31,36,183,38,7*74
$GAGSV,2,2,08,11,32,290,38,19,28,096,32,04,20,159,26,33,18,056,29,7*78
$GAGSV,2,1,08,24,56,257,45,12,50,003,37,10,48,321,40,31,36,183,40,1*7B
$GAGSV,2,2,08,11,32,290,32,19,28,096,34,04,20,159,29,33,18,056,31,1*74
$GBGSV,4,1,14,07,83,279,40,40,83,080,42,10,71,304,41,14,60,105,44,1*71
$GBGSV,4,2,14,08,59,258,41,43,54,038,37,33,54,158,45,13,49,248,42,1*79
$GBGSV,4,3,14,42,45,065,30,11,36,069,25,28,32,316,45,23,25,229,22,1*7F
$GBGSV,4,4,14,37,18,283,32,41,13,197,36,1*7B
$GBGSV,2,1,08,40,83,080,44,33,54,158,45,43,54,038,34,42,45,065,34,4*7A
$GBGSV,2,2,08,28,32,316,35,23,25,229,17,37,18,283,36,41,13,197,36,4*77
$GNGGA,032258.000,2500.8240320,N,12132.4513825,E,4,61,0.47,17.343,M,15.25,M,6,3335*4B
$GNRMC,032258.000,A,2500.8240320,N,12132.4513825,E,0.07,246.18,270623,,,R,V*1C
$GPHDT,315.522,T*37
$GNGGA,032258.200,2500.8240346,N,12132.4513894,E,4,61,0.47,17.332,M,15.25,M,6,3335*45
$GNRMC,032258.200,A,2500.8240346,N,12132.4513894,E,0.07,246.18,270623,,,R,V*14
$GPHDT,315.318,T*38
$GNGGA,032258.400,2500.8240353,N,12132.4513878,E,4,61,0.47,17.331,M,15.25,M,6,3335*46
$GNRMC,032258.400,A,2500.8240353,N,12132.4513878,E,0.07,246.18,270623,,,R,V*14
$GPHDT,315.458,T*3B
$GNGGA,032258.600,2500.8240324,N,12132.4513860,E,4,60,0.47,17.337,M,15.25,M,6,3335*4A
$GNRMC,032258.600,A,2500.8240324,N,12132.4513860,E,0.07,246.18,270623,,,R,V*1F
$GPHDT,315.326,T*35
$GNGGA,032258.800,2500.8240327,N,12132.4513834,E,4,59,0.48,17.343,M,15.25,M,4,3335*42
$GNRMC,032258.800,A,2500.8240327,N,12132.4513834,E,0.08,246.18,270623,,,R,V*1C
$GPHDT,315.308,T*39
$GNGSA,A,3,195,17,196,199,19,06,194,14,09,11,,,0.79,0.48,0.63,1*0C
$GNGSA,A,3,67,82,68,80,73,,,,,,,,0.79,0.48,0.63,2*0C
$GNGSA,A,3,24,12,10,31,11,19,04,33,,,,,0.79,0.48,0.63,3*0E
$GNGSA,A,3,07,40,10,14,08,43,33,13,42,28,23,37,0.79,0.48,0.63,4*00
$GNGSA,A,3,41,,,,,,,,,,,,0.79,0.48,0.63,4*06
$GPGSV,3,1,12,195,67,040,42,17,64,049,41,196,60,131,40,199,60,167,35,1*59
$GPGSV,3,2,12,19,59,000,42,06,50,323,40,194,45,169,43,41,38,242,40,1*5B
$GPGSV,3,3,12,14,36,179,43,09,28,117,36,11,23,275,42,12,05,323,28,1*67
$GPGSV,2,1,08,195,67,040,47,196,60,131,45,199,60,167,45,06,50,323,44,8*50
$GPGSV,2,2,08,194,45,169,43,14,36,179,45,09,28,117,38,11,23,275,42,8*57
$GLGSV,2,1,06,67,48,081,27,82,37,022,23,68,37,155,43,80,33,241,41,1*75
$GLGSV,2,2,06,73,22,303,41,79,09,192,17,1*74
$GAGSV,2,1,08,24,56,257,40,12,50,003,36,10,48,321,33,31,36,183,38,7*72
$GAGSV,2,2,08,11,32,290,38,19,28,096,33,04,20,159,26,33,18,056,31,7*70
$GAGSV,2,1,08,24,56,257,46,12,50,003,37,10,48,321,40,31,36,183,41,1*79
$GAGSV,2,2,08,11,32,290,32,19,28,096,34,04,20,159,29,33,18,056,32,1*77
$GBGSV,4,1,14,07,83,279,40,40,83,081,42,10,71,304,41,14,60,105,44,1*70
$GBGSV,4,2,14,08,59,258,41,43,54,038,39,33,54,158,45,13,49,248,42,1*77
$GBGSV,4,3,14,42,45,065,30,11,36,069,23,28,32,316,45,23,25,229,24,1*7F
$GBGSV,4,4,14,37,18,283,32,41,13,197,36,1*7B
$GBGSV,2,1,07,40,83,081,44,33,54,158,45,43,54,038,35,42,45,065,36,4*77
$GBGSV,2,2,07,28,32,316,35,37,18,283,36,41,13,197,36,4*41
$GNGGA,032259.000,2500.8240306,N,12132.4513820,E,4,59,0.48,17.334,M,15.25,M,3,3335*4A
$GNRMC,032259.000,A,2500.8240306,N,12132.4513820,E,0.07,246.18,270623,,,R,V*1C
$GPHDT,315.201,T*31
$GNGGA,032259.200,2500.8240361,N,12132.4513746,E,4,59,0.48,17.337,M,15.25,M,1,3335*47
$GNRMC,032259.200,A,2500.8240361,N,12132.4513746,E,0.07,246.18,270623,,,R,V*10
$GPHDT,315.488,T*36
$GNGGA,032259.400,2500.8240354,N,12132.4513708,E,4,60,0.48,17.339,M,15.25,M,1,3335*49
$GNRMC,032259.400,A,2500.8240354,N,12132.4513708,E,0.05,246.18,270623,,,R,V*18
$GPHDT,315.536,T*32
$GNGGA,032259.600,2500.8240337,N,12132.4513729,E,4,60,0.48,17.340,M,15.25,M,1,3335*43
$GNRMC,032259.600,A,2500.8240337,N,12132.4513729,E,0.08,246.18,270623,,,R,V*11
$GPHDT,315.294,T*3D
$GNGGA,032259.800,2500.8240329,N,12132.4513684,E,4,60,0.48,17.328,M,15.25,M,0,3335*4B
$GNRMC,032259.800,A,2500.8240329,N,12132.4513684,E,0.07,246.18,270623,,,R,V*19
$GPHDT,315.265,T*33
$GNGSA,A,3,195,17,196,199,19,06,194,14,09,11,,,0.79,0.48,0.63,1*0C
$GNGSA,A,3,67,82,68,80,73,,,,,,,,0.79,0.48,0.63,2*0C
$GNGSA,A,3,24,12,10,31,11,19,04,33,,,,,0.79,0.48,0.63,3*0E
$GNGSA,A,3,07,40,10,14,08,43,33,13,42,28,23,37,0.79,0.48,0.63,4*00
$GNGSA,A,3,41,,,,,,,,,,,,0.79,0.48,0.63,4*06
$GPGSV,3,1,12,195,67,040,42,17,64,049,41,196,60,131,40,199,60,167,35,1*59
$GPGSV,3,2,12,19,59,000,42,06,50,323,40,194,45,169,43,41,38,242,40,1*5B
$GPGSV,3,3,12,14,36,179,43,09,28,117,35,11,23,275,42,12,05,323,28,1*64
$GPGSV,2,1,08,195,67,040,47,199,60,167,45,196,60,131,45,06,50,323,44,8*50
$GPGSV,2,2,08,194,45,169,43,14,36,179,45,09,28,117,38,11,23,275,43,8*56
$GLGSV,2,1,06,67,48,081,25,82,37,022,20,68,37,155,43,80,33,241,41,1*74
$GLGSV,2,2,06,73,22,303,41,79,09,192,17,1*74
$GAGSV,2,1,08,24,56,257,40,12,50,003,36,10,48,321,34,31,36,183,38,7*75
$GAGSV,2,2,08,11,32,290,38,19,28,096,33,04,20,159,27,33,18,056,32,7*72
$GAGSV,2,1,08,24,56,257,46,12,50,003,38,10,48,321,40,31,36,183,41,1*76
$GAGSV,2,2,08,11,32,290,32,19,28,096,34,04,20,159,29,33,18,056,33,1*76
$GBGSV,4,1,14,07,83,279,40,40,83,081,42,10,71,304,41,14,60,105,44,1*70
$GBGSV,4,2,14,08,59,258,41,43,54,039,39,33,54,158,45,13,49,248,42,1*76
$GBGSV,4,3,14,42,45,065,30,11,36,069,21,28,32,316,45,23,25,229,21,1*78
$GBGSV,4,4,14,37,18,283,32,41,13,197,36,1*7B
$GBGSV,2,1,08,40,83,081,44,33,54,158,45,43,54,039,35,42,45,065,36,4*79
$GBGSV,2,2,08,28,32,316,36,23,25,229,19,37,18,283,36,41,13,197,36,4*7A
$GNGGA,032300.000,2500.8240310,N,12132.4513666,E,4,60,0.48,17.337,M,15.25,M,1,3335*47
$GNRMC,032300.000,A,2500.8240310,N,12132.4513666,E,0.06,246.18,270623,,,R,V*1B
$GPHDT,315.256,T*33
$GNGGA,032300.200,2500.8240322,N,12132.4513695,E,4,59,0.48,17.335,M,15.25,M,1,3335*40
$GNRMC,032300.200,A,2500.8240322,N,12132.4513695,E,0.06,246.18,270623,,,R,V*14
$GPHDT,315.291,T*38
$GNGGA,032300.400,2500.8240402,N,12132.4513735,E,4,59,0.48,17.300,M,15.25,M,1,3335*4E
$GNRMC,032300.400,A,2500.8240402,N,12132.4513735,E,0.07,246.18,270623,,,R,V*1D
$GPHDT,314.955,T*3A
$GNGGA,032300.600,2500.8240379,N,12132.4513712,E,4,59,0.48,17.311,M,15.25,M,1,3335*42
$GNRMC,032300.600,A,2500.8240379,N,12132.4513712,E,0.07,246.18,270623,,,R,V*11
$GPHDT,315.111,T*33
$GNGGA,032300.800,2500.8240391,N,12132.4513721,E,4,59,0.48,17.307,M,15.25,M,1,3335*4D
$GNRMC,032300.800,A,2500.8240391,N,12132.4513721,E,0.07,246.18,270623,,,R,V*19
$GPHDT,315.448,T*3A
$GNGSA,A,3,195,17,196,199,19,06,194,14,09,11,,,0.79,0.48,0.63,1*0C
$GNGSA,A,3,67,82,68,80,73,,,,,,,,0.79,0.48,0.63,2*0C
$GNGSA,A,3,24,12,10,31,11,19,04,33,,,,,0.79,0.48,0.63,3*0E
$GNGSA,A,3,07,40,10,14,08,43,33,13,42,28,23,37,0.79,0.48,0.63,4*00
$GNGSA,A,3,41,,,,,,,,,,,,0.79,0.48,0.63,4*06
$GPGSV,3,1,12,195,67,040,42,17,64,049,41,196,60,131,40,199,60,167,35,1*59
$GPGSV,3,2,12,19,59,000,42,06,50,323,40,194,45,169,43,41,38,242,41,1*5A
$GPGSV,3,3,12,14,36,179,43,09,28,117,35,11,23,275,42,12,05,323,28,1*64
$GPGSV,2,1,08,195,67,040,47,196,60,131,45,199,60,167,45,06,50,323,44,8*50
$GPGSV,2,2,08,194,45,169,43,14,36,179,45,09,28,117,38,11,23,275,43,8*56
$GLGSV,2,1,06,67,48,081,27,82,37,022,20,68,37,155,43,80,33,241,41,1*76
$GLGSV,2,2,06,73,22,303,41,79,09,192,17,1*74
$GAGSV,2,1,08,24,56,257,40,12,50,003,36,10,48,321,34,31,36,183,38,7*75
$GAGSV,2,2,08,11,32,290,38,19,28,096,33,04,20,159,25,33,18,056,32,7*70
$GAGSV,2,1,08,24,56,257,46,12,50,003,38,10,48,321,40,31,36,183,41,1*76
$GAGSV,2,2,08,11,32,290,32,19,28,096,34,04,20,159,29,33,18,056,31,1*74
$GBGSV,4,1,14,07,83,279,40,40,83,081,42,10,71,304,41,14,60,105,44,1*70
$GBGSV,4,2,14,08,59,258,41,43,54,039,39,33,54,158,45,13,49,248,42,1*76
$GBGSV,4,3,14,42,45,065,31,11,36,069,,28,32,316,45,23,25,229,21,1*7A
$GBGSV,4,4,14,37,18,283,33,41,13,197,36,1*7A
$GBGSV,2,1,07,40,83,081,44,33,54,158,45,43,54,039,36,42,45,065,36,4*75
$GBGSV,2,2,07,28,32,316,36,37,18,283,35,41,13,197,36,4*41
$GNGGA,032301.000,2500.8240395,N,12132.4513750,E,4,59,0.48,17.311,M,15.25,M,2,3335*42
$GNRMC,032301.000,A,2500.8240395,N,12132.4513750,E,0.05,246.18,270623,,,R,V*10
$GPHDT,314.994,T*37
$GNGGA,032301.200,2500.8240387,N,12132.4513744,E,4,59,0.48,17.301,M,15.25,M,1,3335*44
$GNRMC,032301.200,A,2500.8240387,N,12132.4513744,E,0.04,246.18,270623,,,R,V*15
$GPHDT,315.031,T*30
$GNGGA,032301.400,2500.8240357,N,12132.4513724,E,4,59,0.48,17.310,M,15.25,M,1,3335*49
$GNRMC,032301.400,A,2500.8240357,N,12132.4513724,E,0.05,246.18,270623,,,R,V*19
$GPHDT,315.577,T*37
$GNGGA,032301.600,2500.8240376,N,12132.4513710,E,4,59,0.48,17.311,M,15.25,M,1,3335*4E
$GNRMC,032301.600,A,2500.8240376,N,12132.4513710,E,0.06,246.18,270623,,,R,V*1C
$GPHDT,315.250,T*35
$GNGGA,032301.800,2500.8240363,N,12132.4513751,E,4,59,0.48,17.307,M,15.25,M,1,3335*46
$GNRMC,032301.800,A,2500.8240363,N,12132.4513751,E,0.06,246.18,270623,,,R,V*13
$GPHDT,314.899,T*3B
$GNGSA,A,3,195,17,196,199,19,06,194,14,09,11,,,0.79,0.48,0.63,1*0C
$GNGSA,A,3,67,82,68,80,73,,,,,,,,0.79,0.48,0.63,2*0C
$GNGSA,A,3,24,12,10,31,11,19,04,33,,,,,0.79,0.48,0.63,3*0E
$GNGSA,A,3,07,40,10,14,08,43,33,13,42,28,23,37,0.79,0.48,0.63,4*00
$GNGSA,A,3,41,,,,,,,,,,,,0.79,0.48,0.63,4*06
$GPGSV,3,1,12,195,67,040,42,17,64,049,41,196,60,131,40,199,60,167,35,1*59
$GPGSV,3,2,12,19,59,000,42,06,50,323,40,194,45,169,43,41,38,242,41,1*5A
$GPGSV,3,3,12,14,36,179,43,09,28,117,36,11,23,275,42,12,05,323,28,1*67
$GPGSV,2,1,08,195,67,040,47,196,60,131,46,199,60,167,45,06,50,323,44,8*53
$GPGSV,2,2,08,194,45,169,43,14,36,179,45,09,28,117,38,11,23,275,43,8*56
$GLGSV,2,1,06,67,48,081,25,82,37,022,22,68,37,155,43,80,33,241,41,1*76
$GLGSV,2,2,06,73,22,303,41,79,09,192,16,1*75
$GAGSV,2,1,08,24,56,257,40,12,50,003,36,10,48,321,33,31,36,183,38,7*72
$GAGSV,2,2,08,11,32,290,38,19,28,096,33,04,20,159,25,33,18,056,32,7*70
$GAGSV,2,1,08,24,56,257,46,12,50,003,38,10,48,321,41,31,36,183,41,1*77
$GAGSV,2,2,08,11,32,290,32,19,28,096,34,04,20,159,29,33,18,056,32,1*77
$GBGSV,4,1,14,07,83,279,40,40,83,081,42,10,71,304,41,14,60,105,43,1*77
$GBGSV,4,2,14,08,59,258,41,43,54,039,39,33,54,158,45,13,49,248,42,1*76
$GBGSV,4,3,14,42,45,065,32,11,36,069,,28,32,316,45,23,25,229,20,1*78
$GBGSV,4,4,14,37,18,283,33,41,13,197,36,1*7A
$GBGSV,2,1,07,40,83,081,44,33,54,158,45,43,54,039,36,42,45,065,36,4*75
$GBGSV,2,2,07,28,32,316,36,37,18,283,35,41,13,197,36,4*41
$GNGGA,032302.000,2500.8240383,N,12132.4513766,E,4,59,0.48,17.306,M,15.25,M,2,3335*45
$GNRMC,032302.000,A,2500.8240383,N,12132.4513766,E,0.06,246.18,270623,,,R,V*12
$GPHDT,314.942,T*3C
$GNGGA,032302.200,2500.8240397,N,12132.4513762,E,4,59,0.48,17.300,M,15.25,M,2,3335*40
$GNRMC,032302.200,A,2500.8240397,N,12132.4513762,E,0.06,246.18,270623,,,R,V*11
