$FW : RTK35X,V1.1X0314AS,Lib20210517,1*54
$Tool : LOCOSYS , GNSS Firebird , v1.0.0.19*39
$---------------------------------------------------*2D
$GNACCURACY,4.6*14
$GNGGA,032900.800,2500.7940935,N,12132.4798045,E,4,54,0.49,16.695,M,15.25,M,0,3335*41
$GNRMC,032900.800,A,2500.7940935,N,12132.4798045,E,0.03,104.38,090324,,,R,V*1A
$GPHDT,316.718,T*3F
$GNACCURACY,4.7*15
$GNGGA,032900.900,2500.7940948,N,12132.4798055,E,4,55,0.47,16.699,M,15.25,M,0,3335*48
$GNRMC,032900.900,A,2500.7940948,N,12132.4798055,E,0.08,104.38,090324,,,R,V*1B
$GPHDT,,T*1B
$GNACCURACY,4.6*14
$GNGGA,032901.000,2500.7940918,N,12132.4798071,E,4,55,0.47,16.704,M,15.25,M,1,3335*47
$GNRMC,032901.000,A,2500.7940918,N,12132.4798071,E,0.01,104.38,090324,,,R,V*19
$GPHDT,316.890,T*30
$GNGSA,A,3,08,194,195,27,21,16,04,09,02,07,196,26,0.86,0.47,0.72,1*33
$GNGSA,A,3,31,,,,,,,,,,,,0.86,0.47,0.72,1*0B
$GNGSA,A,3,88,78,81,77,87,79,,,,,,,0.86,0.47,0.72,2*0D
$GNGSA,A,3,21,13,19,27,26,15,,,,,,,0.86,0.47,0.72,3*07
$GNGSA,A,3,06,16,09,43,39,40,07,23,10,11,25,28,0.86,0.47,0.72,4*07
$GNGSA,A,3,34,,,,,,,,,,,,0.86,0.47,0.72,4*0B
$GPGSV,4,1,15,08,72,307,44,199,64,166,,194,63,046,44,195,58,123,40,1*51
$GPGSV,4,2,15,27,49,027,45,45,47,231,36,21,40,169,35,16,35,056,44,1*60
$GPGSV,4,3,15,04,32,216,35,09,30,266,25,02,29,181,32,07,26,320,19,1*64
$GPGSV,4,4,15,196,21,173,26,26,17,084,19,31,15,137,20,1*6B
$GPGSV,2,1,06,08,72,307,45,194,63,046,43,195,58,123,35,27,49,027,36,8*62
$GPGSV,2,2,06,04,32,216,42,196,21,173,20,8*57
$GLGSV,2,1,06,88,72,072,42,78,46,006,40,81,41,189,36,77,32,087,19,1*7B
$GLGSV,2,2,06,87,21,029,18,79,12,320,21,1*7F
$GAGSV,2,1,07,21,51,349,27,13,50,108,27,19,36,257,22,27,34,063,40,7*7E
$GAGSV,2,2,07,26,28,175,24,15,22,049,22,04,10,312,,7*43
$GAGSV,1,1,04,21,51,349,33,27,34,063,41,26,28,175,18,15,22,049,36,1*72
$GBGSV,4,1,14,06,81,225,42,16,78,191,41,09,75,300,39,43,74,060,48,1*72
$GBGSV,4,2,14,39,67,177,42,40,65,316,42,07,63,294,32,23,62,357,43,1*73
$GBGSV,4,3,14,10,52,277,33,11,48,045,43,25,47,097,27,28,39,208,36,1*7A
$GBGSV,4,4,14,34,25,040,45,41,04,207,,1*72
$GBGSV,2,1,07,43,74,060,45,39,67,177,43,40,65,316,40,23,62,357,43,4*7D
$GBGSV,2,2,07,25,47,097,31,28,39,208,40,34,25,040,37,4*42
$GNACCURACY,4.6*14
$PAIRSAT,1,35,2,0,201,3,0,200,4,0,221,5,0,200,6,0,200,7,0,201,8,0,221,9,0,221,10,0,200,11,0,200,12,0,200,13,0,200,14,0,200,15,0,200,16,0,201,17,0,200,18,0,200,19,0,200,20,0,200,21,0,201,22,0,200,23,0,200,24,0,200,25,0,200,26,0,221,27,0,221,28,0,200,29,0,200,30,0,200,31,0,201,32,0,200,194,0,621,195,0,621,196,0,620,199,0,600*5B
$PAIRSAT,2,23,65,0,200,66,0,200,67,0,200,68,0,200,70,0,200,71,0,200,72,0,200,73,0,200,74,0,200,75,0,200,76,0,200,77,0,201,78,0,201,79,0,201,80,0,200,81,0,201,82,0,200,83,0,200,84,0,200,85,0,200,86,0,200,87,0,201,88,0,201*5C
$PAIRSAT,3,23,2,0,1200,3,0,1200,4,0,1200,5,0,200,7,0,1200,8,0,1200,9,0,1200,10,0,1200,11,0,1200,12,0,1200,13,0,1221,15,0,1221,19,0,1221,21,0,1221,24,0,1200,25,0,1200,26,0,1221,27,0,1221,30,0,1200,31,0,1200,33,0,1200,34,0,1200,36,0,1200*6A
$PAIRSAT,4,46,1,0,200,2,0,200,3,0,600,4,0,200,5,0,200,6,0,201,7,0,201,8,0,200,9,0,201,10,0,201,11,0,201,12,0,200,13,0,200,14,0,200,16,0,201,19,0,600,20,0,600,21,0,600,22,0,600,23,0,621,24,0,600,25,0,621,26,0,600,27,0,600,28,0,621,29,0,600,30,0,600,32,0,600,33,0,600,34,0,621,35,0,600,36,0,600,37,0,600,38,0,600,39,0,621,40,0,421,41,0,600,42,0,600,43,0,621,44,0,400,45,0,400,46,0,400,59,0,400,60,0,400,61,0,400,62,0,400*4A
$PAIRDGP,7,2,4,7,8,9,16,21*5A
$GNGGA,032901.100,2500.7940899,N,12132.4797961,E,4,55,0.47,16.663,M,15.25,M,1,3335*49
$GNRMC,032901.100,A,2500.7940899,N,12132.4797961,E,0.10,104.38,090324,,,R,V*17
$GPHDT,,T*1B
$GNACCURACY,4.6*14
$GNGGA,032901.200,2500.7940898,N,12132.4798061,E,4,54,0.47,16.678,M,15.25,M,1,3335*46
$GNRMC,032901.200,A,2500.7940898,N,12132.4798061,E,0.15,104.38,090324,,,R,V*16
$GPHDT,317.743,T*30
$GNACCURACY,4.6*14
$GNGGA,032901.300,2500.7940688,N,12132.4798098,E,4,54,0.47,16.637,M,15.25,M,1,3335*45
$GNRMC,032901.300,A,2500.7940688,N,12132.4798098,E,0.10,104.38,090324,,,R,V*1B
$GPHDT,,T*1B
$GNACCURACY,4.6*14
$GNGGA,032901.400,2500.7940738,N,12132.4797956,E,4,54,0.47,16.609,M,15.25,M,1,3335*41
$GNRMC,032901.400,A,2500.7940738,N,12132.4797956,E,0.09,104.38,090324,,,R,V*1A
$GPHDT,319.404,T*3E
$GNACCURACY,4.6*14
$GNGGA,032901.500,2500.7940719,N,12132.4798051,E,4,54,0.47,16.627,M,15.25,M,1,3335*4E
$GNRMC,032901.500,A,2500.7940719,N,12132.4798051,E,0.08,104.38,090324,,,R,V*18
$GPHDT,,T*1B
$GNACCURACY,4.6*14
$GNGGA,032901.600,2500.7940708,N,12132.4798010,E,4,54,0.47,16.623,M,15.25,M,0,3335*4D
$GNRMC,032901.600,A,2500.7940708,N,12132.4798010,E,0.10,104.38,090324,,,R,V*17
$GPHDT,319.199,T*3F
$GNACCURACY,4.6*14
$GNGGA,032901.700,2500.7940712,N,12132.4798135,E,4,54,0.47,16.652,M,15.25,M,0,3335*47
$GNRMC,032901.700,A,2500.7940712,N,12132.4798135,E,0.08,104.38,090324,,,R,V*12
$GPHDT,,T*1B
$GNACCURACY,4.6*14
$GNGGA,032901.800,2500.7940691,N,12132.4798104,E,4,55,0.47,16.634,M,15.25,M,0,3335*41
$GNRMC,032901.800,A,2500.7940691,N,12132.4798104,E,0.07,104.38,090324,,,R,V*1A
$GPHDT,318.964,T*34
$GNACCURACY,4.6*14
$GNGGA,032901.900,2500.7940684,N,12132.4798131,E,4,55,0.47,16.638,M,15.25,M,0,3335*4E
$GNRMC,032901.900,A,2500.7940684,N,12132.4798131,E,0.10,104.38,090324,,,R,V*1F
$GPHDT,,T*1B
$GNACCURACY,4.5*17
$GNGGA,032902.000,2500.7940670,N,12132.4798132,E,4,55,0.47,16.631,M,15.25,M,1,3335*44
$GNRMC,032902.000,A,2500.7940670,N,12132.4798132,E,0.05,104.38,090324,,,R,V*19
$GPHDT,318.679,T*37
$GNGSA,A,3,08,194,195,27,21,16,04,09,02,07,196,26,0.86,0.47,0.72,1*33
$GNGSA,A,3,31,,,,,,,,,,,,0.86,0.47,0.72,1*0B
$GNGSA,A,3,88,78,81,77,87,79,,,,,,,0.86,0.47,0.72,2*0D
$GNGSA,A,3,21,13,19,27,26,15,,,,,,,0.86,0.47,0.72,3*07
$GNGSA,A,3,06,16,09,43,39,40,07,23,10,11,25,28,0.86,0.47,0.72,4*07
$GNGSA,A,3,34,,,,,,,,,,,,0.86,0.47,0.72,4*0B
$GPGSV,4,1,15,08,72,308,44,199,64,166,,194,63,046,44,195,58,123,41,1*5F
$GPGSV,4,2,15,27,49,027,45,45,47,231,33,21,40,169,36,16,35,056,44,1*66
$GPGSV,4,3,15,04,31,216,36,09,30,266,27,02,29,181,31,07,26,320,17,1*6B
$GPGSV,4,4,15,196,21,173,24,26,17,084,19,31,15,137,18,1*62
$GPGSV,2,1,06,08,72,308,45,194,63,046,41,195,58,123,37,27,49,027,35,8*6E
$GPGSV,2,2,06,04,31,216,42,196,21,173,25,8*51
$GLGSV,2,1,07,88,72,072,41,78,46,006,34,81,41,189,34,77,32,087,18,1*79
$GLGSV,2,2,07,87,21,029,19,79,12,320,19,67,02,208,,1*4D
$GAGSV,2,1,07,21,51,349,26,13,50,108,31,19,36,257,23,27,34,063,41,7*78
$GAGSV,2,2,07,26,28,175,23,15,22,049,23,04,10,312,,7*45
$GAGSV,1,1,04,21,51,349,32,13,50,108,29,27,34,063,39,15,22,049,36,1*7D
$GBGSV,4,1,16,06,81,225,42,16,78,191,42,09,75,300,39,43,74,060,47,1*7C
$GBGSV,4,2,16,39,67,177,43,40,65,316,42,07,63,294,32,23,62,357,43,1*70
$GBGSV,4,3,16,10,52,277,33,11,48,045,43,25,47,097,25,28,39,208,38,1*74
$GBGSV,4,4,16,34,25,040,45,38,05,171,,32,05,256,,41,04,207,,1*7C
$GBGSV,2,1,07,43,74,060,45,39,67,177,42,40,65,316,40,23,62,357,43,4*7C
$GBGSV,2,2,07,25,47,097,31,28,39,208,39,34,25,040,38,4*43
$GNACCURACY,4.5*17
$PAIRSAT,1,35,2,0,201,3,0,200,4,0,221,5,0,200,6,0,200,7,0,201,8,0,221,9,0,221,10,0,200,11,0,200,12,0,200,13,0,200,14,0,200,15,0,200,16,0,201,17,0,200,18,0,200,19,0,200,20,0,200,21,0,201,22,0,200,23,0,200,24,0,200,25,0,200,26,0,221,27,0,221,28,0,200,29,0,200,30,0,200,31,0,201,32,0,200,194,0,621,195,0,621,196,0,620,199,0,600*5B
$PAIRSAT,2,23,65,0,200,66,0,200,67,0,200,68,0,200,70,0,200,71,0,200,72,0,200,73,0,200,74,0,200,75,0,200,76,0,200,77,0,201,78,0,201,79,0,201,80,0,200,81,0,201,82,0,200,83,0,200,84,0,200,85,0,200,86,0,200,87,0,201,88,0,201*5C
$PAIRSAT,3,23,2,0,1200,3,0,1200,4,0,1200,5,0,200,7,0,1200,8,0,1200,9,0,1200,10,0,1200,11,0,1200,12,0,1200,13,0,1221,15,0,1221,19,0,1221,21,0,1221,24,0,1200,25,0,1200,26,0,1221,27,0,1221,30,0,1200,31,0,1200,33,0,1200,34,0,1200,36,0,1200*6A
$PAIRSAT,4,46,1,0,200,2,0,200,3,0,600,4,0,200,5,0,200,6,0,201,7,0,201,8,0,200,9,0,201,10,0,201,11,0,201,12,0,200,13,0,200,14,0,200,16,0,201,19,0,600,20,0,600,21,0,600,22,0,600,23,0,621,24,0,600,25,0,621,26,0,600,27,0,600,28,0,621,29,0,600,30,0,600,32,0,600,33,0,600,34,0,621,35,0,600,36,0,600,37,0,600,38,0,600,39,0,621,40,0,421,41,0,600,42,0,600,43,0,621,44,0,400,45,0,400,46,0,400,59,0,400,60,0,400,61,0,400,62,0,400*4A
$PAIRDGP,7,2,4,7,8,9,16,21*5A
$GNGGA,032902.100,2500.7940679,N,12132.4798105,E,4,55,0.47,16.633,M,15.25,M,1,3335*4A
$GNRMC,032902.100,A,2500.7940679,N,12132.4798105,E,0.02,104.38,090324,,,R,V*12
$GPHDT,,T*1B
$GNACCURACY,4.6*14
$GNGGA,032902.200,2500.7940686,N,12132.4798117,E,4,55,0.47,16.632,M,15.25,M,1,3335*4B
$GNRMC,032902.200,A,2500.7940686,N,12132.4798117,E,0.02,104.38,090324,,,R,V*12
$GPHDT,318.805,T*32
$GNACCURACY,4.6*14
$GNGGA,032902.300,2500.7940697,N,12132.4798149,E,4,55,0.47,16.651,M,15.25,M,1,3335*44
$GNRMC,032902.300,A,2500.7940697,N,12132.4798149,E,0.00,104.38,090324,,,R,V*1A
$GPHDT,,T*1B
$GNACCURACY,4.6*14
$GNGGA,032902.400,2500.7940696,N,12132.4798143,E,4,56,0.47,16.651,M,15.25,M,1,3335*4B
$GNRMC,032902.400,A,2500.7940696,N,12132.4798143,E,0.02,104.38,090324,,,R,V*14
$GPHDT,318.595,T*36
$GNACCURACY,4.6*14
$GNGGA,032902.500,2500.7940699,N,12132.4798135,E,4,57,0.47,16.648,M,15.25,M,1,3335*4D
$GNRMC,032902.500,A,2500.7940699,N,12132.4798135,E,0.02,104.38,090324,,,R,V*1B
$GPHDT,,T*1B
$GNACCURACY,4.6*14
$GNGGA,032902.600,2500.7940689,N,12132.4798059,E,4,57,0.47,16.619,M,15.25,M,0,3335*41
$GNRMC,032902.600,A,2500.7940689,N,12132.4798059,E,0.01,104.38,090324,,,R,V*11
$GPHDT,318.571,T*3C
$GNACCURACY,4.6*14
$GNGGA,032902.700,2500.7940712,N,12132.4798089,E,4,57,0.47,16.628,M,15.25,M,0,3335*4C
$GNRMC,032902.700,A,2500.7940712,N,12132.4798089,E,0.01,104.38,090324,,,R,V*1E
$GPHDT,,T*1B
$GNACCURACY,4.6*14
$GNGGA,032902.800,2500.7940687,N,12132.4798080,E,4,57,0.47,16.623,M,15.25,M,0,3335*4C
$GNRMC,032902.800,A,2500.7940687,N,12132.4798080,E,0.02,104.38,090324,,,R,V*16
$GPHDT,318.654,T*38
$GNACCURACY,4.6*14
$GNGGA,032902.900,2500.7940713,N,12132.4798039,E,4,57,0.47,16.622,M,15.25,M,0,3335*42
$GNRMC,032902.900,A,2500.7940713,N,12132.4798039,E,0.07,104.38,090324,,,R,V*1C
$GPHDT,,T*1B
$GNACCURACY,4.7*15
$GNGGA,032903.000,2500.7940691,N,12132.4798049,E,4,57,0.47,16.624,M,15.25,M,1,3335*41
$GNRMC,032903.000,A,2500.7940691,N,12132.4798049,E,0.08,104.38,090324,,,R,V*17
$GPHDT,318.956,T*35
$GNGSA,A,3,08,194,195,27,21,16,04,09,02,07,196,26,0.86,0.47,0.72,1*33
$GNGSA,A,3,31,,,,,,,,,,,,0.86,0.47,0.72,1*0B
$GNGSA,A,3,88,78,81,77,87,79,,,,,,,0.86,0.47,0.72,2*0D
$GNGSA,A,3,21,13,19,27,26,15,,,,,,,0.86,0.47,0.72,3*07
$GNGSA,A,3,06,16,09,43,39,40,07,23,10,11,25,28,0.86,0.47,0.72,4*07
$GNGSA,A,3,34,,,,,,,,,,,,0.86,0.47,0.72,4*0B
$GPGSV,4,1,15,08,72,308,45,199,64,166,,194,63,046,44,195,58,123,42,1*5D
$GPGSV,4,2,15,27,49,027,45,45,47,231,33,21,40,169,36,16,35,056,44,1*66
$GPGSV,4,3,15,04,31,216,36,09,30,266,26,02,29,181,30,07,26,320,14,1*68
$GPGSV,4,4,15,196,21,173,23,26,17,084,19,31,15,137,19,1*64
$GPGSV,2,1,06,08,72,308,45,194,63,046,41,195,58,123,38,27,49,027,35,8*61
$GPGSV,2,2,06,04,31,216,42,196,21,173,28,8*5C
$GLGSV,2,1,06,88,72,072,41,78,46,006,33,81,41,189,35,77,32,087,17,1*71
$GLGSV,2,2,06,87,21,029,19,79,12,320,19,1*75
$GAGSV,2,1,07,21,51,349,26,13,50,108,31,19,36,257,23,27,34,063,41,7*78
$GAGSV,2,2,07,26,28,175,24,15,22,049,26,04,10,312,,7*47
$GAGSV,2,1,06,21,51,349,33,13,50,108,31,19,36,257,19,27,34,063,39,1*7D
$GAGSV,2,2,06,26,28,175,31,15,22,049,36,1*70
$GBGSV,4,1,14,06,81,225,42,16,78,191,42,09,75,300,39,43,74,060,47,1*7E
$GBGSV,4,2,14,39,67,177,43,40,65,316,42,07,63,294,32,23,62,357,42,1*73
$GBGSV,4,3,14,10,52,277,33,11,48,045,43,25,47,097,19,28,39,208,38,1*79
$GBGSV,4,4,14,34,25,040,45,41,04,207,,1*72
$GBGSV,2,1,07,43,74,060,45,39,67,177,42,40,65,316,40,23,62,357,44,4*7B
$GBGSV,2,2,07,25,47,097,32,28,39,208,39,34,25,040,38,4*40
$GNACCURACY,4.7*15
$PAIRSAT,1,35,2,0,201,3,0,200,4,0,221,5,0,200,6,0,200,7,0,201,8,0,221,9,0,221,10,0,200,11,0,200,12,0,200,13,0,200,14,0,200,15,0,200,16,0,201,17,0,200,18,0,200,19,0,200,20,0,200,21,0,201,22,0,200,23,0,200,24,0,200,25,0,200,26,0,221,27,0,221,28,0,200,29,0,200,30,0,200,31,0,201,32,0,200,194,0,621,195,0,621,196,0,620,199,0,600*5B
$PAIRSAT,2,23,65,0,200,66,0,200,67,0,200,68,0,200,70,0,200,71,0,200,72,0,200,73,0,200,74,0,200,75,0,200,76,0,200,77,0,201,78,0,201,79,0,201,80,0,200,81,0,201,82,0,200,83,0,200,84,0,200,85,0,200,86,0,200,87,0,201,88,0,201*5C
$PAIRSAT,3,23,2,0,1200,3,0,1200,4,0,1200,5,0,200,7,0,1200,8,0,1200,9,0,1200,10,0,1200,11,0,1200,12,0,1200,13,0,1221,15,0,1221,19,0,1221,21,0,1221,24,0,1200,25,0,1200,26,0,1221,27,0,1221,30,0,1200,31,0,1200,33,0,1200,34,0,1200,36,0,1200*6A
$PAIRSAT,4,46,1,0,200,2,0,200,3,0,600,4,0,200,5,0,200,6,0,201,7,0,201,8,0,200,9,0,201,10,0,201,11,0,201,12,0,200,13,0,200,14,0,200,16,0,201,19,0,600,20,0,600,21,0,600,22,0,600,23,0,621,24,0,600,25,0,621,26,0,600,27,0,600,28,0,621,29,0,600,30,0,600,32,0,600,33,0,600,34,0,621,35,0,600,36,0,600,37,0,600,38,0,600,39,0,621,40,0,421,41,0,600,42,0,600,43,0,621,44,0,400,45,0,400,46,0,400,59,0,400,60,0,400,61,0,400,62,0,400*4A
$PAIRDGP,7,2,4,7,8,9,16,21*5A
$GNGGA,032903.100,2500.7940707,N,12132.4798036,E,4,57,0.47,16.616,M,15.25,M,1,3335*47
$GNRMC,032903.100,A,2500.7940707,N,12132.4798036,E,0.02,104.38,090324,,,R,V*1A
$GPHDT,,T*1B
$GNACCURACY,4.7*15
$GNGGA,032903.200,2500.7940717,N,12132.4798067,E,4,57,0.47,16.634,M,15.25,M,1,3335*41
$GNRMC,032903.200,A,2500.7940717,N,12132.4798067,E,0.05,104.38,090324,,,R,V*1B
$GPHDT,319.155,T*3F
$GNACCURACY,4.7*15
$GNGGA,032903.300,2500.7940684,N,12132.4798049,E,4,57,0.47,16.622,M,15.25,M,1,3335*40
$GNRMC,032903.300,A,2500.7940684,N,12132.4798049,E,0.06,104.38,090324,,,R,V*1E
$GPHDT,,T*1B
$GNACCURACY,4.7*15
$GNGGA,032903.400,2500.7940875,N,12132.4798071,E,4,57,0.47,16.676,M,15.25,M,1,3335*4D
$GNRMC,032903.400,A,2500.7940875,N,12132.4798071,E,0.04,104.38,090324,,,R,V*10
$GPHDT,318.167,T*3F
$GNACCURACY,4.8*1A
$GNGGA,032903.500,2500.7940955,N,12132.4798076,E,4,57,0.47,16.697,M,15.25,M,0,3335*46
$GNRMC,032903.500,A,2500.7940955,N,12132.4798076,E,0.04,104.38,090324,,,R,V*15
$GPHDT,,T*1B
$GNACCURACY,4.8*1A
$GNGGA,032903.600,2500.7940948,N,12132.4798100,E,4,57,0.47,16.700,M,15.25,M,0,3335*46
$GNRMC,032903.600,A,2500.7940948,N,12132.4798100,E,0.03,104.38,090324,,,R,V*1D
$GPHDT,316.867,T*38
$GNACCURACY,4.8*1A
$GNGGA,032903.700,2500.7940947,N,12132.4798105,E,4,57,0.47,16.699,M,15.25,M,0,3335*4C
$GNRMC,032903.700,A,2500.7940947,N,12132.4798105,E,0.03,104.38,090324,,,R,V*16
$GPHDT,,T*1B
$GNACCURACY,4.8*1A
$GNGGA,032903.800,2500.7940942,N,12132.4798100,E,4,57,0.47,16.697,M,15.25,M,0,3335*4D
$GNRMC,032903.800,A,2500.7940942,N,12132.4798100,E,0.03,104.38,090324,,,R,V*19
$GPHDT,316.852,T*3E
$GNACCURACY,4.9*1B
$GNGGA,032903.900,2500.7940961,N,12132.4798086,E,4,57,0.47,16.699,M,15.25,M,0,3335*4C
$GNRMC,032903.900,A,2500.7940961,N,12132.4798086,E,0.02,104.38,090324,,,R,V*17
$GPHDT,,T*1B
$GNACCURACY,4.9*1B
$GNGGA,032904.000,2500.7940968,N,12132.4798092,E,4,57,0.47,16.702,M,15.25,M,1,3335*4C
$GNRMC,032904.000,A,2500.7940968,N,12132.4798092,E,0.02,104.38,090324,,,R,V*15
$GPHDT,316.865,T*3A
$GNGSA,A,3,08,194,195,27,21,16,04,09,02,07,196,26,0.86,0.47,0.72,1*33
$GNGSA,A,3,31,,,,,,,,,,,,0.86,0.47,0.72,1*0B
$GNGSA,A,3,88,78,81,77,87,79,,,,,,,0.86,0.47,0.72,2*0D
$GNGSA,A,3,21,13,19,27,26,15,,,,,,,0.86,0.47,0.72,3*07
$GNGSA,A,3,06,16,09,43,39,40,07,23,10,11,25,28,0.86,0.47,0.72,4*07
$GNGSA,A,3,34,,,,,,,,,,,,0.86,0.47,0.72,4*0B
$GPGSV,4,1,15,08,72,308,45,199,64,166,,194,63,046,44,195,58,123,42,1*5D
$GPGSV,4,2,15,27,49,027,45,45,47,231,33,21,40,169,33,16,35,056,44,1*63
$GPGSV,4,3,15,04,31,216,36,09,30,266,23,02,29,181,26,07,26,320,17,1*69
$GPGSV,4,4,15,196,21,173,24,26,17,084,19,31,15,137,17,1*6D
$GPGSV,2,1,06,08,72,308,45,194,63,046,41,195,58,123,38,27,49,027,36,8*62
$GPGSV,2,2,06,04,31,216,42,196,21,173,28,8*5C
$GLGSV,2,1,07,88,72,072,41,78,46,006,35,81,41,189,35,77,32,087,19,1*78
$GLGSV,2,2,07,87,21,029,19,79,12,320,19,67,02,208,,1*4D
$GAGSV,2,1,07,21,51,349,25,13,50,108,31,19,36,257,22,27,34,063,42,7*79
$GAGSV,2,2,07,26,28,175,23,15,22,049,21,04,10,312,,7*47
$GAGSV,2,1,06,21,51,349,33,13,50,108,32,19,36,257,19,27,34,063,39,1*7E
$GAGSV,2,2,06,26,28,175,29,15,22,049,36,1*79
$GBGSV,4,1,13,06,81,225,42,16,78,191,42,09,75,300,39,43,74,060,47,1*79
$GBGSV,4,2,13,39,67,177,43,40,65,316,42,07,63,294,32,23,62,357,42,1*74
$GBGSV,4,3,13,10,52,277,33,11,48,045,43,25,47,097,17,28,39,208,36,1*7E
$GBGSV,4,4,13,34,25,040,45,1*41
$GBGSV,2,1,07,43,74,060,45,39,67,177,42,40,65,316,40,23,62,357,44,4*7B
$GBGSV,2,2,07,25,47,097,32,28,39,208,39,34,25,040,38,4*40
$GNACCURACY,4.9*1B
$PAIRSAT,1,35,2,0,201,3,0,200,4,0,221,5,0,200,6,0,200,7,0,201,8,0,221,9,0,221,10,0,200,11,0,200,12,0,200,13,0,200,14,0,200,15,0,200,16,0,201,17,0,200,18,0,200,19,0,200,20,0,200,21,0,201,22,0,200,23,0,200,24,0,200,25,0,200,26,0,221,27,0,221,28,0,200,29,0,200,30,0,200,31,0,201,32,0,200,194,0,621,195,0,621,196,0,620,199,0,600*5B
$PAIRSAT,2,23,65,0,200,66,0,200,67,0,200,68,0,200,70,0,200,71,0,200,72,0,200,73,0,200,74,0,200,75,0,200,76,0,200,77,0,201,78,0,201,79,0,201,80,0,200,81,0,201,82,0,200,83,0,200,84,0,200,85,0,200,86,0,200,87,0,201,88,0,201*5C
$PAIRSAT,3,23,2,0,1200,3,0,1200,4,0,1200,5,0,200,7,0,1200,8,0,1200,9,0,1200,10,0,1200,11,0,1200,12,0,1200,13,0,1221,15,0,1221,19,0,1221,21,0,1221,24,0,1200,25,0,1200,26,0,1221,27,0,1221,30,0,1200,31,0,1200,33,0,1200,34,0,1200,36,0,1200*6A
$PAIRSAT,4,46,1,0,200,2,0,200,3,0,600,4,0,200,5,0,200,6,0,201,7,0,201,8,0,200,9,0,201,10,0,201,11,0,201,12,0,200,13,0,200,14,0,200,16,0,201,19,0,600,20,0,600,21,0,600,22,0,600,23,0,621,24,0,600,25,0,621,26,0,600,27,0,600,28,0,621,29,0,600,30,0,600,32,0,600,33,0,600,34,0,621,35,0,600,36,0,600,37,0,600,38,0,600,39,0,621,40,0,421,41,0,600,42,0,600,43,0,621,44,0,400,45,0,400,46,0,400,59,0,400,60,0,400,61,0,400,62,0,400*4A
$PAIRDGP,7,2,4,7,8,9,16,21*5A
$GNGGA,032904.100,2500.7940951,N,12132.4798094,E,4,57,0.47,16.693,M,15.25,M,1,3335*48
$GNRMC,032904.100,A,2500.7940951,N,12132.4798094,E,0.08,104.38,090324,,,R,V*12
$GPHDT,,T*1B
$GNACCURACY,5.0*13
$GNGGA,032904.200,2500.7940932,N,12132.4798113,E,4,57,0.47,16.701,M,15.25,M,1,3335*4A
$GNRMC,032904.200,A,2500.7940932,N,12132.4798113,E,0.08,104.38,090324,,,R,V*1A
$GPHDT,316.871,T*3F
$GNACCURACY,5.0*13
$GNGGA,032904.300,2500.7940941,N,12132.4798112,E,4,57,0.47,16.694,M,15.25,M,1,3335*43
$GNRMC,032904.300,A,2500.7940941,N,12132.4798112,E,0.05,104.38,090324,,,R,V*13
$GPHDT,,T*1B
$GNACCURACY,5.0*13
$GNGGA,032904.400,2500.7940953,N,12132.4798102,E,4,57,0.47,16.701,M,15.25,M,1,3335*4B
$GNRMC,032904.400,A,2500.7940953,N,12132.4798102,E,0.08,104.38,090324,,,R,V*1B
$GPHDT,316.932,T*39
$GNACCURACY,5.0*13
$GNGGA,032904.500,2500.7940929,N,12132.4798119,E,4,57,0.47,16.699,M,15.25,M,1,3335*4D
$GNRMC,032904.500,A,2500.7940929,N,12132.4798119,E,0.02,104.38,090324,,,R,V*17
$GPHDT,,T*1B
$GNACCURACY,5.0*13
$GNGGA,032904.600,2500.7940944,N,12132.4798135,E,4,56,0.48,16.710,M,15.25,M,0,3335*44
$GNRMC,032904.600,A,2500.7940944,N,12132.4798135,E,0.06,104.38,090324,,,R,V*15
$GPHDT,316.809,T*30
$GNACCURACY,5.0*13
$GNGGA,032904.700,2500.7940938,N,12132.4798140,E,4,56,0.48,16.715,M,15.25,M,0,3335*49
$GNRMC,032904.700,A,2500.7940938,N,12132.4798140,E,0.07,104.38,090324,,,R,V*1C
$GPHDT,,T*1B
$GNACCURACY,5.0*13
$GNGGA,032904.800,2500.7940939,N,12132.4798132,E,4,56,0.48,16.709,M,15.25,M,0,3335*4F
$GNRMC,032904.800,A,2500.7940939,N,12132.4798132,E,0.03,104.38,090324,,,R,V*13
$GPHDT,316.898,T*38
$GNACCURACY,5.0*13
$GNGGA,032904.900,2500.7940940,N,12132.4798107,E,4,56,0.48,16.700,M,15.25,M,0,3335*4F
$GNRMC,032904.900,A,2500.7940940,N,12132.4798107,E,0.05,104.38,090324,,,R,V*1C
$GPHDT,,T*1B
$GNACCURACY,5.0*13
$GNGGA,032905.000,2500.7940936,N,12132.4798162,E,4,56,0.48,16.718,M,15.25,M,1,3335*4D
$GNRMC,032905.000,A,2500.7940936,N,12132.4798162,E,0.05,104.38,090324,,,R,V*16
$GPHDT,316.578,T*3B
$GNGSA,A,3,08,194,195,27,21,16,04,09,02,07,196,31,0.88,0.48,0.74,1*32
$GNGSA,A,3,88,78,81,77,87,79,,,,,,,0.88,0.48,0.74,2*0A
$GNGSA,A,3,21,13,19,27,26,15,,,,,,,0.88,0.48,0.74,3*00
$GNGSA,A,3,06,16,09,43,39,40,07,23,10,11,25,28,0.88,0.48,0.74,4*00
$GNGSA,A,3,34,,,,,,,,,,,,0.88,0.48,0.74,4*0C
$GPGSV,4,1,15,08,72,308,45,199,64,166,,194,63,046,44,195,58,123,42,1*5D
$GPGSV,4,2,15,27,49,027,45,45,47,231,33,21,40,169,33,16,35,056,44,1*63
$GPGSV,4,3,15,04,31,216,36,09,30,266,23,02,29,181,26,07,26,320,19,1*67
$GPGSV,4,4,15,196,21,173,24,26,17,084,19,31,15,137,17,1*6D
$GPGSV,2,1,06,08,72,308,45,194,63,046,41,195,58,123,38,27,49,027,36,8*62
$GPGSV,2,2,06,04,31,216,42,196,21,173,28,8*5C
$GLGSV,2,1,06,88,72,072,41,78,46,006,35,81,41,189,35,77,32,087,21,1*72
$GLGSV,2,2,06,87,21,029,19,79,12,320,21,1*7E
$GAGSV,2,1,07,21,51,349,24,13,50,108,32,19,36,257,21,27,34,063,42,7*78
$GAGSV,2,2,07,26,28,175,23,15,22,049,22,04,10,312,,7*44
$GAGSV,2,1,06,21,51,349,33,13,50,108,30,19,36,257,18,27,34,063,39,1*7D
$GAGSV,2,2,06,26,28,175,29,15,22,049,36,1*79
$GBGSV,4,1,13,06,81,225,42,16,78,191,42,09,75,300,39,43,74,060,47,1*79
$GBGSV,4,2,13,39,67,177,43,40,65,316,42,07,63,294,31,23,62,357,42,1*77
$GBGSV,4,3,13,10,52,277,33,11,48,045,43,25,47,097,17,28,39,208,37,1*7F
$GBGSV,4,4,13,34,25,040,45,1*41
$GBGSV,2,1,07,43,74,060,45,39,67,177,42,40,65,316,40,23,62,357,44,4*7B
$GBGSV,2,2,07,25,47,097,31,28,39,208,39,34,25,040,38,4*43
$GNACCURACY,5.0*13
$PAIRSAT,1,35,2,0,201,3,0,200,4,0,221,5,0,200,6,0,200,7,0,201,8,0,221,9,0,221,10,0,200,11,0,200,12,0,200,13,0,200,14,0,200,15,0,200,16,0,201,17,0,200,18,0,200,19,0,200,20,0,200,21,0,201,22,0,200,23,0,200,24,0,200,25,0,200,26,0,221,27,0,221,28,0,200,29,0,200,30,0,200,31,0,201,32,0,200,194,0,621,195,0,621,196,0,620,199,0,600*5B
$PAIRSAT,2,23,65,0,200,66,0,200,67,0,200,68,0,200,70,0,200,71,0,200,72,0,200,73,0,200,74,0,200,75,0,200,76,0,200,77,0,201,78,0,201,79,0,201,80,0,200,81,0,201,82,0,200,83,0,200,84,0,200,85,0,200,86,0,200,87,0,201,88,0,201*5C
$PAIRSAT,3,23,2,0,1200,3,0,1200,4,0,1200,5,0,200,7,0,1200,8,0,1200,9,0,1200,10,0,1200,11,0,1200,12,0,1200,13,0,1221,15,0,1221,19,0,1221,21,0,1221,24,0,1200,25,0,1200,26,0,1221,27,0,1221,30,0,1200,31,0,1200,33,0,1200,34,0,1200,36,0,1200*6A
$PAIRSAT,4,46,1,0,200,2,0,200,3,0,600,4,0,200,5,0,200,6,0,201,7,0,201,8,0,200,9,0,201,10,0,201,11,0,201,12,0,200,13,0,200,14,0,200,16,0,201,19,0,600,20,0,600,21,0,600,22,0,600,23,0,621,24,0,600,25,0,621,26,0,600,27,0,600,28,0,621,29,0,600,30,0,600,32,0,600,33,0,600,34,0,621,35,0,600,36,0,600,37,0,600,38,0,600,39,0,621,40,0,421,41,0,600,42,0,600,43,0,621,44,0,400,45,0,400,46,0,400,59,0,400,60,0,400,61,0,400,62,0,400*4A
$PAIRDGP,7,2,4,7,8,9,16,21*5A
$GNGGA,032905.100,2500.7940947,N,12132.4798123,E,4,56,0.48,16.708,M,15.25,M,1,3335*4E
$GNRMC,032905.100,A,2500.7940947,N,12132.4798123,E,0.10,104.38,090324,,,R,V*10
$GPHDT,,T*1B
$GNACCURACY,5.0*13
$GNGGA,032905.200,2500.7940922,N,12132.4798155,E,4,56,0.48,16.709,M,15.25,M,1,3335*4E
$GNRMC,032905.200,A,2500.7940922,N,12132.4798155,E,0.04,104.38,090324,,,R,V*14
$GPHDT,316.567,T*35
$GNACCURACY,5.0*13
$GNGGA,032905.300,2500.7940959,N,12132.4798105,E,4,56,0.48,16.701,M,15.25,M,1,3335*4E
$GNRMC,032905.300,A,2500.7940959,N,12132.4798105,E,0.04,104.38,090324,,,R,V*1C
$GPHDT,,T*1B
$GNACCURACY,5.0*13
$GNGGA,032905.400,2500.7940935,N,12132.4798159,E,4,56,0.48,16.717,M,15.25,M,1,3335*4D
$GNRMC,032905.400,A,2500.7940935,N,12132.4798159,E,0.03,104.38,090324,,,R,V*1F
$GPHDT,316.373,T*36
$GNACCURACY,5.0*13
$GNGGA,032905.500,2500.7940953,N,12132.4798125,E,4,56,0.48,16.712,M,15.25,M,1,3335*42
$GNRMC,032905.500,A,2500.7940953,N,12132.4798125,E,0.08,104.38,090324,,,R,V*1E
$GPHDT,,T*1B
$GNACCURACY,5.0*13
$GNGGA,032905.600,2500.7940937,N,12132.4798129,E,4,57,0.47,16.721,M,15.25,M,0,3335*40
$GNRMC,032905.600,A,2500.7940937,N,12132.4798129,E,0.00,104.38,090324,,,R,V*1B
$GPHDT,316.813,T*3B
$GNACCURACY,5.0*13
$GNGGA,032905.700,2500.7940952,N,12132.4798144,E,4,57,0.47,16.715,M,15.25,M,0,3335*4E
$GNRMC,032905.700,A,2500.7940952,N,12132.4798144,E,0.05,104.38,090324,,,R,V*17
$GPHDT,,T*1B
$GNACCURACY,5.0*13
$GNGGA,032905.800,2500.7940938,N,12132.4798111,E,4,57,0.47,16.715,M,15.25,M,0,3335*4D
$GNRMC,032905.800,A,2500.7940938,N,12132.4798111,E,0.06,104.38,090324,,,R,V*17
$GPHDT,316.783,T*3D
$GNACCURACY,4.9*1B
$GNGGA,032905.900,2500.7940929,N,12132.4798151,E,4,57,0.47,16.720,M,15.25,M,0,3335*4E
$GNRMC,032905.900,A,2500.7940929,N,12132.4798151,E,0.02,104.38,090324,,,R,V*16
$GPHDT,,T*1B
$GNACCURACY,4.9*1B
$GNGGA,032906.000,2500.7940921,N,12132.4798154,E,4,57,0.47,16.717,M,15.25,M,1,3335*4C
$GNRMC,032906.000,A,2500.7940921,N,12132.4798154,E,0.05,104.38,090324,,,R,V*16
$GPHDT,316.678,T*38
$GNGSA,A,3,08,194,195,27,21,16,04,09,02,07,196,26,0.86,0.47,0.72,1*33
$GNGSA,A,3,31,,,,,,,,,,,,0.86,0.47,0.72,1*0B
$GNGSA,A,3,88,78,81,77,87,79,,,,,,,0.86,0.47,0.72,2*0D
$GNGSA,A,3,21,13,19,27,26,15,,,,,,,0.86,0.47,0.72,3*07
$GNGSA,A,3,06,16,09,43,39,40,07,23,10,11,25,28,0.86,0.47,0.72,4*07
$GNGSA,A,3,34,,,,,,,,,,,,0.86,0.47,0.72,4*0B
$GPGSV,4,1,15,08,72,308,45,199,64,166,,194,63,046,44,195,58,123,43,1*5C
$GPGSV,4,2,15,27,49,027,45,45,47,231,33,21,40,169,33,16,35,056,44,1*63
$GPGSV,4,3,15,04,31,216,36,09,30,266,27,02,29,181,27,07,26,320,20,1*68
$GPGSV,4,4,15,196,21,173,24,26,17,084,24,31,15,137,15,1*61
$GPGSV,2,1,06,08,72,308,45,194,63,046,41,195,58,123,39,27,49,027,36,8*63
$GPGSV,2,2,06,04,31,216,43,196,21,173,28,8*5D
$GLGSV,2,1,06,88,72,072,41,78,46,006,35,81,41,189,35,77,32,087,21,1*72
$GLGSV,2,2,06,87,21,029,19,79,12,320,20,1*7F
$GAGSV,2,1,07,21,51,349,24,13,50,108,32,19,36,257,21,27,34,063,42,7*78
$GAGSV,2,2,07,26,28,175,24,15,22,049,22,04,10,312,,7*43
$GAGSV,2,1,06,21,51,349,34,13,50,108,33,19,36,257,20,27,34,063,39,1*72
$GAGSV,2,2,06,26,28,175,30,15,22,049,36,1*71
$GBGSV,4,1,13,06,81,225,42,16,78,191,42,09,75,300,39,43,74,060,47,1*79
$GBGSV,4,2,13,39,67,177,43,40,65,316,42,07,63,294,31,23,62,357,42,1*77
$GBGSV,4,3,13,10,52,277,34,11,48,045,43,25,47,097,15,28,39,208,37,1*7A
$GBGSV,4,4,13,34,25,040,45,1*41
$GBGSV,2,1,07,43,74,060,45,39,67,177,42,40,65,316,40,23,62,357,44,4*7B
$GBGSV,2,2,07,25,47,097,31,28,39,208,39,34,25,040,40,4*4C
$GNACCURACY,4.9*1B
$PAIRSAT,1,35,2,0,201,3,0,200,4,0,221,5,0,200,6,0,200,7,0,201,8,0,221,9,0,221,10,0,200,11,0,200,12,0,200,13,0,200,14,0,200,15,0,200,16,0,201,17,0,200,18,0,200,19,0,200,20,0,200,21,0,201,22,0,200,23,0,200,24,0,200,25,0,200,26,0,221,27,0,221,28,0,200,29,0,200,30,0,200,31,0,201,32,0,200,194,0,621,195,0,621,196,0,620,199,0,600*5B
$PAIRSAT,2,23,65,0,200,66,0,200,67,0,200,68,0,200,70,0,200,71,0,200,72,0,200,73,0,200,74,0,200,75,0,200,76,0,200,77,0,201,78,0,201,79,0,201,80,0,200,81,0,201,82,0,200,83,0,200,84,0,200,85,0,200,86,0,200,87,0,201,88,0,201*5C
$PAIRSAT,3,23,2,0,1200,3,0,1200,4,0,1200,5,0,200,7,0,1200,8,0,1200,9,0,1200,10,0,1200,11,0,1200,12,0,1200,13,0,1221,15,0,1221,19,0,1221,21,0,1221,24,0,1200,25,0,1200,26,0,1221,27,0,1221,30,0,1200,31,0,1200,33,0,1200,34,0,1200,36,0,1200*6A
$PAIRSAT,4,46,1,0,200,2,0,200,3,0,600,4,0,200,5,0,200,6,0,201,7,0,201,8,0,200,9,0,201,10,0,201,11,0,201,12,0,200,13,0,200,14,0,200,16,0,201,19,0,600,20,0,600,21,0,600,22,0,600,23,0,621,24,0,600,25,0,621,26,0,600,27,0,600,28,0,621,29,0,600,30,0,600,32,0,600,33,0,600,34,0,621,35,0,600,36,0,600,37,0,600,38,0,600,39,0,621,40,0,421,41,0,600,42,0,600,43,0,621,44,0,400,45,0,400,46,0,400,59,0,400,60,0,400,61,0,400,62,0,400*4A
$PAIRDGP,7,2,4,7,8,9,16,21*5A
$GNGGA,032906.100,2500.7940905,N,12132.4798219,E,4,57,0.47,16.725,M,15.25,M,1,3335*40
$GNRMC,032906.100,A,2500.7940905,N,12132.4798219,E,0.04,104.38,090324,,,R,V*1A
$GPHDT,,T*1B
$GNACCURACY,4.9*1B
$GNGGA,032906.200,2500.7940930,N,12132.4798155,E,4,57,0.47,16.715,M,15.25,M,1,3335*4D
$GNRMC,032906.200,A,2500.7940930,N,12132.4798155,E,0.11,104.38,090324,,,R,V*10
$GPHDT,316.580,T*3C
$GNACCURACY,4.9*1B
$GNGGA,032906.300,2500.7940939,N,12132.4798130,E,4,57,0.47,16.714,M,15.25,M,1,3335*47
$GNRMC,032906.300,A,2500.7940939,N,12132.4798130,E,0.08,104.38,090324,,,R,V*13
$GPHDT,,T*1B
$GNACCURACY,4.9*1B
$GNGGA,032906.400,2500.7940925,N,12132.4798139,E,4,57,0.47,16.714,M,15.25,M,1,3335*44
$GNRMC,032906.400,A,2500.7940925,N,12132.4798139,E,0.07,104.38,090324,,,R,V*1F
$GPHDT,316.825,T*3E
$GNACCURACY,4.9*1B
$GNGGA,032906.500,2500.7940962,N,12132.4798122,E,4,57,0.47,16.721,M,15.25,M,0,3335*4B
$GNRMC,032906.500,A,2500.7940962,N,12132.4798122,E,0.06,104.38,090324,,,R,V*16
$GPHDT,,T*1B
$GNACCURACY,4.9*1B
$GNGGA,032906.600,2500.7940950,N,12132.4798141,E,4,58,0.47,16.718,M,15.25,M,0,3335*49
$GNRMC,032906.600,A,2500.7940950,N,12132.4798141,E,0.12,104.38,090324,,,R,V*14
$GPHDT,316.556,T*37
$GNACCURACY,4.9*1B
$GNGGA,032906.700,2500.7940956,N,12132.4798125,E,4,58,0.47,16.713,M,15.25,M,0,3335*47
$GNRMC,032906.700,A,2500.7940956,N,12132.4798125,E,0.08,104.38,090324,,,R,V*1A
$GPHDT,,T*1B
$GNACCURACY,4.9*1B
$GNGGA,032906.800,2500.7940939,N,12132.4798155,E,4,58,0.47,16.717,M,15.25,M,0,3335*42
$GNRMC,032906.800,A,2500.7940939,N,12132.4798155,E,0.14,104.38,090324,,,R,V*16
$GPHDT,316.432,T*34
$GNACCURACY,4.9*1B
$GNGGA,032906.900,2500.7940974,N,12132.4798094,E,4,58,0.47,16.714,M,15.25,M,0,3335*45
$GNRMC,032906.900,A,2500.7940974,N,12132.4798094,E,0.07,104.38,090324,,,R,V*10
$GPHDT,,T*1B
$GNACCURACY,4.9*1B
$GNGGA,032907.000,2500.7940936,N,12132.4798133,E,4,58,0.47,16.708,M,15.25,M,1,3335*4B
$GNRMC,032907.000,A,2500.7940936,N,12132.4798133,E,0.05,104.38,090324,,,R,V*10
$GPHDT,316.895,T*35
$GNGSA,A,3,08,194,195,27,21,16,04,09,02,07,196,26,0.86,0.47,0.72,1*33
$GNGSA,A,3,31,,,,,,,,,,,,0.86,0.47,0.72,1*0B
$GNGSA,A,3,88,78,81,77,87,79,,,,,,,0.86,0.47,0.72,2*0D
$GNGSA,A,3,21,13,19,27,26,15,,,,,,,0.86,0.47,0.72,3*07
$GNGSA,A,3,06,16,09,43,39,40,07,23,10,11,25,28,0.86,0.47,0.72,4*07
$GNGSA,A,3,34,,,,,,,,,,,,0.86,0.47,0.72,4*0B
$GPGSV,4,1,15,08,72,308,45,199,64,166,,194,63,046,44,195,58,123,43,1*5C
$GPGSV,4,2,15,27,49,027,45,45,47,231,33,21,40,169,33,16,35,056,44,1*63
$GPGSV,4,3,15,04,31,216,36,09,30,266,28,02,29,181,28,07,26,320,20,1*68
$GPGSV,4,4,15,196,21,173,22,26,17,084,27,31,15,137,16,1*67
$GPGSV,2,1,07,08,72,308,45,194,63,046,41,195,58,123,39,27,49,027,36,8*62
$GPGSV,2,2,07,04,31,216,43,196,21,173,28,26,17,084,24,8*64
$GLGSV,2,1,06,88,72,072,42,78,46,006,35,81,41,189,35,77,32,087,23,1*73
$GLGSV,2,2,06,87,21,029,19,79,12,320,18,1*74
$GAGSV,2,1,07,21,51,349,23,13,50,108,32,19,36,257,24,27,34,063,42,7*7A
$GAGSV,2,2,07,26,28,175,25,15,22,049,23,04,10,312,,7*43
$GAGSV,2,1,06,21,51,349,34,13,50,108,33,19,36,257,18,27,34,063,39,1*79
$GAGSV,2,2,06,26,28,175,30,15,22,049,37,1*70
$GBGSV,4,1,13,06,81,225,42,16,78,191,42,09,75,300,39,43,74,060,47,1*79
$GBGSV,4,2,13,39,67,177,43,40,65,316,42,07,63,294,32,23,62,357,42,1*74
$GBGSV,4,3,13,10,52,277,34,11,48,045,43,25,47,097,15,28,39,208,37,1*7A
$GBGSV,4,4,13,34,25,040,45,1*41
$GBGSV,2,1,07,43,74,060,45,39,67,177,42,40,65,316,40,23,62,357,44,4*7B
$GBGSV,2,2,07,25,47,097,32,28,39,208,39,34,25,040,40,4*4F
$GNACCURACY,4.9*1B
$PAIRSAT,1,35,2,0,201,3,0,200,4,0,221,5,0,200,6,0,200,7,0,201,8,0,221,9,0,221,10,0,200,11,0,200,12,0,200,13,0,200,14,0,200,15,0,200,16,0,201,17,0,200,18,0,200,19,0,200,20,0,200,21,0,201,22,0,200,23,0,200,24,0,200,25,0,200,26,0,221,27,0,221,28,0,200,29,0,200,30,0,200,31,0,201,32,0,200,194,0,621,195,0,621,196,0,620,199,0,600*5B
$PAIRSAT,2,23,65,0,200,66,0,200,67,0,200,68,0,200,70,0,200,71,0,200,72,0,200,73,0,200,74,0,200,75,0,200,76,0,200,77,0,201,78,0,201,79,0,201,80,0,200,81,0,201,82,0,200,83,0,200,84,0,200,85,0,200,86,0,200,87,0,201,88,0,201*5C
$PAIRSAT,3,23,2,0,1200,3,0,1200,4,0,1200,5,0,200,7,0,1200,8,0,1200,9,0,1200,10,0,1200,11,0,1200,12,0,1200,13,0,1221,15,0,1221,19,0,1221,21,0,1221,24,0,1200,25,0,1200,26,0,1221,27,0,1221,30,0,1200,31,0,1200,33,0,1200,34,0,1200,36,0,1200*6A
$PAIRSAT,4,46,1,0,200,2,0,200,3,0,600,4,0,200,5,0,200,6,0,201,7,0,201,8,0,200,9,0,201,10,0,201,11,0,201,12,0,200,13,0,200,14,0,200,16,0,201,19,0,600,20,0,600,21,0,600,22,0,600,23,0,621,24,0,600,25,0,621,26,0,600,27,0,600,28,0,621,29,0,600,30,0,600,32,0,600,33,0,600,34,0,621,35,0,600,36,0,600,37,0,600,38,0,600,39,0,621,40,0,421,41,0,600,42,0,600,43,0,621,44,0,400,45,0,400,46,0,400,59,0,400,60,0,400,61,0,400,62,0,400*4A
$PAIRDGP,7,2,4,7,8,9,16,21*5A
$GNGGA,032907.100,2500.7940946,N,12132.4798146,E,4,58,0.47,16.711,M,15.25,M,1,3335*47
$GNRMC,032907.100,A,2500.7940946,N,12132.4798146,E,0.07,104.38,090324,,,R,V*16
$GPHDT,,T*1B
$GNACCURACY,4.9*1B
$GNGGA,032907.200,2500.7940953,N,12132.4798107,E,4,58,0.47,16.704,M,15.25,M,1,3335*41
$GNRMC,032907.200,A,2500.7940953,N,12132.4798107,E,0.07,104.38,090324,,,R,V*14
$GPHDT,316.778,T*39
$GNACCURACY,4.9*1B
$GNGGA,032907.300,2500.7940944,N,12132.4798134,E,4,58,0.47,16.715,M,15.25,M,1,3335*46
$GNRMC,032907.300,A,2500.7940944,N,12132.4798134,E,0.06,104.38,090324,,,R,V*12
$GPHDT,,T*1B
$GNACCURACY,4.9*1B
$GNGGA,032907.400,2500.7940935,N,12132.4798152,E,4,58,0.47,16.714,M,15.25,M,1,3335*46
$GNRMC,032907.400,A,2500.7940935,N,12132.4798152,E,0.06,104.38,090324,,,R,V*13
$GPHDT,316.533,T*34
$GNACCURACY,4.9*1B
$GNGGA,032907.500,2500.7940940,N,12132.4798148,E,4,58,0.47,16.720,M,15.25,M,1,3335*49
$GNRMC,032907.500,A,2500.7940940,N,12132.4798148,E,0.05,104.38,090324,,,R,V*18
$GPHDT,,T*1B
$GNACCURACY,4.9*1B
$GNGGA,032907.600,2500.7940940,N,12132.4798132,E,4,57,0.47,16.706,M,15.25,M,1,3335*4C
$GNRMC,032907.600,A,2500.7940940,N,12132.4798132,E,0.03,104.38,090324,,,R,V*10
$GPHDT,316.711,T*36
$GNACCURACY,4.9*1B
$GNGGA,032907.700,2500.7940947,N,12132.4798169,E,4,57,0.47,16.727,M,15.25,M,0,3335*46
$GNRMC,032907.700,A,2500.7940947,N,12132.4798169,E,0.04,104.38,090324,,,R,V*1F
$GPHDT,,T*1B
$GNACCURACY,4.9*1B
$GNGGA,032907.800,2500.7940939,N,12132.4798159,E,4,57,0.47,16.719,M,15.25,M,0,3335*4E
$GNRMC,032907.800,A,2500.7940939,N,12132.4798159,E,0.04,104.38,090324,,,R,V*1A
$GPHDT,316.508,T*3C
$GNACCURACY,4.9*1B
$GNGGA,032907.900,2500.7940950,N,12132.4798136,E,4,57,0.47,16.723,M,15.25,M,0,3335*40
$GNRMC,032907.900,A,2500.7940950,N,12132.4798136,E,0.04,104.38,090324,,,R,V*1D
$GPHDT,,T*1B
$GNACCURACY,4.9*1B
$GNGGA,032908.000,2500.7940949,N,12132.4798131,E,4,57,0.47,16.718,M,15.25,M,1,3335*40
$GNRMC,032908.000,A,2500.7940949,N,12132.4798131,E,0.01,104.38,090324,,,R,V*11
$GPHDT,316.701,T*37
$GNGSA,A,3,08,194,195,27,21,16,04,09,02,07,196,26,0.86,0.47,0.72,1*33
$GNGSA,A,3,31,,,,,,,,,,,,0.86,0.47,0.72,1*0B
$GNGSA,A,3,88,78,81,77,87,79,,,,,,,0.86,0.47,0.72,2*0D
$GNGSA,A,3,21,13,19,27,26,15,,,,,,,0.86,0.47,0.72,3*07
$GNGSA,A,3,06,16,09,43,39,40,07,23,10,11,28,34,0.86,0.47,0.72,4*07
$GNGSA,A,3,25,,,,,,,,,,,,0.86,0.47,0.72,4*0B
$GPGSV,4,1,15,08,72,308,45,199,64,166,,194,63,046,44,195,58,123,43,1*5C
$GPGSV,4,2,15,27,49,027,45,45,47,231,33,21,40,169,31,16,35,056,44,1*61
$GPGSV,4,3,15,04,31,216,36,09,30,266,28,02,29,181,28,07,26,320,20,1*68
$GPGSV,4,4,15,196,21,173,21,26,17,084,27,31,15,137,16,1*64
$GPGSV,2,1,07,08,72,308,45,194,63,046,41,195,58,123,39,27,49,027,36,8*62
$GPGSV,2,2,07,04,31,216,43,196,21,173,29,26,17,084,25,8*64
$GLGSV,2,1,06,88,72,072,42,78,46,006,35,81,41,189,35,77,32,087,23,1*73
$GLGSV,2,2,06,87,21,029,21,79,12,320,15,1*72
$GAGSV,2,1,07,21,51,349,21,13,50,108,32,19,36,257,24,27,33,063,42,7*7F
$GAGSV,2,2,07,26,28,175,25,15,22,049,23,04,10,312,,7*43
$GAGSV,2,1,06,21,51,349,34,13,50,108,32,19,36,257,18,27,33,063,38,1*7E
$GAGSV,2,2,06,26,28,175,31,15,22,049,37,1*71
$GBGSV,4,1,13,06,81,225,42,16,78,191,42,09,75,300,40,43,74,060,47,1*77
$GBGSV,4,2,13,39,67,177,43,40,65,316,42,07,63,294,32,23,62,357,42,1*74
$GBGSV,4,3,13,10,52,277,34,11,48,045,43,25,47,097,15,28,39,208,37,1*7A
$GBGSV,4,4,13,34,25,040,45,1*41
$GBGSV,2,1,07,43,74,060,45,39,67,177,42,40,65,316,40,23,62,357,44,4*7B
$GBGSV,2,2,07,25,47,097,32,28,39,208,39,34,25,040,40,4*4F
$GNACCURACY,5.0*13
$PAIRSAT,1,35,2,0,201,3,0,200,4,0,221,5,0,200,6,0,200,7,0,201,8,0,221,9,0,221,10,0,200,11,0,200,12,0,200,13,0,200,14,0,200,15,0,200,16,0,201,17,0,200,18,0,200,19,0,200,20,0,200,21,0,201,22,0,200,23,0,200,24,0,200,25,0,200,26,0,221,27,0,221,28,0,200,29,0,200,30,0,200,31,0,201,32,0,200,194,0,621,195,0,621,196,0,620,199,0,600*5B
$PAIRSAT,2,23,65,0,200,66,0,200,67,0,200,68,0,200,70,0,200,71,0,200,72,0,200,73,0,200,74,0,200,75,0,200,76,0,200,77,0,201,78,0,201,79,0,201,80,0,200,81,0,201,82,0,200,83,0,200,84,0,200,85,0,200,86,0,200,87,0,201,88,0,201*5C
$PAIRSAT,3,23,2,0,1200,3,0,1200,4,0,1200,5,0,200,7,0,1200,8,0,1200,9,0,1200,10,0,1200,11,0,1200,12,0,1200,13,0,1221,15,0,1221,19,0,1221,21,0,1221,24,0,1200,25,0,1200,26,0,1221,27,0,1221,30,0,1200,31,0,1200,33,0,1200,34,0,1200,36,0,1200*6A
$PAIRSAT,4,46,1,0,200,2,0,200,3,0,600,4,0,200,5,0,200,6,0,201,7,0,201,8,0,200,9,0,201,10,0,201,11,0,201,12,0,200,13,0,200,14,0,200,16,0,201,19,0,600,20,0,600,21,0,600,22,0,600,23,0,621,24,0,600,25,0,621,26,0,600,27,0,600,28,0,621,29,0,600,30,0,600,32,0,600,33,0,600,34,0,621,35,0,600,36,0,600,37,0,600,38,0,600,39,0,621,40,0,421,41,0,600,42,0,600,43,0,621,44,0,400,45,0,400,46,0,400,59,0,400,60,0,400,61,0,400,62,0,400*4A
$PAIRDGP,7,2,4,7,8,9,16,21*5A
$GNGGA,032908.100,2500.7940947,N,12132.4798141,E,4,57,0.47,16.716,M,15.25,M,1,3335*46
$GNRMC,032908.100,A,2500.7940947,N,12132.4798141,E,0.01,104.38,090324,,,R,V*19
$GPHDT,,T*1B
$GNACCURACY,5.0*13
$GNGGA,032908.200,2500.7940941,N,12132.4798146,E,4,57,0.47,16.720,M,15.25,M,1,3335*41
$GNRMC,032908.200,A,2500.7940941,N,12132.4798146,E,0.02,104.38,090324,,,R,V*18
$GPHDT,316.423,T*34
$GNACCURACY,5.0*13
$GNGGA,032908.300,2500.7940937,N,12132.4798142,E,4,57,0.47,16.713,M,15.25,M,1,3335*45
$GNRMC,032908.300,A,2500.7940937,N,12132.4798142,E,0.02,104.38,090324,,,R,V*1C
$GPHDT,,T*1B
$GNACCURACY,5.0*13
$GNGGA,032908.400,2500.7940927,N,12132.4798172,E,4,57,0.47,16.720,M,15.25,M,1,3335*40
$GNRMC,032908.400,A,2500.7940927,N,12132.4798172,E,0.01,104.38,090324,,,R,V*1A
$GPHDT,316.321,T*31
$GNACCURACY,5.0*13
$GNGGA,032908.500,2500.7940928,N,12132.4798138,E,4,57,0.47,16.708,M,15.25,M,1,3335*4A
$GNRMC,032908.500,A,2500.7940928,N,12132.4798138,E,0.05,104.38,090324,,,R,V*1E
$GPHDT,,T*1B
$GNACCURACY,5.0*13
$GNGGA,032908.600,2500.7940923,N,12132.4798158,E,4,57,0.47,16.719,M,15.25,M,0,3335*45
$GNRMC,032908.600,A,2500.7940923,N,12132.4798158,E,0.05,104.38,090324,,,R,V*10
$GPHDT,316.110,T*31
$GNACCURACY,5.0*13
$GNGGA,032908.700,2500.7940929,N,12132.4798130,E,4,57,0.47,16.711,M,15.25,M,0,3335*48
$GNRMC,032908.700,A,2500.7940929,N,12132.4798130,E,0.10,104.38,090324,,,R,V*11
$GPHDT,,T*1B
$GNACCURACY,5.0*13
$GNGGA,032908.800,2500.7940932,N,12132.4798139,E,4,57,0.47,16.720,M,15.25,M,0,3335*46
$GNRMC,032908.800,A,2500.7940932,N,12132.4798139,E,0.06,104.38,090324,,,R,V*1A
$GPHDT,316.291,T*3B
$GNACCURACY,5.0*13
$GNGGA,032908.900,2500.7940932,N,12132.4798159,E,4,57,0.47,16.718,M,15.25,M,0,3335*4A
$GNRMC,032908.900,A,2500.7940932,N,12132.4798159,E,0.05,104.38,090324,,,R,V*1E
$GPHDT,,T*1B
$GNACCURACY,5.0*13
$GNGGA,032909.000,2500.7940936,N,12132.4798139,E,4,57,0.47,16.719,M,15.25,M,1,3335*40
$GNRMC,032909.000,A,2500.7940936,N,12132.4798139,E,0.04,104.38,090324,,,R,V*15
$GPHDT,316.064,T*33
$GNGSA,A,3,08,194,195,27,21,16,04,09,02,07,196,26,0.86,0.47,0.72,1*33
$GNGSA,A,3,31,,,,,,,,,,,,0.86,0.47,0.72,1*0B
$GNGSA,A,3,88,78,81,77,87,79,,,,,,,0.86,0.47,0.72,2*0D
$GNGSA,A,3,21,13,19,27,26,15,,,,,,,0.86,0.47,0.72,3*07
$GNGSA,A,3,06,16,09,43,39,40,07,23,10,11,28,34,0.86,0.47,0.72,4*07
$GNGSA,A,3,25,,,,,,,,,,,,0.86,0.47,0.72,4*0B
$GPGSV,4,1,15,08,72,308,45,199,64,166,,194,63,046,44,195,58,123,43,1*5C
$GPGSV,4,2,15,27,49,027,45,45,47,231,33,21,40,169,34,16,35,056,44,1*64
$GPGSV,4,3,15,04,31,216,36,09,30,266,28,02,29,181,28,07,26,320,21,1*69
$GPGSV,4,4,15,196,21,173,21,26,17,084,28,31,15,137,14,1*69
$GPGSV,2,1,07,08,72,308,45,194,63,046,41,195,58,123,39,27,49,027,36,8*62
$GPGSV,2,2,07,04,31,216,43,196,21,173,29,26,17,084,24,8*65
$GLGSV,2,1,06,88,72,072,42,78,46,006,34,81,41,189,34,77,32,087,24,1*74
$GLGSV,2,2,06,87,21,029,21,79,12,320,14,1*73
$GAGSV,2,1,06,21,51,349,21,13,50,108,31,19,36,257,24,27,33,063,42,7*7D
$GAGSV,2,2,06,26,28,175,23,15,22,049,23,7*71
$GAGSV,2,1,06,21,51,349,34,13,50,108,32,19,36,257,19,27,33,063,38,1*7F
$GAGSV,2,2,06,26,28,175,31,15,22,049,37,1*71
$GBGSV,4,1,13,06,81,225,42,16,78,191,42,09,75,300,40,43,74,060,47,1*77
$GBGSV,4,2,13,39,67,177,43,40,65,316,42,07,63,294,32,23,62,357,42,1*74
$GBGSV,4,3,13,10,52,277,34,11,48,045,43,25,47,097,16,28,39,208,38,1*76
$GBGSV,4,4,13,34,25,040,45,1*41
$GBGSV,2,1,07,43,74,060,45,39,67,177,42,40,65,316,40,23,62,357,44,4*7B
$GBGSV,2,2,07,25,47,097,32,28,39,208,39,34,25,040,40,4*4F
$GNACCURACY,4.9*1B
$PAIRSAT,1,35,2,0,201,3,0,200,4,0,221,5,0,200,6,0,200,7,0,201,8,0,221,9,0,221,10,0,200,11,0,200,12,0,200,13,0,200,14,0,200,15,0,200,16,0,201,17,0,200,18,0,200,19,0,200,20,0,200,21,0,201,22,0,200,23,0,200,24,0,200,25,0,200,26,0,221,27,0,221,28,0,200,29,0,200,30,0,200,31,0,201,32,0,200,194,0,621,195,0,621,196,0,620,199,0,600*5B
$PAIRSAT,2,23,65,0,200,66,0,200,67,0,200,68,0,200,70,0,200,71,0,200,72,0,200,73,0,200,74,0,200,75,0,200,76,0,200,77,0,201,78,0,201,79,0,201,80,0,200,81,0,201,82,0,200,83,0,200,84,0,200,85,0,200,86,0,200,87,0,201,88,0,201*5C
$PAIRSAT,3,23,2,0,1200,3,0,1200,4,0,1200,5,0,200,7,0,1200,8,0,1200,9,0,1200,10,0,1200,11,0,1200,12,0,1200,13,0,1221,15,0,1221,19,0,1221,21,0,1221,24,0,1200,25,0,1200,26,0,1221,27,0,1221,30,0,1200,31,0,1200,33,0,1200,34,0,1200,36,0,1200*6A
$PAIRSAT,4,46,1,0,200,2,0,200,3,0,600,4,0,200,5,0,200,6,0,201,7,0,201,8,0,200,9,0,201,10,0,201,11,0,201,12,0,200,13,0,200,14,0,200,16,0,201,19,0,600,20,0,600,21,0,600,22,0,600,23,0,621,24,0,600,25,0,621,26,0,600,27,0,600,28,0,621,29,0,600,30,0,600,32,0,600,33,0,600,34,0,621,35,0,600,36,0,600,37,0,600,38,0,600,39,0,621,40,0,421,41,0,600,42,0,600,43,0,621,44,0,400,45,0,400,46,0,400,59,0,400,60,0,400,61,0,400,62,0,400*4A
$PAIRDGP,7,2,4,7,8,9,16,21*5A
$GNGGA,032909.100,2500.7940927,N,12132.4798150,E,4,57,0.47,16.719,M,15.25,M,1,3335*4E
$GNRMC,032909.100,A,2500.7940927,N,12132.4798150,E,0.05,104.38,090324,,,R,V*1A
$GPHDT,,T*1B
$GNACCURACY,5.0*13
$GNGGA,032909.200,2500.7940930,N,12132.4798160,E,4,57,0.47,16.721,M,15.25,M,1,3335*43
$GNRMC,032909.200,A,2500.7940930,N,12132.4798160,E,0.03,104.38,090324,,,R,V*1A
$GPHDT,316.182,T*3A
$GNACCURACY,5.0*13
$GNGGA,032909.300,2500.7940943,N,12132.4798142,E,4,57,0.47,16.720,M,15.25,M,1,3335*47
$GNRMC,032909.300,A,2500.7940943,N,12132.4798142,E,0.03,104.38,090324,,,R,V*1F
$GPHDT,,T*1B
$GNACCURACY,5.0*13
$GNGGA,032909.400,2500.7940942,N,12132.4798132,E,4,57,0.47,16.714,M,15.25,M,1,3335*41
$GNRMC,032909.400,A,2500.7940942,N,12132.4798132,E,0.04,104.38,090324,,,R,V*19
$GPHDT,316.303,T*31
$GNACCURACY,5.0*13
$GNGGA,032909.500,2500.7940938,N,12132.4798145,E,4,57,0.47,16.713,M,15.25,M,0,3335*4B
$GNRMC,032909.500,A,2500.7940938,N,12132.4798145,E,0.04,104.38,090324,,,R,V*15
$GPHDT,,T*1B
$GNACCURACY,5.0*13
$GNGGA,032909.600,2500.7940941,N,12132.4798110,E,4,57,0.47,16.712,M,15.25,M,0,3335*47
$GNRMC,032909.600,A,2500.7940941,N,12132.4798110,E,0.02,104.38,090324,,,R,V*1E
$GPHDT,316.449,T*38
$GNACCURACY,5.0*13
$GNGGA,032909.700,2500.7940942,N,12132.4798159,E,4,57,0.47,16.719,M,15.25,M,0,3335*43
$GNRMC,032909.700,A,2500.7940942,N,12132.4798159,E,0.02,104.38,090324,,,R,V*11
$GPHDT,,T*1B
$GNACCURACY,5.0*13
$GNGGA,032909.800,2500.7940929,N,12132.4798126,E,4,57,0.47,16.707,M,15.25,M,0,3335*46
$GNRMC,032909.800,A,2500.7940929,N,12132.4798126,E,0.12,104.38,090324,,,R,V*1A
$GPHDT,316.349,T*3F
$GNACCURACY,5.0*13
$GNGGA,032909.900,2500.7940936,N,12132.4798149,E,4,57,0.47,16.710,M,15.25,M,0,3335*46
$GNRMC,032909.900,A,2500.7940936,N,12132.4798149,E,0.01,104.38,090324,,,R,V*1E
$GPHDT,,T*1B
$GNACCURACY,5.0*13
$GNGGA,032910.000,2500.7940947,N,12132.4798133,E,4,57,0.47,16.708,M,15.25,M,1,3335*44
$GNRMC,032910.000,A,2500.7940947,N,12132.4798133,E,0.07,104.38,090324,,,R,V*12
$GPHDT,316.257,T*31
$GNGSA,A,3,08,194,195,27,21,16,04,09,02,07,196,26,0.86,0.47,0.72,1*33
$GNGSA,A,3,31,,,,,,,,,,,,0.86,0.47,0.72,1*0B
$GNGSA,A,3,88,78,81,77,87,79,,,,,,,0.86,0.47,0.72,2*0D
$GNGSA,A,3,21,13,19,27,26,15,,,,,,,0.86,0.47,0.72,3*07
$GNGSA,A,3,06,16,09,43,39,40,07,23,10,11,28,34,0.86,0.47,0.72,4*07
$GNGSA,A,3,25,,,,,,,,,,,,0.86,0.47,0.72,4*0B
$GPGSV,4,1,15,08,72,308,45,199,64,166,,194,63,046,44,195,58,123,43,1*5C
$GPGSV,4,2,15,27,49,027,45,45,47,231,33,21,40,169,34,16,35,056,45,1*65
$GPGSV,4,3,15,04,31,216,36,09,30,266,26,02,29,181,29,07,26,320,22,1*65
$GPGSV,4,4,15,196,21,173,23,26,17,084,28,31,15,137,15,1*6A
$GPGSV,2,1,07,08,72,308,45,194,63,046,41,195,58,123,39,27,49,027,35,8*61
$GPGSV,2,2,07,04,31,216,43,196,21,173,28,26,17,084,25,8*65
$GLGSV,2,1,06,88,72,072,42,78,46,006,34,81,41,189,33,77,32,087,23,1*74
$GLGSV,2,2,06,87,21,029,21,79,12,320,12,1*75
$GAGSV,2,1,06,21,51,349,21,13,50,108,31,19,36,257,24,27,33,063,42,7*7D
$GAGSV,2,2,06,26,28,175,24,15,22,049,23,7*76
$GAGSV,2,1,06,21,51,349,35,13,50,108,32,19,36,257,20,27,33,063,38,1*74
$GAGSV,2,2,06,26,28,175,31,15,22,049,37,1*71
$GBGSV,4,1,13,06,81,225,42,16,78,191,42,09,75,300,40,43,74,060,47,1*77
$GBGSV,4,2,13,39,67,177,43,40,65,316,42,07,63,294,32,23,62,357,42,1*74
$GBGSV,4,3,13,10,52,277,34,11,48,045,43,25,47,097,15,28,39,208,38,1*75
$GBGSV,4,4,13,34,25,040,45,1*41
$GBGSV,2,1,07,43,74,060,45,39,67,177,42,40,65,316,40,23,62,357,44,4*7B
$GBGSV,2,2,07,25,47,097,32,28,39,208,39,34,25,040,40,4*4F
$GNACCURACY,5.0*13
$PAIRSAT,1,35,2,0,201,3,0,200,4,0,221,5,0,200,6,0,200,7,0,201,8,0,221,9,0,221,10,0,200,11,0,200,12,0,200,13,0,200,14,0,200,15,0,200,16,0,201,17,0,200,18,0,200,19,0,200,20,0,200,21,0,201,22,0,200,23,0,200,24,0,200,25,0,200,26,0,221,27,0,221,28,0,200,29,0,200,30,0,200,31,0,201,32,0,200,194,0,621,195,0,621,196,0,620,199,0,600*5B
$PAIRSAT,2,23,65,0,200,66,0,200,67,0,200,68,0,200,70,0,200,71,0,200,72,0,200,73,0,200,74,0,200,75,0,200,76,0,200,77,0,201,78,0,201,79,0,201,80,0,200,81,0,201,82,0,200,83,0,200,84,0,200,85,0,200,86,0,200,87,0,201,88,0,201*5C
$PAIRSAT,3,23,2,0,1200,3,0,1200,4,0,1200,5,0,200,7,0,1200,8,0,1200,9,0,1200,10,0,1200,11,0,1200,12,0,1200,13,0,1221,15,0,1221,19,0,1221,21,0,1221,24,0,1200,25,0,1200,26,0,1221,27,0,1221,30,0,1200,31,0,1200,33,0,1200,34,0,1200,36,0,1200*6A
$PAIRSAT,4,46,1,0,200,2,0,200,3,0,600,4,0,200,5,0,200,6,0,201,7,0,201,8,0,200,9,0,201,10,0,201,11,0,201,12,0,200,13,0,200,14,0,200,16,0,201,19,0,600,20,0,600,21,0,600,22,0,600,23,0,621,24,0,600,25,0,621,26,0,600,27,0,600,28,0,621,29,0,600,30,0,600,32,0,600,33,0,600,34,0,621,35,0,600,36,0,600,37,0,600,38,0,600,39,0,621,40,0,421,41,0,600,42,0,600,43,0,621,44,0,400,45,0,400,46,0,400,59,0,400,60,0,400,61,0,400,62,0,400*4A
$PAIRDGP,7,2,4,7,8,9,16,21*5A
$GNGGA,032910.100,2500.7940941,N,12132.4798133,E,4,57,0.47,16.709,M,15.25,M,1,3335*42
$GNRMC,032910.100,A,2500.7940941,N,12132.4798133,E,0.03,104.38,090324,,,R,V*11
$GPHDT,,T*1B
$GNACCURACY,5.0*13
$GNGGA,032910.200,2500.7940930,N,12132.4798145,E,4,57,0.47,16.708,M,15.25,M,1,3335*47
$GNRMC,032910.200,A,2500.7940930,N,12132.4798145,E,0.04,104.38,090324,,,R,V*12
$GPHDT,316.319,T*3A
$GNACCURACY,5.0*13
$GNGGA,032910.300,2500.7940934,N,12132.4798144,E,4,57,0.47,16.710,M,15.25,M,1,3335*4A
$GNRMC,032910.300,A,2500.7940934,N,12132.4798144,E,0.02,104.38,090324,,,R,V*10
$GPHDT,,T*1B
$GNACCURACY,5.1*12
$GNGGA,032910.400,2500.7940959,N,12132.4798122,E,4,57,0.47,16.715,M,15.25,M,1,3335*43
$GNRMC,032910.400,A,2500.7940959,N,12132.4798122,E,0.05,104.38,090324,,,R,V*1B
$GPHDT,316.278,T*3C
$GNACCURACY,5.1*12
$GNGGA,032910.500,2500.7940954,N,12132.4798123,E,4,56,0.50,16.709,M,15.25,M,1,3335*44
$GNRMC,032910.500,A,2500.7940954,N,12132.4798123,E,0.08,104.38,090324,,,R,V*1B
$GPHDT,,T*1B
$GNACCURACY,5.0*13
$GNGGA,032910.600,2500.7940888,N,12132.4798217,E,4,56,0.50,16.720,M,15.25,M,1,3335*48
$GNRMC,032910.600,A,2500.7940888,N,12132.4798217,E,0.03,104.38,090324,,,R,V*17
$GPHDT,316.246,T*31
$GNACCURACY,5.1*12
$GNGGA,032910.700,2500.7940941,N,12132.4798184,E,4,56,0.50,16.712,M,15.25,M,0,3335*44
$GNRMC,032910.700,A,2500.7940941,N,12132.4798184,E,0.01,104.38,090324,,,R,V*19
$GPHDT,,T*1B
$GNACCURACY,5.1*12
$GNGGA,032910.800,2500.7940978,N,12132.4798075,E,4,57,0.50,16.692,M,15.25,M,0,3335*46
$GNRMC,032910.800,A,2500.7940978,N,12132.4798075,E,0.07,104.38,090324,,,R,V*15
$GPHDT,316.748,T*3A
$GNACCURACY,4.9*1B
$GNGGA,032910.900,2500.7940993,N,12132.4798122,E,4,57,0.50,16.715,M,15.25,M,0,3335*4F
$GNRMC,032910.900,A,2500.7940993,N,12132.4798122,E,0.07,104.38,090324,,,R,V*12
$GPHDT,,T*1B
$GNACCURACY,4.9*1B
$GNGGA,032911.000,2500.7940960,N,12132.4798160,E,4,57,0.50,16.722,M,15.25,M,1,3335*48
$GNRMC,032911.000,A,2500.7940960,N,12132.4798160,E,0.06,104.38,090324,,,R,V*11
$GPHDT,316.109,T*39
$GNGSA,A,3,08,194,195,27,21,16,04,09,02,07,196,26,0.93,0.50,0.79,1*3A
$GNGSA,A,3,31,,,,,,,,,,,,0.93,0.50,0.79,1*02
$GNGSA,A,3,88,78,81,77,87,,,,,,,,0.93,0.50,0.79,2*0A
$GNGSA,A,3,21,13,19,27,26,15,,,,,,,0.93,0.50,0.79,3*0E
$GNGSA,A,3,06,16,09,43,39,40,07,23,10,11,25,28,0.93,0.50,0.79,4*0E
$GNGSA,A,3,34,,,,,,,,,,,,0.93,0.50,0.79,4*02
$GPGSV,4,1,15,08,72,308,46,199,64,166,,194,63,046,44,195,58,123,41,1*5D
$GPGSV,4,2,15,27,49,027,45,45,47,231,33,21,40,169,35,16,35,056,44,1*65
$GPGSV,4,3,15,04,31,216,37,09,30,266,25,02,29,181,29,07,26,320,26,1*63
$GPGSV,4,4,15,196,21,173,24,26,17,084,27,31,15,137,18,1*6F
$GPGSV,2,1,07,08,72,308,45,194,63,046,43,195,58,123,36,27,49,027,34,8*6D
$GPGSV,2,2,07,04,31,216,43,196,21,173,26,26,17,084,29,8*67
$GLGSV,2,1,06,88,71,072,40,78,46,006,36,81,41,189,36,77,32,087,21,1*70
$GLGSV,2,2,06,87,20,029,18,79,12,320,16,1*7A
$GAGSV,2,1,06,21,51,349,24,13,50,108,25,19,36,257,24,27,33,063,42,7*7D
$GAGSV,2,2,06,26,28,175,24,15,22,049,23,7*76
$GAGSV,2,1,06,21,51,349,34,13,50,108,29,19,36,257,19,27,33,063,39,1*74
$GAGSV,2,2,06,26,28,175,30,15,22,049,36,1*71
$GBGSV,4,1,13,06,81,225,42,16,78,191,42,09,75,300,41,43,74,060,47,1*76
$GBGSV,4,2,13,39,67,177,42,40,65,316,41,07,63,294,32,23,62,357,42,1*76
$GBGSV,4,3,13,10,52,277,32,11,48,045,42,25,47,097,23,28,39,208,37,1*78
$GBGSV,4,4,13,34,25,040,46,1*42
$GBGSV,2,1,07,43,74,060,45,39,67,177,42,40,65,316,41,23,62,357,44,4*7A
$GBGSV,2,2,07,25,47,097,31,28,39,208,38,34,25,040,37,4*4D
$GNACCURACY,4.9*1B
$PAIRSAT,1,35,2,0,201,3,0,200,4,0,221,5,0,200,6,0,200,7,0,201,8,0,221,9,0,221,10,0,200,11,0,200,12,0,200,13,0,200,14,0,200,15,0,200,16,0,201,17,0,200,18,0,200,19,0,200,20,0,200,21,0,201,22,0,200,23,0,200,24,0,200,25,0,200,26,0,221,27,0,221,28,0,200,29,0,200,30,0,200,31,0,201,32,0,200,194,0,621,195,0,621,196,0,620,199,0,600*5B
$PAIRSAT,2,23,65,0,200,66,0,200,67,0,200,68,0,200,70,0,200,71,0,200,72,0,200,73,0,200,74,0,200,75,0,200,76,0,200,77,0,201,78,0,201,79,0,201,80,0,200,81,0,201,82,0,200,83,0,200,84,0,200,85,0,200,86,0,200,87,0,201,88,0,201*5C
$PAIRSAT,3,23,2,0,1200,3,0,1200,4,0,1200,5,0,200,7,0,1200,8,0,1200,9,0,1200,10,0,1200,11,0,1200,12,0,1200,13,0,1221,15,0,1221,19,0,1221,21,0,1221,24,0,1200,25,0,1200,26,0,1221,27,0,1221,30,0,1200,31,0,1200,33,0,1200,34,0,1200,36,0,1200*6A
$PAIRSAT,4,46,1,0,200,2,0,200,3,0,600,4,0,200,5,0,200,6,0,201,7,0,201,8,0,200,9,0,201,10,0,201,11,0,201,12,0,200,13,0,200,14,0,200,16,0,201,19,0,600,20,0,600,21,0,600,22,0,600,23,0,621,24,0,600,25,0,621,26,0,600,27,0,600,28,0,621,29,0,600,30,0,600,32,0,600,33,0,600,34,0,621,35,0,600,36,0,600,37,0,600,38,0,600,39,0,621,40,0,421,41,0,600,42,0,600,43,0,621,44,0,400,45,0,400,46,0,400,59,0,400,60,0,400,61,0,400,62,0,400*4A
$PAIRDGP,7,2,4,7,8,9,16,21*5A
$GNGGA,032911.100,2500.7940948,N,12132.4798172,E,4,57,0.50,16.724,M,15.25,M,1,3335*46
$GNRMC,032911.100,A,2500.7940948,N,12132.4798172,E,0.05,104.38,090324,,,R,V*1A
$GPHDT,,T*1B
$GNACCURACY,4.9*1B
$GNGGA,032911.200,2500.7940942,N,12132.4798140,E,4,57,0.50,16.703,M,15.25,M,1,3335*4B
$GNRMC,032911.200,A,2500.7940942,N,12132.4798140,E,0.05,104.38,090324,,,R,V*12
$GPHDT,316.571,T*32
$GNACCURACY,4.9*1B
$GNGGA,032911.300,2500.7940946,N,12132.4798132,E,4,57,0.50,16.702,M,15.25,M,1,3335*4A
$GNRMC,032911.300,A,2500.7940946,N,12132.4798132,E,0.07,104.38,090324,,,R,V*10
$GPHDT,,T*1B
$GNACCURACY,4.9*1B
$GNGGA,032911.400,2500.7940923,N,12132.4798139,E,4,57,0.50,16.698,M,15.25,M,1,3335*47
$GNRMC,032911.400,A,2500.7940923,N,12132.4798139,E,0.04,104.38,090324,,,R,V*1C
$GPHDT,316.257,T*31
$GNACCURACY,5.0*13
$GNGGA,032911.500,2500.7940954,N,12132.4798127,E,4,57,0.50,16.706,M,15.25,M,1,3335*4F
$GNRMC,032911.500,A,2500.7940954,N,12132.4798127,E,0.04,104.38,090324,,,R,V*12
$GPHDT,,T*1B
$GNACCURACY,4.9*1B
$GNGGA,03291