$FW : RTK35X,V1.1X0314AS,Lib20210517,1*54
$Tool : LOCOSYS , GNSS Firebird , v1.0.0.19*39
$---------------------------------------------------*2D
$GPHDT,,T*1B
$GNACCURACY,4.8*1A
$GNGGA,032824.600,2500.7940897,N,12132.4798235,E,4,56,0.50,16.728,M,15.25,M,0,3335*49
$GNRMC,032824.600,A,2500.7940897,N,12132.4798235,E,0.09,104.38,090324,,,R,V*15
$GPHDT,,T*1B
$GNACCURACY,4.8*1A
$GNGGA,032824.700,2500.7940893,N,12132.4798281,E,4,56,0.50,16.725,M,15.25,M,0,3335*4E
$GNRMC,032824.700,A,2500.7940893,N,12132.4798281,E,0.14,104.38,090324,,,R,V*13
$GPHDT,,T*1B
$GNACCURACY,4.8*1A
$GNGGA,032824.800,2500.7940921,N,12132.4798230,E,4,55,0.50,16.720,M,15.25,M,0,3335*45
$GNRMC,032824.800,A,2500.7940921,N,12132.4798230,E,0.09,104.38,090324,,,R,V*12
$GPHDT,,T*1B
$GNACCURACY,4.8*1A
$GNGGA,032824.900,2500.7940968,N,12132.4798201,E,4,55,0.50,16.707,M,15.25,M,0,3335*4E
$GNRMC,032824.900,A,2500.7940968,N,12132.4798201,E,0.09,104.38,090324,,,R,V*1C
$GPHDT,,T*1B
$GNACCURACY,4.8*1A
$GNGGA,032825.000,2500.7940973,N,12132.4798197,E,4,55,0.50,16.704,M,15.25,M,1,3335*42
$GNRMC,032825.000,A,2500.7940973,N,12132.4798197,E,0.06,104.38,090324,,,R,V*1D
$GPHDT,,T*1B
$GNGSA,A,3,08,194,195,27,21,16,04,09,02,07,196,26,0.79,0.50,0.62,1*34
$GNGSA,A,3,31,,,,,,,,,,,,0.79,0.50,0.62,1*0C
$GNGSA,A,3,88,78,81,77,87,,,,,,,,0.79,0.50,0.62,2*04
$GNGSA,A,3,21,13,19,27,26,15,,,,,,,0.79,0.50,0.62,3*00
$GNGSA,A,3,06,16,09,43,39,40,07,23,10,11,25,28,0.79,0.50,0.62,4*00
$GNGSA,A,3,34,,,,,,,,,,,,0.79,0.50,0.62,4*0C
$GPGSV,4,1,15,08,72,306,45,199,64,166,,194,63,046,42,195,58,123,41,1*56
$GPGSV,4,2,15,27,50,027,36,45,47,231,34,21,40,169,44,16,35,056,37,1*6C
$GPGSV,4,3,15,04,32,216,43,09,30,267,22,02,28,181,29,07,25,320,17,1*65
$GPGSV,4,4,15,196,21,173,33,26,17,084,18,31,15,137,19,1*64
$GPGSV,2,1,06,08,72,306,43,194,63,046,42,195,58,123,39,27,50,027,27,8*60
$GPGSV,2,2,06,04,32,216,45,196,21,173,26,8*56
$GLGSV,2,1,07,88,72,073,41,78,46,005,24,81,41,189,45,77,32,087,13,1*77
$GLGSV,2,2,07,87,21,029,23,79,12,320,12,67,02,208,,1*4F
$GAGSV,2,1,07,21,51,349,25,13,50,108,22,19,36,257,17,27,34,062,39,7*70
$GAGSV,2,2,07,26,28,175,37,15,22,049,24,04,10,312,15,7*43
$GAGSV,2,1,06,21,51,349,23,13,50,108,26,19,36,257,20,27,34,062,38,1*70
$GAGSV,2,2,06,26,28,175,34,15,22,049,25,1*77
$GBGSV,4,1,14,06,81,225,39,16,79,190,42,09,75,300,41,43,74,061,46,1*7D
$GBGSV,4,2,14,39,68,177,46,40,66,316,39,07,63,294,30,23,61,357,40,1*75
$GBGSV,4,3,14,10,52,277,34,11,49,045,39,25,47,097,23,28,39,208,47,1*73
$GBGSV,4,4,14,34,25,041,39,37,17,314,,1*78
$GBGSV,2,1,07,43,74,061,45,39,68,177,45,40,66,316,36,23,61,357,42,4*75
$GBGSV,2,2,07,25,47,097,31,28,39,208,44,34,25,041,34,4*44
$GNACCURACY,4.8*1A
$PAIRSAT,1,35,2,0,201,3,0,200,4,0,221,5,0,200,6,0,200,7,0,201,8,0,221,9,0,221,10,0,200,11,0,200,12,0,200,13,0,200,14,0,200,15,0,200,16,0,201,17,0,200,18,0,200,19,0,200,20,0,200,21,0,201,22,0,200,23,0,200,24,0,200,25,0,200,26,0,221,27,0,221,28,0,200,29,0,200,30,0,200,31,0,201,32,0,200,194,0,621,195,0,621,196,0,620,199,0,600*5B
$PAIRSAT,2,23,65,0,200,66,0,200,67,0,200,68,0,200,70,0,200,71,0,200,72,0,200,73,0,200,74,0,200,75,0,200,76,0,200,77,0,201,78,0,201,79,0,201,80,0,200,81,0,201,82,0,200,83,0,200,84,0,200,85,0,200,86,0,200,87,0,201,88,0,201*5C
$PAIRSAT,3,23,2,0,1200,3,0,1200,4,0,1200,5,0,200,7,0,1200,8,0,1200,9,0,1200,10,0,1200,11,0,1200,12,0,1200,13,0,1221,15,0,1221,19,0,1221,21,0,1221,24,0,1200,25,0,1200,26,0,1221,27,0,1221,30,0,1200,31,0,1200,33,0,1200,34,0,1200,36,0,1200*6A
$PAIRSAT,4,46,1,0,200,2,0,200,3,0,600,4,0,200,5,0,200,6,0,201,7,0,201,8,0,200,9,0,201,10,0,201,11,0,201,12,0,200,13,0,200,14,0,200,16,0,201,19,0,600,20,0,600,21,0,600,22,0,600,23,0,621,24,0,600,25,0,621,26,0,600,27,0,600,28,0,621,29,0,600,30,0,600,32,0,600,33,0,600,34,0,621,35,0,600,36,0,600,37,0,600,38,0,600,39,0,621,40,0,421,41,0,600,42,0,600,43,0,621,44,0,400,45,0,400,46,0,400,59,0,400,60,0,400,61,0,400,62,0,400*4A
$PAIRDGP,8,2,4,7,8,9,16,21,27*7C
$GNGGA,032825.100,2500.7940946,N,12132.4798223,E,4,56,0.50,16.699,M,15.25,M,1,3335*4F
$GNRMC,032825.100,A,2500.7940946,N,12132.4798223,E,0.09,104.38,090324,,,R,V*19
$GPHDT,,T*1B
$GNACCURACY,4.9*1B
$GNGGA,032825.200,2500.7940966,N,12132.4798224,E,4,56,0.50,16.702,M,15.25,M,1,3335*4A
$GNRMC,032825.200,A,2500.7940966,N,12132.4798224,E,0.13,104.38,090324,,,R,V*14
$GPHDT,90.463,T*0D
$GNACCURACY,4.8*1A
$GNGGA,032825.300,2500.7940979,N,12132.4798227,E,4,56,0.50,16.713,M,15.25,M,1,3335*46
$GNRMC,032825.300,A,2500.7940979,N,12132.4798227,E,0.08,104.38,090324,,,R,V*12
$GPHDT,,T*1B
$GNACCURACY,4.8*1A
$GNGGA,032825.400,2500.7940990,N,12132.4798182,E,4,56,0.50,16.709,M,15.25,M,1,3335*41
$GNRMC,032825.400,A,2500.7940990,N,12132.4798182,E,0.05,104.38,090324,,,R,V*13
$GPHDT,90.983,T*0E
$GNACCURACY,4.8*1A
$GNGGA,032825.500,2500.7940974,N,12132.4798271,E,4,56,0.50,16.730,M,15.25,M,0,3335*4E
$GNRMC,032825.500,A,2500.7940974,N,12132.4798271,E,0.11,104.38,090324,,,R,V*12
$GPHDT,,T*1B
$GNACCURACY,4.9*1B
$GNGGA,032825.600,2500.7940953,N,12132.4798258,E,4,56,0.50,16.730,M,15.25,M,0,3335*43
$GNRMC,032825.600,A,2500.7940953,N,12132.4798258,E,0.12,104.38,090324,,,R,V*1C
$GPHDT,90.583,T*02
$GNACCURACY,4.9*1B
$GNGGA,032825.700,2500.7940942,N,12132.4798226,E,4,56,0.50,16.704,M,15.25,M,0,3335*4C
$GNRMC,032825.700,A,2500.7940942,N,12132.4798226,E,0.08,104.38,090324,,,R,V*1F
$GPHDT,,T*1B
$GNACCURACY,4.9*1B
$GNGGA,032825.800,2500.7940929,N,12132.4798270,E,4,56,0.50,16.712,M,15.25,M,0,3335*4A
$GNRMC,032825.800,A,2500.7940929,N,12132.4798270,E,0.14,104.38,090324,,,R,V*13
$GPHDT,89.982,T*07
$GNACCURACY,4.9*1B
$GNGGA,032825.900,2500.7940961,N,12132.4798250,E,4,56,0.50,16.710,M,15.25,M,0,3335*47
$GNRMC,032825.900,A,2500.7940961,N,12132.4798250,E,0.03,104.38,090324,,,R,V*1A
$GPHDT,,T*1B
$GNACCURACY,4.8*1A
$GNGGA,032826.000,2500.7940916,N,12132.4798288,E,4,56,0.50,16.710,M,15.25,M,1,3335*49
$GNRMC,032826.000,A,2500.7940916,N,12132.4798288,E,0.02,104.38,090324,,,R,V*14
$GPHDT,89.721,T*00
$GNGSA,A,3,08,194,195,27,21,16,04,09,02,07,196,26,0.79,0.50,0.62,1*34
$GNGSA,A,3,31,,,,,,,,,,,,0.79,0.50,0.62,1*0C
$GNGSA,A,3,88,78,81,77,87,,,,,,,,0.79,0.50,0.62,2*04
$GNGSA,A,3,21,13,19,27,26,15,,,,,,,0.79,0.50,0.62,3*00
$GNGSA,A,3,06,16,09,43,39,40,07,23,10,11,25,28,0.79,0.50,0.62,4*00
$GNGSA,A,3,34,,,,,,,,,,,,0.79,0.50,0.62,4*0C
$GPGSV,4,1,15,08,72,306,45,199,64,166,,194,63,046,42,195,58,123,41,1*56
$GPGSV,4,2,15,27,50,027,37,45,47,231,34,21,40,169,44,16,35,056,36,1*6C
$GPGSV,4,3,15,04,32,216,41,09,30,267,22,02,28,181,33,07,25,320,16,1*6D
$GPGSV,4,4,15,196,21,173,34,26,17,084,14,31,15,137,16,1*60
$GPGSV,2,1,06,08,72,306,46,194,63,046,42,195,58,123,39,27,50,027,36,8*65
$GPGSV,2,2,06,04,32,216,45,196,21,173,24,8*54
$GLGSV,2,1,06,88,72,073,42,78,46,005,34,81,41,189,43,77,32,087,13,1*72
$GLGSV,2,2,06,87,21,029,26,79,12,320,14,1*74
$GAGSV,2,1,07,21,51,349,19,13,50,108,23,19,36,257,17,27,34,062,38,7*7F
$GAGSV,2,2,07,26,28,175,37,15,22,049,21,04,10,312,,7*42
$GAGSV,2,1,06,21,51,349,26,13,50,108,32,19,36,257,20,27,34,062,39,1*71
$GAGSV,2,2,06,26,28,175,31,15,22,049,30,1*76
$GBGSV,4,1,13,06,81,225,40,16,79,190,43,09,75,300,40,43,74,061,46,1*74
$GBGSV,4,2,13,39,67,177,46,40,66,316,43,07,63,294,28,23,61,357,43,1*7A
$GBGSV,4,3,13,10,52,277,33,11,49,045,40,25,47,097,25,28,39,208,47,1*7B
$GBGSV,4,4,13,34,25,041,40,1*45
$GBGSV,2,1,07,43,74,061,45,39,67,177,45,40,66,316,42,23,61,357,43,4*78
$GBGSV,2,2,07,25,47,097,32,28,39,208,44,34,25,041,35,4*46
$GNACCURACY,4.9*1B
$PAIRSAT,1,35,2,0,201,3,0,200,4,0,221,5,0,200,6,0,200,7,0,201,8,0,221,9,0,221,10,0,200,11,0,200,12,0,200,13,0,200,14,0,200,15,0,200,16,0,201,17,0,200,18,0,200,19,0,200,20,0,200,21,0,201,22,0,200,23,0,200,24,0,200,25,0,200,26,0,221,27,0,221,28,0,200,29,0,200,30,0,200,31,0,201,32,0,200,194,0,621,195,0,621,196,0,620,199,0,600*5B
$PAIRSAT,2,23,65,0,200,66,0,200,67,0,200,68,0,200,70,0,200,71,0,200,72,0,200,73,0,200,74,0,200,75,0,200,76,0,200,77,0,201,78,0,201,79,0,201,80,0,200,81,0,201,82,0,200,83,0,200,84,0,200,85,0,200,86,0,200,87,0,201,88,0,201*5C
$PAIRSAT,3,23,2,0,1200,3,0,1200,4,0,1200,5,0,200,7,0,1200,8,0,1200,9,0,1200,10,0,1200,11,0,1200,12,0,1200,13,0,1221,15,0,1221,19,0,1221,21,0,1221,24,0,1200,25,0,1200,26,0,1221,27,0,1221,30,0,1200,31,0,1200,33,0,1200,34,0,1200,36,0,1200*6A
$PAIRSAT,4,46,1,0,200,2,0,200,3,0,600,4,0,200,5,0,200,6,0,201,7,0,201,8,0,200,9,0,201,10,0,201,11,0,201,12,0,200,13,0,200,14,0,200,16,0,201,19,0,600,20,0,600,21,0,600,22,0,600,23,0,621,24,0,600,25,0,621,26,0,600,27,0,600,28,0,621,29,0,600,30,0,600,32,0,600,33,0,600,34,0,621,35,0,600,36,0,600,37,0,600,38,0,600,39,0,621,40,0,421,41,0,600,42,0,600,43,0,621,44,0,400,45,0,400,46,0,400,59,0,400,60,0,400,61,0,400,62,0,400*4A
$PAIRDGP,8,2,4,7,8,9,16,21,27*7C
$GNGGA,032826.100,2500.7940943,N,12132.4798274,E,4,56,0.50,16.707,M,15.25,M,1,3335*4D
$GNRMC,032826.100,A,2500.7940943,N,12132.4798274,E,0.06,104.38,090324,,,R,V*12
$GPHDT,,T*1B
$GNACCURACY,4.9*1B
$GNGGA,032826.200,2500.7940956,N,12132.4798224,E,4,56,0.50,16.712,M,15.25,M,1,3335*4B
$GNRMC,032826.200,A,2500.7940956,N,12132.4798224,E,0.12,104.38,090324,,,R,V*15
$GPHDT,89.663,T*07
$GNACCURACY,4.9*1B
$GNGGA,032826.300,2500.7940939,N,12132.4798261,E,4,56,0.50,16.717,M,15.25,M,1,3335*47
$GNRMC,032826.300,A,2500.7940939,N,12132.4798261,E,0.09,104.38,090324,,,R,V*16
$GPHDT,,T*1B
$GNACCURACY,4.9*1B
$GNGGA,032826.400,2500.7940939,N,12132.4798271,E,4,56,0.50,16.715,M,15.25,M,1,3335*43
$GNRMC,032826.400,A,2500.7940939,N,12132.4798271,E,0.08,104.38,090324,,,R,V*11
$GPHDT,89.738,T*08
$GNACCURACY,4.9*1B
$GNGGA,032826.500,2500.7940926,N,12132.4798284,E,4,56,0.50,16.717,M,15.25,M,1,3335*44
$GNRMC,032826.500,A,2500.7940926,N,12132.4798284,E,0.07,104.38,090324,,,R,V*1B
$GPHDT,,T*1B
$GNACCURACY,4.9*1B
$GNGGA,032826.600,2500.7940912,N,12132.4798305,E,4,55,0.50,16.726,M,15.25,M,0,3335*48
$GNRMC,032826.600,A,2500.7940912,N,12132.4798305,E,0.06,104.38,090324,,,R,V*16
$GPHDT,89.953,T*0B
$GNACCURACY,4.9*1B
$GNGGA,032826.700,2500.7940887,N,12132.4798325,E,4,55,0.50,16.729,M,15.25,M,0,3335*49
$GNRMC,032826.700,A,2500.7940887,N,12132.4798325,E,0.01,104.38,090324,,,R,V*1F
$GPHDT,,T*1B
$GNACCURACY,4.9*1B
$GNGGA,032826.800,2500.7940913,N,12132.4798289,E,4,55,0.50,16.727,M,15.25,M,0,3335*43
$GNRMC,032826.800,A,2500.7940913,N,12132.4798289,E,0.03,104.38,090324,,,R,V*19
$GPHDT,89.787,T*0C
$GNACCURACY,4.9*1B
$GNGGA,032826.900,2500.7940904,N,12132.4798304,E,4,55,0.50,16.727,M,15.25,M,0,3335*40
$GNRMC,032826.900,A,2500.7940904,N,12132.4798304,E,0.02,104.38,090324,,,R,V*1B
$GPHDT,,T*1B
$GNACCURACY,4.9*1B
$GNGGA,032827.000,2500.7940919,N,12132.4798313,E,4,56,0.50,16.727,M,15.25,M,1,3335*40
$GNRMC,032827.000,A,2500.7940919,N,12132.4798313,E,0.01,104.38,090324,,,R,V*1A
$GPHDT,89.756,T*00
$GNGSA,A,3,08,194,195,27,21,16,04,09,02,07,196,26,0.80,0.50,0.62,1*32
$GNGSA,A,3,31,,,,,,,,,,,,0.80,0.50,0.62,1*0A
$GNGSA,A,3,88,78,81,87,,,,,,,,,0.80,0.50,0.62,2*02
$GNGSA,A,3,21,13,19,27,26,15,,,,,,,0.80,0.50,0.62,3*06
$GNGSA,A,3,06,16,09,43,39,40,07,23,10,11,25,28,0.80,0.50,0.62,4*06
$GNGSA,A,3,34,,,,,,,,,,,,0.80,0.50,0.62,4*0A
$GPGSV,4,1,15,08,72,306,44,199,64,166,,194,63,046,42,195,58,123,41,1*57
$GPGSV,4,2,15,27,50,027,36,45,47,231,34,21,40,169,44,16,35,056,39,1*62
$GPGSV,4,3,15,04,32,216,40,09,30,267,22,02,28,181,31,07,25,320,14,1*6C
$GPGSV,4,4,15,196,21,173,33,26,17,084,16,31,15,137,16,1*65
$GPGSV,2,1,07,08,72,306,46,194,63,046,42,195,58,123,39,27,50,027,38,8*6A
$GPGSV,2,2,07,04,32,216,45,196,21,173,24,26,17,084,30,8*68
$GLGSV,2,1,06,88,72,073,42,78,46,005,37,81,41,189,43,77,32,087,14,1*76
$GLGSV,2,2,06,87,21,029,26,79,12,320,12,1*72
$GAGSV,2,1,07,21,51,349,22,13,50,108,20,19,36,257,17,27,34,062,38,7*74
$GAGSV,2,2,07,26,28,175,37,15,22,049,24,04,10,312,,7*47
$GAGSV,2,1,06,21,51,349,31,13,50,108,31,19,36,257,20,27,34,062,40,1*7A
$GAGSV,2,2,06,26,28,175,35,15,22,049,32,1*70
$GBGSV,4,1,13,06,81,225,39,16,79,190,43,09,75,300,40,43,74,060,46,1*7B
$GBGSV,4,2,13,39,67,177,46,40,66,316,43,07,63,294,27,23,61,357,44,1*72
$GBGSV,4,3,13,10,52,277,33,11,49,045,40,25,47,097,27,28,39,208,46,1*78
$GBGSV,4,4,13,34,25,041,40,1*45
$GBGSV,2,1,07,43,74,060,44,39,67,177,44,40,66,316,42,23,61,357,44,4*7E
$GBGSV,2,2,07,25,47,097,30,28,39,208,45,34,25,041,34,4*44
$GNACCURACY,4.9*1B
$PAIRSAT,1,35,2,0,201,3,0,200,4,0,221,5,0,200,6,0,200,7,0,201,8,0,221,9,0,221,10,0,200,11,0,200,12,0,200,13,0,200,14,0,200,15,0,200,16,0,201,17,0,200,18,0,200,19,0,200,20,0,200,21,0,201,22,0,200,23,0,200,24,0,200,25,0,200,26,0,221,27,0,221,28,0,200,29,0,200,30,0,200,31,0,201,32,0,200,194,0,621,195,0,621,196,0,620,199,0,600*5B
$PAIRSAT,2,23,65,0,200,66,0,200,67,0,200,68,0,200,70,0,200,71,0,200,72,0,200,73,0,200,74,0,200,75,0,200,76,0,200,77,0,201,78,0,201,79,0,201,80,0,200,81,0,201,82,0,200,83,0,200,84,0,200,85,0,200,86,0,200,87,0,201,88,0,201*5C
$PAIRSAT,3,23,2,0,1200,3,0,1200,4,0,1200,5,0,200,7,0,1200,8,0,1200,9,0,1200,10,0,1200,11,0,1200,12,0,1200,13,0,1221,15,0,1221,19,0,1221,21,0,1221,24,0,1200,25,0,1200,26,0,1221,27,0,1221,30,0,1200,31,0,1200,33,0,1200,34,0,1200,36,0,1200*6A
$PAIRSAT,4,46,1,0,200,2,0,200,3,0,600,4,0,200,5,0,200,6,0,201,7,0,201,8,0,200,9,0,201,10,0,201,11,0,201,12,0,200,13,0,200,14,0,200,16,0,201,19,0,600,20,0,600,21,0,600,22,0,600,23,0,621,24,0,600,25,0,621,26,0,600,27,0,600,28,0,621,29,0,600,30,0,600,32,0,600,33,0,600,34,0,621,35,0,600,36,0,600,37,0,600,38,0,600,39,0,621,40,0,421,41,0,600,42,0,600,43,0,621,44,0,400,45,0,400,46,0,400,59,0,400,60,0,400,61,0,400,62,0,400*4A
$PAIRDGP,8,2,4,7,8,9,16,21,27*7C
$GNGGA,032827.100,2500.7940916,N,12132.4798268,E,4,56,0.50,16.721,M,15.25,M,1,3335*45
$GNRMC,032827.100,A,2500.7940916,N,12132.4798268,E,0.02,104.38,090324,,,R,V*1A
$GPHDT,,T*1B
$GNACCURACY,4.9*1B
$GNGGA,032827.200,2500.7940915,N,12132.4798298,E,4,56,0.50,16.714,M,15.25,M,1,3335*4C
$GNRMC,032827.200,A,2500.7940915,N,12132.4798298,E,0.02,104.38,090324,,,R,V*15
$GPHDT,90.200,T*0E
$GNACCURACY,4.9*1B
$GNGGA,032827.300,2500.7940914,N,12132.4798290,E,4,56,0.50,16.721,M,15.25,M,1,3335*42
$GNRMC,032827.300,A,2500.7940914,N,12132.4798290,E,0.02,104.38,090324,,,R,V*1D
$GPHDT,,T*1B
$GNACCURACY,4.9*1B
$GNGGA,032827.400,2500.7940922,N,12132.4798299,E,4,56,0.50,16.724,M,15.25,M,1,3335*4C
$GNRMC,032827.400,A,2500.7940922,N,12132.4798299,E,0.02,104.38,090324,,,R,V*16
$GPHDT,90.988,T*05
$GNACCURACY,4.9*1B
$GNGGA,032827.500,2500.7940917,N,12132.4798313,E,4,56,0.50,16.724,M,15.25,M,1,3335*48
$GNRMC,032827.500,A,2500.7940917,N,12132.4798313,E,0.02,104.38,090324,,,R,V*12
$GPHDT,,T*1B
$GNACCURACY,4.9*1B
$GNGGA,032827.600,2500.7940931,N,12132.4798274,E,4,56,0.50,16.715,M,15.25,M,0,3335*4C
$GNRMC,032827.600,A,2500.7940931,N,12132.4798274,E,0.08,104.38,090324,,,R,V*1F
$GPHDT,91.171,T*0A
$GNACCURACY,4.9*1B
$GNGGA,032827.700,2500.7940916,N,12132.4798305,E,4,56,0.50,16.721,M,15.25,M,0,3335*48
$GNRMC,032827.700,A,2500.7940916,N,12132.4798305,E,0.06,104.38,090324,,,R,V*12
$GPHDT,,T*1B
$GNACCURACY,4.9*1B
$GNGGA,032827.800,2500.7940934,N,12132.4798297,E,4,55,0.53,16.724,M,15.25,M,0,3335*48
$GNRMC,032827.800,A,2500.7940934,N,12132.4798297,E,0.04,104.38,090324,,,R,V*15
$GPHDT,91.233,T*0F
$GNACCURACY,4.9*1B
$GNGGA,032827.900,2500.7940920,N,12132.4798305,E,4,55,0.53,16.721,M,15.25,M,0,3335*43
$GNRMC,032827.900,A,2500.7940920,N,12132.4798305,E,0.03,104.38,090324,,,R,V*1C
$GPHDT,,T*1B
$GNACCURACY,4.9*1B
$GNGGA,032828.000,2500.7940916,N,12132.4798310,E,4,56,0.53,16.720,M,15.25,M,1,3335*47
$GNRMC,032828.000,A,2500.7940916,N,12132.4798310,E,0.04,104.38,090324,,,R,V*1C
$GPHDT,91.197,T*02
$GNGSA,A,3,08,194,195,27,21,16,04,09,02,196,26,31,0.84,0.53,0.65,1*37
$GNGSA,A,3,88,78,81,87,,,,,,,,,0.84,0.53,0.65,2*02
$GNGSA,A,3,21,13,19,27,26,15,,,,,,,0.84,0.53,0.65,3*06
$GNGSA,A,3,06,16,09,43,39,40,07,23,10,11,25,28,0.84,0.53,0.65,4*06
$GNGSA,A,3,34,,,,,,,,,,,,0.84,0.53,0.65,4*0A
$GPGSV,4,1,15,08,72,306,44,199,64,166,,194,63,046,42,195,58,123,41,1*57
$GPGSV,4,2,15,27,50,027,36,45,47,231,33,21,40,169,45,16,35,056,40,1*6A
$GPGSV,4,3,15,04,32,216,40,09,30,267,21,02,28,181,31,07,25,320,14,1*6F
$GPGSV,4,4,15,196,21,173,33,26,17,084,16,31,15,137,17,1*64
$GPGSV,2,1,08,08,72,306,46,194,63,046,43,195,58,123,40,27,50,027,39,8*6B
$GPGSV,2,2,08,04,32,216,45,09,30,267,20,196,21,173,24,26,17,084,29,8*54
$GLGSV,2,1,06,88,72,073,42,78,46,005,37,81,41,189,43,77,32,087,13,1*71
$GLGSV,2,2,06,87,21,029,26,79,12,320,13,1*73
$GAGSV,2,1,06,21,51,349,25,13,50,108,19,19,36,257,17,27,34,062,38,7*78
$GAGSV,2,2,06,26,28,175,37,15,22,049,24,7*73
$GAGSV,2,1,06,21,51,349,33,13,50,108,31,19,36,257,20,27,34,062,41,1*79
$GAGSV,2,2,06,26,28,175,36,15,22,049,32,1*73
$GBGSV,4,1,13,06,81,225,39,16,79,190,43,09,75,300,40,43,74,060,46,1*7B
$GBGSV,4,2,13,39,67,177,46,40,66,316,42,07,63,294,31,23,61,357,44,1*74
$GBGSV,4,3,13,10,52,277,33,11,49,045,40,25,47,097,28,28,39,208,46,1*77
$GBGSV,4,4,13,34,25,041,40,1*45
$GBGSV,2,1,07,43,74,060,44,39,67,177,44,40,66,316,42,23,61,357,45,4*7F
$GBGSV,2,2,07,25,47,097,31,28,39,208,45,34,25,041,34,4*45
$GNACCURACY,4.9*1B
$PAIRSAT,1,35,2,0,201,3,0,200,4,0,221,5,0,200,6,0,200,7,0,201,8,0,221,9,0,221,10,0,200,11,0,200,12,0,200,13,0,200,14,0,200,15,0,200,16,0,201,17,0,200,18,0,200,19,0,200,20,0,200,21,0,201,22,0,200,23,0,200,24,0,200,25,0,200,26,0,221,27,0,221,28,0,200,29,0,200,30,0,200,31,0,201,32,0,200,194,0,621,195,0,621,196,0,620,199,0,600*5B
$PAIRSAT,2,23,65,0,200,66,0,200,67,0,200,68,0,200,70,0,200,71,0,200,72,0,200,73,0,200,74,0,200,75,0,200,76,0,200,77,0,201,78,0,201,79,0,201,80,0,200,81,0,201,82,0,200,83,0,200,84,0,200,85,0,200,86,0,200,87,0,201,88,0,201*5C
$PAIRSAT,3,23,2,0,1200,3,0,1200,4,0,1200,5,0,200,7,0,1200,8,0,1200,9,0,1200,10,0,1200,11,0,1200,12,0,1200,13,0,1221,15,0,1221,19,0,1221,21,0,1221,24,0,1200,25,0,1200,26,0,1221,27,0,1221,30,0,1200,31,0,1200,33,0,1200,34,0,1200,36,0,1200*6A
$PAIRSAT,4,46,1,0,200,2,0,200,3,0,600,4,0,200,5,0,200,6,0,201,7,0,201,8,0,200,9,0,201,10,0,201,11,0,201,12,0,200,13,0,200,14,0,200,16,0,201,19,0,600,20,0,600,21,0,600,22,0,600,23,0,621,24,0,600,25,0,621,26,0,600,27,0,600,28,0,621,29,0,600,30,0,600,32,0,600,33,0,600,34,0,621,35,0,600,36,0,600,37,0,600,38,0,600,39,0,621,40,0,421,41,0,600,42,0,600,43,0,621,44,0,400,45,0,400,46,0,400,59,0,400,60,0,400,61,0,400,62,0,400*4A
$PAIRDGP,8,2,4,7,8,9,16,21,27*7C
$GNGGA,032828.100,2500.7940935,N,12132.4798304,E,4,56,0.53,16.720,M,15.25,M,1,3335*42
$GNRMC,032828.100,A,2500.7940935,N,12132.4798304,E,0.02,104.38,090324,,,R,V*1F
$GPHDT,,T*1B
$GNACCURACY,4.9*1B
$GNGGA,032828.200,2500.7940918,N,12132.4798316,E,4,56,0.53,16.729,M,15.25,M,1,3335*44
$GNRMC,032828.200,A,2500.7940918,N,12132.4798316,E,0.02,104.38,090324,,,R,V*10
$GPHDT,91.049,T*00
$GNACCURACY,4.9*1B
$GNGGA,032828.300,2500.7940924,N,12132.4798297,E,4,56,0.53,16.723,M,15.25,M,1,3335*48
$GNRMC,032828.300,A,2500.7940924,N,12132.4798297,E,0.02,104.38,090324,,,R,V*16
$GPHDT,,T*1B
$GNACCURACY,4.9*1B
$GNGGA,032828.400,2500.7940925,N,12132.4798315,E,4,56,0.53,16.725,M,15.25,M,1,3335*43
$GNRMC,032828.400,A,2500.7940925,N,12132.4798315,E,0.05,104.38,090324,,,R,V*1C
$GPHDT,91.372,T*0B
$GNACCURACY,4.9*1B
$GNGGA,032828.500,2500.7940958,N,12132.4798237,E,4,56,0.53,16.700,M,15.25,M,0,3335*4F
$GNRMC,032828.500,A,2500.7940958,N,12132.4798237,E,0.03,104.38,090324,,,R,V*10
$GPHDT,,T*1B
$GNACCURACY,4.9*1B
$GNGGA,032828.600,2500.7940946,N,12132.4798246,E,4,55,0.53,16.708,M,15.25,M,0,3335*4E
$GNRMC,032828.600,A,2500.7940946,N,12132.4798246,E,0.03,104.38,090324,,,R,V*1A
$GPHDT,91.118,T*05
$GNACCURACY,4.9*1B
$GNGGA,032828.700,2500.7940950,N,12132.4798258,E,4,55,0.53,16.708,M,15.25,M,0,3335*47
$GNRMC,032828.700,A,2500.7940950,N,12132.4798258,E,0.04,104.38,090324,,,R,V*14
$GPHDT,,T*1B
$GNACCURACY,4.9*1B
$GNGGA,032828.800,2500.7940955,N,12132.4798246,E,4,55,0.53,16.703,M,15.25,M,0,3335*49
$GNRMC,032828.800,A,2500.7940955,N,12132.4798246,E,0.04,104.38,090324,,,R,V*11
$GPHDT,91.602,T*09
$GNACCURACY,4.9*1B
$GNGGA,032828.900,2500.7940954,N,12132.4798258,E,4,54,0.53,16.705,M,15.25,M,0,3335*41
$GNRMC,032828.900,A,2500.7940954,N,12132.4798258,E,0.04,104.38,090324,,,R,V*1E
$GPHDT,,T*1B
$GNACCURACY,4.9*1B
$GNGGA,032829.000,2500.7940953,N,12132.4798250,E,4,54,0.53,16.702,M,15.25,M,1,3335*40
$GNRMC,032829.000,A,2500.7940953,N,12132.4798250,E,0.04,104.38,090324,,,R,V*19
$GPHDT,90.605,T*0F
$GNGSA,A,3,08,194,195,27,21,16,04,09,02,196,31,26,0.84,0.53,0.65,1*37
$GNGSA,A,3,88,78,81,87,,,,,,,,,0.84,0.53,0.65,2*02
$GNGSA,A,3,21,13,19,27,26,15,,,,,,,0.84,0.53,0.65,3*06
$GNGSA,A,3,06,16,09,43,39,40,07,23,10,11,25,28,0.84,0.53,0.65,4*06
$GNGSA,A,3,34,,,,,,,,,,,,0.84,0.53,0.65,4*0A
$GPGSV,4,1,15,08,72,306,44,199,64,166,,194,63,046,42,195,58,123,41,1*57
$GPGSV,4,2,15,27,50,027,36,45,47,231,33,21,40,169,45,16,35,056,40,1*6A
$GPGSV,4,3,15,04,32,216,40,09,30,267,20,02,28,181,31,07,25,320,11,1*6B
$GPGSV,4,4,15,196,21,173,34,26,17,084,17,31,15,137,18,1*6D
$GPGSV,2,1,07,08,72,306,46,194,63,046,43,195,58,123,40,27,50,027,39,8*64
$GPGSV,2,2,07,04,32,216,45,196,21,173,24,26,17,084,29,8*60
$GLGSV,2,1,06,88,72,073,42,78,46,005,37,81,41,189,43,77,32,087,13,1*71
$GLGSV,2,2,06,87,21,029,27,79,12,320,,1*70
$GAGSV,2,1,06,21,51,349,24,13,50,108,17,19,36,257,17,27,34,062,37,7*78
$GAGSV,2,2,06,26,28,175,37,15,22,049,24,7*73
$GAGSV,2,1,06,21,51,349,33,13,50,108,31,19,36,257,20,27,34,062,41,1*79
$GAGSV,2,2,06,26,28,175,35,15,22,049,31,1*73
$GBGSV,4,1,13,06,81,225,39,16,79,190,43,09,75,300,40,43,74,060,46,1*7B
$GBGSV,4,2,13,39,67,177,46,40,66,316,42,07,63,294,32,23,61,357,44,1*77
$GBGSV,4,3,13,10,52,277,33,11,49,045,40,25,47,097,29,28,39,208,46,1*76
$GBGSV,4,4,13,34,25,041,40,1*45
$GBGSV,2,1,07,43,74,060,44,39,67,177,44,40,66,316,42,23,61,357,45,4*7F
$GBGSV,2,2,07,25,47,097,30,28,39,208,45,34,25,041,32,4*42
$GNACCURACY,4.9*1B
$PAIRSAT,1,35,2,0,201,3,0,200,4,0,221,5,0,200,6,0,200,7,0,201,8,0,221,9,0,221,10,0,200,11,0,200,12,0,200,13,0,200,14,0,200,15,0,200,16,0,201,17,0,200,18,0,200,19,0,200,20,0,200,21,0,201,22,0,200,23,0,200,24,0,200,25,0,200,26,0,221,27,0,221,28,0,200,29,0,200,30,0,200,31,0,201,32,0,200,194,0,621,195,0,621,196,0,620,199,0,600*5B
$PAIRSAT,2,23,65,0,200,66,0,200,67,0,200,68,0,200,70,0,200,71,0,200,72,0,200,73,0,200,74,0,200,75,0,200,76,0,200,77,0,201,78,0,201,79,0,201,80,0,200,81,0,201,82,0,200,83,0,200,84,0,200,85,0,200,86,0,200,87,0,201,88,0,201*5C
$PAIRSAT,3,23,2,0,1200,3,0,1200,4,0,1200,5,0,200,7,0,1200,8,0,1200,9,0,1200,10,0,1200,11,0,1200,12,0,1200,13,0,1221,15,0,1221,19,0,1221,21,0,1221,24,0,1200,25,0,1200,26,0,1221,27,0,1221,30,0,1200,31,0,1200,33,0,1200,34,0,1200,36,0,1200*6A
$PAIRSAT,4,46,1,0,200,2,0,200,3,0,600,4,0,200,5,0,200,6,0,201,7,0,201,8,0,200,9,0,201,10,0,201,11,0,201,12,0,200,13,0,200,14,0,200,16,0,201,19,0,600,20,0,600,21,0,600,22,0,600,23,0,621,24,0,600,25,0,621,26,0,600,27,0,600,28,0,621,29,0,600,30,0,600,32,0,600,33,0,600,34,0,621,35,0,600,36,0,600,37,0,600,38,0,600,39,0,621,40,0,421,41,0,600,42,0,600,43,0,621,44,0,400,45,0,400,46,0,400,59,0,400,60,0,400,61,0,400,62,0,400*4A
$PAIRDGP,8,2,4,7,8,9,16,21,27*7C
$GNGGA,032829.100,2500.7940931,N,12132.4798254,E,4,54,0.53,16.710,M,15.25,M,1,3335*42
$GNRMC,032829.100,A,2500.7940931,N,12132.4798254,E,0.03,104.38,090324,,,R,V*1F
$GPHDT,,T*1B
$GNACCURACY,4.9*1B
$GNGGA,032829.200,2500.7940957,N,12132.4798268,E,4,54,0.53,16.705,M,15.25,M,1,3335*4A
$GNRMC,032829.200,A,2500.7940957,N,12132.4798268,E,0.03,104.38,090324,,,R,V*13
$GPHDT,91.466,T*09
$GNACCURACY,4.9*1B
$GNGGA,032829.300,2500.7940935,N,12132.4798261,E,4,55,0.53,16.713,M,15.25,M,1,3335*40
$GNRMC,032829.300,A,2500.7940935,N,12132.4798261,E,0.02,104.38,090324,,,R,V*1E
$GPHDT,,T*1B
$GNACCURACY,4.9*1B
$GNGGA,032829.400,2500.7940942,N,12132.4798249,E,4,55,0.53,16.699,M,15.25,M,1,3335*4E
$GNRMC,032829.400,A,2500.7940942,N,12132.4798249,E,0.01,104.38,090324,,,R,V*10
$GPHDT,91.269,T*00
$GNACCURACY,4.9*1B
$GNGGA,032829.500,2500.7940908,N,12132.4798344,E,4,54,0.53,16.727,M,15.25,M,0,3335*49
$GNRMC,032829.500,A,2500.7940908,N,12132.4798344,E,0.02,104.38,090324,,,R,V*10
$GPHDT,,T*1B
$GNACCURACY,4.9*1B
$GNGGA,032829.600,2500.7940910,N,12132.4798310,E,4,55,0.53,16.731,M,15.25,M,0,3335*44
$GNRMC,032829.600,A,2500.7940910,N,12132.4798310,E,0.02,104.38,090324,,,R,V*1B
$GPHDT,91.394,T*03
$GNACCURACY,4.8*1A
$GNGGA,032829.700,2500.7940911,N,12132.4798307,E,4,55,0.53,16.718,M,15.25,M,0,3335*49
$GNRMC,032829.700,A,2500.7940911,N,12132.4798307,E,0.01,104.38,090324,,,R,V*1E
$GPHDT,,T*1B
$GNACCURACY,4.8*1A
$GNGGA,032829.800,2500.7940914,N,12132.4798304,E,4,55,0.53,16.722,M,15.25,M,0,3335*49
$GNRMC,032829.800,A,2500.7940914,N,12132.4798304,E,0.03,104.38,090324,,,R,V*15
$GPHDT,91.640,T*0F
$GNACCURACY,4.8*1A
$GNGGA,032829.900,2500.7940913,N,12132.4798288,E,4,55,0.53,16.722,M,15.25,M,0,3335*4A
$GNRMC,032829.900,A,2500.7940913,N,12132.4798288,E,0.02,104.38,090324,,,R,V*17
$GPHDT,,T*1B
$GNACCURACY,4.8*1A
$GNGGA,032830.000,2500.7940913,N,12132.4798323,E,4,55,0.53,16.723,M,15.25,M,1,3335*4B
$GNRMC,032830.000,A,2500.7940913,N,12132.4798323,E,0.02,104.38,090324,,,R,V*16
$GPHDT,91.444,T*09
$GNGSA,A,3,08,194,195,27,21,16,04,09,02,196,31,26,0.78,0.50,0.60,1*32
$GNGSA,A,3,88,78,81,87,79,,,,,,,,0.78,0.50,0.60,2*09
$GNGSA,A,3,21,13,19,27,26,15,,,,,,,0.78,0.50,0.60,3*03
$GNGSA,A,3,06,16,09,43,39,40,07,23,10,11,25,28,0.78,0.50,0.60,4*03
$GNGSA,A,3,34,,,,,,,,,,,,0.78,0.50,0.60,4*0F
$GPGSV,4,1,15,08,72,307,45,199,64,166,,194,63,046,41,195,58,123,41,1*54
$GPGSV,4,2,15,27,50,027,36,45,47,231,32,21,40,169,45,16,35,056,40,1*6B
$GPGSV,4,3,15,04,32,216,40,09,30,266,23,02,28,181,31,07,25,320,12,1*6A
$GPGSV,4,4,15,196,21,173,34,26,17,084,17,31,15,137,18,1*6D
$GPGSV,2,1,08,08,72,307,46,194,63,046,43,195,58,123,40,27,50,027,39,8*6A
$GPGSV,2,2,08,04,32,216,45,09,30,266,22,196,21,173,24,26,17,084,28,8*56
$GLGSV,2,1,06,88,72,073,42,78,46,005,37,81,41,189,43,77,32,087,13,1*71
$GLGSV,2,2,06,87,21,029,27,79,12,320,18,1*79
$GAGSV,2,1,06,21,51,349,23,13,50,108,18,19,36,257,17,27,34,062,37,7*70
$GAGSV,2,2,06,26,28,175,37,15,22,049,24,7*73
$GAGSV,2,1,06,21,51,349,32,13,50,108,32,19,36,257,20,27,34,062,41,1*7B
$GAGSV,2,2,06,26,28,175,35,15,22,049,32,1*70
$GBGSV,4,1,13,06,81,225,39,16,79,190,43,09,75,300,40,43,74,060,46,1*7B
$GBGSV,4,2,13,39,67,177,46,40,66,316,42,07,63,294,32,23,61,357,44,1*77
$GBGSV,4,3,13,10,52,277,33,11,49,045,40,25,47,097,29,28,39,208,46,1*76
$GBGSV,4,4,13,34,25,041,40,1*45
$GBGSV,2,1,07,43,74,060,44,39,67,177,44,40,66,316,42,23,61,357,45,4*7F
$GBGSV,2,2,07,25,47,097,30,28,39,208,45,34,25,041,32,4*42
$GNACCURACY,4.8*1A
$PAIRSAT,1,35,2,0,201,3,0,200,4,0,221,5,0,200,6,0,200,7,0,201,8,0,221,9,0,221,10,0,200,11,0,200,12,0,200,13,0,200,14,0,200,15,0,200,16,0,201,17,0,200,18,0,200,19,0,200,20,0,200,21,0,201,22,0,200,23,0,200,24,0,200,25,0,200,26,0,221,27,0,221,28,0,200,29,0,200,30,0,200,31,0,201,32,0,200,194,0,621,195,0,621,196,0,620,199,0,600*5B
$PAIRSAT,2,23,65,0,200,66,0,200,67,0,200,68,0,200,70,0,200,71,0,200,72,0,200,73,0,200,74,0,200,75,0,200,76,0,200,77,0,201,78,0,201,79,0,201,80,0,200,81,0,201,82,0,200,83,0,200,84,0,200,85,0,200,86,0,200,87,0,201,88,0,201*5C
$PAIRSAT,3,23,2,0,1200,3,0,1200,4,0,1200,5,0,200,7,0,1200,8,0,1200,9,0,1200,10,0,1200,11,0,1200,12,0,1200,13,0,1221,15,0,1221,19,0,1221,21,0,1221,24,0,1200,25,0,1200,26,0,1221,27,0,1221,30,0,1200,31,0,1200,33,0,1200,34,0,1200,36,0,1200*6A
$PAIRSAT,4,46,1,0,200,2,0,200,3,0,600,4,0,200,5,0,200,6,0,201,7,0,201,8,0,200,9,0,201,10,0,201,11,0,201,12,0,200,13,0,200,14,0,200,16,0,201,19,0,600,20,0,600,21,0,600,22,0,600,23,0,621,24,0,600,25,0,621,26,0,600,27,0,600,28,0,621,29,0,600,30,0,600,32,0,600,33,0,600,34,0,621,35,0,600,36,0,600,37,0,600,38,0,600,39,0,621,40,0,421,41,0,600,42,0,600,43,0,621,44,0,400,45,0,400,46,0,400,59,0,400,60,0,400,61,0,400,62,0,400*4A
$PAIRDGP,8,2,4,7,8,9,16,21,27*7C
$GNGGA,032830.100,2500.7940924,N,12132.4798313,E,4,56,0.50,16.729,M,15.25,M,1,3335*47
$GNRMC,032830.100,A,2500.7940924,N,12132.4798313,E,0.00,104.38,090324,,,R,V*12
$GPHDT,,T*1B
$GNACCURACY,4.8*1A
$GNGGA,032830.200,2500.7940929,N,12132.4798284,E,4,56,0.50,16.722,M,15.25,M,1,3335*4D
$GNRMC,032830.200,A,2500.7940929,N,12132.4798284,E,0.09,104.38,090324,,,R,V*1A
$GPHDT,91.574,T*0B
$GNACCURACY,4.8*1A
$GNGGA,032830.300,2500.7940931,N,12132.4798297,E,4,56,0.50,16.717,M,15.25,M,1,3335*41
$GNRMC,032830.300,A,2500.7940931,N,12132.4798297,E,0.08,104.38,090324,,,R,V*11
$GPHDT,,T*1B
$GNACCURACY,4.8*1A
$GNGGA,032830.400,2500.7940909,N,12132.4798302,E,4,56,0.50,16.717,M,15.25,M,1,3335*40
$GNRMC,032830.400,A,2500.7940909,N,12132.4798302,E,0.08,104.38,090324,,,R,V*10
$GPHDT,90.697,T*04
$GNACCURACY,4.8*1A
$GNGGA,032830.500,2500.7940911,N,12132.4798334,E,4,56,0.50,16.724,M,15.25,M,1,3335*4D
$GNRMC,032830.500,A,2500.7940911,N,12132.4798334,E,0.04,104.38,090324,,,R,V*11
$GPHDT,,T*1B
$GNACCURACY,4.8*1A
$GNGGA,032830.600,2500.7940921,N,12132.4798264,E,4,56,0.50,16.713,M,15.25,M,0,3335*4C
$GNRMC,032830.600,A,2500.7940921,N,12132.4798264,E,0.02,104.38,090324,,,R,V*13
$GPHDT,91.741,T*0F
$GNACCURACY,4.8*1A
$GNGGA,032830.700,2500.7940906,N,12132.4798307,E,4,56,0.50,16.728,M,15.25,M,0,3335*44
$GNRMC,032830.700,A,2500.7940906,N,12132.4798307,E,0.06,104.38,090324,,,R,V*17
$GPHDT,,T*1B
$GNACCURACY,4.8*1A
$GNGGA,032830.800,2500.7940919,N,12132.4798284,E,4,56,0.50,16.715,M,15.25,M,0,3335*41
$GNRMC,032830.800,A,2500.7940919,N,12132.4798284,E,0.09,104.38,090324,,,R,V*13
$GPHDT,91.759,T*06
$GNACCURACY,4.8*1A
$GNGGA,032830.900,2500.7940919,N,12132.4798286,E,4,56,0.50,16.715,M,15.25,M,0,3335*42
$GNRMC,032830.900,A,2500.7940919,N,12132.4798286,E,0.01,104.38,090324,,,R,V*18
$GPHDT,,T*1B
$GNACCURACY,4.8*1A
$GNGGA,032831.000,2500.7940914,N,12132.4798283,E,4,56,0.50,16.718,M,15.25,M,1,3335*4E
$GNRMC,032831.000,A,2500.7940914,N,12132.4798283,E,0.01,104.38,090324,,,R,V*18
$GPHDT,91.587,T*07
$GNGSA,A,3,08,194,195,27,21,16,04,09,02,196,31,26,0.78,0.50,0.60,1*32
$GNGSA,A,3,88,78,81,87,79,,,,,,,,0.78,0.50,0.60,2*09
$GNGSA,A,3,21,13,19,27,26,15,,,,,,,0.78,0.50,0.60,3*03
$GNGSA,A,3,06,16,09,43,39,40,07,23,10,11,25,28,0.78,0.50,0.60,4*03
$GNGSA,A,3,34,,,,,,,,,,,,0.78,0.50,0.60,4*0F
$GPGSV,4,1,15,08,72,307,45,199,64,166,,194,63,046,41,195,58,123,41,1*54
$GPGSV,4,2,15,27,50,027,36,45,47,231,32,21,40,169,45,16,35,056,40,1*6B
$GPGSV,4,3,15,04,32,216,40,09,30,266,23,02,28,181,31,07,25,320,16,1*6E
$GPGSV,4,4,15,196,21,173,34,26,17,084,18,31,15,137,17,1*6D
$GPGSV,2,1,08,08,72,307,46,194,63,046,43,195,58,123,40,27,50,027,39,8*6A
$GPGSV,2,2,08,04,32,216,45,09,30,266,18,196,21,173,24,26,17,084,29,8*5E
$GLGSV,2,1,06,88,72,073,42,78,46,005,38,81,41,189,43,77,32,087,12,1*7F
$GLGSV,2,2,06,87,21,029,26,79,12,320,19,1*79
$GAGSV,2,1,06,21,51,349,22,13,50,108,19,19,36,257,17,27,34,062,37,7*70
$GAGSV,2,2,06,26,28,175,37,15,22,049,24,7*73
$GAGSV,2,1,06,21,51,349,32,13,50,108,31,19,36,257,20,27,34,062,41,1*78
$GAGSV,2,2,06,26,28,175,35,15,22,049,32,1*70
$GBGSV,4,1,13,06,81,225,39,16,79,190,43,09,75,300,40,43,74,060,46,1*7B
$GBGSV,4,2,13,39,67,177,46,40,66,316,42,07,63,294,32,23,61,357,44,1*77
$GBGSV,4,3,13,10,52,277,34,11,49,045,40,25,47,097,29,28,39,208,46,1*71
$GBGSV,4,4,13,34,25,041,40,1*45
$GBGSV,2,1,07,43,74,060,44,39,67,177,44,40,66,316,41,23,61,357,45,4*7C
$GBGSV,2,2,07,25,47,097,30,28,39,208,45,34,25,041,32,4*42
$GNACCURACY,4.8*1A
$PAIRSAT,1,35,2,0,201,3,0,200,4,0,221,5,0,200,6,0,200,7,0,201,8,0,221,9,0,221,10,0,200,11,0,200,12,0,200,13,0,200,14,0,200,15,0,200,16,0,201,17,0,200,18,0,200,19,0,200,20,0,200,21,0,201,22,0,200,23,0,200,24,0,200,25,0,200,26,0,221,27,0,221,28,0,200,29,0,200,30,0,200,31,0,201,32,0,200,194,0,621,195,0,621,196,0,620,199,0,600*5B
$PAIRSAT,2,23,65,0,200,66,0,200,67,0,200,68,0,200,70,0,200,71,0,200,72,0,200,73,0,200,74,0,200,75,0,200,76,0,200,77,0,201,78,0,201,79,0,201,80,0,200,81,0,201,82,0,200,83,0,200,84,0,200,85,0,200,86,0,200,87,0,201,88,0,201*5C
$PAIRSAT,3,23,2,0,1200,3,0,1200,4,0,1200,5,0,200,7,0,1200,8,0,1200,9,0,1200,10,0,1200,11,0,1200,12,0,1200,13,0,1221,15,0,1221,19,0,1221,21,0,1221,24,0,1200,25,0,1200,26,0,1221,27,0,1221,30,0,1200,31,0,1200,33,0,1200,34,0,1200,36,0,1200*6A
$PAIRSAT,4,46,1,0,200,2,0,200,3,0,600,4,0,200,5,0,200,6,0,201,7,0,201,8,0,200,9,0,201,10,0,201,11,0,201,12,0,200,13,0,200,14,0,200,16,0,201,19,0,600,20,0,600,21,0,600,22,0,600,23,0,621,24,0,600,25,0,621,26,0,600,27,0,600,28,0,621,29,0,600,30,0,600,32,0,600,33,0,600,34,0,621,35,0,600,36,0,600,37,0,600,38,0,600,39,0,621,40,0,421,41,0,600,42,0,600,43,0,621,44,0,400,45,0,400,46,0,400,59,0,400,60,0,400,61,0,400,62,0,400*4A
$PAIRDGP,8,2,4,7,8,9,16,21,27*7C
$GNGGA,032831.100,2500.7940908,N,12132.4798292,E,4,56,0.50,16.712,M,15.25,M,1,3335*48
$GNRMC,032831.100,A,2500.7940908,N,12132.4798292,E,0.00,104.38,090324,,,R,V*15
$GPHDT,,T*1B
$GNACCURACY,4.8*1A
$GNGGA,032831.200,2500.7940913,N,12132.4798287,E,4,56,0.50,16.718,M,15.25,M,1,3335*4F
$GNRMC,032831.200,A,2500.7940913,N,12132.4798287,E,0.01,104.38,090324,,,R,V*19
$GPHDT,91.712,T*09
$GNACCURACY,4.8*1A
$GNGGA,032831.300,2500.7940923,N,12132.4798274,E,4,56,0.50,16.710,M,15.25,M,1,3335*49
$GNRMC,032831.300,A,2500.7940923,N,12132.4798274,E,0.01,104.38,090324,,,R,V*17
$GPHDT,,T*1B
$GNACCURACY,4.8*1A
$GNGGA,032831.400,2500.7940902,N,12132.4798292,E,4,56,0.50,16.726,M,15.25,M,1,3335*40
$GNRMC,032831.400,A,2500.7940902,N,12132.4798292,E,0.01,104.38,090324,,,R,V*1B
$GPHDT,91.388,T*0E
$GNACCURACY,4.8*1A
$GNGGA,032831.500,2500.7940910,N,12132.4798295,E,4,57,0.50,16.718,M,15.25,M,1,3335*49
$GNRMC,032831.500,A,2500.7940910,N,12132.4798295,E,0.04,104.38,090324,,,R,V*1B
$GPHDT,,T*1B
$GNACCURACY,4.8*1A
$GNGGA,032831.600,2500.7940924,N,12132.4798298,E,4,57,0.50,16.722,M,15.25,M,0,3335*48
$GNRMC,032831.600,A,2500.7940924,N,12132.4798298,E,0.02,104.38,090324,,,R,V*14
$GPHDT,91.463,T*0C
$GNACCURACY,4.8*1A
$GNGGA,032831.700,2500.7940925,N,12132.4798296,E,4,57,0.50,16.728,M,15.25,M,0,3335*4C
$GNRMC,032831.700,A,2500.7940925,N,12132.4798296,E,0.07,104.38,090324,,,R,V*1F
$GPHDT,,T*1B
$GNACCURACY,4.8*1A
$GNGGA,032831.800,2500.7940924,N,12132.4798294,E,4,57,0.50,16.733,M,15.25,M,0,3335*4A
$GNRMC,032831.800,A,2500.7940924,N,12132.4798294,E,0.08,104.38,090324,,,R,V*1C
$GPHDT,91.397,T*00
$GNACCURACY,4.8*1A
$GNGGA,032831.900,2500.7940911,N,12132.4798295,E,4,57,0.50,16.727,M,15.25,M,0,3335*49
$GNRMC,032831.900,A,2500.7940911,N,12132.4798295,E,0.01,104.38,090324,,,R,V*13
$GPHDT,,T*1B
$GNACCURACY,4.8*1A
$GNGGA,032832.000,2500.7940912,N,12132.4798313,E,4,57,0.50,16.725,M,15.25,M,1,3335*4C
$GNRMC,032832.000,A,2500.7940912,N,12132.4798313,E,0.03,104.38,090324,,,R,V*17
$GPHDT,91.556,T*0B
$GNGSA,A,3,08,194,195,27,21,16,04,09,02,196,26,31,0.78,0.50,0.60,1*32
$GNGSA,A,3,88,78,81,87,79,,,,,,,,0.78,0.50,0.60,2*09
$GNGSA,A,3,21,13,19,27,26,15,,,,,,,0.78,0.50,0.60,3*03
$GNGSA,A,3,06,16,09,43,39,40,07,23,10,11,25,28,0.78,0.50,0.60,4*03
$GNGSA,A,3,34,,,,,,,,,,,,0.78,0.50,0.60,4*0F
$GPGSV,4,1,15,08,72,307,45,199,64,166,,194,63,046,41,195,58,123,41,1*54
$GPGSV,4,2,15,27,49,027,36,45,47,231,32,21,40,169,45,16,35,056,41,1*62
$GPGSV,4,3,15,04,32,216,40,09,30,266,24,02,28,181,31,07,25,320,15,1*6A
$GPGSV,4,4,15,196,21,173,34,26,17,084,21,31,15,137,16,1*66
$GPGSV,2,1,08,08,72,307,46,194,63,046,43,195,58,123,40,27,49,027,39,8*62
$GPGSV,2,2,08,04,32,216,45,09,30,266,19,196,21,173,24,26,17,084,28,8*5E
$GLGSV,2,1,06,88,72,073,42,78,46,005,38,81,41,189,43,77,32,087,,1*7C
$GLGSV,2,2,06,87,21,029,26,79,12,320,19,1*79
$GAGSV,2,1,06,21,51,349,24,13,50,108,19,19,36,257,17,27,34,062,37,7*76
$GAGSV,2,2,06,26,28,175,37,15,22,049,23,7*74
$GAGSV,2,1,06,21,51,349,32,13,50,108,31,19,36,257,20,27,34,062,41,1*78
$GAGSV,2,2,06,26,28,175,35,15,22,049,32,1*70
$GBGSV,4,1,13,06,81,225,39,16,79,190,43,09,75,300,40,43,74,060,46,1*7B
$GBGSV,4,2,13,39,67,177,46,40,66,316,42,07,63,294,32,23,61,357,44,1*77
$GBGSV,4,3,13,10,52,277,34,11,49,045,40,25,47,097,29,28,39,208,46,1*71
$GBGSV,4,4,13,34,25,041,40,1*45
$GBGSV,2,1,07,43,74,060,44,39,67,177,44,40,66,316,41,23,61,357,45,4*7C
$GBGSV,2,2,07,25,47,097,30,28,39,208,45,34,25,041,32,4*42
$GNACCURACY,4.8*1A
$PAIRSAT,1,35,2,0,201,3,0,200,4,0,221,5,0,200,6,0,200,7,0,201,8,0,221,9,0,221,10,0,200,11,0,200,12,0,200,13,0,200,14,0,200,15,0,200,16,0,201,17,0,200,18,0,200,19,0,200,20,0,200,21,0,201,22,0,200,23,0,200,24,0,200,25,0,200,26,0,221,27,0,221,28,0,200,29,0,200,30,0,200,31,0,201,32,0,200,194,0,621,195,0,621,196,0,620,199,0,600*5B
$PAIRSAT,2,23,65,0,200,66,0,200,67,0,200,68,0,200,70,0,200,71,0,200,72,0,200,73,0,200,74,0,200,75,0,200,76,0,200,77,0,201,78,0,201,79,0,201,80,0,200,81,0,201,82,0,200,83,0,200,84,0,200,85,0,200,86,0,200,87,0,201,88,0,201*5C
$PAIRSAT,3,23,2,0,1200,3,0,1200,4,0,1200,5,0,200,7,0,1200,8,0,1200,9,0,1200,10,0,1200,11,0,1200,12,0,1200,13,0,1221,15,0,1221,19,0,1221,21,0,1221,24,0,1200,25,0,1200,26,0,1221,27,0,1221,30,0,1200,31,0,1200,33,0,1200,34,0,1200,36,0,1200*6A
$PAIRSAT,4,46,1,0,200,2,0,200,3,0,600,4,0,200,5,0,200,6,0,201,7,0,201,8,0,200,9,0,201,10,0,201,11,0,201,12,0,200,13,0,200,14,0,200,16,0,201,19,0,600,20,0,600,21,0,600,22,0,600,23,0,621,24,0,600,25,0,621,26,0,600,27,0,600,28,0,621,29,0,600,30,0,600,32,0,600,33,0,600,34,0,621,35,0,600,36,0,600,37,0,600,38,0,600,39,0,621,40,0,421,41,0,600,42,0,600,43,0,621,44,0,400,45,0,400,46,0,400,59,0,400,60,0,400,61,0,400,62,0,400*4A
$PAIRDGP,8,2,4,7,8,9,16,21,27*7C
$GNGGA,032832.100,2500.7940924,N,12132.4798286,E,4,57,0.50,16.736,M,15.25,M,1,3335*47
$GNRMC,032832.100,A,2500.7940924,N,12132.4798286,E,0.07,104.38,090324,,,R,V*1A
$GPHDT,,T*1B
$GNACCURACY,4.7*15
$GNGGA,032832.200,2500.7940914,N,12132.4798318,E,4,56,0.50,16.719,M,15.25,M,1,3335*4D
$GNRMC,032832.200,A,2500.7940914,N,12132.4798318,E,0.05,104.38,090324,,,R,V*1E
$GPHDT,91.579,T*06
$GNACCURACY,4.7*15
$GNGGA,032832.300,2500.7940930,N,12132.4798282,E,4,56,0.50,16.717,M,15.25,M,1,3335*46
$GNRMC,032832.300,A,2500.7940930,N,12132.4798282,E,0.03,104.38,090324,,,R,V*1D
$GPHDT,,T*1B
$GNACCURACY,4.8*1A
$GNGGA,032832.400,2500.7940917,N,12132.4798297,E,4,56,0.50,16.732,M,15.25,M,1,3335*47
$GNRMC,032832.400,A,2500.7940917,N,12132.4798297,E,0.02,104.38,090324,,,R,V*1A
$GPHDT,91.520,T*0A
$GNACCURACY,4.8*1A
$GNGGA,032832.500,2500.7940921,N,12132.4798299,E,4,56,0.50,16.729,M,15.25,M,1,3335*47
$GNRMC,032832.500,A,2500.7940921,N,12132.4798299,E,0.02,104.38,090324,,,R,V*10
$GPHDT,,T*1B
$GNACCURACY,4.8*1A
$GNGGA,032832.600,2500.7940945,N,12132.4798273,E,4,56,0.50,16.721,M,15.25,M,0,3335*4B
$GNRMC,032832.600,A,2500.7940945,N,12132.4798273,E,0.05,104.38,090324,,,R,V*12
$GPHDT,91.822,T*05
$GNACCURACY,4.8*1A
$GNGGA,032832.700,2500.7940913,N,12132.4798303,E,4,56,0.50,16.730,M,15.25,M,0,3335*4F
$GNRMC,032832.700,A,2500.7940913,N,12132.4798303,E,0.01,104.38,090324,,,R,V*12
$GPHDT,,T*1B
$GNACCURACY,4.8*1A
$GNGGA,032832.800,2500.7940918,N,12132.4798290,E,4,56,0.50,16.732,M,15.25,M,0,3335*42
$GNRMC,032832.800,A,2500.7940918,N,12132.4798290,E,0.07,104.38,090324,,,R,V*1B
$GPHDT,91.399,T*0E
$GNACCURACY,4.8*1A
$GNGGA,032832.900,2500.7940904,N,12132.4798323,E,4,57,0.48,16.731,M,15.25,M,0,3335*4C
$GNRMC,032832.900,A,2500.7940904,N,12132.4798323,E,0.02,104.38,090324,,,R,V*1B
$GPHDT,,T*1B
$GNACCURACY,4.8*1A
$GNGGA,032833.000,2500.7940925,N,12132.4798303,E,4,57,0.48,16.733,M,15.25,M,1,3335*46
$GNRMC,032833.000,A,2500.7940925,N,12132.4798303,E,0.03,104.38,090324,,,R,V*13
$GPHDT,91.389,T*0F
$GNGSA,A,3,08,194,195,27,21,16,04,09,02,07,196,26,0.76,0.48,0.59,1*3A
$GNGSA,A,3,31,,,,,,,,,,,,0.76,0.48,0.59,1*02
$GNGSA,A,3,88,78,81,87,79,,,,,,,,0.76,0.48,0.59,2*04
$GNGSA,A,3,21,13,19,27,26,15,,,,,,,0.76,0.48,0.59,3*0E
$GNGSA,A,3,06,16,09,43,39,40,07,23,10,11,25,28,0.76,0.48,0.59,4*0E
$GNGSA,A,3,34,,,,,,,,,,,,0.76,0.48,0.59,4*02
$GPGSV,4,1,15,08,72,307,45,199,64,166,,194,63,046,41,195,58,123,41,1*54
$GPGSV,4,2,15,27,49,027,36,45,47,231,33,21,40,169,45,16,35,056,41,1*63
$GPGSV,4,3,15,04,32,216,40,09,30,266,24,02,28,181,30,07,25,320,16,1*68
$GPGSV,4,4,15,196,21,173,34,26,17,084,19,31,15,137,16,1*6D
$GPGSV,2,1,07,08,72,307,46,194,63,046,43,195,58,123,40,27,49,027,39,8*6D
$GPGSV,2,2,07,04,32,216,45,196,21,173,23,26,17,084,29,8*67
$GLGSV,2,1,06,88,72,073,42,78,46,005,38,81,41,189,43,77,32,087,,1*7C
$GLGSV,2,2,06,87,21,029,26,79,12,320,16,1*76
$GAGSV,2,1,06,21,51,349,21,13,50,108,19,19,36,257,18,27,34,062,37,7*7C
$GAGSV,2,2,06,26,28,175,37,15,22,049,24,7*73
$GAGSV,2,1,06,21,51,349,32,13,50,108,31,19,36,257,19,27,34,062,41,1*72
$GAGSV,2,2,06,26,28,175,35,15,22,049,32,1*70
$GBGSV,4,1,13,06,81,225,39,16,79,190,43,09,75,300,40,43,74,060,46,1*7B
$GBGSV,4,2,13,39,67,177,46,40,66,316,42,07,63,294,32,23,61,357,44,1*77
$GBGSV,4,3,13,10,52,277,34,11,49,045,40,25,47,097,30,28,39,208,46,1*79
$GBGSV,4,4,13,34,25,041,40,1*45
$GBGSV,2,1,07,43,74,060,44,39,67,177,44,40,66,316,41,23,61,357,45,4*7C
$GBGSV,2,2,07,25,47,097,30,28,39,208,45,34,25,041,32,4*42
$GNACCURACY,4.8*1A
$PAIRSAT,1,35,2,0,201,3,0,200,4,0,221,5,0,200,6,0,200,7,0,201,8,0,221,9,0,221,10,0,200,11,0,200,12,0,200,13,0,200,14,0,200,15,0,200,16,0,201,17,0,200,18,0,200,19,0,200,20,0,200,21,0,201,22,0,200,23,0,200,24,0,200,25,0,200,26,0,221,27,0,221,28,0,200,29,0,200,30,0,200,31,0,201,32,0,200,194,0,621,195,0,621,196,0,620,199,0,600*5B
$PAIRSAT,2,23,65,0,200,66,0,200,67,0,200,68,0,200,70,0,200,71,0,200,72,0,200,73,0,200,74,0,200,75,0,200,76,0,200,77,0,201,78,0,201,79,0,201,80,0,200,81,0,201,82,0,200,83,0,200,84,0,200,85,0,200,86,0,200,87,0,201,88,0,201*5C
$PAIRSAT,3,23,2,0,1200,3,0,1200,4,0,1200,5,0,200,7,0,1200,8,0,1200,9,0,1200,10,0,1200,11,0,1200,12,0,1200,13,0,1221,15,0,1221,19,0,1221,21,0,1221,24,0,1200,25,0,1200,26,0,1221,27,0,1221,30,0,1200,31,0,1200,33,0,1200,34,0,1200,36,0,1200*6A
$PAIRSAT,4,46,1,0,200,2,0,200,3,0,600,4,0,200,5,0,200,6,0,201,7,0,201,8,0,200,9,0,201,10,0,201,11,0,201,12,0,200,13,0,200,14,0,200,16,0,201,19,0,600,20,0,600,21,0,600,22,0,600,23,0,621,24,0,600,25,0,621,26,0,600,27,0,600,28,0,621,29,0,600,30,0,600,32,0,600,33,0,600,34,0,621,35,0,600,36,0,600,37,0,600,38,0,600,39,0,621,40,0,421,41,0,600,42,0,600,43,0,621,44,0,400,45,0,400,46,0,400,59,0,400,60,0,400,61,0,400,62,0,400*4A
$PAIRDGP,8,2,4,7,8,9,16,21,27*7C
$GNGGA,032833.100,2500.7940934,N,12132.4798277,E,4,57,0.48,16.722,M,15.25,M,1,3335*45
$GNRMC,032833.100,A,2500.7940934,N,12132.4798277,E,0.02,104.38,090324,,,R,V*11
$GPHDT,,T*1B
$GNACCURACY,4.8*1A
$GNGGA,032833.200,2500.7940929,N,12132.4798310,E,4,57,0.48,16.728,M,15.25,M,1,3335*40
$GNRMC,032833.200,A,2500.7940929,N,12132.4798310,E,0.07,104.38,090324,,,R,V*1B
$GPHDT,90.497,T*06
$GNACCURACY,4.8*1A
$GNGGA,032833.300,2500.7940921,N,12132.4798318,E,4,57,0.48,16.727,M,15.25,M,1,3335*4E
$GNRMC,032833.300,A,2500.7940921,N,12132.4798318,E,0.03,104.38,090324,,,R,V*1E
$GPHDT,,T*1B
$GNACCURACY,4.8*1A
$GNGGA,032833.400,2500.7940921,N,12132.4798311,E,4,57,0.48,16.725,M,15.25,M,1,3335*42
$GNRMC,032833.400,A,2500.7940921,N,12132.4798311,E,0.02,104.38,090324,,,R,V*11
$GPHDT,91.528,T*02
$GNACCURACY,4.8*1A
$GNGGA,032833.500,2500.7940915,N,12132.4798315,E,4,57,0.48,16.725,M,15.25,M,1,3335*40
$GNRMC,032833.500,A,2500.7940915,N,12132.4798315,E,0.01,104.38,090324,,,R,V*10
$GPHDT,,T*1B
$GNACCURACY,4.8*1A
$GNGGA,032833.600,2500.7940913,N,12132.4798283,E,4,57,0.48,16.721,M,15.25,M,0,3335*4E
$GNRMC,032833.600,A,2500.7940913,N,12132.4798283,E,0.01,104.38,090324,,,R,V*1B
$GPHDT,91.346,T*0C
$GNACCURACY,4.8*1A
$GNGGA,032833.700,2500.7940926,N,12132.4798289,E,4,57,0.48,16.725,M,15.25,M,0,3335*47
$GNRMC,032833.700,A,2500.7940926,N,12132.4798289,E,0.02,104.38,090324,,,R,V*15
$GPHDT,,T*1B
$GNACCURACY,4.8*1A
$GNGGA,032833.800,2500.7940922,N,12132.4798296,E,4,57,0.48,16.729,M,15.25,M,0,3335*4E
$GNRMC,032833.800,A,2500.7940922,N,12132.4798296,E,0.07,104.38,090324,,,R,V*15
$GPHDT,91.583,T*03
$GNACCURACY,4.8*1A
$GNGGA,032833.900,2500.7940911,N,12132.4798286,E,4,57,0.48,16.725,M,15.25,M,0,3335*42
$GNRMC,032833.900,A,2500.7940911,N,12132.4798286,E,0.04,104.38,090324,,,R,V*16
$GPHDT,,T*1B
$GNACCURACY,4.8*1A
$GNGGA,032834.000,2500.7940908,N,12132.4798317,E,4,57,0.48,16.732,M,15.25,M,1,3335*4A
$GNRMC,032834.000,A,2500.7940908,N,12132.4798317,E,0.02,104.38,090324,,,R,V*1F
$GPHDT,90.379,T*01
$GNGSA,A,3,08,194,195,27,21,16,04,09,02,07,196,26,0.76,0.48,0.59,1*3A
$GNGSA,A,3,31,,,,,,,,,,,,0.76,0.48,0.59,1*02
$GNGSA,A,3,88,78,81,87,79,,,,,,,,0.76,0.48,0.59,2*04
$GNGSA,A,3,21,13,19,27,26,15,,,,,,,0.76,0.48,0.59,3*0E
$GNGSA,A,3,06,16,09,43,39,40,07,23,10,11,25,28,0.76,0.48,0.59,4*0E
$GNGSA,A,3,34,,,,,,,,,,,,0.76,0.48,0.59,4*02
$GPGSV,4,1,15,08,72,307,45,199,64,166,,194,63,046,41,195,58,123,41,1*54
$GPGSV,4,2,15,27,49,027,36,45,47,231,33,21,40,169,45,16,35,056,41,1*63
$GPGSV,4,3,15,04,32,216,40,09,30,266,24,02,28,181,30,07,25,320,14,1*6A
$GPGSV,4,4,15,196,21,173,34,26,17,084,19,31,15,137,19,1*62
$GPGSV,2,1,08,08,72,307,46,194,63,046,43,195,58,123,40,27,49,027,39,8*62
$GPGSV,2,2,08,04,32,216,45,09,30,266,19,196,21,173,22,26,17,084,28,8*58
$GLGSV,2,1,07,88,72,073,42,78,46,005,38,81,41,189,43,77,32,087,,1*7D
$GLGSV,2,2,07,87,21,029,26,68,13,253,,79,12,320,15,1*4C
$GAGSV,2,1,06,21,51,349,21,13,50,108,19,19,36,257,18,27,34,062,37,7*7C
$GAGSV,2,2,06,26,28,175,37,15,22,049,25,7*72
$GAGSV,2,1,06,21,51,349,32,13,50,108,31,19,36,257,19,27,34,062,41,1*72
$GAGSV,2,2,06,26,28,175,35,15,22,049,32,1*70
$GBGSV,4,1,14,06,81,225,39,16,79,190,43,09,75,300,40,43,74,060,46,1*7C
$GBGSV,4,2,14,39,67,177,46,40,66,316,42,07,63,294,33,23,61,357,44,1*71
$GBGSV,4,3,14,10,52,277,34,11,49,045,40,25,47,097,30,28,39,208,46,1*7E
$GBGSV,4,4,14,34,25,041,40,37,17,314,,1*76
$GBGSV,2,1,07,43,74,060,44,39,67,177,44,40,66,316,41,23,61,357,45,4*7C
$GBGSV,2,2,07,25,47,097,30,28,39,208,45,34,25,041,32,4*42
$GNACCURACY,4.8*1A
$PAIRSAT,1,35,2,0,201,3,0,200,4,0,221,5,0,200,6,0,200,7,0,201,8,0,221,9,0,221,10,0,200,11,0,200,12,0,200,13,0,200,14,0,200,15,0,200,16,0,201,17,0,200,18,0,200,19,0,200,20,0,200,21,0,201,22,0,200,23,0,200,24,0,200,25,0,200,26,0,221,27,0,221,28,0,200,29,0,200,30,0,200,31,0,201,32,0,200,194,0,621,195,0,621,196,0,620,199,0,600*5B
$PAIRSAT,2,23,65,0,200,66,0,200,67,0,200,68,0,200,70,0,200,71,0,200,72,0,200,73,0,200,74,0,200,75,0,200,76,0,200,77,0,201,78,0,201,79,0,201,80,0,200,81,0,201,82,0,200,83,0,200,84,0,200,85,0,200,86,0,200,87,0,201,88,0,201*5C
$PAIRSAT,3,23,2,0,1200,3,0,1200,4,0,1200,5,0,200,7,0,1200,8,0,1200,9,0,1200,10,0,1200,11,0,1200,12,0,1200,13,0,1221,15,0,1221,19,0,1221,21,0,1221,24,0,1200,25,0,1200,26,0,1221,27,0,1221,30,0,1200,31,0,1200,33,0,1200,34,0,1200,36,0,1200*6A
$PAIRSAT,4,46,1,0,200,2,0,200,3,0,600,4,0,200,5,0,200,6,0,201,7,0,201,8,0,200,9,0,201,10,0,201,11,0,201,12,0,200,13,0,200,14,0,200,16,0,201,19,0,600,20,0,600,21,0,600,22,0,600,23,0,621,24,0,600,25,0,621,26,0,600,27,0,600,28,0,621,29,0,600,30,0,600,32,0,600,33,0,600,34,0,621,35,0,600,36,0,600,37,0,600,38,0,600,39,0,621,40,0,421,41,0,600,42,0,600,43,0,621,44,0,400,45,0,400,46,0,400,59,0,400,60,0,400,61,0,400,62,0,400*4A
$PAIRDGP,8,2,4,7,8,9,16,21,27*7C
$GNGGA,032834.100,2500.7940927,N,12132.4798285,E,4,58,0.48,16.718,M,15.25,M,1,3335*4B
$GNRMC,032834.100,A,2500.7940927,N,12132.4798285,E,0.03,104.38,090324,,,R,V*18
$GPHDT,,T*1B
$GNACCURACY,4.8*1A
$GNGGA,032834.200,2500.7940918,N,12132.4798300,E,4,58,0.48,16.725,M,15.25,M,1,3335*46
$GNRMC,032834.200,A,2500.7940918,N,12132.4798300,E,0.02,104.38,090324,,,R,V*1A
$GPHDT,91.529,T*03
$GNACCURACY,4.8*1A
$GNGGA,032834.300,2500.7940918,N,12132.4798296,E,4,58,0.48,16.716,M,15.25,M,1,3335*49
$GNRMC,032834.300,A,2500.7940918,N,12132.4798296,E,0.02,104.38,090324,,,R,V*15
$GPHDT,,T*1B
$GNACCURACY,4.8*1A
$GNGGA,032834.400,2500.7940919,N,12132.4798323,E,4,58,0.48,16.725,M,15.25,M,1,3335*40
$GNRMC,032834.400,A,2500.7940919,N,12132.4798323,E,0.01,104.38,090324,,,R,V*1F
$GPHDT,91.342,T*08
$GNACCURACY,4.8*1A
$GNGGA,032834.500,2500.7940922,N,12132.4798258,E,4,58,0.48,16.722,M,15.25,M,1,3335*43
$GNRMC,032834.500,A,2500.7940922,N,12132.4798258,E,0.03,104.38,090324,,,R,V*19
$GPHDT,,T*1B
$GNACCURACY,4.8*1A
$GNGGA,032834.600,2500.7940910,N,12132.4798326,E,4,58,0.48,16.728,M,15.25,M,0,3335*42
$GNRMC,032834.600,A,2500.7940910,N,12132.4798326,E,0.02,104.38,090324,,,R,V*12
$GPHDT,91.333,T*0E
$GNACCURACY,4.8*1A
$GNGGA,032834.700,2500.7940894,N,12132.4798333,E,4,58,0.48,16.711,M,15.25,M,0,3335*40
$GNRMC,032834.700,A,2500.7940894,N,12132.4798333,E,0.07,104.38,090324,,,R,V*1F
$GPHDT,,T*1B
$GNACCURACY,4.8*1A
$GNGGA,032834.800,2500.7940865,N,12132.4798377,E,4,58,0.48,16.716,M,15.25,M,0,3335*46
$GNRMC,032834.800,A,2500.7940865,N,12132.4798377,E,0.03,104.38,090324,,,R,V*1A
$GPHDT,90.078,T*03
$GNACCURACY,4.8*1A
$GNGGA,032834.900,2500.7940899,N,12132.4798348,E,4,58,0.48,16.706,M,15.25,M,0,3335*49
$GNRMC,032834.900,A,2500.7940899,N,12132.4798348,E,0.04,104.38,090324,,,R,V*13
$GPHDT,,T*1B
$GNACCURACY,4.8*1A
$GNGGA,032835.000,2500.7940898,N,12132.4798357,E,4,58,0.48,16.703,M,15.25,M,1,3335*4A
$GNRMC,032835.000,A,2500.7940898,N,12132.4798357,E,0.05,104.38,090324,,,R,V*15
$GPHDT,90.053,T*0A
$GNGSA,A,3,08,194,195,27,21,16,04,09,02,07,196,26,0.87,0.48,0.72,1*3D
$GNGSA,A,3,31,,,,,,,,,,,,0.87,0.48,0.72,1*05
$GNGSA,A,3,88,78,81,87,79,,,,,,,,0.87,0.48,0.72,2*03
$GNGSA,A,3,21,13,19,27,26,15,,,,,,,0.87,0.48,0.72,3*09
$GNGSA,A,3,06,16,09,43,39,40,07,23,10,11,25,28,0.87,0.48,0.72,4*09
$GNGSA,A,3,34,,,,,,,,,,,,0.87,0.48,0.72,4*05
$GPGSV,4,1,15,08,72,307,46,199,64,166,,194,63,046,41,195,58,123,41,1*57
$GPGSV,4,2,15,27,49,027,35,45,47,231,32,21,40,169,45,16,35,056,41,1*61
$GPGSV,4,3,15,04,32,216,41,09,30,266,23,02,28,181,30,07,25,320,13,1*6B
$GPGSV,4,4,15,196,21,173,34,26,17,084,18,31,15,137,19,1*63
$GPGSV,2,1,08,08,72,307,46,194,63,046,43,195,58,123,41,27,49,027,37,8*6D
$GPGSV,2,2,08,04,32,216,46,09,30,266,22,196,21,173,25,26,17,084,28,8*54
$GLGSV,2,1,06,88,72,073,43,78,46,005,37,81,41,189,43,77,32,087,,1*72
$GLGSV,2,2,06,87,21,029,26,79,12,320,15,1*75
$GAGSV,2,1,07,21,51,349,21,13,50,108,23,19,36,257,18,27,34,063,38,7*7A
$GAGSV,2,2,07,26,28,175,36,15,22,049,26,04,10,312,,7*44
$GAGSV,2,1,06,21,51,349,29,13,50,108,31,19,36,257,21,27,34,063,41,1*72
$GAGSV,2,2,06,26,28,175,35,15,22,049,33,1*71
$GBGSV,4,1,13,06,81,225,39,16,79,190,43,09,75,300,40,43,74,060,46,1*7B
$GBGSV,4,2,13,39,67,177,46,40,66,316,43,07,63,294,32,23,61,357,45,1*77
$GBGSV,4,3,13,10,52,277,33,11,49,045,39,25,47,097,28,28,39,208,46,1*79
$GBGSV,4,4,13,34,25,041,40,1*45
$GBGSV,2,1,07,43,74,060,44,39,67,177,44,40,66,316,41,23,61,357,45,4*7C
$GBGSV,2,2,07,25,47,097,31,28,39,208,45,34,25,041,30,4*41
$GNACCURACY,4.9*1B
$PAIRSAT,1,35,2,0,201,3,0,200,4,0,221,5,0,200,6,0,200,7,0,201,8,0,221,9,0,221,10,0,200,11,0,200,12,0,200,13,0,200,14,0,200,15,0,200,16,0,201,17,0,200,18,0,200,19,0,200,20,0,200,21,0,201,22,0,200,23,0,200,24,0,200,25,0,200,26,0,221,27,0,221,28,0,200,29,0,200,30,0,200,31,0,201,32,0,200,194,0,621,195,0,621,196,0,620,199,0,600*5B
$PAIRSAT,2,23,65,0,200,66,0,200,67,0,200,68,0,200,70,0,200,71,0,200,72,0,200,73,0,200,74,0,200,75,0,200,76,0,200,77,0,201,78,0,201,79,0,201,80,0,200,81,0,201,82,0,200,83,0,200,84,0,200,85,0,200,86,0,200,87,0,201,88,0,201*5C
$PAIRSAT,3,23,2,0,1200,3,0,1200,4,0,1200,5,0,200,7,0,1200,8,0,1200,9,0,1200,10,0,1200,11,0,1200,12,0,1200,13,0,1221,15,0,1221,19,0,1221,21,0,1221,24,0,1200,25,0,1200,26,0,1221,27,0,1221,30,0,1200,31,0,1200,33,0,1200,34,0,1200,36,0,1200*6A
$PAIRSAT,4,46,1,0,200,2,0,200,3,0,600,4,0,200,5,0,200,6,0,201,7,0,201,8,0,200,9,0,201,10,0,201,11,0,201,12,0,200,13,0,200,14,0,200,16,0,201,19,0,600,20,0,600,21,0,600,22,0,600,23,0,621,24,0,600,25,0,621,26,0,600,27,0,600,28,0,621,29,0,600,30,0,600,32,0,600,33,0,600,34,0,621,35,0,600,36,0,600,37,0,600,38,0,600,39,0,621,40,0,421,41,0,600,42,0,600,43,0,621,44,0,400,45,0,400,46,0,400,59,0,400,60,0,400,61,0,400,62,0,400*4A
$PAIRDGP,8,2,4,7,8,9,16,21,27*7C
$GNGGA,032835.100,2500.7940901,N,12132.4798370,E,4,58,0.48,16.704,M,15.25,M,1,3335*48
$GNRMC,032835.100,A,2500.7940901,N,12132.4798370,E,0.05,104.38,090324,,,R,V*10
$GPHDT,,T*1B
$GNACCURACY,4.9*1B
$GNGGA,032835.200,2500.7940891,N,12132.4798348,E,4,58,0.48,16.702,M,15.25,M,1,3335*4E
$GNRMC,032835.200,A,2500.7940891,N,12132.4798348,E,0.02,104.38,090324,,,R,V*17
$GPHDT,90.003,T*0F
$GNACCURACY,4.9*1B
$GNGGA,032835.300,2500.7940915,N,12132.4798357,E,4,58,0.48,16.701,M,15.25,M,1,3335*4F
$GNRMC,032835.300,A,2500.7940915,N,12132.4798357,E,0.03,104.38,090324,,,R,V*14
$GPHDT,,T*1B
$GNACCURACY,4.9*1B
$GNGGA,032835.400,2500.7940912,N,12132.4798353,E,4,58,0.48,16.706,M,15.25,M,1,3335*4C
$GNRMC,032835.400,A,2500.7940912,N,12132.4798353,E,0.01,104.38,090324,,,R,V*12
$GPHDT,90.184,T*01
