$FW : RTK35X,V1.1X0314AS,Lib20210517,1*54
$Tool : LOCOSYS , GNSS Firebird , v1.0.0.19*39
$---------------------------------------------------*2D
NRMC,032843.300,A,2500.7940876,N,12132.4798408,E,0.08,104.38,090324,,,R,V*17
$GPHDT,,T*1B
$GNACCURACY,4.8*1A
$GNGGA,032843.400,2500.7940889,N,12132.4798386,E,4,55,0.50,16.768,M,15.25,M,1,3335*4A
$GNRMC,032843.400,A,2500.7940889,N,12132.4798386,E,0.06,104.38,090324,,,R,V*1F
$GPHDT,0.826,T*39
$GNACCURACY,4.8*1A
$GNGGA,032843.500,2500.7940906,N,12132.4798386,E,4,55,0.50,16.770,M,15.25,M,1,3335*44
$GNRMC,032843.500,A,2500.7940906,N,12132.4798386,E,0.03,104.38,090324,,,R,V*1D
$GPHDT,,T*1B
$GNACCURACY,4.8*1A
$GNGGA,032843.600,2500.7940898,N,12132.4798415,E,4,55,0.50,16.783,M,15.25,M,0,3335*41
$GNRMC,032843.600,A,2500.7940898,N,12132.4798415,E,0.03,104.38,090324,,,R,V*15
$GPHDT,0.447,T*32
$GNACCURACY,4.9*1B
$GNGGA,032843.700,2500.7940888,N,12132.4798446,E,4,55,0.50,16.787,M,15.25,M,0,3335*43
$GNRMC,032843.700,A,2500.7940888,N,12132.4798446,E,0.12,104.38,090324,,,R,V*13
$GPHDT,,T*1B
$GNACCURACY,4.8*1A
$GNGGA,032843.800,2500.7940904,N,12132.4798484,E,4,55,0.50,16.780,M,15.25,M,0,3335*40
$GNRMC,032843.800,A,2500.7940904,N,12132.4798484,E,0.10,104.38,090324,,,R,V*15
$GPHDT,0.791,T*3A
$GNACCURACY,4.8*1A
$GNGGA,032843.900,2500.7940929,N,12132.4798342,E,4,55,0.50,16.795,M,15.25,M,0,3335*47
$GNRMC,032843.900,A,2500.7940929,N,12132.4798342,E,0.28,104.38,090324,,,R,V*1D
$GPHDT,,T*1B
$GNACCURACY,4.8*1A
$GNGGA,032844.000,2500.7941001,N,12132.4798227,E,4,55,0.50,16.769,M,15.25,M,1,3335*4B
$GNRMC,032844.000,A,2500.7941001,N,12132.4798227,E,0.21,104.38,090324,,,R,V*1A
$GPHDT,3.515,T*37
$GNGSA,A,3,08,194,195,27,21,16,04,09,02,196,26,31,0.89,0.50,0.74,1*39
$GNGSA,A,3,88,78,81,87,79,,,,,,,,0.89,0.50,0.74,2*02
$GNGSA,A,3,21,13,19,27,26,15,,,,,,,0.89,0.50,0.74,3*08
$GNGSA,A,3,06,16,09,43,39,40,07,23,10,11,25,28,0.89,0.50,0.74,4*08
$GNGSA,A,3,34,,,,,,,,,,,,0.89,0.50,0.74,4*04
$GPGSV,4,1,15,08,72,307,46,199,64,166,,194,63,046,41,195,58,123,40,1*56
$GPGSV,4,2,15,27,49,027,39,45,47,231,24,21,40,169,39,16,35,056,36,1*61
$GPGSV,4,3,15,04,32,216,24,09,30,266,26,02,28,181,32,07,25,320,15,1*69
$GPGSV,4,4,15,196,21,173,31,26,17,084,17,31,15,137,22,1*61
$GPGSV,2,1,07,08,72,307,44,194,63,046,40,195,58,123,38,27,49,027,35,8*6F
$GPGSV,2,2,07,04,32,216,22,09,30,266,22,26,17,084,19,8*54
$GLGSV,2,1,06,88,72,073,42,78,46,006,36,81,41,189,39,77,32,087,,1*7C
$GLGSV,2,2,06,87,21,029,23,79,12,320,18,1*7D
$GAGSV,2,1,07,21,51,349,21,13,50,108,34,19,36,257,17,27,34,063,37,7*7C
$GAGSV,2,2,07,26,28,175,35,15,22,049,18,04,10,312,,7*4A
$GAGSV,2,1,05,21,51,349,35,13,50,108,30,27,34,063,40,26,28,175,25,1*78
$GAGSV,2,2,05,15,22,049,27,1*4C
$GBGSV,4,1,13,06,81,225,38,16,79,191,39,09,75,300,41,43,74,060,45,1*74
$GBGSV,4,2,13,39,67,177,40,40,66,316,42,07,63,294,32,23,61,357,45,1*70
$GBGSV,4,3,13,10,52,277,30,11,49,045,35,25,47,097,25,28,39,208,31,1*7B
$GBGSV,4,4,13,34,25,041,38,1*4A
$GBGSV,2,1,07,43,74,060,45,39,67,177,39,40,66,316,41,23,61,357,46,4*74
$GBGSV,2,2,07,25,47,097,29,28,39,208,30,34,25,041,29,4*42
$GNACCURACY,4.8*1A
$PAIRSAT,1,35,2,0,201,3,0,200,4,0,221,5,0,200,6,0,200,7,0,201,8,0,221,9,0,221,10,0,200,11,0,200,12,0,200,13,0,200,14,0,200,15,0,200,16,0,201,17,0,200,18,0,200,19,0,200,20,0,200,21,0,201,22,0,200,23,0,200,24,0,200,25,0,200,26,0,221,27,0,221,28,0,200,29,0,200,30,0,200,31,0,201,32,0,200,194,0,621,195,0,621,196,0,620,199,0,600*5B
$PAIRSAT,2,23,65,0,200,66,0,200,67,0,200,68,0,200,70,0,200,71,0,200,72,0,200,73,0,200,74,0,200,75,0,200,76,0,200,77,0,201,78,0,201,79,0,201,80,0,200,81,0,201,82,0,200,83,0,200,84,0,200,85,0,200,86,0,200,87,0,201,88,0,201*5C
$PAIRSAT,3,23,2,0,1200,3,0,1200,4,0,1200,5,0,200,7,0,1200,8,0,1200,9,0,1200,10,0,1200,11,0,1200,12,0,1200,13,0,1221,15,0,1221,19,0,1221,21,0,1221,24,0,1200,25,0,1200,26,0,1221,27,0,1221,30,0,1200,31,0,1200,33,0,1200,34,0,1200,36,0,1200*6A
$PAIRSAT,4,46,1,0,200,2,0,200,3,0,600,4,0,200,5,0,200,6,0,201,7,0,201,8,0,200,9,0,201,10,0,201,11,0,201,12,0,200,13,0,200,14,0,200,16,0,201,19,0,600,20,0,600,21,0,600,22,0,600,23,0,621,24,0,600,25,0,621,26,0,600,27,0,600,28,0,621,29,0,600,30,0,600,32,0,600,33,0,600,34,0,621,35,0,600,36,0,600,37,0,600,38,0,600,39,0,621,40,0,421,41,0,600,42,0,600,43,0,621,44,0,400,45,0,400,46,0,400,59,0,400,60,0,400,61,0,400,62,0,400*4A
$PAIRDGP,5,2,7,16,21,27*68
$GNGGA,032844.100,2500.7940814,N,12132.4798409,E,4,55,0.50,16.805,M,15.25,M,1,3335*48
$GNRMC,032844.100,A,2500.7940814,N,12132.4798409,E,0.16,104.38,090324,,,R,V*18
$GPHDT,,T*1B
$GNACCURACY,4.8*1A
$GNGGA,032844.200,2500.7940836,N,12132.4798272,E,4,55,0.50,16.743,M,15.25,M,1,3335*4C
$GNRMC,032844.200,A,2500.7940836,N,12132.4798272,E,0.09,104.38,090324,,,R,V*1F
$GPHDT,1.562,T*35
$GNACCURACY,4.8*1A
$GNGGA,032844.300,2500.7940846,N,12132.4798242,E,4,55,0.50,16.762,M,15.25,M,1,3335*4A
$GNRMC,032844.300,A,2500.7940846,N,12132.4798242,E,0.05,104.38,090324,,,R,V*16
$GPHDT,,T*1B
$GNACCURACY,4.8*1A
$GNGGA,032844.400,2500.7940824,N,12132.4798253,E,4,55,0.50,16.753,M,15.25,M,1,3335*4B
$GNRMC,032844.400,A,2500.7940824,N,12132.4798253,E,0.03,104.38,090324,,,R,V*13
$GPHDT,1.567,T*30
$GNACCURACY,4.8*1A
$GNGGA,032844.500,2500.7940824,N,12132.4798269,E,4,55,0.50,16.761,M,15.25,M,1,3335*42
$GNRMC,032844.500,A,2500.7940824,N,12132.4798269,E,0.02,104.38,090324,,,R,V*1A
$GPHDT,,T*1B
$GNACCURACY,4.7*15
$GNGGA,032844.600,2500.7940875,N,12132.4798149,E,4,55,0.50,16.764,M,15.25,M,0,3335*40
$GNRMC,032844.600,A,2500.7940875,N,12132.4798149,E,0.06,104.38,090324,,,R,V*18
$GPHDT,1.530,T*32
$GNACCURACY,4.8*1A
$GNGGA,032844.700,2500.7940874,N,12132.4798139,E,4,55,0.50,16.766,M,15.25,M,0,3335*45
$GNRMC,032844.700,A,2500.7940874,N,12132.4798139,E,0.05,104.38,090324,,,R,V*1C
$GPHDT,,T*1B
$GNACCURACY,4.8*1A
$GNGGA,032844.800,2500.7940882,N,12132.4798199,E,4,55,0.50,16.766,M,15.25,M,0,3335*49
$GNRMC,032844.800,A,2500.7940882,N,12132.4798199,E,0.02,104.38,090324,,,R,V*17
$GPHDT,0.859,T*31
$GNACCURACY,4.8*1A
$GNGGA,032844.900,2500.7940901,N,12132.4798190,E,4,55,0.50,16.759,M,15.25,M,0,3335*47
$GNRMC,032844.900,A,2500.7940901,N,12132.4798190,E,0.03,104.38,090324,,,R,V*14
$GPHDT,,T*1B
$GNACCURACY,4.8*1A
$GNGGA,032845.000,2500.7940957,N,12132.4798257,E,4,55,0.50,16.782,M,15.25,M,1,3335*43
$GNRMC,032845.000,A,2500.7940957,N,12132.4798257,E,0.00,104.38,090324,,,R,V*14
$GPHDT,0.846,T*3F
$GNGSA,A,3,08,194,195,27,21,16,04,09,02,196,26,31,0.89,0.50,0.74,1*39
$GNGSA,A,3,88,78,81,87,79,,,,,,,,0.89,0.50,0.74,2*02
$GNGSA,A,3,21,13,19,27,26,15,,,,,,,0.89,0.50,0.74,3*08
$GNGSA,A,3,06,16,09,43,39,40,07,23,10,11,25,28,0.89,0.50,0.74,4*08
$GNGSA,A,3,34,,,,,,,,,,,,0.89,0.50,0.74,4*04
$GPGSV,4,1,15,08,72,307,46,199,64,166,,194,63,046,41,195,58,123,42,1*54
$GPGSV,4,2,15,27,49,027,40,45,47,231,22,21,40,169,41,16,35,056,39,1*69
$GPGSV,4,3,15,04,32,216,22,09,30,266,25,02,29,181,32,07,25,320,15,1*6D
$GPGSV,4,4,15,196,21,173,30,26,17,084,15,31,15,137,19,1*6A
$GPGSV,2,1,07,08,72,307,44,194,63,046,41,195,58,123,42,27,49,027,34,8*62
$GPGSV,2,2,07,04,32,216,28,09,30,266,20,26,17,084,20,8*56
$GLGSV,2,1,06,88,72,073,43,78,46,006,35,81,41,189,38,77,32,087,,1*7F
$GLGSV,2,2,06,87,21,029,23,79,12,320,16,1*73
$GAGSV,2,1,06,21,51,349,28,13,50,108,35,19,36,257,18,27,34,063,41,7*7B
$GAGSV,2,2,06,26,28,175,35,15,22,049,18,7*7E
$GAGSV,2,1,05,21,51,349,35,13,50,108,31,27,34,063,40,26,28,175,29,1*75
$GAGSV,2,2,05,15,22,049,25,1*4E
$GBGSV,4,1,13,06,81,225,37,16,79,191,40,09,75,300,41,43,74,060,45,1*75
$GBGSV,4,2,13,39,67,177,42,40,66,316,42,07,63,294,33,23,61,357,44,1*72
$GBGSV,4,3,13,10,52,277,30,11,49,045,35,25,47,097,25,28,39,208,23,1*78
$GBGSV,4,4,13,34,25,041,37,1*45
$GBGSV,2,1,07,43,74,060,45,39,67,177,40,40,66,316,41,23,61,357,46,4*7A
$GBGSV,2,2,07,25,47,097,30,28,39,208,30,34,25,041,26,4*45
$GNACCURACY,4.8*1A
$PAIRSAT,1,35,2,0,201,3,0,200,4,0,221,5,0,200,6,0,200,7,0,201,8,0,221,9,0,221,10,0,200,11,0,200,12,0,200,13,0,200,14,0,200,15,0,200,16,0,201,17,0,200,18,0,200,19,0,200,20,0,200,21,0,201,22,0,200,23,0,200,24,0,200,25,0,200,26,0,221,27,0,221,28,0,200,29,0,200,30,0,200,31,0,201,32,0,200,194,0,621,195,0,621,196,0,620,199,0,600*5B
$PAIRSAT,2,23,65,0,200,66,0,200,67,0,200,68,0,200,70,0,200,71,0,200,72,0,200,73,0,200,74,0,200,75,0,200,76,0,200,77,0,201,78,0,201,79,0,201,80,0,200,81,0,201,82,0,200,83,0,200,84,0,200,85,0,200,86,0,200,87,0,201,88,0,201*5C
$PAIRSAT,3,23,2,0,1200,3,0,1200,4,0,1200,5,0,200,7,0,1200,8,0,1200,9,0,1200,10,0,1200,11,0,1200,12,0,1200,13,0,1221,15,0,1221,19,0,1221,21,0,1221,24,0,1200,25,0,1200,26,0,1221,27,0,1221,30,0,1200,31,0,1200,33,0,1200,34,0,1200,36,0,1200*6A
$PAIRSAT,4,46,1,0,200,2,0,200,3,0,600,4,0,200,5,0,200,6,0,201,7,0,201,8,0,200,9,0,201,10,0,201,11,0,201,12,0,200,13,0,200,14,0,200,16,0,201,19,0,600,20,0,600,21,0,600,22,0,600,23,0,621,24,0,600,25,0,621,26,0,600,27,0,600,28,0,621,29,0,600,30,0,600,32,0,600,33,0,600,34,0,621,35,0,600,36,0,600,37,0,600,38,0,600,39,0,621,40,0,421,41,0,600,42,0,600,43,0,621,44,0,400,45,0,400,46,0,400,59,0,400,60,0,400,61,0,400,62,0,400*4A
$PAIRDGP,5,2,7,16,21,27*68
$GNGGA,032845.100,2500.7940938,N,12132.4798285,E,4,55,0.50,16.801,M,15.25,M,1,3335*40
$GNRMC,032845.100,A,2500.7940938,N,12132.4798285,E,0.04,104.38,090324,,,R,V*17
$GPHDT,,T*1B
$GNACCURACY,4.8*1A
$GNGGA,032845.200,2500.7940942,N,12132.4798276,E,4,55,0.50,16.795,M,15.25,M,1,3335*40
$GNRMC,032845.200,A,2500.7940942,N,12132.4798276,E,0.03,104.38,090324,,,R,V*12
$GPHDT,0.874,T*3E
$GNACCURACY,4.8*1A
$GNGGA,032845.300,2500.7940959,N,12132.4798232,E,4,55,0.50,16.786,M,15.25,M,1,3335*49
$GNRMC,032845.300,A,2500.7940959,N,12132.4798232,E,0.04,104.38,090324,,,R,V*1E
$GPHDT,,T*1B
$GNACCURACY,4.7*15
$GNGGA,032845.400,2500.7940984,N,12132.4798259,E,4,55,0.50,16.807,M,15.25,M,1,3335*45
$GNRMC,032845.400,A,2500.7940984,N,12132.4798259,E,0.10,104.38,090324,,,R,V*11
$GPHDT,1.213,T*34
$GNACCURACY,4.7*15
$GNGGA,032845.500,2500.7940980,N,12132.4798286,E,4,55,0.50,16.807,M,15.25,M,1,3335*42
$GNRMC,032845.500,A,2500.7940980,N,12132.4798286,E,0.03,104.38,090324,,,R,V*14
$GPHDT,,T*1B
$GNACCURACY,4.7*15
$GNGGA,032845.600,2500.7940950,N,12132.4798220,E,4,55,0.50,16.784,M,15.25,M,0,3335*45
$GNRMC,032845.600,A,2500.7940950,N,12132.4798220,E,0.08,104.38,090324,,,R,V*1D
$GPHDT,0.898,T*3C
$GNACCURACY,4.7*15
$GNGGA,032845.700,2500.7940967,N,12132.4798270,E,4,55,0.50,16.790,M,15.25,M,0,3335*40
$GNRMC,032845.700,A,2500.7940967,N,12132.4798270,E,0.03,104.38,090324,,,R,V*16
$GPHDT,,T*1B
$GNACCURACY,4.7*15
$GNGGA,032845.800,2500.7940963,N,12132.4798268,E,4,55,0.50,16.789,M,15.25,M,0,3335*4A
$GNRMC,032845.800,A,2500.7940963,N,12132.4798268,E,0.04,104.38,090324,,,R,V*13
$GPHDT,0.433,T*31
$GNACCURACY,4.7*15
$GNGGA,032845.900,2500.7940970,N,12132.4798267,E,4,55,0.50,16.791,M,15.25,M,0,3335*4F
$GNRMC,032845.900,A,2500.7940970,N,12132.4798267,E,0.01,104.38,090324,,,R,V*1A
$GPHDT,,T*1B
$GNACCURACY,4.7*15
$GNGGA,032846.000,2500.7940977,N,12132.4798260,E,4,55,0.50,16.791,M,15.25,M,1,3335*44
$GNRMC,032846.000,A,2500.7940977,N,12132.4798260,E,0.04,104.38,090324,,,R,V*15
$GPHDT,0.158,T*39
$GNGSA,A,3,08,194,195,27,21,16,04,02,07,196,26,31,0.87,0.48,0.72,1*36
$GNGSA,A,3,09,,,,,,,,,,,,0.87,0.48,0.72,1*0E
$GNGSA,A,3,88,78,81,87,79,,,,,,,,0.87,0.48,0.72,2*03
$GNGSA,A,3,21,13,19,27,26,15,,,,,,,0.87,0.48,0.72,3*09
$GNGSA,A,3,06,16,09,43,39,40,07,23,10,11,25,28,0.87,0.48,0.72,4*09
$GNGSA,A,3,34,,,,,,,,,,,,0.87,0.48,0.72,4*05
$GPGSV,4,1,15,08,72,307,46,199,64,166,,194,63,046,41,195,58,123,42,1*54
$GPGSV,4,2,15,27,49,027,39,45,47,231,25,21,40,169,44,16,35,056,39,1*65
$GPGSV,4,3,15,04,32,216,32,09,30,266,24,02,29,181,31,07,26,320,17,1*6F
$GPGSV,4,4,15,196,21,173,33,26,17,084,15,31,15,137,19,1*69
$GPGSV,2,1,07,08,72,307,44,194,63,046,41,195,58,123,39,27,49,027,36,8*6C
$GPGSV,2,2,07,04,32,216,35,09,30,266,21,26,17,084,17,8*5F
$GLGSV,2,1,06,88,72,073,44,78,46,006,32,81,41,189,44,77,32,087,,1*74
$GLGSV,2,2,06,87,21,029,21,79,12,320,16,1*71
$GAGSV,2,1,06,21,51,349,27,13,50,108,32,19,36,257,19,27,34,063,39,7*7D
$GAGSV,2,2,06,26,28,175,38,15,22,049,25,7*7D
$GAGSV,2,1,06,21,51,349,35,13,50,108,31,19,36,257,16,27,34,063,39,1*74
$GAGSV,2,2,06,26,28,175,24,15,22,049,26,1*75
$GBGSV,4,1,13,06,81,225,39,16,79,191,43,09,75,300,41,43,74,060,45,1*78
$GBGSV,4,2,13,39,67,177,44,40,66,316,42,07,63,294,34,23,61,357,45,1*72
$GBGSV,4,3,13,10,52,277,30,11,49,045,31,25,47,097,32,28,39,208,37,1*7F
$GBGSV,4,4,13,34,25,041,37,1*45
$GBGSV,2,1,07,43,74,060,44,39,67,177,44,40,66,316,40,23,61,357,46,4*7E
$GBGSV,2,2,07,25,47,097,30,28,39,208,37,34,25,041,26,4*42
$GNACCURACY,4.8*1A
$PAIRSAT,1,35,2,0,201,3,0,200,4,0,221,5,0,200,6,0,200,7,0,201,8,0,221,9,0,221,10,0,200,11,0,200,12,0,200,13,0,200,14,0,200,15,0,200,16,0,201,17,0,200,18,0,200,19,0,200,20,0,200,21,0,201,22,0,200,23,0,200,24,0,200,25,0,200,26,0,221,27,0,221,28,0,200,29,0,200,30,0,200,31,0,201,32,0,200,194,0,621,195,0,621,196,0,620,199,0,600*5B
$PAIRSAT,2,23,65,0,200,66,0,200,67,0,200,68,0,200,70,0,200,71,0,200,72,0,200,73,0,200,74,0,200,75,0,200,76,0,200,77,0,201,78,0,201,79,0,201,80,0,200,81,0,201,82,0,200,83,0,200,84,0,200,85,0,200,86,0,200,87,0,201,88,0,201*5C
$PAIRSAT,3,23,2,0,1200,3,0,1200,4,0,1200,5,0,200,7,0,1200,8,0,1200,9,0,1200,10,0,1200,11,0,1200,12,0,1200,13,0,1221,15,0,1221,19,0,1221,21,0,1221,24,0,1200,25,0,1200,26,0,1221,27,0,1221,30,0,1200,31,0,1200,33,0,1200,34,0,1200,36,0,1200*6A
$PAIRSAT,4,46,1,0,200,2,0,200,3,0,600,4,0,200,5,0,200,6,0,201,7,0,201,8,0,200,9,0,201,10,0,201,11,0,201,12,0,200,13,0,200,14,0,200,16,0,201,19,0,600,20,0,600,21,0,600,22,0,600,23,0,621,24,0,600,25,0,621,26,0,600,27,0,600,28,0,621,29,0,600,30,0,600,32,0,600,33,0,600,34,0,621,35,0,600,36,0,600,37,0,600,38,0,600,39,0,621,40,0,421,41,0,600,42,0,600,43,0,621,44,0,400,45,0,400,46,0,400,59,0,400,60,0,400,61,0,400,62,0,400*4A
$PAIRDGP,5,2,7,16,21,27*68
$GNGGA,032846.100,2500.7940975,N,12132.4798246,E,4,55,0.48,16.801,M,15.25,M,1,3335*4C
$GNRMC,032846.100,A,2500.7940975,N,12132.4798246,E,0.02,104.38,090324,,,R,V*14
$GPHDT,,T*1B
$GNACCURACY,4.8*1A
$GNGGA,032846.200,2500.7940985,N,12132.4798249,E,4,55,0.48,16.787,M,15.25,M,1,3335*4E
$GNRMC,032846.200,A,2500.7940985,N,12132.4798249,E,0.01,104.38,090324,,,R,V*14
$GPHDT,1.130,T*36
$GNACCURACY,4.8*1A
$GNGGA,032846.300,2500.7940979,N,12132.4798252,E,4,56,0.48,16.794,M,15.25,M,1,3335*47
$GNRMC,032846.300,A,2500.7940979,N,12132.4798252,E,0.00,104.38,090324,,,R,V*1D
$GPHDT,,T*1B
$GNACCURACY,4.8*1A
$GNGGA,032846.400,2500.7940956,N,12132.4798286,E,4,56,0.48,16.805,M,15.25,M,1,3335*43
$GNRMC,032846.400,A,2500.7940956,N,12132.4798286,E,0.01,104.38,090324,,,R,V*1F
$GPHDT,0.298,T*36
$GNACCURACY,4.8*1A
$GNGGA,032846.500,2500.7940985,N,12132.4798209,E,4,56,0.48,16.776,M,15.25,M,0,3335*41
$GNRMC,032846.500,A,2500.7940985,N,12132.4798209,E,0.02,104.38,090324,,,R,V*14
$GPHDT,,T*1B
$GNACCURACY,4.8*1A
$GNGGA,032846.600,2500.7941003,N,12132.4798235,E,4,56,0.48,16.783,M,15.25,M,0,3335*41
$GNRMC,032846.600,A,2500.7941003,N,12132.4798235,E,0.02,104.38,090324,,,R,V*1E
$GPHDT,0.549,T*3D
$GNACCURACY,4.7*15
$GNGGA,032846.700,2500.7940992,N,12132.4798260,E,4,56,0.48,16.793,M,15.25,M,0,3335*41
$GNRMC,032846.700,A,2500.7940992,N,12132.4798260,E,0.04,104.38,090324,,,R,V*19
$GPHDT,,T*1B
$GNACCURACY,4.7*15
$GNGGA,032846.800,2500.7940975,N,12132.4798268,E,4,57,0.48,16.801,M,15.25,M,0,3335*4A
$GNRMC,032846.800,A,2500.7940975,N,12132.4798268,E,0.02,104.38,090324,,,R,V*11
$GPHDT,0.003,T*36
$GNACCURACY,4.8*1A
$GNGGA,032846.900,2500.7940981,N,12132.4798238,E,4,57,0.48,16.780,M,15.25,M,0,3335*43
$GNRMC,032846.900,A,2500.7940981,N,12132.4798238,E,0.03,104.38,090324,,,R,V*1F
$GPHDT,,T*1B
$GNACCURACY,4.8*1A
$GNGGA,032847.000,2500.7940975,N,12132.4798267,E,4,57,0.48,16.787,M,15.25,M,1,3335*4C
$GNRMC,032847.000,A,2500.7940975,N,12132.4798267,E,0.02,104.38,090324,,,R,V*17
$GPHDT,0.265,T*34
$GNGSA,A,3,08,194,195,27,21,16,04,09,02,07,196,26,0.87,0.48,0.72,1*3D
$GNGSA,A,3,31,,,,,,,,,,,,0.87,0.48,0.72,1*05
$GNGSA,A,3,88,78,81,87,79,,,,,,,,0.87,0.48,0.72,2*03
$GNGSA,A,3,21,13,19,27,26,15,,,,,,,0.87,0.48,0.72,3*09
$GNGSA,A,3,06,16,09,43,39,40,07,23,10,11,25,28,0.87,0.48,0.72,4*09
$GNGSA,A,3,34,,,,,,,,,,,,0.87,0.48,0.72,4*05
$GPGSV,4,1,15,08,72,307,46,199,64,166,,194,63,046,41,195,58,123,42,1*54
$GPGSV,4,2,15,27,49,027,39,45,47,231,26,21,40,169,43,16,35,056,39,1*61
$GPGSV,4,3,15,04,32,216,35,09,30,266,24,02,29,181,34,07,26,320,17,1*6D
$GPGSV,4,4,15,196,21,173,33,26,17,084,14,31,15,137,22,1*60
$GPGSV,2,1,08,08,72,307,44,194,63,046,41,195,58,123,39,27,49,027,34,8*61
$GPGSV,2,2,08,04,32,216,37,09,30,266,20,196,21,173,26,26,17,084,17,8*5F
$GLGSV,2,1,06,88,72,073,44,78,46,006,34,81,41,189,44,77,32,087,,1*72
$GLGSV,2,2,06,87,21,029,20,79,12,320,16,1*70
$GAGSV,2,1,06,21,51,349,26,13,50,108,33,19,36,257,21,27,34,063,40,7*78
$GAGSV,2,2,06,26,28,175,38,15,22,049,26,7*7E
$GAGSV,2,1,06,21,51,349,34,13,50,108,30,19,36,257,16,27,34,063,39,1*74
$GAGSV,2,2,06,26,28,175,20,15,22,049,26,1*71
$GBGSV,4,1,13,06,81,225,39,16,79,191,43,09,75,300,41,43,74,060,45,1*78
$GBGSV,4,2,13,39,67,177,44,40,66,316,42,07,63,294,34,23,61,357,45,1*72
$GBGSV,4,3,13,10,52,277,30,11,49,045,29,25,47,097,32,28,39,208,41,1*77
$GBGSV,4,4,13,34,25,041,37,1*45
$GBGSV,2,1,07,43,74,060,44,39,67,177,44,40,66,316,40,23,61,357,46,4*7E
$GBGSV,2,2,07,25,47,097,30,28,39,208,37,34,25,041,25,4*41
$GNACCURACY,4.8*1A
$PAIRSAT,1,35,2,0,201,3,0,200,4,0,221,5,0,200,6,0,200,7,0,201,8,0,221,9,0,221,10,0,200,11,0,200,12,0,200,13,0,200,14,0,200,15,0,200,16,0,201,17,0,200,18,0,200,19,0,200,20,0,200,21,0,201,22,0,200,23,0,200,24,0,200,25,0,200,26,0,221,27,0,221,28,0,200,29,0,200,30,0,200,31,0,201,32,0,200,194,0,621,195,0,621,196,0,620,199,0,600*5B
$PAIRSAT,2,23,65,0,200,66,0,200,67,0,200,68,0,200,70,0,200,71,0,200,72,0,200,73,0,200,74,0,200,75,0,200,76,0,200,77,0,201,78,0,201,79,0,201,80,0,200,81,0,201,82,0,200,83,0,200,84,0,200,85,0,200,86,0,200,87,0,201,88,0,201*5C
$PAIRSAT,3,23,2,0,1200,3,0,1200,4,0,1200,5,0,200,7,0,1200,8,0,1200,9,0,1200,10,0,1200,11,0,1200,12,0,1200,13,0,1221,15,0,1221,19,0,1221,21,0,1221,24,0,1200,25,0,1200,26,0,1221,27,0,1221,30,0,1200,31,0,1200,33,0,1200,34,0,1200,36,0,1200*6A
$PAIRSAT,4,46,1,0,200,2,0,200,3,0,600,4,0,200,5,0,200,6,0,201,7,0,201,8,0,200,9,0,201,10,0,201,11,0,201,12,0,200,13,0,200,14,0,200,16,0,201,19,0,600,20,0,600,21,0,600,22,0,600,23,0,621,24,0,600,25,0,621,26,0,600,27,0,600,28,0,621,29,0,600,30,0,600,32,0,600,33,0,600,34,0,621,35,0,600,36,0,600,37,0,600,38,0,600,39,0,621,40,0,421,41,0,600,42,0,600,43,0,621,44,0,400,45,0,400,46,0,400,59,0,400,60,0,400,61,0,400,62,0,400*4A
$PAIRDGP,5,2,7,16,21,27*68
$GNGGA,032847.100,2500.7940985,N,12132.4798274,E,4,57,0.48,16.790,M,15.25,M,1,3335*46
$GNRMC,032847.100,A,2500.7940985,N,12132.4798274,E,0.02,104.38,090324,,,R,V*1B
$GPHDT,,T*1B
$GNACCURACY,4.8*1A
$GNGGA,032847.200,2500.7940998,N,12132.4798261,E,4,57,0.48,16.779,M,15.25,M,1,3335*4A
$GNRMC,032847.200,A,2500.7940998,N,12132.4798261,E,0.09,104.38,090324,,,R,V*1B
$GPHDT,359.958,T*3E
$GNACCURACY,4.8*1A
$GNGGA,032847.300,2500.7940976,N,12132.4798255,E,4,57,0.48,16.794,M,15.25,M,1,3335*4F
$GNRMC,032847.300,A,2500.7940976,N,12132.4798255,E,0.04,104.38,090324,,,R,V*10
$GPHDT,,T*1B
$GNACCURACY,4.8*1A
$GNGGA,032847.400,2500.7940986,N,12132.4798259,E,4,57,0.48,16.782,M,15.25,M,1,3335*4C
$GNRMC,032847.400,A,2500.7940986,N,12132.4798259,E,0.03,104.38,090324,,,R,V*13
$GPHDT,0.176,T*35
$GNACCURACY,4.8*1A
$GNGGA,032847.500,2500.7940993,N,12132.4798240,E,4,57,0.48,16.783,M,15.25,M,1,3335*40
$GNRMC,032847.500,A,2500.7940993,N,12132.4798240,E,0.02,104.38,090324,,,R,V*1F
$GPHDT,,T*1B
$GNACCURACY,4.8*1A
$GNGGA,032847.600,2500.7940975,N,12132.4798315,E,4,57,0.48,16.797,M,15.25,M,0,3335*4E
$GNRMC,032847.600,A,2500.7940975,N,12132.4798315,E,0.06,104.38,090324,,,R,V*11
$GPHDT,0.073,T*31
$GNACCURACY,4.8*1A
$GNGGA,032847.700,2500.7940934,N,12132.4798314,E,4,57,0.48,16.798,M,15.25,M,0,3335*44
$GNRMC,032847.700,A,2500.7940934,N,12132.4798314,E,0.00,104.38,090324,,,R,V*12
$GPHDT,,T*1B
$GNACCURACY,4.8*1A
$GNGGA,032847.800,2500.7940962,N,12132.4798278,E,4,57,0.48,16.794,M,15.25,M,0,3335*4F
$GNRMC,032847.800,A,2500.7940962,N,12132.4798278,E,0.01,104.38,090324,,,R,V*14
$GPHDT,0.856,T*3E
$GNACCURACY,4.8*1A
$GNGGA,032847.900,2500.7940956,N,12132.4798305,E,4,57,0.48,16.793,M,15.25,M,0,3335*45
$GNRMC,032847.900,A,2500.7940956,N,12132.4798305,E,0.05,104.38,090324,,,R,V*1D
$GPHDT,,T*1B
$GNACCURACY,4.8*1A
$GNGGA,032848.000,2500.7940963,N,12132.4798328,E,4,55,0.48,16.805,M,15.25,M,1,3335*49
$GNRMC,032848.000,A,2500.7940963,N,12132.4798328,E,0.04,104.38,090324,,,R,V*13
$GPHDT,0.353,T*30
$GNGSA,A,3,08,194,195,27,21,16,04,09,02,196,31,26,0.89,0.50,0.74,1*39
$GNGSA,A,3,88,78,81,87,79,,,,,,,,0.89,0.50,0.74,2*02
$GNGSA,A,3,21,13,19,27,26,15,,,,,,,0.89,0.50,0.74,3*08
$GNGSA,A,3,06,16,09,43,39,40,07,23,10,11,25,28,0.89,0.50,0.74,4*08
$GNGSA,A,3,34,,,,,,,,,,,,0.89,0.50,0.74,4*04
$GPGSV,4,1,15,08,72,307,46,199,64,166,,194,63,046,41,195,58,123,42,1*54
$GPGSV,4,2,15,27,49,027,39,45,47,231,26,21,40,169,41,16,35,056,39,1*63
$GPGSV,4,3,15,04,32,216,35,09,30,266,25,02,29,181,34,07,26,320,14,1*6F
$GPGSV,4,4,15,196,21,173,33,26,17,084,16,31,15,137,22,1*62
$GPGSV,2,1,08,08,72,307,44,194,63,046,41,195,58,123,39,27,49,027,33,8*66
$GPGSV,2,2,08,04,32,216,38,09,30,266,22,196,21,173,25,26,17,084,17,8*51
$GLGSV,2,1,06,88,72,073,44,78,46,006,36,81,41,189,44,77,32,087,,1*70
$GLGSV,2,2,06,87,21,029,19,79,12,320,19,1*75
$GAGSV,2,1,06,21,51,349,27,13,50,108,33,19,36,257,23,27,34,063,41,7*7A
$GAGSV,2,2,06,26,28,175,38,15,22,049,26,7*7E
$GAGSV,2,1,06,21,51,349,34,13,50,108,29,19,36,257,16,27,34,063,39,1*7C
$GAGSV,2,2,06,26,28,175,20,15,22,049,26,1*71
$GBGSV,4,1,13,06,81,225,39,16,79,191,43,09,75,300,41,43,74,060,45,1*78
$GBGSV,4,2,13,39,67,177,44,40,66,316,42,07,63,294,34,23,61,357,45,1*72
$GBGSV,4,3,13,10,52,277,30,11,49,045,29,25,47,097,32,28,39,208,42,1*74
$GBGSV,4,4,13,34,25,041,37,1*45
$GBGSV,2,1,07,43,74,060,44,39,67,177,44,40,66,316,40,23,61,357,46,4*7E
$GBGSV,2,2,07,25,47,097,30,28,39,208,37,34,25,041,25,4*41
$GNACCURACY,4.8*1A
$PAIRSAT,1,35,2,0,201,3,0,200,4,0,221,5,0,200,6,0,200,7,0,201,8,0,221,9,0,221,10,0,200,11,0,200,12,0,200,13,0,200,14,0,200,15,0,200,16,0,201,17,0,200,18,0,200,19,0,200,20,0,200,21,0,201,22,0,200,23,0,200,24,0,200,25,0,200,26,0,221,27,0,221,28,0,200,29,0,200,30,0,200,31,0,201,32,0,200,194,0,621,195,0,621,196,0,620,199,0,600*5B
$PAIRSAT,2,23,65,0,200,66,0,200,67,0,200,68,0,200,70,0,200,71,0,200,72,0,200,73,0,200,74,0,200,75,0,200,76,0,200,77,0,201,78,0,201,79,0,201,80,0,200,81,0,201,82,0,200,83,0,200,84,0,200,85,0,200,86,0,200,87,0,201,88,0,201*5C
$PAIRSAT,3,23,2,0,1200,3,0,1200,4,0,1200,5,0,200,7,0,1200,8,0,1200,9,0,1200,10,0,1200,11,0,1200,12,0,1200,13,0,1221,15,0,1221,19,0,1221,21,0,1221,24,0,1200,25,0,1200,26,0,1221,27,0,1221,30,0,1200,31,0,1200,33,0,1200,34,0,1200,36,0,1200*6A
$PAIRSAT,4,46,1,0,200,2,0,200,3,0,600,4,0,200,5,0,200,6,0,201,7,0,201,8,0,200,9,0,201,10,0,201,11,0,201,12,0,200,13,0,200,14,0,200,16,0,201,19,0,600,20,0,600,21,0,600,22,0,600,23,0,621,24,0,600,25,0,621,26,0,600,27,0,600,28,0,621,29,0,600,30,0,600,32,0,600,33,0,600,34,0,621,35,0,600,36,0,600,37,0,600,38,0,600,39,0,621,40,0,421,41,0,600,42,0,600,43,0,621,44,0,400,45,0,400,46,0,400,59,0,400,60,0,400,61,0,400,62,0,400*4A
$PAIRDGP,5,2,7,16,21,27*68
$GNGGA,032848.100,2500.7940957,N,12132.4798306,E,4,55,0.50,16.800,M,15.25,M,1,3335*4F
$GNRMC,032848.100,A,2500.7940957,N,12132.4798306,E,0.02,104.38,090324,,,R,V*1F
$GPHDT,,T*1B
$GNACCURACY,4.8*1A
$GNGGA,032848.200,2500.7940963,N,12132.4798312,E,4,55,0.50,16.793,M,15.25,M,1,3335*4B
$GNRMC,032848.200,A,2500.7940963,N,12132.4798312,E,0.02,104.38,090324,,,R,V*1E
$GPHDT,0.812,T*3E
$GNACCURACY,4.8*1A
$GNGGA,032848.300,2500.7940955,N,12132.4798315,E,4,56,0.50,16.798,M,15.25,M,1,3335*40
$GNRMC,032848.300,A,2500.7940955,N,12132.4798315,E,0.03,104.38,090324,,,R,V*1C
$GPHDT,,T*1B
$GNACCURACY,4.8*1A
$GNGGA,032848.400,2500.7940962,N,12132.4798342,E,4,56,0.50,16.787,M,15.25,M,1,3335*4F
$GNRMC,032848.400,A,2500.7940962,N,12132.4798342,E,0.03,104.38,090324,,,R,V*1D
$GPHDT,0.330,T*35
$GNACCURACY,4.8*1A
$GNGGA,032848.500,2500.7940962,N,12132.4798296,E,4,56,0.50,16.751,M,15.25,M,1,3335*4D
$GNRMC,032848.500,A,2500.7940962,N,12132.4798296,E,0.03,104.38,090324,,,R,V*14
$GPHDT,,T*1B
$GNACCURACY,4.8*1A
$GNGGA,032848.600,2500.7940966,N,12132.4798290,E,4,56,0.50,16.766,M,15.25,M,0,3335*49
$GNRMC,032848.600,A,2500.7940966,N,12132.4798290,E,0.02,104.38,090324,,,R,V*14
$GPHDT,0.395,T*3A
$GNACCURACY,4.8*1A
$GNGGA,032848.700,2500.7940947,N,12132.4798295,E,4,56,0.50,16.765,M,15.25,M,0,3335*4D
$GNRMC,032848.700,A,2500.7940947,N,12132.4798295,E,0.01,104.38,090324,,,R,V*10
$GPHDT,,T*1B
$GNACCURACY,4.8*1A
$GNGGA,032848.800,2500.7940942,N,12132.4798284,E,4,56,0.50,16.762,M,15.25,M,0,3335*40
$GNRMC,032848.800,A,2500.7940942,N,12132.4798284,E,0.07,104.38,090324,,,R,V*1C
$GPHDT,0.444,T*31
$GNACCURACY,4.9*1B
$GNGGA,032848.900,2500.7940950,N,12132.4798286,E,4,56,0.50,16.768,M,15.25,M,0,3335*4A
$GNRMC,032848.900,A,2500.7940950,N,12132.4798286,E,0.08,104.38,090324,,,R,V*13
$GPHDT,,T*1B
$GNACCURACY,4.9*1B
$GNGGA,032849.000,2500.7940962,N,12132.4798262,E,4,56,0.50,16.771,M,15.25,M,1,3335*40
$GNRMC,032849.000,A,2500.7940962,N,12132.4798262,E,0.07,104.38,090324,,,R,V*1F
$GPHDT,0.419,T*39
$GNGSA,A,3,08,194,195,27,21,16,04,09,02,196,31,26,0.89,0.50,0.74,1*39
$GNGSA,A,3,88,78,81,87,79,,,,,,,,0.89,0.50,0.74,2*02
$GNGSA,A,3,21,13,19,27,26,15,,,,,,,0.89,0.50,0.74,3*08
$GNGSA,A,3,06,16,09,43,39,40,07,23,10,11,25,28,0.89,0.50,0.74,4*08
$GNGSA,A,3,34,,,,,,,,,,,,0.89,0.50,0.74,4*04
$GPGSV,4,1,15,08,72,307,46,199,64,166,,194,63,046,41,195,58,123,42,1*54
$GPGSV,4,2,15,27,49,027,39,45,47,231,26,21,40,169,41,16,35,056,39,1*63
$GPGSV,4,3,15,04,32,216,35,09,30,266,23,02,29,181,34,07,26,320,14,1*69
$GPGSV,4,4,15,196,21,173,32,26,17,084,15,31,15,137,21,1*63
$GPGSV,2,1,08,08,72,307,44,194,63,046,41,195,58,123,39,27,49,027,32,8*67
$GPGSV,2,2,08,04,32,216,38,09,30,266,23,196,21,173,27,26,17,084,17,8*52
$GLGSV,2,1,06,88,72,073,44,78,46,006,36,81,41,189,44,77,32,087,,1*70
$GLGSV,2,2,06,87,21,029,18,79,12,320,21,1*7F
$GAGSV,2,1,06,21,51,349,27,13,50,108,33,19,36,257,23,27,34,063,41,7*7A
$GAGSV,2,2,06,26,28,175,38,15,22,049,26,7*7E
$GAGSV,2,1,06,21,51,349,34,13,50,108,28,19,36,257,15,27,34,063,38,1*7F
$GAGSV,2,2,06,26,28,175,22,15,22,049,25,1*70
$GBGSV,4,1,13,06,81,225,39,16,79,191,43,09,75,300,41,43,74,060,45,1*78
$GBGSV,4,2,13,39,67,177,44,40,66,316,42,07,63,294,34,23,61,357,45,1*72
$GBGSV,4,3,13,10,52,277,30,11,49,045,28,25,47,097,31,28,39,208,42,1*76
$GBGSV,4,4,13,34,25,041,37,1*45
$GBGSV,2,1,07,43,74,060,43,39,67,177,44,40,66,316,40,23,61,357,46,4*79
$GBGSV,2,2,07,25,47,097,31,28,39,208,37,34,25,041,25,4*40
$GNACCURACY,4.8*1A
$PAIRSAT,1,35,2,0,201,3,0,200,4,0,221,5,0,200,6,0,200,7,0,201,8,0,221,9,0,221,10,0,200,11,0,200,12,0,200,13,0,200,14,0,200,15,0,200,16,0,201,17,0,200,18,0,200,19,0,200,20,0,200,21,0,201,22,0,200,23,0,200,24,0,200,25,0,200,26,0,221,27,0,221,28,0,200,29,0,200,30,0,200,31,0,201,32,0,200,194,0,621,195,0,621,196,0,620,199,0,600*5B
$PAIRSAT,2,23,65,0,200,66,0,200,67,0,200,68,0,200,70,0,200,71,0,200,72,0,200,73,0,200,74,0,200,75,0,200,76,0,200,77,0,201,78,0,201,79,0,201,80,0,200,81,0,201,82,0,200,83,0,200,84,0,200,85,0,200,86,0,200,87,0,201,88,0,201*5C
$PAIRSAT,3,23,2,0,1200,3,0,1200,4,0,1200,5,0,200,7,0,1200,8,0,1200,9,0,1200,10,0,1200,11,0,1200,12,0,1200,13,0,1221,15,0,1221,19,0,1221,21,0,1221,24,0,1200,25,0,1200,26,0,1221,27,0,1221,30,0,1200,31,0,1200,33,0,1200,34,0,1200,36,0,1200*6A
$PAIRSAT,4,46,1,0,200,2,0,200,3,0,600,4,0,200,5,0,200,6,0,201,7,0,201,8,0,200,9,0,201,10,0,201,11,0,201,12,0,200,13,0,200,14,0,200,16,0,201,19,0,600,20,0,600,21,0,600,22,0,600,23,0,621,24,0,600,25,0,621,26,0,600,27,0,600,28,0,621,29,0,600,30,0,600,32,0,600,33,0,600,34,0,621,35,0,600,36,0,600,37,0,600,38,0,600,39,0,621,40,0,421,41,0,600,42,0,600,43,0,621,44,0,400,45,0,400,46,0,400,59,0,400,60,0,400,61,0,400,62,0,400*4A
$PAIRDGP,5,2,7,16,21,27*68
$GNGGA,032849.100,2500.7940963,N,12132.4798284,E,4,56,0.50,16.759,M,15.25,M,1,3335*42
$GNRMC,032849.100,A,2500.7940963,N,12132.4798284,E,0.06,104.38,090324,,,R,V*16
$GPHDT,,T*1B
$GNACCURACY,4.8*1A
$GNGGA,032849.200,2500.7940947,N,12132.4798289,E,4,56,0.50,16.763,M,15.25,M,1,3335*43
$GNRMC,032849.200,A,2500.7940947,N,12132.4798289,E,0.06,104.38,090324,,,R,V*1E
$GPHDT,359.639,T*36
$GNACCURACY,4.9*1B
$GNGGA,032849.300,2500.7940967,N,12132.4798270,E,4,56,0.50,16.767,M,15.25,M,1,3335*42
$GNRMC,032849.300,A,2500.7940967,N,12132.4798270,E,0.07,104.38,090324,,,R,V*1A
$GPHDT,,T*1B
$GNACCURACY,4.8*1A
$GNGGA,032849.400,2500.7940948,N,12132.4798300,E,4,56,0.50,16.767,M,15.25,M,1,3335*4E
$GNRMC,032849.400,A,2500.7940948,N,12132.4798300,E,0.05,104.38,090324,,,R,V*14
$GPHDT,359.880,T*3A
$GNACCURACY,4.8*1A
$GNGGA,032849.500,2500.7940959,N,12132.4798279,E,4,56,0.50,16.770,M,15.25,M,1,3335*46
$GNRMC,032849.500,A,2500.7940959,N,12132.4798279,E,0.05,104.38,090324,,,R,V*1A
$GPHDT,,T*1B
$GNACCURACY,4.8*1A
$GNGGA,032849.600,2500.7940968,N,12132.4798309,E,4,56,0.50,16.776,M,15.25,M,0,3335*46
$GNRMC,032849.600,A,2500.7940968,N,12132.4798309,E,0.07,104.38,090324,,,R,V*1F
$GPHDT,359.820,T*30
$GNACCURACY,4.8*1A
$GNGGA,032849.700,2500.7940985,N,12132.4798347,E,4,56,0.50,16.791,M,15.25,M,0,3335*47
$GNRMC,032849.700,A,2500.7940985,N,12132.4798347,E,0.06,104.38,090324,,,R,V*16
$GPHDT,,T*1B
$GNACCURACY,4.8*1A
$GNGGA,032849.800,2500.7940966,N,12132.4798241,E,4,55,0.51,16.745,M,15.25,M,0,3335*49
$GNRMC,032849.800,A,2500.7940966,N,12132.4798241,E,0.05,104.38,090324,,,R,V*10
$GPHDT,0.432,T*30
$GNACCURACY,4.7*15
$GNGGA,032849.900,2500.7940953,N,12132.4798256,E,4,55,0.51,16.745,M,15.25,M,0,3335*48
$GNRMC,032849.900,A,2500.7940953,N,12132.4798256,E,0.05,104.38,090324,,,R,V*11
$GPHDT,,T*1B
$GNACCURACY,4.7*15
$GNGGA,032850.000,2500.7940930,N,12132.4798289,E,4,55,0.51,16.758,M,15.25,M,1,3335*43
$GNRMC,032850.000,A,2500.7940930,N,12132.4798289,E,0.02,104.38,090324,,,R,V*10
$GPHDT,359.808,T*3A
$GNGSA,A,3,08,194,195,27,21,16,04,09,02,196,31,,0.92,0.51,0.77,1*35
$GNGSA,A,3,88,78,81,87,79,,,,,,,,0.92,0.51,0.77,2*0A
$GNGSA,A,3,21,13,19,27,26,15,,,,,,,0.92,0.51,0.77,3*00
$GNGSA,A,3,06,16,09,43,39,40,07,23,10,11,25,28,0.92,0.51,0.77,4*00
$GNGSA,A,3,34,,,,,,,,,,,,0.92,0.51,0.77,4*0C
$GPGSV,4,1,15,08,72,307,46,199,64,166,,194,63,046,41,195,58,123,42,1*54
$GPGSV,4,2,15,27,49,027,39,45,47,231,26,21,40,169,42,16,35,056,39,1*60
$GPGSV,4,3,15,04,32,216,35,09,30,266,25,02,29,181,34,07,26,320,17,1*6C
$GPGSV,4,4,15,196,21,173,32,26,17,084,17,31,15,137,19,1*6A
$GPGSV,2,1,07,08,72,307,44,194,63,046,41,195,58,123,39,27,49,027,32,8*68
$GPGSV,2,2,07,04,32,216,38,09,30,266,23,196,21,173,27,8*65
$GLGSV,2,1,06,88,72,073,44,78,46,006,37,81,41,189,44,77,32,087,,1*71
$GLGSV,2,2,06,87,21,029,14,79,12,320,21,1*73
$GAGSV,2,1,06,21,51,349,25,13,50,108,34,19,36,257,22,27,34,063,41,7*7E
$GAGSV,2,2,06,26,28,175,39,15,22,049,26,7*7F
$GAGSV,2,1,06,21,51,349,33,13,50,108,29,19,36,257,13,27,34,063,38,1*7F
$GAGSV,2,2,06,26,28,175,22,15,22,049,25,1*70
$GBGSV,4,1,14,06,81,225,39,16,79,191,43,09,75,300,41,43,74,060,45,1*7F
$GBGSV,4,2,14,39,67,177,44,40,66,316,42,07,63,294,34,23,61,357,45,1*75
$GBGSV,4,3,14,10,52,277,30,11,49,045,28,25,47,097,31,28,39,208,42,1*71
$GBGSV,4,4,14,34,25,041,37,37,17,315,,1*77
$GBGSV,2,1,07,43,74,060,43,39,67,177,45,40,66,316,40,23,61,357,46,4*78
$GBGSV,2,2,07,25,47,097,31,28,39,208,37,34,25,041,25,4*40
$GNACCURACY,4.7*15
$PAIRSAT,1,35,2,0,201,3,0,200,4,0,221,5,0,200,6,0,200,7,0,201,8,0,221,9,0,221,10,0,200,11,0,200,12,0,200,13,0,200,14,0,200,15,0,200,16,0,201,17,0,200,18,0,200,19,0,200,20,0,200,21,0,201,22,0,200,23,0,200,24,0,200,25,0,200,26,0,221,27,0,221,28,0,200,29,0,200,30,0,200,31,0,201,32,0,200,194,0,621,195,0,621,196,0,620,199,0,600*5B
$PAIRSAT,2,23,65,0,200,66,0,200,67,0,200,68,0,200,70,0,200,71,0,200,72,0,200,73,0,200,74,0,200,75,0,200,76,0,200,77,0,201,78,0,201,79,0,201,80,0,200,81,0,201,82,0,200,83,0,200,84,0,200,85,0,200,86,0,200,87,0,201,88,0,201*5C
$PAIRSAT,3,23,2,0,1200,3,0,1200,4,0,1200,5,0,200,7,0,1200,8,0,1200,9,0,1200,10,0,1200,11,0,1200,12,0,1200,13,0,1221,15,0,1221,19,0,1221,21,0,1221,24,0,1200,25,0,1200,26,0,1221,27,0,1221,30,0,1200,31,0,1200,33,0,1200,34,0,1200,36,0,1200*6A
$PAIRSAT,4,46,1,0,200,2,0,200,3,0,600,4,0,200,5,0,200,6,0,201,7,0,201,8,0,200,9,0,201,10,0,201,11,0,201,12,0,200,13,0,200,14,0,200,16,0,201,19,0,600,20,0,600,21,0,600,22,0,600,23,0,621,24,0,600,25,0,621,26,0,600,27,0,600,28,0,621,29,0,600,30,0,600,32,0,600,33,0,600,34,0,621,35,0,600,36,0,600,37,0,600,38,0,600,39,0,621,40,0,421,41,0,600,42,0,600,43,0,621,44,0,400,45,0,400,46,0,400,59,0,400,60,0,400,61,0,400,62,0,400*4A
$PAIRDGP,5,2,7,16,21,27*68
$GNGGA,032850.100,2500.7940953,N,12132.4798262,E,4,55,0.51,16.750,M,15.25,M,1,3335*4A
$GNRMC,032850.100,A,2500.7940953,N,12132.4798262,E,0.01,104.38,090324,,,R,V*12
$GPHDT,,T*1B
$GNACCURACY,4.7*15
$GNGGA,032850.200,2500.7940962,N,12132.4798283,E,4,55,0.51,16.755,M,15.25,M,1,3335*41
$GNRMC,032850.200,A,2500.7940962,N,12132.4798283,E,0.02,104.38,090324,,,R,V*1F
$GPHDT,359.926,T*37
$GNACCURACY,4.7*15
$GNGGA,032850.300,2500.7940977,N,12132.4798312,E,4,55,0.51,16.784,M,15.25,M,1,3335*41
$GNRMC,032850.300,A,2500.7940977,N,12132.4798312,E,0.02,104.38,090324,,,R,V*13
$GPHDT,,T*1B
$GNACCURACY,4.7*15
$GNGGA,032850.400,2500.7940992,N,12132.4798281,E,4,55,0.51,16.775,M,15.25,M,1,3335*48
$GNRMC,032850.400,A,2500.7940992,N,12132.4798281,E,0.02,104.38,090324,,,R,V*14
$GPHDT,0.660,T*35
$GNACCURACY,4.7*15
$GNGGA,032850.500,2500.7940957,N,12132.4798239,E,4,55,0.51,16.738,M,15.25,M,1,3335*4A
$GNRMC,032850.500,A,2500.7940957,N,12132.4798239,E,0.02,104.38,090324,,,R,V*1F
$GPHDT,,T*1B
$GNACCURACY,4.7*15
$GNGGA,032850.600,2500.7940962,N,12132.4798229,E,4,55,0.50,16.752,M,15.25,M,0,3335*42
$GNRMC,032850.600,A,2500.7940962,N,12132.4798229,E,0.01,104.38,090324,,,R,V*18
$GPHDT,1.002,T*36
$GNACCURACY,4.7*15
$GNGGA,032850.700,2500.7940963,N,12132.4798225,E,4,56,0.50,16.749,M,15.25,M,0,3335*47
$GNRMC,032850.700,A,2500.7940963,N,12132.4798225,E,0.01,104.38,090324,,,R,V*14
$GPHDT,,T*1B
$GNACCURACY,4.7*15
$GNGGA,032850.800,2500.7940943,N,12132.4798215,E,4,56,0.50,16.735,M,15.25,M,0,3335*42
$GNRMC,032850.800,A,2500.7940943,N,12132.4798215,E,0.06,104.38,090324,,,R,V*1D
$GPHDT,0.991,T*34
$GNACCURACY,4.7*15
$GNGGA,032850.900,2500.7940966,N,12132.4798209,E,4,56,0.50,16.748,M,15.25,M,0,3335*43
$GNRMC,032850.900,A,2500.7940966,N,12132.4798209,E,0.04,104.38,090324,,,R,V*14
$GPHDT,,T*1B
$GNACCURACY,4.7*15
$GNGGA,032851.000,2500.7940960,N,12132.4798217,E,4,56,0.50,16.744,M,15.25,M,1,3335*4F
$GNRMC,032851.000,A,2500.7940960,N,12132.4798217,E,0.03,104.38,090324,,,R,V*12
$GPHDT,0.565,T*33
$GNGSA,A,3,08,194,195,27,21,16,04,09,02,196,26,31,0.89,0.50,0.74,1*39
$GNGSA,A,3,88,78,81,87,79,,,,,,,,0.89,0.50,0.74,2*02
$GNGSA,A,3,21,13,19,27,26,15,,,,,,,0.89,0.50,0.74,3*08
$GNGSA,A,3,06,16,09,43,39,40,07,23,10,11,25,28,0.89,0.50,0.74,4*08
$GNGSA,A,3,34,,,,,,,,,,,,0.89,0.50,0.74,4*04
$GPGSV,4,1,15,08,72,307,46,199,64,166,,194,63,046,41,195,58,123,42,1*54
$GPGSV,4,2,15,27,49,027,40,45,47,231,26,21,40,169,42,16,35,056,39,1*6E
$GPGSV,4,3,15,04,32,216,35,09,30,266,25,02,29,181,34,07,26,320,18,1*63
$GPGSV,4,4,15,196,21,173,32,26,17,084,17,31,15,137,18,1*6B
$GPGSV,2,1,07,08,72,307,44,194,63,046,41,195,58,123,40,27,49,027,32,8*66
$GPGSV,2,2,07,04,32,216,39,09,30,266,22,196,21,173,27,8*65
$GLGSV,2,1,07,88,72,073,44,78,46,006,37,81,41,189,44,77,32,087,,1*70
$GLGSV,2,2,07,87,21,029,14,68,13,253,,79,12,320,21,1*4A
$GAGSV,2,1,07,21,51,349,25,13,50,108,34,19,36,257,23,27,34,063,41,7*7E
$GAGSV,2,2,07,26,28,175,39,15,22,049,26,04,10,312,,7*4B
$GAGSV,2,1,06,21,51,349,33,13,50,108,31,19,36,257,14,27,34,063,38,1*71
$GAGSV,2,2,06,26,28,175,25,15,22,049,25,1*77
$GBGSV,4,1,13,06,81,225,40,16,79,191,43,09,75,300,41,43,74,060,45,1*76
$GBGSV,4,2,13,39,67,177,44,40,66,316,42,07,63,294,35,23,61,357,45,1*73
$GBGSV,4,3,13,10,52,277,30,11,49,045,30,25,47,097,31,28,39,208,42,1*7F
$GBGSV,4,4,13,34,25,041,37,1*45
$GBGSV,2,1,07,43,74,060,43,39,67,177,45,40,66,316,40,23,61,357,46,4*78
$GBGSV,2,2,07,25,47,097,30,28,39,208,38,34,25,041,25,4*4E
$GNACCURACY,4.7*15
$PAIRSAT,1,35,2,0,201,3,0,200,4,0,221,5,0,200,6,0,200,7,0,201,8,0,221,9,0,221,10,0,200,11,0,200,12,0,200,13,0,200,14,0,200,15,0,200,16,0,201,17,0,200,18,0,200,19,0,200,20,0,200,21,0,201,22,0,200,23,0,200,24,0,200,25,0,200,26,0,221,27,0,221,28,0,200,29,0,200,30,0,200,31,0,201,32,0,200,194,0,621,195,0,621,196,0,620,199,0,600*5B
$PAIRSAT,2,23,65,0,200,66,0,200,67,0,200,68,0,200,70,0,200,71,0,200,72,0,200,73,0,200,74,0,200,75,0,200,76,0,200,77,0,201,78,0,201,79,0,201,80,0,200,81,0,201,82,0,200,83,0,200,84,0,200,85,0,200,86,0,200,87,0,201,88,0,201*5C
$PAIRSAT,3,23,2,0,1200,3,0,1200,4,0,1200,5,0,200,7,0,1200,8,0,1200,9,0,1200,10,0,1200,11,0,1200,12,0,1200,13,0,1221,15,0,1221,19,0,1221,21,0,1221,24,0,1200,25,0,1200,26,0,1221,27,0,1221,30,0,1200,31,0,1200,33,0,1200,34,0,1200,36,0,1200*6A
$PAIRSAT,4,46,1,0,200,2,0,200,3,0,600,4,0,200,5,0,200,6,0,201,7,0,201,8,0,200,9,0,201,10,0,201,11,0,201,12,0,200,13,0,200,14,0,200,16,0,201,19,0,600,20,0,600,21,0,600,22,0,600,23,0,621,24,0,600,25,0,621,26,0,600,27,0,600,28,0,621,29,0,600,30,0,600,32,0,600,33,0,600,34,0,621,35,0,600,36,0,600,37,0,600,38,0,600,39,0,621,40,0,421,41,0,600,42,0,600,43,0,621,44,0,400,45,0,400,46,0,400,59,0,400,60,0,400,61,0,400,62,0,400*4A
$PAIRDGP,5,2,7,16,21,27*68
$GNGGA,032851.100,2500.7940938,N,12132.4798243,E,4,56,0.50,16.747,M,15.25,M,1,3335*41
$GNRMC,032851.100,A,2500.7940938,N,12132.4798243,E,0.06,104.38,090324,,,R,V*1A
$GPHDT,,T*1B
$GNACCURACY,4.7*15
$GNGGA,032851.200,2500.7940958,N,12132.4798222,E,4,56,0.50,16.745,M,15.25,M,1,3335*41
$GNRMC,032851.200,A,2500.7940958,N,12132.4798222,E,0.07,104.38,090324,,,R,V*19
$GPHDT,0.844,T*3D
$GNACCURACY,4.6*14
$GNGGA,032851.300,2500.7940962,N,12132.4798206,E,4,57,0.48,16.746,M,15.25,M,1,3335*44
$GNRMC,032851.300,A,2500.7940962,N,12132.4798206,E,0.04,104.38,090324,,,R,V*14
$GPHDT,,T*1B
$GNACCURACY,4.5*17
$GNGGA,032851.400,2500.7940972,N,12132.4798214,E,4,57,0.48,16.751,M,15.25,M,1,3335*47
$GNRMC,032851.400,A,2500.7940972,N,12132.4798214,E,0.03,104.38,090324,,,R,V*16
$GPHDT,0.767,T*33
$GNACCURACY,4.5*17
$GNGGA,032851.500,2500.7940943,N,12132.4798247,E,4,57,0.48,16.750,M,15.25,M,0,3335*42
$GNRMC,032851.500,A,2500.7940943,N,12132.4798247,E,0.04,104.38,090324,,,R,V*14
$GPHDT,,T*1B
$GNACCURACY,4.5*17
$GNGGA,032851.600,2500.7940939,N,12132.4798240,E,4,57,0.48,16.753,M,15.25,M,0,3335*48
$GNRMC,032851.600,A,2500.7940939,N,12132.4798240,E,0.04,104.38,090324,,,R,V*1D
$GPHDT,0.631,T*31
$GNACCURACY,4.5*17
$GNGGA,032851.700,2500.7940953,N,12132.4798227,E,4,57,0.48,16.746,M,15.25,M,0,3335*40
$GNRMC,032851.700,A,2500.7940953,N,12132.4798227,E,0.03,104.38,090324,,,R,V*16
$GPHDT,,T*1B
$GNACCURACY,4.5*17
$GNGGA,032851.800,2500.7940961,N,12132.4798259,E,4,57,0.48,16.759,M,15.25,M,0,3335*49
$GNRMC,032851.800,A,2500.7940961,N,12132.4798259,E,0.05,104.38,090324,,,R,V*17
$GPHDT,0.870,T*3A
$GNACCURACY,4.5*17
$GNGGA,032851.900,2500.7940956,N,12132.4798221,E,4,57,0.48,16.749,M,15.25,M,0,3335*42
$GNRMC,032851.900,A,2500.7940956,N,12132.4798221,E,0.05,104.38,090324,,,R,V*1D
$GPHDT,,T*1B
$GNACCURACY,4.5*17
$GNGGA,032852.000,2500.7940950,N,12132.4798262,E,4,57,0.48,16.748,M,15.25,M,1,3335*49
$GNRMC,032852.000,A,2500.7940950,N,12132.4798262,E,0.07,104.38,090324,,,R,V*14
$GPHDT,0.722,T*32
$GNGSA,A,3,08,194,195,27,21,16,04,09,02,07,196,26,0.87,0.48,0.72,1*3D
$GNGSA,A,3,31,,,,,,,,,,,,0.87,0.48,0.72,1*05
$GNGSA,A,3,88,78,81,87,79,,,,,,,,0.87,0.48,0.72,2*03
$GNGSA,A,3,21,13,19,27,26,15,,,,,,,0.87,0.48,0.72,3*09
$GNGSA,A,3,06,16,09,43,39,40,07,23,10,11,25,28,0.87,0.48,0.72,4*09
$GNGSA,A,3,34,,,,,,,,,,,,0.87,0.48,0.72,4*05
$GPGSV,4,1,15,08,72,307,46,199,64,166,,194,63,046,41,195,58,123,42,1*54
$GPGSV,4,2,15,27,49,027,40,45,47,231,27,21,40,169,42,16,35,056,39,1*6F
$GPGSV,4,3,15,04,32,216,35,09,30,266,26,02,29,181,34,07,26,320,16,1*6E
$GPGSV,4,4,15,196,21,173,32,26,17,084,17,31,15,137,18,1*6B
$GPGSV,2,1,07,08,72,307,44,194,63,046,41,195,58,123,40,27,49,027,34,8*60
$GPGSV,2,2,07,04,32,216,39,09,30,266,22,196,21,173,26,8*64
$GLGSV,2,1,06,88,72,073,44,78,46,006,37,81,41,189,44,77,32,087,,1*71
$GLGSV,2,2,06,87,21,029,15,79,12,320,20,1*73
$GAGSV,2,1,07,21,51,349,26,13,50,108,34,19,36,257,24,27,34,063,41,7*7A
$GAGSV,2,2,07,26,28,175,39,15,22,049,25,04,10,312,,7*48
$GAGSV,2,1,06,21,51,349,34,13,50,108,31,19,36,257,15,27,34,063,38,1*77
$GAGSV,2,2,06,26,28,175,25,15,22,049,26,1*74
$GBGSV,4,1,14,06,81,225,40,16,79,191,43,09,75,300,41,43,74,060,45,1*71
$GBGSV,4,2,14,39,67,177,44,40,66,316,42,07,63,294,35,23,61,357,45,1*74
$GBGSV,4,3,14,10,52,277,30,11,49,045,30,25,47,097,30,28,39,208,42,1*79
$GBGSV,4,4,14,34,25,041,37,38,05,171,,1*7B
$GBGSV,2,1,07,43,74,060,43,39,67,177,45,40,66,316,40,23,61,357,46,4*78
$GBGSV,2,2,07,25,47,097,30,28,39,208,38,34,25,041,26,4*4D
$GNACCURACY,4.5*17
$PAIRSAT,1,35,2,0,201,3,0,200,4,0,221,5,0,200,6,0,200,7,0,201,8,0,221,9,0,221,10,0,200,11,0,200,12,0,200,13,0,200,14,0,200,15,0,200,16,0,201,17,0,200,18,0,200,19,0,200,20,0,200,21,0,201,22,0,200,23,0,200,24,0,200,25,0,200,26,0,221,27,0,221,28,0,200,29,0,200,30,0,200,31,0,201,32,0,200,194,0,621,195,0,621,196,0,620,199,0,600*5B
$PAIRSAT,2,23,65,0,200,66,0,200,67,0,200,68,0,200,70,0,200,71,0,200,72,0,200,73,0,200,74,0,200,75,0,200,76,0,200,77,0,201,78,0,201,79,0,201,80,0,200,81,0,201,82,0,200,83,0,200,84,0,200,85,0,200,86,0,200,87,0,201,88,0,201*5C
$PAIRSAT,3,23,2,0,1200,3,0,1200,4,0,1200,5,0,200,7,0,1200,8,0,1200,9,0,1200,10,0,1200,11,0,1200,12,0,1200,13,0,1221,15,0,1221,19,0,1221,21,0,1221,24,0,1200,25,0,1200,26,0,1221,27,0,1221,30,0,1200,31,0,1200,33,0,1200,34,0,1200,36,0,1200*6A
$PAIRSAT,4,46,1,0,200,2,0,200,3,0,600,4,0,200,5,0,200,6,0,201,7,0,201,8,0,200,9,0,201,10,0,201,11,0,201,12,0,200,13,0,200,14,0,200,16,0,201,19,0,600,20,0,600,21,0,600,22,0,600,23,0,621,24,0,600,25,0,621,26,0,600,27,0,600,28,0,621,29,0,600,30,0,600,32,0,600,33,0,600,34,0,621,35,0,600,36,0,600,37,0,600,38,0,600,39,0,621,40,0,421,41,0,600,42,0,600,43,0,621,44,0,400,45,0,400,46,0,400,59,0,400,60,0,400,61,0,400,62,0,400*4A
$PAIRDGP,5,2,7,16,21,27*68
$GNGGA,032852.100,2500.7940938,N,12132.4798248,E,4,57,0.48,16.746,M,15.25,M,1,3335*40
$GNRMC,032852.100,A,2500.7940938,N,12132.4798248,E,0.05,104.38,090324,,,R,V*11
$GPHDT,,T*1B
$GNACCURACY,4.5*17
$GNGGA,032852.200,2500.7940952,N,12132.4798239,E,4,57,0.48,16.751,M,15.25,M,1,3335*4F
$GNRMC,032852.200,A,2500.7940952,N,12132.4798239,E,0.04,104.38,090324,,,R,V*19
$GPHDT,1.019,T*3C
$GNACCURACY,4.5*17
$GNGGA,032852.300,2500.7940946,N,12132.4798216,E,4,57,0.48,16.744,M,15.25,M,1,3335*42
$GNRMC,032852.300,A,2500.7940946,N,12132.4798216,E,0.07,104.38,090324,,,R,V*13
$GPHDT,,T*1B
$GNACCURACY,4.5*17
$GNGGA,032852.400,2500.7940945,N,12132.4798230,E,4,57,0.48,16.744,M,15.25,M,1,3335*42
$GNRMC,032852.400,A,2500.7940945,N,12132.4798230,E,0.03,104.38,090324,,,R,V*17
$GPHDT,0.389,T*37
$GNACCURACY,4.5*17
$GNGGA,032852.500,2500.7940946,N,12132.4798216,E,4,57,0.48,16.736,M,15.25,M,1,3335*41
$GNRMC,032852.500,A,2500.7940946,N,12132.4798216,E,0.07,104.38,090324,,,R,V*15
$GPHDT,,T*1B
$GNACCURACY,4.5*17
$GNGGA,032852.600,2500.7940962,N,12132.4798209,E,4,57,0.48,16.737,M,15.25,M,0,3335*4A
$GNRMC,032852.600,A,2500.7940962,N,12132.4798209,E,0.08,104.38,090324,,,R,V*11
$GPHDT,0.758,T*3F
$GNACCURACY,4.5*17
$GNGGA,032852.700,2500.7940940,N,12132.4798219,E,4,57,0.48,16.743,M,15.25,M,0,3335*49
$GNRMC,032852.700,A,2500.7940940,N,12132.4798219,E,0.02,104.38,090324,,,R,V*1B
$GPHDT,,T*1B
$GNACCURACY,4.5*17
$GNGGA,032852.800,2500.7940946,N,12132.4798215,E,4,57,0.48,16.741,M,15.25,M,0,3335*4E
$GNRMC,032852.800,A,2500.7940946,N,12132.4798215,E,0.03,104.38,090324,,,R,V*1F
$GPHDT,0.240,T*33
$GNACCURACY,4.5*17
$GNGGA,032852.900,2500.7940947,N,12132.4798188,E,4,57,0.48,16.735,M,15.25,M,0,3335*4A
$GNRMC,032852.900,A,2500.7940947,N,12132.4798188,E,0.03,104.38,090324,,,R,V*18
$GPHDT,,T*1B
$GNACCURACY,4.5*17
$GNGGA,032853.000,2500.7940967,N,12132.4798189,E,4,57,0.48,16.745,M,15.25,M,1,3335*47
$GNRMC,032853.000,A,2500.7940967,N,12132.4798189,E,0.07,104.38,090324,,,R,V*17
$GPHDT,0.713,T*30
$GNGSA,A,3,08,194,195,27,21,16,04,09,02,07,196,26,0.87,0.48,0.72,1*3D
$GNGSA,A,3,31,,,,,,,,,,,,0.87,0.48,0.72,1*05
$GNGSA,A,3,88,78,81,87,79,,,,,,,,0.87,0.48,0.72,2*03
$GNGSA,A,3,21,13,19,27,26,15,,,,,,,0.87,0.48,0.72,3*09
$GNGSA,A,3,06,16,09,43,39,40,07,23,10,11,25,28,0.87,0.48,0.72,4*09
$GNGSA,A,3,34,,,,,,,,,,,,0.87,0.48,0.72,4*05
$GPGSV,4,1,15,08,72,307,46,199,64,166,,194,63,046,41,195,58,123,42,1*54
$GPGSV,4,2,15,27,49,027,40,45,47,231,27,21,40,169,42,16,35,056,39,1*6F
$GPGSV,4,3,15,04,32,216,35,09,30,266,26,02,29,181,34,07,26,320,15,1*6D
$GPGSV,4,4,15,196,21,173,32,26,17,084,17,31,15,137,18,1*6B
$GPGSV,2,1,07,08,72,307,44,194,63,046,41,195,58,123,40,27,49,027,33,8*67
$GPGSV,2,2,07,04,32,216,39,09,30,266,21,196,21,173,27,8*66
$GLGSV,2,1,06,88,72,073,44,78,46,006,36,81,41,189,44,77,32,087,,1*70
$GLGSV,2,2,06,87,21,029,16,79,12,320,19,1*7A
$GAGSV,2,1,07,21,51,349,26,13,50,108,34,19,36,257,23,27,34,063,41,7*7D
$GAGSV,2,2,07,26,28,175,39,15,22,049,25,04,10,312,,7*48
$GAGSV,2,1,06,21,51,349,34,13,50,108,31,19,36,257,17,27,34,063,38,1*75
$GAGSV,2,2,06,26,28,175,25,15,22,049,26,1*74
$GBGSV,4,1,14,06,81,225,40,16,79,191,43,09,75,300,41,43,74,060,45,1*71
$GBGSV,4,2,14,39,67,177,44,40,66,316,42,07,63,294,35,23,61,357,45,1*74
$GBGSV,4,3,14,10,52,277,30,11,49,045,31,25,47,097,30,28,39,208,42,1*78
$GBGSV,4,4,14,34,25,041,37,38,05,171,,1*7B
$GBGSV,2,1,07,43,74,060,43,39,67,177,45,40,66,316,40,23,61,357,45,4*7B
$GBGSV,2,2,07,25,47,097,30,28,39,208,38,34,25,041,26,4*4D
$GNACCURACY,4.5*17
$PAIRSAT,1,35,2,0,201,3,0,200,4,0,221,5,0,200,6,0,200,7,0,201,8,0,221,9,0,221,10,0,200,11,0,200,12,0,200,13,0,200,14,0,200,15,0,200,16,0,201,17,0,200,18,0,200,19,0,200,20,0,200,21,0,201,22,0,200,23,0,200,24,0,200,25,0,200,26,0,221,27,0,221,28,0,200,29,0,200,30,0,200,31,0,201,32,0,200,194,0,621,195,0,621,196,0,620,199,0,600*5B
$PAIRSAT,2,23,65,0,200,66,0,200,67,0,200,68,0,200,70,0,200,71,0,200,72,0,200,73,0,200,74,0,200,75,0,200,76,0,200,77,0,201,78,0,201,79,0,201,80,0,200,81,0,201,82,0,200,83,0,200,84,0,200,85,0,200,86,0,200,87,0,201,88,0,201*5C
$PAIRSAT,3,23,2,0,1200,3,0,1200,4,0,1200,5,0,200,7,0,1200,8,0,1200,9,0,1200,10,0,1200,11,0,1200,12,0,1200,13,0,1221,15,0,1221,19,0,1221,21,0,1221,24,0,1200,25,0,1200,26,0,1221,27,0,1221,30,0,1200,31,0,1200,33,0,1200,34,0,1200,36,0,1200*6A
$PAIRSAT,4,46,1,0,200,2,0,200,3,0,600,4,0,200,5,0,200,6,0,201,7,0,201,8,0,200,9,0,201,10,0,201,11,0,201,12,0,200,13,0,200,14,0,200,16,0,201,19,0,600,20,0,600,21,0,600,22,0,600,23,0,621,24,0,600,25,0,621,26,0,600,27,0,600,28,0,621,29,0,600,30,0,600,32,0,600,33,0,600,34,0,621,35,0,600,36,0,600,37,0,600,38,0,600,39,0,621,40,0,421,41,0,600,42,0,600,43,0,621,44,0,400,45,0,400,46,0,400,59,0,400,60,0,400,61,0,400,62,0,400*4A
$PAIRDGP,4,2,7,16,21*40
$GNGGA,032853.100,2500.7940962,N,12132.4798202,E,4,57,0.48,16.746,M,15.25,M,1,3335*40
$GNRMC,032853.100,A,2500.7940962,N,12132.4798202,E,0.03,104.38,090324,,,R,V*17
$GPHDT,,T*1B
$GNACCURACY,4.5*17
$GNGGA,032853.200,2500.7940966,N,12132.4798194,E,4,57,0.48,16.755,M,15.25,M,1,3335*49
$GNRMC,032853.200,A,2500.7940966,N,12132.4798194,E,0.03,104.38,090324,,,R,V*1C
$GPHDT,0.636,T*36
$GNACCURACY,4.5*17
$GNGGA,032853.300,2500.7940964,N,12132.4798201,E,4,57,0.48,16.743,M,15.25,M,1,3335*42
$GNRMC,032853.300,A,2500.7940964,N,12132.4798201,E,0.01,104.38,090324,,,R,V*12
$GPHDT,,T*1B
$GNACCURACY,4.5*17
$GNGGA,032853.400,2500.7940947,N,12132.4798198,E,4,57,0.48,16.743,M,15.25,M,1,3335*47
$GNRMC,032853.400,A,2500.7940947,N,12132.4798198,E,0.02,104.38,090324,,,R,V*14
$GPHDT,0.541,T*35
$GNACCURACY,4.5*17
$GNGGA,032853.500,2500.7940959,N,12132.4798241,E,4,57,0.48,16.750,M,15.25,M,0,3335*4D
$GNRMC,032853.500,A,2500.7940959,N,12132.4798241,E,0.02,104.38,090324,,,R,V*1D
$GPHDT,,T*1B
$GNACCURACY,4.4*16
$GNGGA,032853.600,2500.7940959,N,12132.4798199,E,4,57,0.48,16.739,M,15.25,M,0,3335*47
$GNRMC,032853.600,A,2500.7940959,N,12132.4798199,E,0.02,104.38,090324,,,R,V*18
$GPHDT,1.009,T*3D
$GNACCURACY,4.4*16
$GNGGA,032853.700,2500.7940966,N,12132.4798201,E,4,57,0.48,16.747,M,15.25,M,0,3335*41
$GNRMC,032853.700,A,2500.7940966,N,12132.4798201,E,0.05,104.38,090324,,,R,V*10
$GPHDT,,T*1B
$GNACCURACY,4.4*16
$GNGGA,032853.800,2500.7940972,N,12132.4798213,E,4,56,0.50,16.742,M,15.25,M,0,3335*45
$GNRMC,032853.800,A,2500.7940972,N,12132.4798213,E,0.03,104.38,090324,,,R,V*1F
$GPHDT,0.485,T*3C
$GNACCURACY,4.4*16
$GNGGA,032853.900,2500.7940981,N,12132.4798229,E,4,56,0.50,16.745,M,15.25,M,0,3335*46
$GNRMC,032853.900,A,2500.7940981,N,12132.4798229,E,0.03,104.38,090324,,,R,V*1B
$GPHDT,,T*1B
$GNACCURACY,4.4*16
$GNGGA,032854.000,2500.7940944,N,12132.4798214,E,4,56,0.50,16.741,M,15.25,M,1,3335*4A
$GNRMC,032854.000,A,2500.7940944,N,12132.4798214,E,0.05,104.38,090324,,,R,V*14
$GPHDT,0.791,T*3A
$GNGSA,A,3,08,194,195,27,21,16,04,09,02,196,26,31,0.89,0.50,0.74,1*39
$GNGSA,A,3,88,78,81,87,79,,,,,,,,0.89,0.50,0.74,2*02
$GNGSA,A,3,21,13,19,27,26,15,,,,,,,0.89,0.50,0.74,3*08
$GNGSA,A,3,06,16,09,43,39,40,07,23,10,11,25,28,0.89,0.50,0.74,4*08
$GNGSA,A,3,34,,,,,,,,,,,,0.89,0.50,0.74,4*04
$GPGSV,4,1,15,08,72,307,46,199,64,166,,194,63,046,41,195,58,123,42,1*54
$GPGSV,4,2,15,27,49,027,40,45,47,231,27,21,40,169,42,16,35,056,39,1*6F
$GPGSV,4,3,15,04,32,216,35,09,30,266,25,02,29,181,34,07,26,320,16,1*6D
$GPGSV,4,4,15,196,21,173,32,26,17,084,17,31,15,137,18,1*6B
$GPGSV,2,1,07,08,72,307,44,194,63,046,41,195,58,123,40,27,49,027,33,8*67
$GPGSV,2,2,07,04,32,216,38,09,30,266,20,196,21,173,27,8*66
$GLGSV,2,1,06,88,72,073,44,78,46,006,36,81,41,189,44,77,32,087,,1*70
$GLGSV,2,2,06,87,21,029,16,79,12,320,19,1*7A
$GAGSV,2,1,07,21,51,349,26,13,50,108,34,19,36,257,23,27,34,063,41,7*7D
$GAGSV,2,2,07,26,28,175,39,15,22,049,25,04,10,312,,7*48
$GAGSV,2,1,06,21,51,349,33,13,50,108,31,19,36,257,13,27,34,063,38,1*76
$GAGSV,2,2,06,26,28,175,25,15,22,049,26,1*74
$GBGSV,4,1,13,06,81,225,40,16,79,191,42,09,75,300,41,43,74,060,45,1*77
$GBGSV,4,2,13,39,67,177,44,40,66,316,42,07,63,294,35,23,61,357,45,1*73
$GBGSV,4,3,13,10,52,277,30,11,49,045,32,25,47,097,30,28,39,208,42,1*7C
$GBGSV,4,4,13,34,25,041,37,1*45
$GBGSV,2,1,07,43,74,060,43,39,67,177,45,40,66,316,40,23,61,357,45,4*7B
$GBGSV,2,2,07,25,47,097,30,28,39,208,38,34,25,041,24,4*4F
$GNACCURACY,4.4*16
$PAIRSAT,1,35,2,0,201,3,0,200,4,0,221,5,0,200,6,0,200,7,0,201,8,0,221,9,0,221,10,0,200,11,0,200,12,0,200,13,0,200,14,0,200,15,0,200,16,0,201,17,0,200,18,0,200,19,0,200,20,0,200,21,0,201,22,0,200,23,0,200,24,0,200,25,0,200,26,0,221,27,0,221,28,0,200,29,0,200,30,0,200,31,0,201,32,0,200,194,0,621,195,0,621,196,0,620,199,0,600*5B
$PAIRSAT,2,23,65,0,200,66,0,200,67,0,200,68,0,200,70,0,200,71,0,200,72,0,200,73,0,200,74,0,200,75,0,200,76,0,200,77,0,201,78,0,201,79,0,201,80,0,200,81,0,201,82,0,200,83,0,200,84,0,200,85,0,200,86,0,200,87,0,201,88,0,201*5C
$PAIRSAT,3,23,2,0,1200,3,0,1200,4,0,1200,5,0,200,7,0,1200,8,0,1200,9,0,1200,10,0,1200,11,0,1200,12,0,1200,13,0,1221,15,0,1221,19,0,1221,21,0,1221,24,0,1200,25,0,1200,26,0,1221,27,0,1221,30,0,1200,31,0,1200,33,0,1200,34,0,1200,36,0,1200*6A
$PAIRSAT,4,46,1,0,200,2,0,200,3,0,600,4,0,200,5,0,200,6,0,201,7,0,201,8,0,200,9,0,201,10,0,201,11,0,201,12,0,200,13,0,200,14,0,200,16,0,201,19,0,600,20,0,600,21,0,600,22,0,600,23,0,621,24,0,600,25,0,621,26,0,600,27,0,600,28,0,621,29,0,600,30,0,600,32,0,600,33,0,600,34,0,621,35,0,600,36,0,600,37,0,600,38,0,600,39,0,621,40,0,421,41,0,600,42,0,600,43,0,621,44,0,400,45,0,400,46,0,400,59,0,400,60,0,400,61,0,400,62,0,400*4A
$PAIRDGP,4,2,7,16,21*40
$GNGGA,032854.100,2500.7940950,N,12132.4798225,E,4,56,0.50,16.733,M,15.25,M,1,3335*49
$GNRMC,032854.100,A,2500.7940950,N,12132.4798225,E,0.06,104.38,090324,,,R,V*11
$GPHDT,,T*1B
$GNACCURACY,4.4*16
$GNGGA,032854.200,2500.7940953,N,12132.4798263,E,4,56,0.50,16.755,M,15.25,M,1,3335*4B
$GNRMC,032854.200,A,2500.7940953,N,12132.4798263,E,0.04,104.38,090324,,,R,V*11
$GPHDT,0.199,T*34
$GNACCURACY,4.4*16
$GNGGA,032854.300,2500.7940949,N,12132.4798234,E,4,56,0.50,16.742,M,15.25,M,1,3335*45
$GNRMC,032854.300,A,2500.7940949,N,12132.4798234,E,0.05,104.38,090324,,,R,V*18
$GPHDT,,T*1B
$GNACCURACY,4.5*17
$GNGGA,032854.400,2500.7940946,N,12132.4798226,E,4,56,0.50,16.756,M,15.25,M,1,3335*4B
$GNRMC,032854.400,A,2500.7940946,N,12132.4798226,E,0.03,104.38,090324,,,R,V*15
$GPHDT,0.783,T*39
$GNACCURACY,4.4*16
$GNGGA,032854.500,2500.7940958,N,12132.4798232,E,4,56,0.50,16.740,M,15.25,M,1,3335*47
$GNRMC,032854.500,A,2500.7940958,N,12132.4798232,E,0.03,104.38,090324,,,R,V*1E
$GPHDT,,T*1B
$GNACCURACY,4.4*16
$GNGGA,032854.600,2500.7940928,N,12132.4798244,E,4,56,0.50,16.750,M,15.25,M,0,3335*42
$GNRMC,032854.600,A,2500.7940928,N,12132.4798244,E,0.03,104.38,090324,,,R,V*1B
$GPHDT,0.470,T*36
$GNACCURACY,4.4*16
$GNGGA,032854.700,2500.7940938,N,12132.4798241,E,4,56,0.50,16.749,M,15.25,M,0,3335*4F
$GNRMC,032854.700,A,2500.7940938,N,12132.4798241,E,0.03,104.38,090324,,,R,V*1E
$GPHDT,,T*1B
$GNACCURACY,4.4*16
$GNGGA,032854.800,2500.7940926,N,12132.4798281,E,4,56,0.50,16.767,M,15.25,M,0,3335*4F
$GNRMC,032854.800,A,2500.7940926,N,12132.4798281,E,0.02,104.38,090324,,,R,V*13
$GPHDT,0.153,T*32
$GNACCURACY,4.5*17
$GNGGA,032854.900,2500.7940919,N,12132.4798241,E,4,56,0.50,16.760,M,15.25,M,0,3335*49
$GNRMC,032854.900,A,2500.7940919,N,12132.4798241,E,0.02,104.38,090324,,,R,V*12
$GPHDT,,T*1B
$GNACCURACY,4.5*17
$GNGGA,032855.000,2500.7940962,N,12132.4798254,E,4,56,0.50,16.772,M,15.25,M,1,3335*4B
$GNRMC,032855.000,A,2500.7940962,N,12132.4798254,E,0.00,104.38,090324,,,R,V*10
$GPHDT,359.846,T*30
$GNGSA,A,3,08,194,195,27,21,16,04,09,02,196,26,31,0.89,0.50,0.74,1*39
$GNGSA,A,3,88,78,81,87,79,,,,,,,,0.89,0.50,0.74,2*02
$GNGSA,A,3,21,13,19,27,26,15,,,,,,,0.89,0.50,0.74,3*08
$GNGSA,A,3,06,16,09,43,39,40,07,23,10,11,25,28,0.89,0.50,0.74,4*08
$GNGSA,A,3,34,,,,,,,,,,,,0.89,0.50,0.74,4*04
$GPGSV,4,1,15,08,72,307,46,199,64,166,,194,63,046,42,195,58,123,42,1*57
$GPGSV,4,2,15,27,49,027,40,45,47,231,25,21,40,169,44,16,35,056,39,1*6B
$GPGSV,4,3,15,04,32,216,34,09,30,266,25,02,29,181,35,07,26,320,13,1*68
$GPGSV,4,4,15,196,21,173,30,26,17,084,18,31,15,137,18,1*66
$GPGSV,2,1,07,08,72,307,44,194,63,046,41,195,58,123,39,27,49,027,31,8*6B
$GPGSV,2,2,07,04,32,216,38,09,30,266,19,196,21,173,27,8*6C
$GLGSV,2,1,07,88,72,072,44,78,46,006,37,81,41,189,43,77,32,087,,1*76
$GLGSV,2,2,07,87,21,029,18,79,12,320,19,67,02,208,,1*4C
$GAGSV,2,1,07,21,51,349,26,13,50,108,32,19,36,257,21,27,34,063,41,7*79
$GAGSV,2,2,07,26,28,175,38,15,22,049,23,04,10,312,,7*4F
$GAGSV,2,1,06,21,51,349,33,13,50,108,31,19,36,257,13,27,34,063,38,1*76
$GAGSV,2,2,06,26,28,175,28,15,22,049,26,1*79
$GBGSV,4,1,16,06,81,225,39,16,79,191,42,09,75,300,41,43,74,060,45,1*7C
$GBGSV,4,2,16,39,67,177,45,40,66,316,42,07,63,294,35,23,61,357,45,1*77
$GBGSV,4,3,16,10,52,277,31,11,49,045,33,25,47,097,26,28,39,208,41,1*7D
$GBGSV,4,4,16,34,25,041,37,37,17,315,,32,05,256,,41,04,207,,1*74
$GBGSV,2,1,07,43,74,060,43,39,67,177,45,40,66,316,40,23,61,357,45,4*7B
$GBGSV,2,2,07,25,47,097,30,28,39,208,38,34,25,041,24,4*4F
$GNACCURACY,4.5*17
$PAIRSAT,1,35,2,0,201,3,0,200,4,0,221,5,0,200,6,0,200,7,0,201,8,0,221,9,0,221,10,0,200,11,0,200,12,0,200,13,0,200,14,0,200,15,0,200,16,0,201,17,0,200,18,0,200,19,0,200,20,0,200,21,0,201,22,0,200,23,0,200,24,0,200,25,0,200,26,0,221,27,0,221,28,0,200,29,0,200,30,0,200,31,0,201,32,0,200,194,0,621,195,0,621,196,0,620,199,0,600*5B
$PAIRSAT,2,23,65,0,200,66,0,200,67,0,200,68,0,200,70,0,200,71,0,200,72,0,200,73,0,200,74,0,200,75,0,200,76,0,200,77,0,201,78,0,201,79,0,201,80,0,200,81,0,201,82,0,200,83,0,200,84,0,200,85,0,200,86,0,200,87,0,201,88,0,201*5C
$PAIRSAT,3,23,2,0,1200,3,0,1200,4,0,1200,5,0,200,7,0,1200,8,0,1200,9,0,1200,10,0,1200,11,0,1200,12,0,1200,13,0,1221,15,0,1221,19,0,1221,21,0,1221,24,0,1200,25,0,1200,26,0,1221,27,0,1221,30,0,1200,31,0,1200,33,0,1200,34,0,1200,36,0,1200*6A
$PAIRSAT,4,46,1,0,200,2,0,200,3,0,600,4,0,200,5,0,200,6,0,201,7,0,201,8,0,200,9,0,201,10,0,201,11,0,201,12,0,200,13,0,200,14,0,200,16,0,201,19,0,600,20,0,600,21,0,600,22,0,600,23,0,621,24,0,600,25,0,621,26,0,600,27,0,600,28,0,621,29,0,600,30,0,600,32,0,600,33,0,600,34,0,621,35,0,600,36,0,600,37,0,600,38,0,600,39,0,621,40,0,421,41,0,600,42,0,600,43,0,621,44,0,400,45,0,400,46,0,400,59,0,400,60,0,400,61,0,400,62,0,400*4A
$PAIRDGP,4,2,7,16,21*40
$GNGGA,032855.100,2500.7940967,N,12132.4798229,E,4,56,0.50,16.763,M,15.25,M,1,3335*45
$GNRMC,032855.100,A,2500.7940967,N,12132.4798229,E,0.01,104.38,090324,,,R,V*1F
$GPHDT,,T*1B
$GNACCURACY,4.5*17
$GNGGA,032855.200,2500.7940951,N,12132.4798246,E,4,56,0.50,16.766,M,15.25,M,1,3335*4F
$GNRMC,032855.200,A,2500.7940951,N,12132.47