$FW : RTK35X,V1.1X0314AS,Lib20210517,1*54
$Tool : LOCOSYS , GNSS Firebird , v1.0.0.19*39
$---------------------------------------------------*2D
NGGA,040403.600,2500.7794874,N,12132.4539929,E,4,50,0.55,16.716,M,15.25,M,0,3335*4E
$GNRMC,040403.600,A,2500.7794874,N,12132.4539929,E,0.07,145.54,090324,,,R,V*1D
$GPHDT,,T*1B
$GNACCURACY,3.8*1D
$GNGGA,040403.700,2500.7794881,N,12132.4539941,E,4,50,0.55,16.717,M,15.25,M,0,3335*4A
$GNRMC,040403.700,A,2500.7794881,N,12132.4539941,E,0.07,145.54,090324,,,R,V*18
$GPHDT,,T*1B
$GNACCURACY,3.8*1D
$GNGGA,040403.800,2500.7794899,N,12132.4539935,E,4,50,0.55,16.723,M,15.25,M,0,3335*48
$GNRMC,040403.800,A,2500.7794899,N,12132.4539935,E,0.07,145.54,090324,,,R,V*1D
$GPHDT,,T*1B
$GNACCURACY,3.8*1D
$GNGGA,040403.900,2500.7794854,N,12132.4539912,E,4,51,0.55,16.719,M,15.25,M,0,3335*45
$GNRMC,040403.900,A,2500.7794854,N,12132.4539912,E,0.08,145.54,090324,,,R,V*17
$GPHDT,,T*1B
$GNACCURACY,3.8*1D
$GNGGA,040404.000,2500.7794893,N,12132.4539927,E,4,51,0.55,16.730,M,15.25,M,1,3335*4C
$GNRMC,040404.000,A,2500.7794893,N,12132.4539927,E,0.08,145.54,090324,,,R,V*14
$GPHDT,,T*1B
$GNACCURACY,3.8*1D
$GNGGA,040404.100,2500.7794895,N,12132.4539953,E,4,51,0.55,16.712,M,15.25,M,1,3335*48
$GNRMC,040404.100,A,2500.7794895,N,12132.4539953,E,0.07,145.54,090324,,,R,V*1F
$GPHDT,,T*1B
$GNGSA,A,3,194,08,195,199,21,07,27,16,04,196,,,0.83,0.55,0.63,1*0B
$GNGSA,A,3,81,88,78,77,79,,,,,,,,0.83,0.55,0.63,2*04
$GNGSA,A,3,13,21,27,15,26,,,,,,,,0.83,0.55,0.63,3*09
$GNGSA,A,3,09,06,23,16,40,07,43,39,28,10,25,37,0.83,0.55,0.63,4*05
$GNGSA,A,3,34,,,,,,,,,,,,0.83,0.55,0.63,4*0D
$GPGSV,4,1,15,194,64,051,32,08,64,351,36,195,64,115,42,50,60,167,37,1*6D
$GPGSV,4,2,15,199,60,167,34,21,57,158,41,02,46,177,20,07,39,317,42,1*53
$GPGSV,4,3,15,27,35,035,19,16,28,073,37,09,25,249,16,04,19,204,20,1*69
$GPGSV,4,4,15,196,19,170,15,30,09,320,24,26,09,097,18,1*63
$GPGSV,3,1,09,194,64,051,38,195,64,115,46,08,64,351,29,199,60,167,40,8*5A
$GPGSV,3,2,09,27,35,035,20,09,25,249,27,04,19,204,13,196,19,170,15,8*5A
$GPGSV,3,3,09,30,09,320,28,8*55
$GLGSV,2,1,06,81,62,198,45,88,58,034,31,78,55,033,33,77,25,108,37,1*7C
$GLGSV,2,2,06,79,24,332,33,87,05,026,17,1*7C
$GAGSV,2,1,07,13,54,084,37,21,54,009,27,26,42,172,,27,29,077,37,7*7E
$GAGSV,2,2,07,19,29,243,,15,15,040,19,04,12,301,,7*4B
$GAGSV,2,1,05,13,54,084,34,21,54,009,28,26,42,172,29,27,29,077,40,1*7D
$GAGSV,2,2,05,15,15,040,30,1*47
$GBGSV,4,1,13,09,74,270,34,06,73,215,38,23,72,025,45,16,69,198,39,1*76
$GBGSV,4,2,13,40,61,327,42,07,61,306,39,43,61,038,36,39,59,186,39,1*73
$GBGSV,4,3,13,28,54,219,36,10,51,288,38,25,39,115,47,37,28,321,43,1*79
$GBGSV,4,4,13,34,13,040,17,1*43
$GBGSV,2,1,08,23,72,025,41,40,61,327,40,43,61,038,31,39,59,186,39,4*75
$GBGSV,2,2,08,28,54,219,41,25,39,115,45,37,28,321,38,34,13,040,28,4*78
$GNACCURACY,3.8*1D
$PAIRSAT,1,34,2,0,201,3,0,200,4,0,221,5,0,200,6,0,200,7,0,201,8,0,221,9,0,200,10,0,200,11,0,200,12,0,200,13,0,200,14,0,200,15,0,200,16,0,201,17,0,200,18,0,200,20,0,200,21,0,201,22,0,200,23,0,200,24,0,200,25,0,200,26,0,220,27,0,221,28,0,200,29,0,200,30,0,220,31,0,200,32,0,200,194,0,621,195,0,621,196,0,620,199,0,621*7E
$PAIRSAT,2,24,65,0,200,66,0,200,67,0,200,68,0,200,69,0,200,70,0,200,71,0,200,72,0,200,73,0,200,74,0,200,75,0,200,76,0,200,77,0,1,78,0,201,79,0,201,80,0,200,81,0,201,82,0,200,83,0,200,84,0,200,85,0,200,86,0,200,87,0,201,88,0,201*78
$PAIRSAT,3,23,2,0,1200,3,0,1200,4,0,1200,5,0,200,7,0,1200,8,0,1200,9,0,1200,10,0,1200,11,0,200,12,0,200,13,0,221,15,0,220,19,0,200,21,0,221,24,0,200,25,0,1200,26,0,1221,27,0,1221,30,0,1200,31,0,1200,33,0,1200,34,0,1000,36,0,1200*5B
$PAIRSAT,4,46,1,0,200,2,0,200,3,0,600,4,0,200,5,0,200,6,0,201,7,0,201,8,0,200,9,0,201,10,0,201,11,0,200,12,0,200,13,0,200,14,0,200,16,0,201,19,0,600,20,0,600,21,0,600,22,0,600,23,0,621,24,0,600,25,0,621,26,0,600,27,0,600,28,0,621,29,0,600,30,0,600,32,0,400,33,0,400,34,0,421,35,0,400,36,0,400,37,0,421,38,0,400,39,0,421,40,0,421,41,0,400,42,0,400,43,0,421,44,0,400,45,0,400,46,0,400,59,0,400,60,0,400,61,0,400,62,0,400*4A
$PAIRDGP,10,2,4,7,8,9,16,21,26,27,30*42
$GNGGA,040404.200,2500.7794901,N,12132.4539969,E,4,51,0.55,16.717,M,15.25,M,1,3335*4B
$GNRMC,040404.200,A,2500.7794901,N,12132.4539969,E,0.07,145.54,090324,,,R,V*19
$GPHDT,,T*1B
$GNACCURACY,3.7*12
$GNGGA,040404.300,2500.7794876,N,12132.4539926,E,4,51,0.55,16.714,M,15.25,M,1,3335*43
$GNRMC,040404.300,A,2500.7794876,N,12132.4539926,E,0.07,145.54,090324,,,R,V*12
$GPHDT,,T*1B
$GNACCURACY,3.7*12
$GNGGA,040404.400,2500.7794915,N,12132.4539963,E,4,51,0.55,16.723,M,15.25,M,1,3335*45
$GNRMC,040404.400,A,2500.7794915,N,12132.4539963,E,0.07,145.54,090324,,,R,V*10
$GPHDT,,T*1B
$GNACCURACY,3.8*1D
$GNGGA,040404.500,2500.7794861,N,12132.4539876,E,4,51,0.55,16.719,M,15.25,M,0,3335*4B
$GNRMC,040404.500,A,2500.7794861,N,12132.4539876,E,0.07,145.54,090324,,,R,V*16
$GPHDT,,T*1B
$GNACCURACY,3.8*1D
$GNGGA,040404.600,2500.7794875,N,12132.4539906,E,4,51,0.55,16.724,M,15.25,M,0,3335*45
$GNRMC,040404.600,A,2500.7794875,N,12132.4539906,E,0.06,145.54,090324,,,R,V*17
$GPHDT,,T*1B
$GNACCURACY,3.8*1D
$GNGGA,040404.700,2500.7794909,N,12132.4539923,E,4,52,0.55,16.735,M,15.25,M,0,3335*4A
$GNRMC,040404.700,A,2500.7794909,N,12132.4539923,E,0.05,145.54,090324,,,R,V*18
$GPHDT,,T*1B
$GNACCURACY,3.8*1D
$GNGGA,040404.800,2500.7794902,N,12132.4539913,E,4,52,0.55,16.724,M,15.25,M,0,3335*4D
$GNRMC,040404.800,A,2500.7794902,N,12132.4539913,E,0.06,145.54,090324,,,R,V*1C
$GPHDT,,T*1B
$GNACCURACY,3.8*1D
$GNGGA,040404.900,2500.7794889,N,12132.4539911,E,4,52,0.55,16.731,M,15.25,M,0,3335*48
$GNRMC,040404.900,A,2500.7794889,N,12132.4539911,E,0.06,145.54,090324,,,R,V*1D
$GPHDT,,T*1B
$GNACCURACY,3.8*1D
$GNGGA,040405.000,2500.7794886,N,12132.4539941,E,4,52,0.55,16.723,M,15.25,M,1,3335*48
$GNRMC,040405.000,A,2500.7794886,N,12132.4539941,E,0.06,145.54,090324,,,R,V*1F
$GPHDT,,T*1B
$GNACCURACY,3.8*1D
$GNGGA,040405.100,2500.7794860,N,12132.4539923,E,4,52,0.55,16.721,M,15.25,M,1,3335*47
$GNRMC,040405.100,A,2500.7794860,N,12132.4539923,E,0.06,145.54,090324,,,R,V*12
$GPHDT,,T*1B
$GNGSA,A,3,194,08,195,199,21,07,27,16,04,196,,,0.83,0.55,0.63,1*0B
$GNGSA,A,3,81,88,78,77,79,,,,,,,,0.83,0.55,0.63,2*04
$GNGSA,A,3,13,21,26,27,15,,,,,,,,0.83,0.55,0.63,3*09
$GNGSA,A,3,09,06,23,16,40,07,43,39,28,10,25,37,0.83,0.55,0.63,4*05
$GNGSA,A,3,34,,,,,,,,,,,,0.83,0.55,0.63,4*0D
$GPGSV,4,1,15,194,64,051,32,08,64,351,38,195,64,115,42,50,60,167,37,1*63
$GPGSV,4,2,15,199,60,167,34,21,57,158,41,02,46,177,24,07,39,317,42,1*57
$GPGSV,4,3,15,27,35,035,26,16,28,073,37,09,25,249,17,04,19,204,18,1*6F
$GPGSV,4,4,15,196,19,170,16,30,09,320,25,26,09,097,18,1*61
$GPGSV,3,1,09,194,64,051,39,195,64,115,46,08,64,351,31,199,60,167,40,8*52
$GPGSV,3,2,09,27,35,035,20,09,25,249,26,04,19,204,12,196,19,170,15,8*5A
$GPGSV,3,3,09,30,09,320,30,8*5C
$GLGSV,2,1,06,81,62,198,45,88,58,034,33,78,55,033,33,77,25,108,38,1*71
$GLGSV,2,2,06,79,24,332,33,87,05,026,19,1*72
$GAGSV,2,1,07,13,54,084,37,21,54,009,27,26,42,172,21,27,29,077,36,7*7C
$GAGSV,2,2,07,19,29,243,,15,15,040,20,04,12,301,,7*41
$GAGSV,2,1,05,13,54,084,34,21,54,009,27,26,42,172,28,27,29,077,40,1*73
$GAGSV,2,2,05,15,15,040,29,1*4F
$GBGSV,4,1,13,09,74,270,35,06,73,215,38,23,72,025,45,16,69,198,38,1*76
$GBGSV,4,2,13,40,61,327,43,07,61,306,39,43,61,038,34,39,59,186,40,1*7E
$GBGSV,4,3,13,28,54,219,37,10,51,288,37,25,39,115,46,37,28,321,45,1*70
$GBGSV,4,4,13,34,13,040,16,1*42
$GBGSV,2,1,08,23,72,025,43,40,61,327,41,43,61,038,32,39,59,186,39,4*75
$GBGSV,2,2,08,28,54,219,41,25,39,115,45,37,28,321,42,34,13,040,28,4*75
$GNACCURACY,3.8*1D
$PAIRSAT,1,34,2,0,201,3,0,200,4,0,221,5,0,200,6,0,200,7,0,201,8,0,221,9,0,200,10,0,200,11,0,200,12,0,200,13,0,200,14,0,200,15,0,200,16,0,201,17,0,200,18,0,200,20,0,200,21,0,201,22,0,200,23,0,200,24,0,200,25,0,200,26,0,220,27,0,221,28,0,200,29,0,200,30,0,220,31,0,200,32,0,200,194,0,621,195,0,621,196,0,620,199,0,621*7E
$PAIRSAT,2,24,65,0,200,66,0,200,67,0,200,68,0,200,69,0,200,70,0,200,71,0,200,72,0,200,73,0,200,74,0,200,75,0,200,76,0,200,77,0,1,78,0,201,79,0,201,80,0,200,81,0,201,82,0,200,83,0,200,84,0,200,85,0,200,86,0,200,87,0,201,88,0,201*78
$PAIRSAT,3,23,2,0,1200,3,0,1200,4,0,1200,5,0,200,7,0,1200,8,0,1200,9,0,1200,10,0,1200,11,0,200,12,0,200,13,0,221,15,0,220,19,0,200,21,0,221,24,0,200,25,0,1200,26,0,1221,27,0,1221,30,0,1200,31,0,1200,33,0,1200,34,0,1000,36,0,1200*5B
$PAIRSAT,4,46,1,0,200,2,0,200,3,0,600,4,0,200,5,0,200,6,0,201,7,0,201,8,0,200,9,0,201,10,0,201,11,0,200,12,0,200,13,0,200,14,0,200,16,0,201,19,0,600,20,0,600,21,0,600,22,0,600,23,0,621,24,0,600,25,0,621,26,0,600,27,0,600,28,0,621,29,0,600,30,0,600,32,0,400,33,0,400,34,0,421,35,0,400,36,0,400,37,0,421,38,0,400,39,0,421,40,0,421,41,0,400,42,0,400,43,0,421,44,0,400,45,0,400,46,0,400,59,0,400,60,0,400,61,0,400,62,0,400*4A
$PAIRDGP,10,2,4,7,8,9,16,21,26,27,30*42
$GNGGA,040405.200,2500.7794881,N,12132.4539930,E,4,52,0.55,16.730,M,15.25,M,1,3335*49
$GNRMC,040405.200,A,2500.7794881,N,12132.4539930,E,0.05,145.54,090324,,,R,V*1F
$GPHDT,,T*1B
$GNACCURACY,3.7*12
$GNGGA,040405.300,2500.7794864,N,12132.4539945,E,4,52,0.55,16.725,M,15.25,M,1,3335*45
$GNRMC,040405.300,A,2500.7794864,N,12132.4539945,E,0.06,145.54,090324,,,R,V*14
$GPHDT,,T*1B
$GNACCURACY,3.7*12
$GNGGA,040405.400,2500.7794842,N,12132.4539935,E,4,51,0.57,16.714,M,15.25,M,1,3335*42
$GNRMC,040405.400,A,2500.7794842,N,12132.4539935,E,0.05,145.54,090324,,,R,V*13
$GPHDT,,T*1B
$GNACCURACY,3.7*12
$GNGGA,040405.500,2500.7794859,N,12132.4539924,E,4,51,0.57,16.721,M,15.25,M,0,3335*4E
$GNRMC,040405.500,A,2500.7794859,N,12132.4539924,E,0.05,145.54,090324,,,R,V*18
$GPHDT,,T*1B
$GNACCURACY,3.7*12
$GNGGA,040405.600,2500.7794876,N,12132.4539948,E,4,51,0.57,16.719,M,15.25,M,0,3335*41
$GNRMC,040405.600,A,2500.7794876,N,12132.4539948,E,0.06,145.54,090324,,,R,V*1F
$GPHDT,,T*1B
$GNACCURACY,3.7*12
$GNGGA,040405.700,2500.7794874,N,12132.4539965,E,4,51,0.57,16.714,M,15.25,M,0,3335*40
$GNRMC,040405.700,A,2500.7794874,N,12132.4539965,E,0.05,145.54,090324,,,R,V*10
$GPHDT,,T*1B
$GNACCURACY,3.7*12
$GNGGA,040405.800,2500.7794860,N,12132.4539942,E,4,51,0.57,16.718,M,15.25,M,0,3335*43
$GNRMC,040405.800,A,2500.7794860,N,12132.4539942,E,0.05,145.54,090324,,,R,V*1F
$GPHDT,,T*1B
$GNACCURACY,3.7*12
$GNGGA,040405.900,2500.7794857,N,12132.4539951,E,4,51,0.57,16.708,M,15.25,M,0,3335*45
$GNRMC,040405.900,A,2500.7794857,N,12132.4539951,E,0.05,145.54,090324,,,R,V*18
$GPHDT,,T*1B
$GNACCURACY,3.7*12
$GNGGA,040406.000,2500.7794861,N,12132.4539934,E,4,51,0.57,16.716,M,15.25,M,1,3335*47
$GNRMC,040406.000,A,2500.7794861,N,12132.4539934,E,0.05,145.54,090324,,,R,V*14
$GPHDT,,T*1B
$GNACCURACY,3.7*12
$GNGGA,040406.100,2500.7794898,N,12132.4539925,E,4,51,0.57,16.721,M,15.25,M,1,3335*44
$GNRMC,040406.100,A,2500.7794898,N,12132.4539925,E,0.04,145.54,090324,,,R,V*12
$GPHDT,,T*1B
$GNGSA,A,3,194,08,195,199,21,07,27,16,04,,,,0.87,0.57,0.66,1*36
$GNGSA,A,3,81,88,78,77,79,,,,,,,,0.87,0.57,0.66,2*07
$GNGSA,A,3,13,21,26,27,15,,,,,,,,0.87,0.57,0.66,3*0A
$GNGSA,A,3,09,06,23,16,40,07,43,39,28,10,25,37,0.87,0.57,0.66,4*06
$GNGSA,A,3,34,,,,,,,,,,,,0.87,0.57,0.66,4*0E
$GPGSV,4,1,15,194,64,051,31,08,64,351,38,195,64,115,42,50,60,167,37,1*60
$GPGSV,4,2,15,199,60,167,35,21,57,158,41,02,46,177,23,07,39,317,42,1*51
$GPGSV,4,3,15,27,35,035,29,16,28,073,37,09,25,249,18,04,19,204,18,1*6F
$GPGSV,4,4,15,196,19,170,17,30,09,320,27,26,09,097,19,1*63
$GPGSV,2,1,08,194,64,051,40,195,64,115,46,08,64,351,32,199,60,167,41,8*5E
$GPGSV,2,2,08,27,35,035,21,09,25,249,26,04,19,204,13,30,09,320,32,8*64
$GLGSV,2,1,06,81,62,198,45,88,58,034,33,78,55,033,34,77,25,108,38,1*76
$GLGSV,2,2,06,79,24,332,33,87,05,026,18,1*73
$GAGSV,2,1,07,13,54,084,37,21,54,009,27,26,42,172,24,27,29,077,36,7*79
$GAGSV,2,2,07,19,29,243,,15,15,040,20,04,12,301,,7*41
$GAGSV,2,1,05,13,54,084,34,21,54,009,28,26,42,172,29,27,29,077,40,1*7D
$GAGSV,2,2,05,15,15,040,29,1*4F
$GBGSV,4,1,13,09,74,270,37,06,73,215,38,23,72,025,45,16,69,198,38,1*74
$GBGSV,4,2,13,40,61,327,43,07,61,306,39,43,61,038,31,39,59,186,40,1*7B
$GBGSV,4,3,13,28,54,219,38,10,51,288,36,25,39,115,46,37,28,321,45,1*7E
$GBGSV,4,4,13,34,13,040,18,1*4C
$GBGSV,2,1,08,23,72,025,43,40,61,327,42,43,61,038,34,39,59,186,39,4*70
$GBGSV,2,2,08,28,54,219,41,25,39,115,45,37,28,321,42,34,13,040,29,4*74
$GNACCURACY,3.7*12
$PAIRSAT,1,34,2,0,201,3,0,200,4,0,221,5,0,200,6,0,200,7,0,201,8,0,221,9,0,200,10,0,200,11,0,200,12,0,200,13,0,200,14,0,200,15,0,200,16,0,201,17,0,200,18,0,200,20,0,200,21,0,201,22,0,200,23,0,200,24,0,200,25,0,200,26,0,220,27,0,221,28,0,200,29,0,200,30,0,220,31,0,200,32,0,200,194,0,621,195,0,621,196,0,620,199,0,621*7E
$PAIRSAT,2,24,65,0,200,66,0,200,67,0,200,68,0,200,69,0,200,70,0,200,71,0,200,72,0,200,73,0,200,74,0,200,75,0,200,76,0,200,77,0,1,78,0,201,79,0,201,80,0,200,81,0,201,82,0,200,83,0,200,84,0,200,85,0,200,86,0,200,87,0,201,88,0,201*78
$PAIRSAT,3,23,2,0,1200,3,0,1200,4,0,1200,5,0,200,7,0,1200,8,0,1200,9,0,1200,10,0,1200,11,0,200,12,0,200,13,0,221,15,0,220,19,0,200,21,0,221,24,0,200,25,0,1200,26,0,1221,27,0,1221,30,0,1200,31,0,1200,33,0,1200,34,0,1000,36,0,1200*5B
$PAIRSAT,4,46,1,0,200,2,0,200,3,0,600,4,0,200,5,0,200,6,0,201,7,0,201,8,0,200,9,0,201,10,0,201,11,0,200,12,0,200,13,0,200,14,0,200,16,0,201,19,0,600,20,0,600,21,0,600,22,0,600,23,0,621,24,0,600,25,0,621,26,0,600,27,0,600,28,0,621,29,0,600,30,0,600,32,0,400,33,0,400,34,0,421,35,0,400,36,0,400,37,0,421,38,0,400,39,0,421,40,0,421,41,0,400,42,0,400,43,0,421,44,0,400,45,0,400,46,0,400,59,0,400,60,0,400,61,0,400,62,0,400*4A
$PAIRDGP,10,2,4,7,8,9,16,21,26,27,30*42
$GNGGA,040406.200,2500.7794853,N,12132.4539927,E,4,51,0.57,16.723,M,15.25,M,1,3335*40
$GNRMC,040406.200,A,2500.7794853,N,12132.4539927,E,0.05,145.54,090324,,,R,V*15
$GPHDT,,T*1B
$GNACCURACY,3.7*12
$GNGGA,040406.300,2500.7794881,N,12132.4539902,E,4,51,0.57,16.720,M,15.25,M,1,3335*4A
$GNRMC,040406.300,A,2500.7794881,N,12132.4539902,E,0.05,145.54,090324,,,R,V*1C
$GPHDT,,T*1B
$GNACCURACY,3.7*12
$GNGGA,040406.400,2500.7794909,N,12132.4539930,E,4,51,0.57,16.729,M,15.25,M,1,3335*44
$GNRMC,040406.400,A,2500.7794909,N,12132.4539930,E,0.05,145.54,090324,,,R,V*1B
$GPHDT,,T*1B
$GNACCURACY,3.7*12
$GNGGA,040406.500,2500.7794919,N,12132.4539953,E,4,52,0.55,16.724,M,15.25,M,1,3335*4D
$GNRMC,040406.500,A,2500.7794919,N,12132.4539953,E,0.06,145.54,090324,,,R,V*1D
$GPHDT,,T*1B
$GNACCURACY,3.7*12
$GNGGA,040406.600,2500.7794923,N,12132.4539944,E,4,52,0.55,16.716,M,15.25,M,1,3335*40
$GNRMC,040406.600,A,2500.7794923,N,12132.4539944,E,0.05,145.54,090324,,,R,V*12
$GPHDT,,T*1B
$GNACCURACY,3.7*12
$GNGGA,040406.700,2500.7794885,N,12132.4539920,E,4,52,0.55,16.721,M,15.25,M,0,3335*4B
$GNRMC,040406.700,A,2500.7794885,N,12132.4539920,E,0.05,145.54,090324,,,R,V*1C
$GPHDT,,T*1B
$GNACCURACY,3.7*12
$GNGGA,040406.800,2500.7794903,N,12132.4539936,E,4,52,0.55,16.730,M,15.25,M,0,3335*4C
$GNRMC,040406.800,A,2500.7794903,N,12132.4539936,E,0.06,145.54,090324,,,R,V*18
$GPHDT,,T*1B
$GNACCURACY,3.7*12
$GNGGA,040406.900,2500.7794919,N,12132.4539940,E,4,52,0.55,16.731,M,15.25,M,0,3335*46
$GNRMC,040406.900,A,2500.7794919,N,12132.4539940,E,0.06,145.54,090324,,,R,V*13
$GPHDT,,T*1B
$GNACCURACY,3.7*12
$GNGGA,040407.000,2500.7794883,N,12132.4539906,E,4,52,0.55,16.724,M,15.25,M,1,3335*4B
$GNRMC,040407.000,A,2500.7794883,N,12132.4539906,E,0.05,145.54,090324,,,R,V*18
$GPHDT,,T*1B
$GNACCURACY,3.8*1D
$GNGGA,040407.100,2500.7794903,N,12132.4539927,E,4,52,0.55,16.726,M,15.25,M,1,3335*42
$GNRMC,040407.100,A,2500.7794903,N,12132.4539927,E,0.05,145.54,090324,,,R,V*13
$GPHDT,,T*1B
$GNGSA,A,3,194,08,195,199,21,02,07,27,16,04,,,0.86,0.55,0.66,1*37
$GNGSA,A,3,81,88,78,77,79,,,,,,,,0.86,0.55,0.66,2*04
$GNGSA,A,3,13,21,26,27,15,,,,,,,,0.86,0.55,0.66,3*09
$GNGSA,A,3,09,06,23,16,07,40,43,39,28,10,25,37,0.86,0.55,0.66,4*05
$GNGSA,A,3,34,,,,,,,,,,,,0.86,0.55,0.66,4*0D
$GPGSV,4,1,15,194,64,051,29,08,64,351,38,195,64,115,43,50,60,167,37,1*68
$GPGSV,4,2,15,199,60,167,35,21,57,158,41,02,46,177,24,07,39,317,42,1*56
$GPGSV,4,3,15,27,35,035,21,16,28,073,37,09,25,249,18,04,19,204,19,1*66
$GPGSV,4,4,15,196,19,170,16,30,09,320,22,26,09,097,20,1*6D
$GPGSV,2,1,08,194,64,051,40,195,64,115,46,08,64,351,30,199,60,167,41,8*5C
$GPGSV,2,2,08,27,35,035,21,09,25,249,26,04,19,204,13,30,09,320,30,8*66
$GLGSV,2,1,07,81,62,198,45,88,58,034,33,78,55,033,34,77,25,108,38,1*77
$GLGSV,2,2,07,79,24,332,34,87,05,026,19,69,04,283,,1*46
$GAGSV,2,1,07,13,54,084,37,21,54,009,27,26,42,172,19,27,29,077,36,7*77
$GAGSV,2,2,07,15,15,040,20,04,12,301,,33,02,199,,7*44
$GAGSV,2,1,05,13,54,084,32,21,54,009,26,26,42,172,29,27,29,077,40,1*75
$GAGSV,2,2,05,15,15,040,29,1*4F
$GBGSV,4,1,14,09,74,270,35,06,73,215,38,23,72,025,45,16,69,198,38,1*71
$GBGSV,4,2,14,07,61,306,39,40,61,327,43,43,61,038,33,39,59,186,40,1*7E
$GBGSV,4,3,14,28,54,219,35,10,51,288,37,25,39,115,46,37,28,321,44,1*74
$GBGSV,4,4,14,34,13,040,18,27,08,219,,1*7C
$GBGSV,2,1,08,23,72,025,43,40,61,327,40,43,61,038,34,39,59,186,39,4*72
$GBGSV,2,2,08,28,54,219,41,25,39,115,45,37,28,321,41,34,13,040,29,4*77
$GNACCURACY,3.7*12
$PAIRSAT,1,34,2,0,201,3,0,200,4,0,221,5,0,200,6,0,200,7,0,201,8,0,221,9,0,200,10,0,200,11,0,200,12,0,200,13,0,200,14,0,200,15,0,200,16,0,201,17,0,200,18,0,200,20,0,200,21,0,201,22,0,200,23,0,200,24,0,200,25,0,200,26,0,220,27,0,221,28,0,200,29,0,200,30,0,220,31,0,200,32,0,200,194,0,621,195,0,621,196,0,620,199,0,621*7E
$PAIRSAT,2,24,65,0,200,66,0,200,67,0,200,68,0,200,69,0,200,70,0,200,71,0,200,72,0,200,73,0,200,74,0,200,75,0,200,76,0,200,77,0,1,78,0,201,79,0,201,80,0,200,81,0,201,82,0,200,83,0,200,84,0,200,85,0,200,86,0,200,87,0,201,88,0,201*78
$PAIRSAT,3,23,2,0,1200,3,0,1200,4,0,1200,5,0,200,7,0,1200,8,0,1200,9,0,1200,10,0,1200,11,0,200,12,0,200,13,0,221,15,0,220,19,0,200,21,0,221,24,0,200,25,0,1200,26,0,1221,27,0,1221,30,0,1200,31,0,1200,33,0,1200,34,0,1000,36,0,1200*5B
$PAIRSAT,4,46,1,0,200,2,0,200,3,0,600,4,0,200,5,0,200,6,0,201,7,0,201,8,0,200,9,0,201,10,0,201,11,0,200,12,0,200,13,0,200,14,0,200,16,0,201,19,0,600,20,0,600,21,0,600,22,0,600,23,0,621,24,0,600,25,0,621,26,0,600,27,0,600,28,0,621,29,0,600,30,0,600,32,0,400,33,0,400,34,0,421,35,0,400,36,0,400,37,0,421,38,0,400,39,0,421,40,0,421,41,0,400,42,0,400,43,0,421,44,0,400,45,0,400,46,0,400,59,0,400,60,0,400,61,0,400,62,0,400*4A
$PAIRDGP,10,2,4,7,8,9,16,21,26,27,30*42
$GNGGA,040407.200,2500.7794876,N,12132.4539913,E,4,52,0.55,16.720,M,15.25,M,1,3335*43
$GNRMC,040407.200,A,2500.7794876,N,12132.4539913,E,0.04,145.54,090324,,,R,V*15
$GPHDT,,T*1B
$GNACCURACY,3.7*12
$GNGGA,040407.300,2500.7794860,N,12132.4539900,E,4,52,0.55,16.713,M,15.25,M,1,3335*47
$GNRMC,040407.300,A,2500.7794860,N,12132.4539900,E,0.04,145.54,090324,,,R,V*11
$GPHDT,,T*1B
$GNACCURACY,3.7*12
$GNGGA,040407.400,2500.7794878,N,12132.4539920,E,4,52,0.55,16.721,M,15.25,M,1,3335*4A
$GNRMC,040407.400,A,2500.7794878,N,12132.4539920,E,0.03,145.54,090324,,,R,V*1A
$GPHDT,,T*1B
$GNACCURACY,3.7*12
$GNGGA,040407.500,2500.7794913,N,12132.4539953,E,4,52,0.55,16.728,M,15.25,M,1,3335*4A
$GNRMC,040407.500,A,2500.7794913,N,12132.4539953,E,0.03,145.54,090324,,,R,V*13
$GPHDT,,T*1B
$GNACCURACY,3.8*1D
$GNGGA,040407.600,2500.7794892,N,12132.4539895,E,4,52,0.55,16.722,M,15.25,M,0,3335*41
$GNRMC,040407.600,A,2500.7794892,N,12132.4539895,E,0.03,145.54,090324,,,R,V*13
$GPHDT,,T*1B
$GNACCURACY,3.8*1D
$GNGGA,040407.700,2500.7794866,N,12132.4539897,E,4,52,0.55,16.720,M,15.25,M,0,3335*4B
$GNRMC,040407.700,A,2500.7794866,N,12132.4539897,E,0.03,145.54,090324,,,R,V*1B
$GPHDT,,T*1B
$GNACCURACY,3.8*1D
$GNGGA,040407.800,2500.7794878,N,12132.4539911,E,4,52,0.55,16.729,M,15.25,M,0,3335*4D
$GNRMC,040407.800,A,2500.7794878,N,12132.4539911,E,0.03,145.54,090324,,,R,V*14
$GPHDT,,T*1B
$GNACCURACY,3.8*1D
$GNGGA,040407.900,2500.7794886,N,12132.4539897,E,4,52,0.55,16.719,M,15.25,M,0,3335*41
$GNRMC,040407.900,A,2500.7794886,N,12132.4539897,E,0.03,145.54,090324,,,R,V*1B
$GPHDT,,T*1B
$GNACCURACY,3.8*1D
$GNGGA,040408.000,2500.7794879,N,12132.4539885,E,4,52,0.55,16.730,M,15.25,M,1,3335*4E
$GNRMC,040408.000,A,2500.7794879,N,12132.4539885,E,0.02,145.54,090324,,,R,V*1F
$GPHDT,,T*1B
$GNACCURACY,3.8*1D
$GNGGA,040408.100,2500.7794914,N,12132.4539922,E,4,51,0.55,16.725,M,15.25,M,1,3335*4E
$GNRMC,040408.100,A,2500.7794914,N,12132.4539922,E,0.02,145.54,090324,,,R,V*18
$GPHDT,,T*1B
$GNGSA,A,3,194,08,195,199,21,02,07,27,16,04,,,0.86,0.55,0.66,1*37
$GNGSA,A,3,81,88,78,77,79,,,,,,,,0.86,0.55,0.66,2*04
$GNGSA,A,3,13,21,26,27,15,,,,,,,,0.86,0.55,0.66,3*09
$GNGSA,A,3,09,06,23,16,07,40,43,39,28,10,25,37,0.86,0.55,0.66,4*05
$GNGSA,A,3,34,,,,,,,,,,,,0.86,0.55,0.66,4*0D
$GPGSV,4,1,15,194,64,051,30,08,64,351,36,195,64,115,43,50,60,167,37,1*6E
$GPGSV,4,2,15,199,60,167,35,21,57,158,41,02,46,177,24,07,39,317,42,1*56
$GPGSV,4,3,15,27,35,035,22,16,28,073,37,09,25,249,17,04,19,204,19,1*6A
$GPGSV,4,4,15,196,19,170,14,30,09,320,22,26,09,097,20,1*6F
$GPGSV,2,1,08,194,64,051,40,195,64,115,46,08,64,351,29,199,60,167,40,8*55
$GPGSV,2,2,08,27,35,035,20,09,25,249,25,04,19,204,14,30,09,320,31,8*62
$GLGSV,2,1,07,81,62,198,45,88,58,034,34,78,55,033,34,77,25,108,37,1*7F
$GLGSV,2,2,07,79,24,332,34,87,05,026,19,69,04,283,,1*46
$GAGSV,2,1,07,13,54,084,37,21,54,009,26,26,42,172,18,27,29,077,36,7*77
$GAGSV,2,2,07,15,15,040,19,04,12,301,,33,02,199,,7*4E
$GAGSV,2,1,05,13,54,084,32,21,54,009,26,26,42,172,29,27,29,077,40,1*75
$GAGSV,2,2,05,15,15,040,29,1*4F
$GBGSV,4,1,14,09,74,270,34,06,73,215,38,23,72,025,45,16,69,198,39,1*71
$GBGSV,4,2,14,07,61,306,39,40,61,327,42,43,61,038,33,39,59,186,40,1*7F
$GBGSV,4,3,14,28,54,219,33,10,51,288,37,25,39,115,46,37,28,321,43,1*75
$GBGSV,4,4,14,34,13,040,18,27,08,219,,1*7C
$GBGSV,2,1,08,23,72,025,43,40,61,327,40,43,61,038,32,39,59,186,39,4*74
$GBGSV,2,2,08,28,54,219,41,25,39,115,45,37,28,321,40,34,13,040,29,4*76
$GNACCURACY,3.8*1D
$PAIRSAT,1,34,2,0,201,3,0,200,4,0,221,5,0,200,6,0,200,7,0,201,8,0,221,9,0,200,10,0,200,11,0,200,12,0,200,13,0,200,14,0,200,15,0,200,16,0,201,17,0,200,18,0,200,20,0,200,21,0,201,22,0,200,23,0,200,24,0,200,25,0,200,26,0,220,27,0,221,28,0,200,29,0,200,30,0,220,31,0,200,32,0,200,194,0,621,195,0,621,196,0,620,199,0,621*7E
$PAIRSAT,2,24,65,0,200,66,0,200,67,0,200,68,0,200,69,0,200,70,0,200,71,0,200,72,0,200,73,0,200,74,0,200,75,0,200,76,0,200,77,0,1,78,0,201,79,0,201,80,0,200,81,0,201,82,0,200,83,0,200,84,0,200,85,0,200,86,0,200,87,0,201,88,0,201*78
$PAIRSAT,3,23,2,0,1200,3,0,1200,4,0,1200,5,0,200,7,0,1200,8,0,1200,9,0,1200,10,0,1200,11,0,200,12,0,200,13,0,221,15,0,220,19,0,200,21,0,221,24,0,200,25,0,1200,26,0,1221,27,0,1221,30,0,1200,31,0,1200,33,0,1200,34,0,1000,36,0,1200*5B
$PAIRSAT,4,46,1,0,200,2,0,200,3,0,600,4,0,200,5,0,200,6,0,201,7,0,201,8,0,200,9,0,201,10,0,201,11,0,200,12,0,200,13,0,200,14,0,200,16,0,201,19,0,600,20,0,600,21,0,600,22,0,600,23,0,621,24,0,600,25,0,621,26,0,600,27,0,600,28,0,621,29,0,600,30,0,600,32,0,400,33,0,400,34,0,421,35,0,400,36,0,400,37,0,421,38,0,400,39,0,421,40,0,421,41,0,400,42,0,400,43,0,421,44,0,400,45,0,400,46,0,400,59,0,400,60,0,400,61,0,400,62,0,400*4A
$PAIRDGP,10,2,4,7,8,9,16,21,26,27,30*42
$GNGGA,040408.200,2500.7794897,N,12132.4539926,E,4,51,0.55,16.721,M,15.25,M,1,3335*47
$GNRMC,040408.200,A,2500.7794897,N,12132.4539926,E,0.03,145.54,090324,,,R,V*14
$GPHDT,,T*1B
$GNACCURACY,3.8*1D
$GNGGA,040408.300,2500.7794905,N,12132.4539933,E,4,51,0.55,16.726,M,15.25,M,1,3335*4F
$GNRMC,040408.300,A,2500.7794905,N,12132.4539933,E,0.02,145.54,090324,,,R,V*1A
$GPHDT,,T*1B
$GNACCURACY,3.8*1D
$GNGGA,040408.400,2500.7794890,N,12132.4539924,E,4,51,0.55,16.719,M,15.25,M,1,3335*4F
$GNRMC,040408.400,A,2500.7794890,N,12132.4539924,E,0.02,145.54,090324,,,R,V*16
$GPHDT,,T*1B
$GNACCURACY,3.8*1D
$GNGGA,040408.500,2500.7794916,N,12132.4539947,E,4,51,0.55,16.729,M,15.25,M,1,3335*47
$GNRMC,040408.500,A,2500.7794916,N,12132.4539947,E,0.02,145.54,090324,,,R,V*1D
$GPHDT,,T*1B
$GNACCURACY,3.8*1D
$GNGGA,040408.600,2500.7794903,N,12132.4539932,E,4,51,0.55,16.725,M,15.25,M,0,3335*4F
$GNRMC,040408.600,A,2500.7794903,N,12132.4539932,E,0.03,145.54,090324,,,R,V*19
$GPHDT,,T*1B
$GNACCURACY,3.8*1D
$GNGGA,040408.700,2500.7794906,N,12132.4539933,E,4,50,0.57,16.719,M,15.25,M,0,3335*46
$GNRMC,040408.700,A,2500.7794906,N,12132.4539933,E,0.02,145.54,090324,,,R,V*1D
$GPHDT,,T*1B
$GNACCURACY,3.8*1D
$GNGGA,040408.800,2500.7794892,N,12132.4539924,E,4,50,0.57,16.714,M,15.25,M,0,3335*4E
$GNRMC,040408.800,A,2500.7794892,N,12132.4539924,E,0.04,145.54,090324,,,R,V*1E
$GPHDT,,T*1B
$GNACCURACY,3.8*1D
$GNGGA,040408.900,2500.7794910,N,12132.4539942,E,4,50,0.57,16.719,M,15.25,M,0,3335*49
$GNRMC,040408.900,A,2500.7794910,N,12132.4539942,E,0.03,145.54,090324,,,R,V*13
$GPHDT,,T*1B
$GNACCURACY,3.8*1D
$GNGGA,040409.000,2500.7794891,N,12132.4539950,E,4,51,0.55,16.713,M,15.25,M,1,3335*42
$GNRMC,040409.000,A,2500.7794891,N,12132.4539950,E,0.03,145.54,090324,,,R,V*10
$GPHDT,,T*1B
$GNACCURACY,3.8*1D
$GNGGA,040409.100,2500.7794893,N,12132.4539937,E,4,51,0.55,16.722,M,15.25,M,1,3335*42
$GNRMC,040409.100,A,2500.7794893,N,12132.4539937,E,0.03,145.54,090324,,,R,V*12
$GPHDT,,T*1B
$GNGSA,A,3,194,08,195,199,21,02,07,27,16,04,,,0.86,0.55,0.66,1*37
$GNGSA,A,3,81,88,78,77,79,,,,,,,,0.86,0.55,0.66,2*04
$GNGSA,A,3,21,13,26,27,15,,,,,,,,0.86,0.55,0.66,3*09
$GNGSA,A,3,09,06,23,16,07,40,43,39,28,10,25,37,0.86,0.55,0.66,4*05
$GNGSA,A,3,34,,,,,,,,,,,,0.86,0.55,0.66,4*0D
$GPGSV,4,1,15,194,64,051,31,08,64,351,36,195,64,115,43,50,60,167,37,1*6F
$GPGSV,4,2,15,199,60,167,35,21,57,158,41,02,46,177,24,07,39,317,42,1*56
$GPGSV,4,3,15,27,35,035,23,16,28,073,36,09,25,249,15,04,19,204,20,1*62
$GPGSV,4,4,15,196,19,170,13,30,09,320,21,26,09,097,21,1*6A
$GPGSV,3,1,09,194,64,051,39,195,64,115,46,08,64,351,28,199,60,167,40,8*5A
$GPGSV,3,2,09,27,35,035,19,09,25,249,25,04,19,204,14,30,09,320,30,8*69
$GPGSV,3,3,09,26,09,097,17,8*51
$GLGSV,2,1,06,81,62,198,45,88,58,034,35,78,55,033,34,77,25,108,37,1*7F
$GLGSV,2,2,06,79,24,332,35,87,05,026,19,1*74
$GAGSV,2,1,07,21,54,009,28,13,54,084,37,26,42,172,20,27,29,077,36,7*72
$GAGSV,2,2,07,15,15,040,19,04,12,301,,33,02,199,,7*4E
$GAGSV,2,1,05,13,54,084,31,21,54,009,27,26,42,172,29,27,29,077,39,1*79
$GAGSV,2,2,05,15,15,040,29,1*4F
$GBGSV,4,1,13,09,74,270,36,06,73,215,37,23,72,025,45,16,69,198,39,1*7B
$GBGSV,4,2,13,07,61,306,39,40,61,327,42,43,60,038,33,39,59,186,40,1*79
$GBGSV,4,3,13,28,54,219,33,10,51,288,37,25,39,115,46,37,28,321,43,1*72
$GBGSV,4,4,13,34,13,040,17,1*43
$GBGSV,2,1,08,23,72,025,42,40,61,327,39,43,60,038,31,39,59,186,39,4*79
$GBGSV,2,2,08,28,54,219,41,25,39,115,45,37,28,321,40,34,13,040,28,4*77
$GNACCURACY,3.8*1D
$PAIRSAT,1,34,2,0,201,3,0,200,4,0,221,5,0,200,6,0,200,7,0,201,8,0,221,9,0,200,10,0,200,11,0,200,12,0,200,13,0,200,14,0,200,15,0,200,16,0,201,17,0,200,18,0,200,20,0,200,21,0,201,22,0,200,23,0,200,24,0,200,25,0,200,26,0,220,27,0,221,28,0,200,29,0,200,30,0,220,31,0,200,32,0,200,194,0,621,195,0,621,196,0,620,199,0,621*7E
$PAIRSAT,2,24,65,0,200,66,0,200,67,0,200,68,0,200,69,0,200,70,0,200,71,0,200,72,0,200,73,0,200,74,0,200,75,0,200,76,0,200,77,0,1,78,0,201,79,0,201,80,0,200,81,0,201,82,0,200,83,0,200,84,0,200,85,0,200,86,0,200,87,0,201,88,0,201*78
$PAIRSAT,3,23,2,0,1200,3,0,1200,4,0,1200,5,0,200,7,0,1200,8,0,1200,9,0,1200,10,0,1200,11,0,200,12,0,200,13,0,221,15,0,220,19,0,200,21,0,221,24,0,200,25,0,1200,26,0,1221,27,0,1221,30,0,1200,31,0,1200,33,0,1200,34,0,1000,36,0,1200*5B
$PAIRSAT,4,46,1,0,200,2,0,200,3,0,600,4,0,200,5,0,200,6,0,201,7,0,201,8,0,200,9,0,201,10,0,201,11,0,200,12,0,200,13,0,200,14,0,200,16,0,201,19,0,600,20,0,600,21,0,600,22,0,600,23,0,621,24,0,600,25,0,621,26,0,600,27,0,600,28,0,621,29,0,600,30,0,600,32,0,400,33,0,400,34,0,421,35,0,400,36,0,400,37,0,421,38,0,400,39,0,421,40,0,421,41,0,400,42,0,400,43,0,421,44,0,400,45,0,400,46,0,400,59,0,400,60,0,400,61,0,400,62,0,400*4A
$PAIRDGP,10,2,4,7,8,9,16,21,26,27,30*42
$GNGGA,040409.200,2500.7794896,N,12132.4539946,E,4,51,0.55,16.717,M,15.25,M,1,3335*44
$GNRMC,040409.200,A,2500.7794896,N,12132.4539946,E,0.03,145.54,090324,,,R,V*12
$GPHDT,,T*1B
$GNACCURACY,3.8*1D
$GNGGA,040409.300,2500.7794880,N,12132.4539927,E,4,50,0.55,16.713,M,15.25,M,1,3335*40
$GNRMC,040409.300,A,2500.7794880,N,12132.4539927,E,0.03,145.54,090324,,,R,V*13
$GPHDT,,T*1B
$GNACCURACY,3.8*1D
$GNGGA,040409.400,2500.7794913,N,12132.4539960,E,4,50,0.55,16.718,M,15.25,M,1,3335*44
$GNRMC,040409.400,A,2500.7794913,N,12132.4539960,E,0.03,145.54,090324,,,R,V*1C
$GPHDT,,T*1B
$GNACCURACY,3.8*1D
$GNGGA,040409.500,2500.7794882,N,12132.4539922,E,4,50,0.55,16.716,M,15.25,M,1,3335*44
$GNRMC,040409.500,A,2500.7794882,N,12132.4539922,E,0.04,145.54,090324,,,R,V*15
$GPHDT,,T*1B
$GNACCURACY,3.8*1D
$GNGGA,040409.600,2500.7794861,N,12132.4539883,E,4,50,0.55,16.712,M,15.25,M,0,3335*45
$GNRMC,040409.600,A,2500.7794861,N,12132.4539883,E,0.04,145.54,090324,,,R,V*11
$GPHDT,,T*1B
$GNACCURACY,3.8*1D
$GNGGA,040409.700,2500.7794911,N,12132.4539960,E,4,50,0.55,16.706,M,15.25,M,0,3335*4B
$GNRMC,040409.700,A,2500.7794911,N,12132.4539960,E,0.04,145.54,090324,,,R,V*1A
$GPHDT,,T*1B
$GNACCURACY,3.8*1D
$GNGGA,040409.800,2500.7794909,N,12132.4539957,E,4,50,0.55,16.722,M,15.25,M,0,3335*4F
$GNRMC,040409.800,A,2500.7794909,N,12132.4539957,E,0.04,145.54,090324,,,R,V*18
$GPHDT,,T*1B
$GNACCURACY,3.8*1D
$GNGGA,040409.900,2500.7794927,N,12132.4539942,E,4,50,0.55,16.709,M,15.25,M,0,3335*4F
$GNRMC,040409.900,A,2500.7794927,N,12132.4539942,E,0.04,145.54,090324,,,R,V*11
$GPHDT,,T*1B
$GNACCURACY,3.8*1D
$GNGGA,040410.000,2500.7794894,N,12132.4539938,E,4,50,0.54,16.718,M,15.25,M,1,3335*4A
$GNRMC,040410.000,A,2500.7794894,N,12132.4539938,E,0.04,145.54,090324,,,R,V*14
$GPHDT,,T*1B
$GNACCURACY,3.8*1D
$GNGGA,040410.100,2500.7794897,N,12132.4539923,E,4,51,0.54,16.705,M,15.25,M,1,3335*4F
$GNRMC,040410.100,A,2500.7794897,N,12132.4539923,E,0.03,145.54,090324,,,R,V*1B
$GPHDT,,T*1B
$GNGSA,A,3,194,08,195,199,21,02,07,16,04,196,,,0.83,0.55,0.63,1*0C
$GNGSA,A,3,81,88,78,77,79,,,,,,,,0.83,0.55,0.63,2*04
$GNGSA,A,3,21,13,26,27,15,,,,,,,,0.83,0.55,0.63,3*09
$GNGSA,A,3,09,06,23,16,07,40,43,39,28,10,25,37,0.83,0.55,0.63,4*05
$GNGSA,A,3,34,,,,,,,,,,,,0.83,0.55,0.63,4*0D
$GPGSV,4,1,15,194,64,051,31,08,64,351,37,195,64,115,43,50,60,167,37,1*6E
$GPGSV,4,2,15,199,60,167,35,21,57,158,41,02,46,177,28,07,39,317,42,1*5A
$GPGSV,4,3,15,27,35,035,17,16,28,073,36,09,25,249,16,04,19,204,19,1*6C
$GPGSV,4,4,15,196,19,170,12,30,09,320,21,26,09,097,22,1*68
$GPGSV,3,1,09,194,64,051,39,195,64,115,46,08,64,351,27,199,60,167,40,8*55
$GPGSV,3,2,09,09,25,249,24,04,19,204,13,196,19,170,20,30,09,320,31,8*51
$GPGSV,3,3,09,26,09,097,17,8*51
$GLGSV,2,1,06,81,62,198,45,88,58,034,33,78,55,033,33,77,25,108,37,1*7E
$GLGSV,2,2,06,79,24,332,36,87,05,026,21,1*7C
$GAGSV,2,1,07,21,54,009,28,13,54,084,37,26,42,172,20,27,29,077,36,7*72
$GAGSV,2,2,07,15,15,040,20,04,12,301,,33,02,199,,7*44
$GAGSV,2,1,05,13,54,084,31,21,54,009,27,26,42,172,29,27,29,077,39,1*79
$GAGSV,2,2,05,15,15,040,29,1*4F
$GBGSV,4,1,13,09,74,270,36,06,73,215,37,23,72,025,45,16,69,198,39,1*7B
$GBGSV,4,2,13,07,61,306,38,40,61,327,42,43,60,038,33,39,59,186,40,1*78
$GBGSV,4,3,13,28,54,219,33,10,51,288,37,25,39,115,46,37,28,321,43,1*72
$GBGSV,4,4,13,34,13,040,14,1*40
$GBGSV,2,1,08,23,72,025,42,40,61,327,39,43,60,038,31,39,59,186,39,4*79
$GBGSV,2,2,08,28,54,219,41,25,39,115,45,37,28,321,40,34,13,040,28,4*77
$GNACCURACY,3.8*1D
$PAIRSAT,1,34,2,0,201,3,0,200,4,0,221,5,0,200,6,0,200,7,0,201,8,0,221,9,0,200,10,0,200,11,0,200,12,0,200,13,0,200,14,0,200,15,0,200,16,0,201,17,0,200,18,0,200,20,0,200,21,0,201,22,0,200,23,0,200,24,0,200,25,0,200,26,0,220,27,0,221,28,0,200,29,0,200,30,0,220,31,0,200,32,0,200,194,0,621,195,0,621,196,0,620,199,0,621*7E
$PAIRSAT,2,24,65,0,200,66,0,200,67,0,200,68,0,200,69,0,200,70,0,200,71,0,200,72,0,200,73,0,200,74,0,200,75,0,200,76,0,200,77,0,1,78,0,201,79,0,201,80,0,200,81,0,201,82,0,200,83,0,200,84,0,200,85,0,200,86,0,200,87,0,201,88,0,201*78
$PAIRSAT,3,23,2,0,1200,3,0,1200,4,0,1200,5,0,200,7,0,1200,8,0,1200,9,0,1200,10,0,1200,11,0,200,12,0,200,13,0,221,15,0,220,19,0,200,21,0,221,24,0,200,25,0,1200,26,0,1221,27,0,1221,30,0,1200,31,0,1200,33,0,1200,34,0,1000,36,0,1200*5B
$PAIRSAT,4,46,1,0,200,2,0,200,3,0,600,4,0,200,5,0,200,6,0,201,7,0,201,8,0,200,9,0,201,10,0,201,11,0,200,12,0,200,13,0,200,14,0,200,16,0,201,19,0,600,20,0,600,21,0,600,22,0,600,23,0,621,24,0,600,25,0,621,26,0,600,27,0,600,28,0,621,29,0,600,30,0,600,32,0,400,33,0,400,34,0,421,35,0,400,36,0,400,37,0,421,38,0,400,39,0,421,40,0,421,41,0,400,42,0,400,43,0,421,44,0,400,45,0,400,46,0,400,59,0,400,60,0,400,61,0,400,62,0,400*4A
$PAIRDGP,10,2,4,7,8,9,16,21,26,27,30*42
$GNGGA,040410.200,2500.7794879,N,12132.4539910,E,4,49,0.55,16.716,M,15.25,M,1,3335*46
$GNRMC,040410.200,A,2500.7794879,N,12132.4539910,E,0.03,145.54,090324,,,R,V*18
$GPHDT,,T*1B
$GNACCURACY,3.8*1D
$GNGGA,040410.300,2500.7794865,N,12132.4539906,E,4,49,0.55,16.714,M,15.25,M,1,3335*4F
$GNRMC,040410.300,A,2500.7794865,N,12132.4539906,E,0.03,145.54,090324,,,R,V*13
$GPHDT,,T*1B
$GNACCURACY,3.8*1D
$GNGGA,040410.400,2500.7794871,N,12132.4539928,E,4,49,0.55,16.715,M,15.25,M,1,3335*40
$GNRMC,040410.400,A,2500.7794871,N,12132.4539928,E,0.03,145.54,090324,,,R,V*1D
$GPHDT,,T*1B
$GNACCURACY,3.8*1D
$GNGGA,040410.500,2500.7794895,N,12132.4539927,E,4,49,0.55,16.716,M,15.25,M,0,3335*46
$GNRMC,040410.500,A,2500.7794895,N,12132.4539927,E,0.03,145.54,090324,,,R,V*19
$GPHDT,,T*1B
$GNACCURACY,3.8*1D
$GNGGA,040410.600,2500.7794913,N,12132.4539959,E,4,49,0.55,16.726,M,15.25,M,0,3335*40
$GNRMC,040410.600,A,2500.7794913,N,12132.4539959,E,0.03,145.54,090324,,,R,V*1C
$GPHDT,,T*1B
$GNACCURACY,3.8*1D
$GNGGA,040410.700,2500.7794874,N,12132.4539898,E,4,49,0.55,16.717,M,15.25,M,0,3335*4F
$GNRMC,040410.700,A,2500.7794874,N,12132.4539898,E,0.04,145.54,090324,,,R,V*16
$GPHDT,,T*1B
$GNACCURACY,3.8*1D
$GNGGA,040410.800,2500.7794892,N,12132.4539909,E,4,49,0.55,16.718,M,15.25,M,0,3335*4E
$GNRMC,040410.800,A,2500.7794892,N,12132.4539909,E,0.04,145.54,090324,,,R,V*18
$GPHDT,,T*1B
$GNACCURACY,3.8*1D
$GNGGA,040410.900,2500.7794906,N,12132.4539903,E,4,49,0.55,16.729,M,15.25,M,0,3335*4B
$GNRMC,040410.900,A,2500.7794906,N,12132.4539903,E,0.03,145.54,090324,,,R,V*18
$GPHDT,,T*1B
$GNACCURACY,3.8*1D
$GNGGA,040411.000,2500.7794881,N,12132.4539933,E,4,49,0.55,16.721,M,15.25,M,1,3335*47
$GNRMC,040411.000,A,2500.7794881,N,12132.4539933,E,0.03,145.54,090324,,,R,V*1D
$GPHDT,,T*1B
$GNACCURACY,3.8*1D
$GNGGA,040411.100,2500.7794920,N,12132.4539938,E,4,49,0.55,16.735,M,15.25,M,1,3335*42
$GNRMC,040411.100,A,2500.7794920,N,12132.4539938,E,0.03,145.54,090324,,,R,V*1D
$GPHDT,,T*1B
$GNGSA,A,3,194,08,195,199,21,02,07,16,04,196,,,0.83,0.55,0.63,1*0C
$GNGSA,A,3,81,88,78,77,79,,,,,,,,0.83,0.55,0.63,2*04
$GNGSA,A,3,21,13,26,27,15,,,,,,,,0.83,0.55,0.63,3*09
$GNGSA,A,3,09,06,23,16,07,40,43,39,28,10,25,37,0.83,0.55,0.63,4*05
$GNGSA,A,3,34,,,,,,,,,,,,0.83,0.55,0.63,4*0D
$GPGSV,4,1,15,194,64,051,31,08,64,351,37,195,64,115,43,50,60,167,38,1*61
$GPGSV,4,2,15,199,60,167,35,21,57,158,41,02,46,177,27,07,39,317,42,1*55
$GPGSV,4,3,15,27,35,035,17,16,28,073,36,09,25,249,16,04,19,204,19,1*6C
$GPGSV,4,4,15,196,19,170,12,30,09,320,21,26,09,097,23,1*69
$GPGSV,3,1,09,194,64,051,39,195,64,115,46,08,64,351,29,199,60,167,40,8*5B
$GPGSV,3,2,09,09,25,249,24,04,19,204,14,196,19,170,22,30,09,320,30,8*55
$GPGSV,3,3,09,26,09,097,17,8*51
$GLGSV,2,1,06,81,62,198,44,88,58,034,34,78,55,033,34,77,25,108,37,1*7F
$GLGSV,2,2,06,79,24,332,34,87,05,026,21,1*7E
$GAGSV,2,1,07,21,54,009,27,13,54,084,37,26,42,172,23,27,29,077,37,7*7F
$GAGSV,2,2,07,15,15,040,21,04,12,301,,33,02,199,,7*45
$GAGSV,2,1,05,13,54,084,32,21,54,009,27,26,42,172,29,27,29,077,40,1*74
$GAGSV,2,2,05,15,15,040,29,1*4F
$GBGSV,4,1,13,09,74,270,35,06,73,215,37,23,72,025,45,16,69,198,39,1*78
$GBGSV,4,2,13,07,61,306,38,40,61,327,42,43,60,038,33,39,59,186,40,1*78
$GBGSV,4,3,13,28,54,219,35,10,51,288,37,25,39,115,46,37,28,321,43,1*74
$GBGSV,4,4,13,34,13,040,14,1*40
$GBGSV,2,1,08,23,72,025,42,40,61,327,39,43,60,038,32,39,59,186,39,4*7A
$GBGSV,2,2,08,28,54,219,41,25,39,115,45,37,28,321,40,34,13,040,28,4*77
$GNACCURACY,3.8*1D
$PAIRSAT,1,34,2,0,201,3,0,200,4,0,221,5,0,200,6,0,200,7,0,201,8,0,221,9,0,200,10,0,200,11,0,200,12,0,200,13,0,200,14,0,200,15,0,200,16,0,201,17,0,200,18,0,200,20,0,200,21,0,201,22,0,200,23,0,200,24,0,200,25,0,200,26,0,220,27,0,221,28,0,200,29,0,200,30,0,220,31,0,200,32,0,200,194,0,621,195,0,621,196,0,620,199,0,621*7E
$PAIRSAT,2,24,65,0,200,66,0,200,67,0,200,68,0,200,69,0,200,70,0,200,71,0,200,72,0,200,73,0,200,74,0,200,75,0,200,76,0,200,77,0,1,78,0,201,79,0,201,80,0,200,81,0,201,82,0,200,83,0,200,84,0,200,85,0,200,86,0,200,87,0,201,88,0,201*78
$PAIRSAT,3,23,2,0,1200,3,0,1200,4,0,1200,5,0,200,7,0,1200,8,0,1200,9,0,1200,10,0,1200,11,0,200,12,0,200,13,0,221,15,0,220,19,0,200,21,0,221,24,0,200,25,0,1200,26,0,1221,27,0,1221,30,0,1200,31,0,1200,33,0,1200,34,0,1000,36,0,1200*5B
$PAIRSAT,4,46,1,0,200,2,0,200,3,0,600,4,0,200,5,0,200,6,0,201,7,0,201,8,0,200,9,0,201,10,0,201,11,0,200,12,0,200,13,0,200,14,0,200,16,0,201,19,0,600,20,0,600,21,0,600,22,0,600,23,0,621,24,0,600,25,0,621,26,0,600,27,0,600,28,0,621,29,0,600,30,0,600,32,0,400,33,0,400,34,0,421,35,0,400,36,0,400,37,0,421,38,0,400,39,0,421,40,0,421,41,0,400,42,0,400,43,0,421,44,0,400,45,0,400,46,0,400,59,0,400,60,0,400,61,0,400,62,0,400*4A
$PAIRDGP,10,2,4,7,8,9,16,21,26,27,30*42
$GNGGA,040411.200,2500.7794907,N,12132.4539927,E,4,50,0.55,16.726,M,15.25,M,1,3335*40
$GNRMC,040411.200,A,2500.7794907,N,12132.4539927,E,0.03,145.54,090324,,,R,V*15
$GPHDT,,T*1B
$GNACCURACY,3.8*1D
$GNGGA,040411.300,2500.7794911,N,12132.4539947,E,4,49,0.55,16.722,M,15.25,M,1,3335*4C
$GNRMC,040411.300,A,2500.7794911,N,12132.4539947,E,0.02,145.54,090324,,,R,V*14
$GPHDT,,T*1B
$GNACCURACY,3.8*1D
$GNGGA,040411.400,2500.7794880,N,12132.4539903,E,4,50,0.55,16.714,M,15.25,M,0,3335*4E
$GNRMC,040411.400,A,2500.7794880,N,12132.4539903,E,0.03,145.54,090324,,,R,V*1B
$GPHDT,,T*1B
$GNACCURACY,3.8*1D
$GNGGA,040411.500,2500.7794911,N,12132.4539945,E,4,50,0.55,16.721,M,15.25,M,0,3335*42
$GNRMC,040411.500,A,2500.7794911,N,12132.4539945,E,0.02,145.54,090324,,,R,V*10
$GPHDT,,T*1B
$GNACCURACY,3.8*1D
$GNGGA,040411.600,2500.7794894,N,12132.4539951,E,4,49,0.55,16.715,M,15.25,M,0,3335*47
$GNRMC,040411.600,A,2500.7794894,N,12132.4539951,E,0.03,145.54,090324,,,R,V*1B
$GPHDT,,T*1B
$GNACCURACY,3.8*1D
$GNGGA,040411.700,2500.7794904,N,12132.4539925,E,4,49,0.55,16.719,M,15.25,M,0,3335*41
$GNRMC,040411.700,A,2500.7794904,N,12132.4539925,E,0.03,145.54,090324,,,R,V*11
$GPHDT,,T*1B
$GNACCURACY,3.8*1D
$GNGGA,040411.800,2500.7794905,N,12132.4539923,E,4,49,0.55,16.723,M,15.25,M,0,3335*40
$GNRMC,040411.800,A,2500.7794905,N,12132.4539923,E,0.03,145.54,090324,,,R,V*19
$GPHDT,,T*1B
$GNACCURACY,3.8*1D
$GNGGA,040411.900,2500.7794879,N,12132.4539920,E,4,50,0.54,16.717,M,15.25,M,0,3335*46
$GNRMC,040411.900,A,2500.7794879,N,12132.4539920,E,0.03,145.54,090324,,,R,V*11
$GPHDT,,T*1B
$GNACCURACY,3.8*1D
$GNGGA,040412.000,2500.7794896,N,12132.4539935,E,4,50,0.54,16.720,M,15.25,M,1,3335*4C
$GNRMC,040412.000,A,2500.7794896,N,12132.4539935,E,0.03,145.54,090324,,,R,V*1E
$GPHDT,,T*1B
$GNACCURACY,3.8*1D
$GNGGA,040412.100,2500.7794895,N,12132.4539942,E,4,50,0.54,16.723,M,15.25,M,1,3335*4D
$GNRMC,040412.100,A,2500.7794895,N,12132.4539942,E,0.03,145.54,090324,,,R,V*1C
$GPHDT,,T*1B
$GNGSA,A,3,194,08,195,199,21,02,07,27,16,04,196,,0.83,0.54,0.63,1*08
$GNGSA,A,3,81,88,78,77,79,,,,,,,,0.83,0.54,0.63,2*05
$GNGSA,A,3,21,13,26,27,15,,,,,,,,0.83,0.54,0.63,3*08
$GNGSA,A,3,09,06,23,16,40,07,43,39,28,10,25,37,0.83,0.54,0.63,4*04
$GNGSA,A,3,34,,,,,,,,,,,,0.83,0.54,0.63,4*0C
$GPGSV,4,1,16,194,64,051,32,08,64,351,36,195,64,115,43,50,60,167,38,1*60
$GPGSV,4,2,16,199,60,167,35,21,57,158,41,02,46,177,26,07,39,317,42,1*57
$GPGSV,4,3,16,27,35,035,18,16,28,073,35,09,24,248,16,04,19,204,21,1*68
$GPGSV,4,4,16,196,19,170,13,30,09,320,21,26,09,097,24,31,02,143,,1*5A
$GPGSV,3,1,09,194,64,051,39,195,64,115,46,08,64,351,29,199,60,167,40,8*5B
$GPGSV,3,2,09,09,24,248,25,04,19,204,14,196,19,170,23,30,09,320,29,8*5D
$GPGSV,3,3,09,26,09,097,17,8*51
$GLGSV,2,1,06,81,62,198,44,88,58,034,34,78,55,033,33,77,25,108,36,1*79
$GLGSV,2,2,06,79,24,332,29,87,05,026,21,1*72
$GAGSV,2,1,07,21,54,009,28,13,54,084,37,26,42,172,23,27,29,077,37,7*70
$GAGSV,2,2,07,15,15,040,22,04,12,301,,33,02,199,,7*46
$GAGSV,2,1,05,13,54,084,33,21,54,009,26,26,42,172,29,27,29,077,40,1*74
$GAGSV,2,2,05,15,15,040,29,1*4F
$GBGSV,4,1,13,09,74,270,35,06,73,215,37,23,72,025,45,16,69,198,39,1*78
$GBGSV,4,2,13,40,61,327,42,07,61,306,38,43,60,038,33,39,59,186,40,1*78
$GBGSV,4,3,13,28,54,219,35,10,51,288,37,25,39,115,46,37,28,321,43,1*74
$GBGSV,4,4,13,34,13,040,14,1*40
$GBGSV,2,1,08,23,72,025,42,40,61,327,39,43,60,038,32,39,59,186,39,4*7A
$GBGSV,2,2,08,28,54,219,41,25,39,115,45,37,28,321,40,34,13,040,29,4*76
$GNACCURACY,3.8*1D
$PAIRSAT,1,35,2,0,201,3,0,200,4,0,221,5,0,200,6,0,200,7,0,201,8,0,221,9,0,200,10,0,200,11,0,200,12,0,200,13,0,200,14,0,200,15,0,200,16,0,201,17,0,200,18,0,200,19,0,200,20,0,200,21,0,201,22,0,200,23,0,200,24,0,200,25,0,200,26,0,220,27,0,221,28,0,200,29,0,200,30,0,220,31,0,200,32,0,200,194,0,621,195,0,621,196,0,620,199,0,621*59
$PAIRSAT,2,24,65,0,200,66,0,200,67,0,200,68,0,200,69,0,200,70,0,200,71,0,200,72,0,200,73,0,200,74,0,200,75,0,200,76,0,200,77,0,1,78,0,201,79,0,201,80,0,200,81,0,201,82,0,200,83,0,200,84,0,200,85,0,200,86,0,200,87,0,201,88,0,201*78
$PAIRSAT,3,23,2,0,1200,3,0,1200,4,0,1200,5,0,200,7,0,1200,8,0,1200,9,0,1200,10,0,1200,11,0,200,12,0,200,13,0,221,15,0,220,19,0,200,21,0,221,24,0,200,25,0,1200,26,0,1221,27,0,1221,30,0,1200,31,0,1200,33,0,1200,34,0,1000,36,0,1200*5B
$PAIRSAT,4,46,1,0,200,2,0,200,3,0,600,4,0,200,5,0,200,6,0,201,7,0,201,8,0,200,9,0,201,10,0,201,11,0,200,12,0,200,13,0,200,14,0,200,16,0,201,19,0,600,20,0,600,21,0,600,22,0,600,23,0,621,24,0,600,25,0,621,26,0,600,27,0,600,28,0,621,29,0,600,30,0,600,32,0,400,33,0,400,34,0,421,35,0,400,36,0,400,37,0,421,38,0,400,39,0,421,40,0,421,41,0,400,42,0,400,43,0,421,44,0,400,45,0,400,46,0,400,59,0,400,60,0,400,61,0,400,62,0,400*4A
$PAIRDGP,10,2,4,7,8,9,16,21,26,27,30*42
$GNGGA,040412.200,2500.7794903,N,12132.4539923,E,4,50,0.54,16.709,M,15.25,M,1,3335*4F
$GNRMC,040412.200,A,2500.7794903,N,12132.4539923,E,0.04,145.54,090324,,,R,V*11
$GPHDT,,T*1B
$GNACCURACY,3.8*1D
$GNGGA,040412.300,2500.7794883,N,12132.4539925,E,4,50,0.54,16.711,M,15.25,M,1,3335*48
$GNRMC,040412.300,A,2500.7794883,N,12132.4539925,E,0.04,145.54,090324,,,R,V*1F
$GPHDT,,T*1B
$GNACCURACY,3.8*1D
$GNGGA,040412.400,2500.7794907,N,12132.4539940,E,4,50,0.54,16.722,M,15.25,M,1,3335*41
$GNRMC,040412.400,A,2500.7794907,N,12132.4539940,E,0.04,145.54,090324,,,R,V*16
$GPHDT,,T*1B
$GNACCURACY,3.8*1D
$GNGGA,040412.500,2500.7794907,N,12132.4539958,E,4,50,0.54,16.723,M,15.25,M,1,3335*48
$GNRMC,040412.500,A,2500.7794907,N,12132.4539958,E,0.03,145.54,090324,,,R,V*19
$GPHDT,,T*1B
$GNACCURACY,3.8*1D
$GNGGA,040412.600,2500.7794915,N,12132.4539927,E,4,50,0.54,16.726,M,15.25,M,0,3335*44
$GNRMC,040412.600,A,2500.7794915,N,12132.4539927,E,0.03,145.54,090324,,,R,V*11
$GPHDT,,T*1B
$GNACCURACY,3.8*1D
$GNGGA,040412.700,2500.7794907,N,12132.4539927,E,4,50,0.54,16.733,M,15.25,M,0,3335*42
$GNRMC,040412.700,A,2500.7794907,N,12132.4539927,E,0.03,145.54,090324,,,R,V*13
$GPHDT,,T*1B
$GNACCURACY,3.6*13
$GNGGA,040412.800,2500.7794903,N,12132.4539944,E,4,51,0.51,16.733,M,15.25,M,0,3335*48
$GNRMC,040412.800,A,2500.7794903,N,12132.4539944,E,0.03,145.54,090324,,,R,V*1D
$GPHDT,,T*1B
$GNACCURACY,3.6*13
$GNGGA,040412.900,2500.7794905,N,12132.4539947,E,4,52,0.51,16.718,M,15.25,M,0,3335*46
$GNRMC,040412.900,A,2500.7794905,N,12132.4539947,E,0.04,145.54,090324,,,R,V*1E
$GPHDT,,T*1B
$GNACCURACY,3.6*13
$GNGGA,040413.000,2500.7794906,N,12132.4539925,E,4,51,0.51,16.724,M,15.25,M,1,3335*44
$GNRMC,040413.000,A,2500.7794906,N,12132.4539925,E,0.04,145.54,090324,,,R,V*11
$GPHDT,,T*1B
$GNACCURACY,3.6*13
$GNGGA,040413.100,2500.7794901,N,12132.4539927,E,4,52,0.51,16.734,M,15.25,M,1,3335*42
$GNRMC,040413.100,A,2500.7794901,N,12132.4539927,E,0.04,145.54,090324,,,R,V*15
$GPHDT,,T*1B
$GNGSA,A,3,194,08,195,199,21,02,07,27,16,04,09,196,0.80,0.51,0.61,1*05
$GNGSA,A,3,81,88,78,77,79,,,,,,,,0.80,0.51,0.61,2*01
$GNGSA,A,3,13,21,26,27,15,,,,,,,,0.80,0.51,0.61,3*0C
$GNGSA,A,3,09,06,23,16,07,40,43,39,28,10,25,37,0.80,0.51,0.61,4*00
$GNGSA,A,3,34,,,,,,,,,,,,0.80,0.51,0.61,4*08
$GPGSV,4,1,16,194,64,051,32,08,64,351,36,195,64,115,43,50,60,167,38,1*60
$GPGSV,4,2,16,199,60,167,35,21,58,158,41,02,46,177,28,07,39,317,42,1*56
$GPGSV,4,3,16,27,35,035,18,16,28,073,35,09,24,248,15,04,19,204,21,1*6B
$GPGSV,4,4,16,196,19,170,15,30,09,320,21,26,09,097,24,31,02,143,,1*5C
$GPGSV,3,1,10,194,64,051,39,08,64,351,29,195,64,115,46,199,60,167,40,8*53
$GPGSV,3,2,10,27,35,035,19,09,24,248,25,04,19,204,10,196,19,170,22,8*5D
$GPGSV,3,3,10,30,09,320,28,26,09,097,16,8*69
$GLGSV,2,1,06,81,62,198,44,88,58,034,33,78,55,033,32,77,25,108,36,1*7F
$GLGSV,2,2,06,79,24,332,27,87,05,026,20,1*7D
$GAGSV,2,1,06,13,54,084,37,21,54,009,27,26,42,172,23,27,29,077,37,7*7E
$GAGSV,2,2,06,15,15,040,21,33,02,199,,7*71
$GAGSV,2,1,05,21,54,009,26,13,54,084,33,26,42,172,28,27,29,077,40,1*75
$GAGSV,2,2,05,15,15,040,27,1*41
$GBGSV,4,1,13,09,74,270,34,06,73,215,37,23,72,025,45,16,69,198,39,1*79
$GBGSV,4,2,13,07,61,306,38,40,61,327,42,43,60,038,32,39,59,186,40,1*79
$GBGSV,4,3,13,28,54,219,35,10,51,288,37,25,39,115,46,37,28,321,43,1*74
$GBGSV,4,4,13,34,13,040,15,1*41
$GBGSV,2,1,08,23,72,025,42,40,61,327,39,43,60,038,32,39,59,186,39,4*7A
$GBGSV,2,2,08,28,54,219,41,25,39,115,45,37,28,321,40,34,13,040,28,4*77
$GNACCURACY,3.6*13
$PAIRSAT,1,35,2,0,201,3,0,200,4,0,221,5,0,200,6,0,200,7,0,201,8,0,221,9,0,220,10,0,200,11,0,200,12,0,200,13,0,200,14,0,200,15,0,200,16,0,201,17,0,200,18,0,200,19,0,200,20,0,200,21,0,201,22,0,200,23,0,200,24,0,200,25,0,200,26,0,220,27,0,221,28,0,200,29,0,200,30,0,220,31,0,200,32,0,200,194,0,621,195,0,621,196,0,620,199,0,621*5B
$PAIRSAT,2,24,65,0,200,66,0,200,67,0,200,68,0,200,69,0,200,70,0,200,71,0,200,72,0,200,73,0,200,74,0,200,75,0,200,76,0,200,77,0,1,78,0,201,79,0,201,80,0,200,81,0,201,82,0,200,83,0,200,84,0,200,85,0,200,86,0,200,87,0,201,88,0,201*78
$PAIRSAT,3,23,2,0,1200,3,0,1200,4,0,1200,5,0,200,7,0,1200,8,0,1200,9,0,1200,10,0,1200,11,0,200,12,0,200,13,0,221,15,0,220,19,0,200,21,0,221,24,0,200,25,0,1200,26,0,1221,27,0,1221,30,0,1200,31,0,1200,33,0,1200,34,0,1000,36,0,1200*5B
$PAIRSAT,4,46,1,0,200,2,0,200,3,0,600,4,0,200,5,0,200,6,0,201,7,0,201,8,0,200,9,0,201,10,0,201,11,0,200,12,0,200,13,0,200,14,0,200,16,0,201,19,0,600,20,0,600,21,0,600,22,0,600,23,0,621,24,0,600,25,0,621,26,0,600,27,0,600,28,0,621,29,0,600,30,0,600,32,0,400,33,0,400,34,0,421,35,0,400,36,0,400,37,0,421,38,0,400,39,0,421,40,0,421,41,0,400,42,0,400,43,0,421,44,0,400,45,0,400,46,0,400,59,0,400,60,0,400,61,0,400,62,0,400*4A
$PAIRDGP,10,2,4,7,8,9,16,21,26,27,30*42
$GNGGA,040413.200,2500.7794903,N,12132.4539925,E,4,52,0.51,16.722,M,15.25,M,1,3335*46
$GNRMC,040413.200,A,2500.7794903,N,12132.4539925,E,0.04,145.54,090324,,,R,V*16
$GPHDT,,T*1B
$GNACCURACY,3.6*13
$GNGGA,040413.300,2500.7794922,N,12132.4539942,E,4,52,0.51,16.727,M,15.25,M,1,3335*40
$GNRMC,040413.300,A,2500.7794922,N,12132.4539942,E,0.04,145.54,090324,,,R,V*15
$GPHDT,,T*1B
$GNACCURACY,3.6*13
$GNGGA,040413.400,2500.7794882,N,12132.4539902,E,4,52,0.51,16.723,M,15.25,M,1,3335*4C
$GNRMC,040413.400,A,2500.7794882,N,12132.4539902,E,0.04,145.54,090324,,,R,V*1D
$GPHDT,,T*1B
$GNACCURACY,3.6*13
$GNGGA,040413.500,2500.7794908,N,12132.4539945,E,4,52,0.51,16.730,M,15.25,M,1,3335*4F
$GNRMC,040413.500,A,2500.7794908,N,12132.4539945,E,0.04,145.54,090324,,,R,V*1C
$GPHDT,,T*1B
$GNACCURACY,3.6*13
$GNGGA,040413.600,2500.7794864,N,12132.4539883,E,4,52,0.51,16.726,M,15.25,M,0,3335*4A
$GNRMC,040413.600,A,2500.7794864,N,12132.4539883,E,0.04,145.54,090324,,,R,V*1F
$GPHDT,,T*1B
$GNACCURACY,3.6*13
$GNGGA,040413.700,2500.7794869,N,12132.4539889,E,4,52,0.51,16.736,M,15.25,M,0,3335*4D
$GNRMC,040413.700,A,2500.7794869,N,12132.4539889,E,0.05,145.54,090324,,,R,V*18
$GPHDT,,T*1B
$GNACCURACY,3.6*13
$GNGGA,040413.800,2500.7794883,N,12132.4539889,E,4,52,0.51,16.732,M,15.25,M,0,3335*42
$GNRMC,040413.800,A,2500.7794883,N,12132.4539889,E,0.05,145.54,090324,,,R,V*13
$GPHDT,,T*1B
$GNACCURACY,3.6*13
$GNGGA,040413.900,2500.7794873,N,12132.4539892,E,4,52,0.51,16.732,M,15.25,M,0,3335*46
$GNRMC,040413.900,A,2500.7794873,N,12132.4539892,E,0.06,145.54,090324,,,R,V*14
