$FW : RTK35X,V1.1X0314AS,Lib20210517,1*54
$Tool : LOCOSYS , GNSS Firebird , v1.0.0.19*39
$---------------------------------------------------*2D
$GNACCURACY,3.7*12
$GNGGA,040344.500,2500.7794859,N,12132.4539792,E,4,48,0.63,16.742,M,15.25,M,0,3335*45
$GNRMC,040344.500,A,2500.7794859,N,12132.4539792,E,0.02,145.54,090324,,,R,V*1E
$GPHDT,,T*1B
$GNACCURACY,3.7*12
$GNGGA,040344.600,2500.7794841,N,12132.4539777,E,4,48,0.63,16.739,M,15.25,M,0,3335*48
$GNRMC,040344.600,A,2500.7794841,N,12132.4539777,E,0.02,145.54,090324,,,R,V*1F
$GPHDT,,T*1B
$GNACCURACY,3.7*12
$GNGGA,040344.700,2500.7794829,N,12132.4539796,E,4,49,0.62,16.736,M,15.25,M,0,3335*47
$GNRMC,040344.700,A,2500.7794829,N,12132.4539796,E,0.02,145.54,090324,,,R,V*1F
$GPHDT,,T*1B
$GNACCURACY,3.7*12
$GNGGA,040344.800,2500.7794808,N,12132.4539773,E,4,50,0.56,16.741,M,15.25,M,0,3335*4F
$GNRMC,040344.800,A,2500.7794808,N,12132.4539773,E,0.02,145.54,090324,,,R,V*18
$GPHDT,,T*1B
$GNACCURACY,3.7*12
$GNGGA,040344.900,2500.7794787,N,12132.4539817,E,4,50,0.56,16.716,M,15.25,M,0,3335*49
$GNRMC,040344.900,A,2500.7794787,N,12132.4539817,E,0.02,145.54,090324,,,R,V*1C
$GPHDT,,T*1B
$GNACCURACY,3.7*12
$GNGGA,040345.000,2500.7794820,N,12132.4539836,E,4,50,0.56,16.738,M,15.25,M,1,3335*4D
$GNRMC,040345.000,A,2500.7794820,N,12132.4539836,E,0.02,145.54,090324,,,R,V*15
$GPHDT,,T*1B
$GNACCURACY,3.7*12
$GNGGA,040345.100,2500.7794817,N,12132.4539823,E,4,49,0.56,16.727,M,15.25,M,1,3335*4A
$GNRMC,040345.100,A,2500.7794817,N,12132.4539823,E,0.02,145.54,090324,,,R,V*14
$GPHDT,,T*1B
$GNGSA,A,3,194,08,195,199,21,02,07,27,16,04,,,1.03,0.56,0.87,1*37
$GNGSA,A,3,81,88,78,77,79,,,,,,,,1.03,0.56,0.87,2*04
$GNGSA,A,3,13,21,26,27,15,,,,,,,,1.03,0.56,0.87,3*09
$GNGSA,A,3,09,06,23,16,40,07,43,39,28,10,25,37,1.03,0.56,0.87,4*05
$GNGSA,A,3,34,,,,,,,,,,,,1.03,0.56,0.87,4*0D
$GPGSV,4,1,15,194,64,051,32,08,64,350,37,195,64,115,35,50,60,167,36,1*6C
$GPGSV,4,2,15,199,60,167,34,21,57,158,36,02,45,177,21,07,39,317,43,1*50
$GPGSV,4,3,15,27,35,035,31,16,28,073,38,09,25,249,17,04,19,204,18,1*66
$GPGSV,4,4,15,196,19,170,20,30,09,320,16,26,09,097,21,1*6E
$GPGSV,2,1,07,194,64,051,37,195,64,115,42,08,64,350,35,199,60,167,39,8*5C
$GPGSV,2,2,07,09,25,249,20,196,19,170,28,30,09,320,29,8*63
$GLGSV,2,1,06,81,62,198,44,88,58,034,34,78,55,032,34,77,25,107,22,1*75
$GLGSV,2,2,06,79,24,332,35,87,05,026,,1*7C
$GAGSV,2,1,07,13,54,084,36,21,54,008,26,26,41,172,23,27,29,077,37,7*7D
$GAGSV,2,2,07,19,29,243,,15,15,040,,04,12,301,,7*43
$GAGSV,2,1,05,13,54,084,31,21,54,008,20,26,41,172,24,27,29,077,36,1*7E
$GAGSV,2,2,05,15,15,040,29,1*4F
$GBGSV,4,1,13,09,74,270,37,06,73,215,38,23,72,024,46,16,69,198,39,1*77
$GBGSV,4,2,13,40,61,327,43,07,61,306,40,43,61,038,36,39,59,186,41,1*73
$GBGSV,4,3,13,28,54,219,33,10,51,288,35,25,39,115,43,37,28,321,47,1*71
$GBGSV,4,4,13,34,13,040,33,1*45
$GBGSV,2,1,08,23,72,024,44,40,61,327,44,43,61,038,35,39,59,186,36,4*7E
$GBGSV,2,2,08,28,54,219,38,25,39,115,36,37,28,321,39,34,13,040,27,4*7C
$GNACCURACY,3.7*12
$PAIRSAT,1,34,2,0,201,3,0,200,4,0,221,5,0,200,6,0,200,7,0,201,8,0,221,9,0,200,10,0,200,11,0,200,12,0,200,13,0,200,14,0,200,15,0,200,16,0,201,17,0,200,18,0,200,20,0,200,21,0,201,22,0,200,23,0,200,24,0,200,25,0,200,26,0,220,27,0,221,28,0,200,29,0,200,30,0,220,31,0,200,32,0,200,194,0,621,195,0,621,196,0,600,199,0,621*7C
$PAIRSAT,2,24,65,0,200,66,0,200,67,0,200,68,0,200,69,0,200,70,0,200,71,0,200,72,0,200,73,0,200,74,0,200,75,0,200,76,0,200,77,0,1,78,0,201,79,0,201,80,0,200,81,0,201,82,0,200,83,0,200,84,0,200,85,0,200,86,0,200,87,0,201,88,0,201*78
$PAIRSAT,3,23,2,0,1200,3,0,1200,4,0,1200,5,0,200,7,0,1200,8,0,1200,9,0,1200,10,0,200,11,0,200,12,0,200,13,0,221,15,0,220,19,0,200,21,0,221,24,0,200,25,0,1200,26,0,1221,27,0,1221,30,0,1200,31,0,1000,33,0,1200,34,0,1000,36,0,1200*68
$PAIRSAT,4,45,1,0,200,2,0,200,3,0,600,4,0,200,5,0,200,6,0,201,7,0,201,9,0,201,10,0,201,11,0,200,12,0,200,13,0,200,14,0,200,16,0,201,19,0,600,20,0,600,21,0,600,22,0,600,23,0,621,24,0,600,25,0,621,26,0,600,27,0,600,28,0,621,29,0,600,30,0,600,32,0,400,33,0,400,34,0,421,35,0,400,36,0,400,37,0,421,38,0,400,39,0,421,40,0,421,41,0,400,42,0,400,43,0,421,44,0,400,45,0,400,46,0,400,59,0,400,60,0,400,61,0,400,62,0,400*5F
$PAIRDGP,10,2,4,7,8,9,16,21,26,27,30*42
$GNGGA,040345.200,2500.7794848,N,12132.4539797,E,4,49,0.56,16.736,M,15.25,M,1,3335*43
$GNRMC,040345.200,A,2500.7794848,N,12132.4539797,E,0.02,145.54,090324,,,R,V*1D
$GPHDT,,T*1B
$GNACCURACY,3.7*12
$GNGGA,040345.300,2500.7794804,N,12132.4539822,E,4,49,0.56,16.724,M,15.25,M,1,3335*48
$GNRMC,040345.300,A,2500.7794804,N,12132.4539822,E,0.02,145.54,090324,,,R,V*15
$GPHDT,,T*1B
$GNACCURACY,3.7*12
$GNGGA,040345.400,2500.7794828,N,12132.4539838,E,4,50,0.56,16.730,M,15.25,M,1,3335*47
$GNRMC,040345.400,A,2500.7794828,N,12132.4539838,E,0.02,145.54,090324,,,R,V*17
$GPHDT,,T*1B
$GNACCURACY,3.8*1D
$GNGGA,040345.500,2500.7794844,N,12132.4539851,E,4,49,0.56,16.738,M,15.25,M,1,3335*43
$GNRMC,040345.500,A,2500.7794844,N,12132.4539851,E,0.02,145.54,090324,,,R,V*13
$GPHDT,,T*1B
$GNACCURACY,3.8*1D
$GNGGA,040345.600,2500.7794789,N,12132.4539798,E,4,50,0.56,16.722,M,15.25,M,0,3335*46
$GNRMC,040345.600,A,2500.7794789,N,12132.4539798,E,0.02,145.54,090324,,,R,V*14
$GPHDT,,T*1B
$GNACCURACY,3.8*1D
$GNGGA,040345.700,2500.7794808,N,12132.4539806,E,4,51,0.56,16.722,M,15.25,M,0,3335*48
$GNRMC,040345.700,A,2500.7794808,N,12132.4539806,E,0.02,145.54,090324,,,R,V*1B
$GPHDT,,T*1B
$GNACCURACY,3.8*1D
$GNGGA,040345.800,2500.7794827,N,12132.4539859,E,4,51,0.56,16.742,M,15.25,M,0,3335*46
$GNRMC,040345.800,A,2500.7794827,N,12132.4539859,E,0.02,145.54,090324,,,R,V*13
$GPHDT,,T*1B
$GNACCURACY,3.8*1D
$GNGGA,040345.900,2500.7794804,N,12132.4539845,E,4,51,0.56,16.721,M,15.25,M,0,3335*4E
$GNRMC,040345.900,A,2500.7794804,N,12132.4539845,E,0.02,145.54,090324,,,R,V*1E
$GPHDT,,T*1B
$GNACCURACY,3.8*1D
$GNGGA,040346.000,2500.7794845,N,12132.4539891,E,4,50,0.56,16.724,M,15.25,M,1,3335*4D
$GNRMC,040346.000,A,2500.7794845,N,12132.4539891,E,0.02,145.54,090324,,,R,V*18
$GPHDT,,T*1B
$GNACCURACY,3.8*1D
$GNGGA,040346.100,2500.7794829,N,12132.4539844,E,4,50,0.56,16.729,M,15.25,M,1,3335*43
$GNRMC,040346.100,A,2500.7794829,N,12132.4539844,E,0.02,145.54,090324,,,R,V*1B
$GPHDT,,T*1B
$GNGSA,A,3,194,08,195,199,21,02,07,27,16,04,,,1.03,0.56,0.87,1*37
$GNGSA,A,3,81,88,78,77,79,,,,,,,,1.03,0.56,0.87,2*04
$GNGSA,A,3,13,21,26,27,15,,,,,,,,1.03,0.56,0.87,3*09
$GNGSA,A,3,09,06,23,16,40,43,07,39,28,10,25,37,1.03,0.56,0.87,4*05
$GNGSA,A,3,34,,,,,,,,,,,,1.03,0.56,0.87,4*0D
$GPGSV,4,1,15,194,64,051,31,08,64,350,37,195,64,115,39,50,60,167,37,1*62
$GPGSV,4,2,15,199,60,167,35,21,57,158,38,02,45,177,18,07,39,317,43,1*55
$GPGSV,4,3,15,27,35,035,31,16,28,073,37,09,25,249,18,04,19,204,17,1*69
$GPGSV,4,4,15,196,19,170,22,30,09,320,14,26,09,097,21,1*6E
$GPGSV,2,1,07,194,64,051,37,195,64,115,43,08,64,350,36,199,60,167,41,8*51
$GPGSV,2,2,07,09,25,249,22,196,19,170,27,30,09,320,29,8*6E
$GLGSV,2,1,07,81,62,198,44,88,58,034,34,78,55,032,35,77,25,107,21,1*76
$GLGSV,2,2,07,79,24,332,34,69,05,284,,87,05,026,,1*48
$GAGSV,2,1,07,13,54,084,36,21,54,008,28,26,41,172,20,27,29,077,37,7*70
$GAGSV,2,2,07,19,29,243,,15,15,040,20,04,12,301,,7*41
$GAGSV,2,1,05,13,54,084,34,21,54,008,20,26,41,172,25,27,29,077,38,1*74
$GAGSV,2,2,05,15,15,040,29,1*4F
$GBGSV,4,1,14,09,74,270,37,06,73,215,36,23,72,024,46,16,69,198,39,1*7E
$GBGSV,4,2,14,40,61,327,43,43,61,038,36,07,61,306,40,39,59,186,40,1*75
$GBGSV,4,3,14,28,54,219,35,10,51,288,34,25,39,115,43,37,28,321,47,1*71
$GBGSV,4,4,14,34,13,040,34,27,08,219,,1*72
$GBGSV,2,1,08,23,72,024,43,40,61,327,44,43,61,038,35,39,59,186,38,4*77
$GBGSV,2,2,08,28,54,219,38,25,39,115,37,37,28,321,39,34,13,040,26,4*7C
$GNACCURACY,3.8*1D
$PAIRSAT,1,34,2,0,201,3,0,200,4,0,221,5,0,200,6,0,200,7,0,201,8,0,221,9,0,200,10,0,200,11,0,200,12,0,200,13,0,200,14,0,200,15,0,200,16,0,201,17,0,200,18,0,200,20,0,200,21,0,201,22,0,200,23,0,200,24,0,200,25,0,200,26,0,220,27,0,221,28,0,200,29,0,200,30,0,220,31,0,200,32,0,200,194,0,621,195,0,621,196,0,600,199,0,621*7C
$PAIRSAT,2,24,65,0,200,66,0,200,67,0,200,68,0,200,69,0,200,70,0,200,71,0,200,72,0,200,73,0,200,74,0,200,75,0,200,76,0,200,77,0,1,78,0,201,79,0,201,80,0,200,81,0,201,82,0,200,83,0,200,84,0,200,85,0,200,86,0,200,87,0,201,88,0,201*78
$PAIRSAT,3,23,2,0,1200,3,0,1200,4,0,1200,5,0,200,7,0,1200,8,0,1200,9,0,1200,10,0,200,11,0,200,12,0,200,13,0,221,15,0,220,19,0,200,21,0,221,24,0,200,25,0,1200,26,0,1221,27,0,1221,30,0,1200,31,0,1000,33,0,1200,34,0,1000,36,0,1200*68
$PAIRSAT,4,45,1,0,200,2,0,200,3,0,600,4,0,200,5,0,200,6,0,201,7,0,201,9,0,201,10,0,201,11,0,200,12,0,200,13,0,200,14,0,200,16,0,201,19,0,600,20,0,600,21,0,600,22,0,600,23,0,621,24,0,600,25,0,621,26,0,600,27,0,600,28,0,621,29,0,600,30,0,600,32,0,400,33,0,400,34,0,421,35,0,400,36,0,400,37,0,421,38,0,400,39,0,421,40,0,421,41,0,400,42,0,400,43,0,421,44,0,400,45,0,400,46,0,400,59,0,400,60,0,400,61,0,400,62,0,400*5F
$PAIRDGP,10,2,4,7,8,9,16,21,26,27,30*42
$GNGGA,040346.200,2500.7794832,N,12132.4539865,E,4,50,0.56,16.729,M,15.25,M,1,3335*49
$GNRMC,040346.200,A,2500.7794832,N,12132.4539865,E,0.02,145.54,090324,,,R,V*11
$GPHDT,,T*1B
$GNACCURACY,3.7*12
$GNGGA,040346.300,2500.7794814,N,12132.4539895,E,4,50,0.56,16.734,M,15.25,M,1,3335*4F
$GNRMC,040346.300,A,2500.7794814,N,12132.4539895,E,0.03,145.54,090324,,,R,V*1A
$GPHDT,,T*1B
$GNACCURACY,3.7*12
$GNGGA,040346.400,2500.7794816,N,12132.4539893,E,4,50,0.56,16.721,M,15.25,M,1,3335*48
$GNRMC,040346.400,A,2500.7794816,N,12132.4539893,E,0.02,145.54,090324,,,R,V*18
$GPHDT,,T*1B
$GNACCURACY,3.7*12
$GNGGA,040346.500,2500.7794826,N,12132.4539906,E,4,50,0.56,16.726,M,15.25,M,1,3335*40
$GNRMC,040346.500,A,2500.7794826,N,12132.4539906,E,0.03,145.54,090324,,,R,V*16
$GPHDT,,T*1B
$GNACCURACY,3.7*12
$GNGGA,040346.600,2500.7794785,N,12132.4539830,E,4,50,0.56,16.703,M,15.25,M,1,3335*46
$GNRMC,040346.600,A,2500.7794785,N,12132.4539830,E,0.03,145.54,090324,,,R,V*17
$GPHDT,,T*1B
$GNACCURACY,3.7*12
$GNGGA,040346.700,2500.7794795,N,12132.4539806,E,4,50,0.56,16.699,M,15.25,M,0,3335*40
$GNRMC,040346.700,A,2500.7794795,N,12132.4539806,E,0.03,145.54,090324,,,R,V*12
$GPHDT,,T*1B
$GNACCURACY,3.7*12
$GNGGA,040346.800,2500.7794784,N,12132.4539805,E,4,50,0.56,16.698,M,15.25,M,0,3335*4D
$GNRMC,040346.800,A,2500.7794784,N,12132.4539805,E,0.03,145.54,090324,,,R,V*1E
$GPHDT,,T*1B
$GNACCURACY,3.7*12
$GNGGA,040346.900,2500.7794802,N,12132.4539877,E,4,50,0.56,16.709,M,15.25,M,0,3335*41
$GNRMC,040346.900,A,2500.7794802,N,12132.4539877,E,0.03,145.54,090324,,,R,V*1B
$GPHDT,,T*1B
$GNACCURACY,3.7*12
$GNGGA,040347.000,2500.7794784,N,12132.4539857,E,4,50,0.56,16.725,M,15.25,M,1,3335*45
$GNRMC,040347.000,A,2500.7794784,N,12132.4539857,E,0.03,145.54,090324,,,R,V*10
$GPHDT,,T*1B
$GNACCURACY,3.7*12
$GNGGA,040347.100,2500.7794811,N,12132.4539848,E,4,50,0.56,16.723,M,15.25,M,1,3335*4F
$GNRMC,040347.100,A,2500.7794811,N,12132.4539848,E,0.03,145.54,090324,,,R,V*1C
$GPHDT,,T*1B
$GNGSA,A,3,194,08,195,199,21,02,07,27,16,04,,,1.03,0.56,0.87,1*37
$GNGSA,A,3,81,88,78,77,79,,,,,,,,1.03,0.56,0.87,2*04
$GNGSA,A,3,13,21,26,27,15,,,,,,,,1.03,0.56,0.87,3*09
$GNGSA,A,3,09,06,23,16,40,43,07,39,28,10,25,37,1.03,0.56,0.87,4*05
$GNGSA,A,3,34,,,,,,,,,,,,1.03,0.56,0.87,4*0D
$GPGSV,4,1,15,194,64,051,30,08,64,350,38,195,64,115,39,50,60,167,38,1*63
$GPGSV,4,2,15,199,60,167,35,21,57,158,38,02,45,177,15,07,39,317,43,1*58
$GPGSV,4,3,15,27,35,035,28,16,28,073,37,09,25,249,18,04,19,204,16,1*60
$GPGSV,4,4,15,196,19,170,23,30,09,320,14,26,09,097,21,1*6F
$GPGSV,2,1,07,194,64,051,38,195,64,115,43,08,64,350,36,199,60,167,41,8*5E
$GPGSV,2,2,07,09,25,249,26,196,19,170,28,30,09,320,30,8*6D
$GLGSV,2,1,07,81,62,198,45,88,58,034,34,78,55,032,36,77,25,107,19,1*7F
$GLGSV,2,2,07,79,24,332,33,69,05,283,,87,05,026,,1*48
$GAGSV,2,1,07,13,54,084,35,21,54,008,29,26,41,172,18,27,29,077,37,7*79
$GAGSV,2,2,07,19,29,243,,15,15,040,24,04,12,301,,7*45
$GAGSV,2,1,05,13,54,084,35,21,54,008,20,26,41,172,27,27,29,077,38,1*77
$GAGSV,2,2,05,15,15,040,28,1*4E
$GBGSV,4,1,14,09,74,270,38,06,73,215,36,23,72,024,46,16,69,198,39,1*71
$GBGSV,4,2,14,40,61,327,43,43,61,038,36,07,61,306,40,39,59,186,38,1*7A
$GBGSV,4,3,14,28,54,219,33,10,51,288,35,25,39,115,43,37,28,321,47,1*76
$GBGSV,4,4,14,34,13,040,33,27,08,219,,1*75
$GBGSV,2,1,08,23,72,024,42,40,61,327,44,43,61,038,34,39,59,186,38,4*77
$GBGSV,2,2,08,28,54,219,38,25,39,115,31,37,28,321,40,34,13,040,26,4*74
$GNACCURACY,3.7*12
$PAIRSAT,1,34,2,0,201,3,0,200,4,0,221,5,0,200,6,0,200,7,0,201,8,0,221,9,0,200,10,0,200,11,0,200,12,0,200,13,0,200,14,0,200,15,0,200,16,0,201,17,0,200,18,0,200,20,0,200,21,0,201,22,0,200,23,0,200,24,0,200,25,0,200,26,0,220,27,0,221,28,0,200,29,0,200,30,0,220,31,0,200,32,0,200,194,0,621,195,0,621,196,0,600,199,0,621*7C
$PAIRSAT,2,24,65,0,200,66,0,200,67,0,200,68,0,200,69,0,200,70,0,200,71,0,200,72,0,200,73,0,200,74,0,200,75,0,200,76,0,200,77,0,1,78,0,201,79,0,201,80,0,200,81,0,201,82,0,200,83,0,200,84,0,200,85,0,200,86,0,200,87,0,201,88,0,201*78
$PAIRSAT,3,23,2,0,1200,3,0,1200,4,0,1200,5,0,200,7,0,1200,8,0,1200,9,0,1200,10,0,200,11,0,200,12,0,200,13,0,221,15,0,220,19,0,200,21,0,221,24,0,200,25,0,1200,26,0,1221,27,0,1221,30,0,1200,31,0,1000,33,0,1200,34,0,1000,36,0,1200*68
$PAIRSAT,4,45,1,0,200,2,0,200,3,0,600,4,0,200,5,0,200,6,0,201,7,0,201,9,0,201,10,0,201,11,0,200,12,0,200,13,0,200,14,0,200,16,0,201,19,0,600,20,0,600,21,0,600,22,0,600,23,0,621,24,0,600,25,0,621,26,0,600,27,0,600,28,0,621,29,0,600,30,0,600,32,0,400,33,0,400,34,0,421,35,0,400,36,0,400,37,0,421,38,0,400,39,0,421,40,0,421,41,0,400,42,0,400,43,0,421,44,0,400,45,0,400,46,0,400,59,0,400,60,0,400,61,0,400,62,0,400*5F
$PAIRDGP,10,2,4,7,8,9,16,21,26,27,30*42
$GNGGA,040347.200,2500.7794806,N,12132.4539796,E,4,50,0.56,16.722,M,15.25,M,1,3335*47
$GNRMC,040347.200,A,2500.7794806,N,12132.4539796,E,0.03,145.54,090324,,,R,V*15
$GPHDT,,T*1B
$GNACCURACY,3.7*12
$GNGGA,040347.300,2500.7794801,N,12132.4539777,E,4,50,0.56,16.710,M,15.25,M,1,3335*4F
$GNRMC,040347.300,A,2500.7794801,N,12132.4539777,E,0.03,145.54,090324,,,R,V*1C
$GPHDT,,T*1B
$GNACCURACY,3.7*12
$GNGGA,040347.400,2500.7794833,N,12132.4539787,E,4,50,0.56,16.738,M,15.25,M,1,3335*4C
$GNRMC,040347.400,A,2500.7794833,N,12132.4539787,E,0.03,145.54,090324,,,R,V*15
$GPHDT,,T*1B
$GNACCURACY,3.7*12
$GNGGA,040347.500,2500.7794869,N,12132.4539809,E,4,50,0.56,16.748,M,15.25,M,0,3335*4D
$GNRMC,040347.500,A,2500.7794869,N,12132.4539809,E,0.03,145.54,090324,,,R,V*12
$GPHDT,,T*1B
$GNACCURACY,3.7*12
$GNGGA,040347.600,2500.7794896,N,12132.4539855,E,4,50,0.56,16.726,M,15.25,M,0,3335*4F
$GNRMC,040347.600,A,2500.7794896,N,12132.4539855,E,0.03,145.54,090324,,,R,V*18
$GPHDT,,T*1B
$GNACCURACY,3.7*12
$GNGGA,040347.700,2500.7794885,N,12132.4539861,E,4,50,0.56,16.731,M,15.25,M,0,3335*4D
$GNRMC,040347.700,A,2500.7794885,N,12132.4539861,E,0.03,145.54,090324,,,R,V*1C
$GPHDT,,T*1B
$GNACCURACY,3.7*12
$GNGGA,040347.800,2500.7794887,N,12132.4539858,E,4,50,0.56,16.718,M,15.25,M,0,3335*41
$GNRMC,040347.800,A,2500.7794887,N,12132.4539858,E,0.03,145.54,090324,,,R,V*1B
$GPHDT,,T*1B
$GNACCURACY,3.7*12
$GNGGA,040347.900,2500.7794893,N,12132.4539885,E,4,50,0.56,16.730,M,15.25,M,0,3335*4F
$GNRMC,040347.900,A,2500.7794893,N,12132.4539885,E,0.03,145.54,090324,,,R,V*1F
$GPHDT,,T*1B
$GNACCURACY,3.7*12
$GNGGA,040348.000,2500.7794897,N,12132.4539876,E,4,50,0.56,16.727,M,15.25,M,1,3335*46
$GNRMC,040348.000,A,2500.7794897,N,12132.4539876,E,0.03,145.54,090324,,,R,V*11
$GPHDT,,T*1B
$GNACCURACY,3.7*12
$GNGGA,040348.100,2500.7794865,N,12132.4539847,E,4,50,0.56,16.730,M,15.25,M,1,3335*4E
$GNRMC,040348.100,A,2500.7794865,N,12132.4539847,E,0.03,145.54,090324,,,R,V*1F
$GPHDT,,T*1B
$GNGSA,A,3,194,08,195,199,21,02,07,27,16,04,,,1.03,0.56,0.87,1*37
$GNGSA,A,3,81,88,78,77,79,,,,,,,,1.03,0.56,0.87,2*04
$GNGSA,A,3,13,21,26,27,15,,,,,,,,1.03,0.56,0.87,3*09
$GNGSA,A,3,09,06,23,16,40,07,43,39,28,10,25,37,1.03,0.56,0.87,4*05
$GNGSA,A,3,34,,,,,,,,,,,,1.03,0.56,0.87,4*0D
$GPGSV,4,1,15,194,64,051,32,08,64,350,38,195,64,115,37,50,60,167,38,1*6F
$GPGSV,4,2,15,199,60,167,35,21,57,158,37,02,45,177,15,07,39,317,43,1*57
$GPGSV,4,3,15,27,35,035,28,16,28,073,36,09,25,249,17,04,19,204,16,1*6E
$GPGSV,4,4,15,196,19,170,24,30,09,320,15,26,09,097,22,1*6A
$GPGSV,2,1,07,194,64,051,37,195,64,115,41,08,64,350,34,199,60,167,40,8*50
$GPGSV,2,2,07,09,25,249,25,196,19,170,27,30,09,320,29,8*69
$GLGSV,2,1,06,81,62,198,45,88,58,034,34,78,55,032,35,77,25,107,17,1*73
$GLGSV,2,2,06,79,24,332,33,87,05,026,,1*7A
$GAGSV,2,1,07,13,54,084,34,21,54,008,29,26,41,172,18,27,29,077,36,7*79
$GAGSV,2,2,07,19,29,243,,15,15,040,21,04,12,301,,7*40
$GAGSV,2,1,05,13,54,084,34,21,54,008,20,26,41,172,26,27,29,077,36,1*79
$GAGSV,2,2,05,15,15,040,28,1*4E
$GBGSV,4,1,13,09,74,270,38,06,73,215,37,23,72,024,46,16,69,198,39,1*77
$GBGSV,4,2,13,40,61,327,43,07,61,306,40,43,61,038,36,39,59,186,38,1*7D
$GBGSV,4,3,13,28,54,219,36,10,51,288,34,25,39,115,43,37,28,321,47,1*75
$GBGSV,4,4,13,34,13,040,35,1*43
$GBGSV,2,1,08,23,72,024,43,40,61,327,43,43,61,038,33,39,59,186,37,4*79
$GBGSV,2,2,08,28,54,219,36,25,39,115,31,37,28,321,39,34,13,040,27,4*75
$GNACCURACY,3.7*12
$PAIRSAT,1,34,2,0,201,3,0,200,4,0,221,5,0,200,6,0,200,7,0,201,8,0,221,9,0,200,10,0,200,11,0,200,12,0,200,13,0,200,14,0,200,15,0,200,16,0,201,17,0,200,18,0,200,20,0,200,21,0,201,22,0,200,23,0,200,24,0,200,25,0,200,26,0,220,27,0,221,28,0,200,29,0,200,30,0,220,31,0,200,32,0,200,194,0,621,195,0,621,196,0,600,199,0,621*7C
$PAIRSAT,2,24,65,0,200,66,0,200,67,0,200,68,0,200,69,0,200,70,0,200,71,0,200,72,0,200,73,0,200,74,0,200,75,0,200,76,0,200,77,0,1,78,0,201,79,0,201,80,0,200,81,0,201,82,0,200,83,0,200,84,0,200,85,0,200,86,0,200,87,0,201,88,0,201*78
$PAIRSAT,3,23,2,0,1200,3,0,1200,4,0,1200,5,0,200,7,0,1200,8,0,1200,9,0,1200,10,0,200,11,0,200,12,0,200,13,0,221,15,0,220,19,0,200,21,0,221,24,0,200,25,0,1200,26,0,1221,27,0,1221,30,0,1200,31,0,1000,33,0,1200,34,0,1000,36,0,1200*68
$PAIRSAT,4,45,1,0,200,2,0,200,3,0,600,4,0,200,5,0,200,6,0,201,7,0,201,9,0,201,10,0,201,11,0,200,12,0,200,13,0,200,14,0,200,16,0,201,19,0,600,20,0,600,21,0,600,22,0,600,23,0,621,24,0,600,25,0,621,26,0,600,27,0,600,28,0,621,29,0,600,30,0,600,32,0,400,33,0,400,34,0,421,35,0,400,36,0,400,37,0,421,38,0,400,39,0,421,40,0,421,41,0,400,42,0,400,43,0,421,44,0,400,45,0,400,46,0,400,59,0,400,60,0,400,61,0,400,62,0,400*5F
$PAIRDGP,10,2,4,7,8,9,16,21,26,27,30*42
$GNGGA,040348.200,2500.7794802,N,12132.4539863,E,4,50,0.56,16.716,M,15.25,M,1,3335*4E
$GNRMC,040348.200,A,2500.7794802,N,12132.4539863,E,0.03,145.54,090324,,,R,V*1B
$GPHDT,,T*1B
$GNACCURACY,3.7*12
$GNGGA,040348.300,2500.7794828,N,12132.4539845,E,4,50,0.56,16.716,M,15.25,M,1,3335*43
$GNRMC,040348.300,A,2500.7794828,N,12132.4539845,E,0.03,145.54,090324,,,R,V*16
$GPHDT,,T*1B
$GNACCURACY,3.7*12
$GNGGA,040348.400,2500.7794785,N,12132.4539829,E,4,50,0.56,16.714,M,15.25,M,1,3335*44
$GNRMC,040348.400,A,2500.7794785,N,12132.4539829,E,0.03,145.54,090324,,,R,V*13
$GPHDT,,T*1B
$GNACCURACY,3.7*12
$GNGGA,040348.500,2500.7794813,N,12132.4539868,E,4,50,0.56,16.721,M,15.25,M,1,3335*46
$GNRMC,040348.500,A,2500.7794813,N,12132.4539868,E,0.04,145.54,090324,,,R,V*10
$GPHDT,,T*1B
$GNACCURACY,3.7*12
$GNGGA,040348.600,2500.7794782,N,12132.4539857,E,4,50,0.56,16.712,M,15.25,M,0,3335*4F
$GNRMC,040348.600,A,2500.7794782,N,12132.4539857,E,0.04,145.54,090324,,,R,V*18
$GPHDT,,T*1B
$GNACCURACY,3.7*12
$GNGGA,040348.700,2500.7794816,N,12132.4539864,E,4,51,0.55,16.722,M,15.25,M,0,3335*4D
$GNRMC,040348.700,A,2500.7794816,N,12132.4539864,E,0.05,145.54,090324,,,R,V*1A
$GPHDT,,T*1B
$GNACCURACY,3.7*12
$GNGGA,040348.800,2500.7794851,N,12132.4539843,E,4,51,0.55,16.746,M,15.25,M,0,3335*46
$GNRMC,040348.800,A,2500.7794851,N,12132.4539843,E,0.05,145.54,090324,,,R,V*13
$GPHDT,,T*1B
$GNACCURACY,3.7*12
$GNGGA,040348.900,2500.7794762,N,12132.4539784,E,4,51,0.55,16.707,M,15.25,M,0,3335*49
$GNRMC,040348.900,A,2500.7794762,N,12132.4539784,E,0.07,145.54,090324,,,R,V*1B
$GPHDT,,T*1B
$GNACCURACY,3.7*12
$GNGGA,040349.000,2500.7794757,N,12132.4539799,E,4,51,0.55,16.701,M,15.25,M,1,3335*4C
$GNRMC,040349.000,A,2500.7794757,N,12132.4539799,E,0.05,145.54,090324,,,R,V*1B
$GPHDT,,T*1B
$GNACCURACY,3.7*12
$GNGGA,040349.100,2500.7794772,N,12132.4539847,E,4,51,0.55,16.718,M,15.25,M,1,3335*4E
$GNRMC,040349.100,A,2500.7794772,N,12132.4539847,E,0.06,145.54,090324,,,R,V*12
$GPHDT,,T*1B
$GNGSA,A,3,194,08,195,199,21,02,07,27,16,04,,,0.86,0.55,0.66,1*37
$GNGSA,A,3,81,88,78,77,79,,,,,,,,0.86,0.55,0.66,2*04
$GNGSA,A,3,13,21,26,27,15,,,,,,,,0.86,0.55,0.66,3*09
$GNGSA,A,3,09,06,23,16,40,07,43,39,28,10,25,37,0.86,0.55,0.66,4*05
$GNGSA,A,3,34,,,,,,,,,,,,0.86,0.55,0.66,4*0D
$GPGSV,4,1,15,194,64,051,29,08,64,350,38,195,64,115,40,50,60,167,38,1*65
$GPGSV,4,2,15,199,60,167,36,21,57,158,38,02,45,177,15,07,39,317,43,1*5B
$GPGSV,4,3,15,27,35,035,29,16,28,073,36,09,25,249,17,04,19,204,16,1*6F
$GPGSV,4,4,15,196,19,170,23,30,09,320,15,26,09,097,21,1*6E
$GPGSV,2,1,08,194,64,051,37,195,64,115,44,08,64,350,35,199,60,167,41,8*5A
$GPGSV,2,2,08,27,35,035,22,09,25,249,25,196,19,170,26,30,09,320,30,8*5A
$GLGSV,2,1,06,81,62,198,45,88,58,034,32,78,55,032,35,77,25,107,20,1*71
$GLGSV,2,2,06,79,24,332,35,87,05,026,,1*7C
$GAGSV,2,1,07,13,54,084,37,21,54,008,27,26,41,172,18,27,29,077,36,7*74
$GAGSV,2,2,07,19,29,243,,15,15,040,21,04,12,301,,7*40
$GAGSV,2,1,05,13,54,084,34,21,54,008,20,26,41,172,26,27,29,077,37,1*78
$GAGSV,2,2,05,15,15,040,27,1*41
$GBGSV,4,1,13,09,74,270,38,06,73,215,37,23,72,024,46,16,69,198,38,1*76
$GBGSV,4,2,13,40,61,327,43,07,61,306,40,43,61,038,36,39,59,186,37,1*72
$GBGSV,4,3,13,28,54,219,34,10,51,288,35,25,39,115,44,37,28,321,47,1*71
$GBGSV,4,4,13,34,13,040,34,1*42
$GBGSV,2,1,08,23,72,024,42,40,61,327,43,43,61,038,34,39,59,186,38,4*70
$GBGSV,2,2,08,28,54,219,37,25,39,115,34,37,28,321,39,34,13,040,26,4*70
$GNACCURACY,3.7*12
$PAIRSAT,1,34,2,0,201,3,0,200,4,0,221,5,0,200,6,0,200,7,0,201,8,0,221,9,0,200,10,0,200,11,0,200,12,0,200,13,0,200,14,0,200,15,0,200,16,0,201,17,0,200,18,0,200,20,0,200,21,0,201,22,0,200,23,0,200,24,0,200,25,0,200,26,0,220,27,0,221,28,0,200,29,0,200,30,0,220,31,0,200,32,0,200,194,0,621,195,0,621,196,0,600,199,0,621*7C
$PAIRSAT,2,24,65,0,200,66,0,200,67,0,200,68,0,200,69,0,200,70,0,200,71,0,200,72,0,200,73,0,200,74,0,200,75,0,200,76,0,200,77,0,1,78,0,201,79,0,201,80,0,200,81,0,201,82,0,200,83,0,200,84,0,200,85,0,200,86,0,200,87,0,201,88,0,201*78
$PAIRSAT,3,23,2,0,1200,3,0,1200,4,0,1200,5,0,200,7,0,1200,8,0,1200,9,0,1200,10,0,200,11,0,200,12,0,200,13,0,221,15,0,220,19,0,200,21,0,221,24,0,200,25,0,1200,26,0,1221,27,0,1221,30,0,1200,31,0,1000,33,0,1200,34,0,1000,36,0,1200*68
$PAIRSAT,4,45,1,0,200,2,0,200,3,0,600,4,0,200,5,0,200,6,0,201,7,0,201,9,0,201,10,0,201,11,0,200,12,0,200,13,0,200,14,0,200,16,0,201,19,0,600,20,0,600,21,0,600,22,0,600,23,0,621,24,0,600,25,0,621,26,0,600,27,0,600,28,0,621,29,0,600,30,0,600,32,0,400,33,0,400,34,0,421,35,0,400,36,0,400,37,0,421,38,0,400,39,0,421,40,0,421,41,0,400,42,0,400,43,0,421,44,0,400,45,0,400,46,0,400,59,0,400,60,0,400,61,0,400,62,0,400*5F
$PAIRDGP,10,2,4,7,8,9,16,21,26,27,30*42
$GNGGA,040349.200,2500.7794798,N,12132.4539838,E,4,51,0.55,16.725,M,15.25,M,1,3335*4F
$GNRMC,040349.200,A,2500.7794798,N,12132.4539838,E,0.07,145.54,090324,,,R,V*1C
$GPHDT,,T*1B
$GNACCURACY,3.8*1D
$GNGGA,040349.300,2500.7794790,N,12132.4539853,E,4,51,0.55,16.717,M,15.25,M,1,3335*4A
$GNRMC,040349.300,A,2500.7794790,N,12132.4539853,E,0.07,145.54,090324,,,R,V*18
$GPHDT,,T*1B
$GNACCURACY,3.7*12
$GNGGA,040349.400,2500.7794764,N,12132.4539805,E,4,50,0.55,16.706,M,15.25,M,1,3335*44
$GNRMC,040349.400,A,2500.7794764,N,12132.4539805,E,0.08,145.54,090324,,,R,V*18
$GPHDT,,T*1B
$GNACCURACY,3.8*1D
$GNGGA,040349.500,2500.7794761,N,12132.4539825,E,4,50,0.55,16.703,M,15.25,M,0,3335*46
$GNRMC,040349.500,A,2500.7794761,N,12132.4539825,E,0.08,145.54,090324,,,R,V*1E
$GPHDT,,T*1B
$GNACCURACY,3.8*1D
$GNGGA,040349.600,2500.7794789,N,12132.4539848,E,4,50,0.55,16.709,M,15.25,M,0,3335*42
$GNRMC,040349.600,A,2500.7794789,N,12132.4539848,E,0.09,145.54,090324,,,R,V*11
$GPHDT,,T*1B
$GNACCURACY,3.8*1D
$GNGGA,040349.700,2500.7794802,N,12132.4539852,E,4,50,0.55,16.703,M,15.25,M,0,3335*4E
$GNRMC,040349.700,A,2500.7794802,N,12132.4539852,E,0.11,145.54,090324,,,R,V*1E
$GPHDT,,T*1B
$GNACCURACY,3.8*1D
$GNGGA,040349.800,2500.7794779,N,12132.4539873,E,4,50,0.55,16.707,M,15.25,M,0,3335*45
$GNRMC,040349.800,A,2500.7794779,N,12132.4539873,E,0.13,145.54,090324,,,R,V*13
$GPHDT,,T*1B
$GNACCURACY,3.8*1D
$GNGGA,040349.900,2500.7794796,N,12132.4539877,E,4,50,0.55,16.708,M,15.25,M,0,3335*4E
$GNRMC,040349.900,A,2500.7794796,N,12132.4539877,E,0.13,145.54,090324,,,R,V*17
$GPHDT,,T*1B
$GNACCURACY,3.8*1D
$GNGGA,040350.000,2500.7794800,N,12132.4539877,E,4,50,0.55,16.713,M,15.25,M,1,3335*44
$GNRMC,040350.000,A,2500.7794800,N,12132.4539877,E,0.12,145.54,090324,,,R,V*17
$GPHDT,,T*1B
$GNACCURACY,3.8*1D
$GNGGA,040350.100,2500.7794781,N,12132.4539872,E,4,50,0.55,16.694,M,15.25,M,1,3335*48
$GNRMC,040350.100,A,2500.7794781,N,12132.4539872,E,0.12,145.54,090324,,,R,V*15
$GPHDT,,T*1B
$GNGSA,A,3,194,08,195,199,21,02,07,27,16,04,,,0.86,0.55,0.66,1*37
$GNGSA,A,3,81,88,78,77,79,,,,,,,,0.86,0.55,0.66,2*04
$GNGSA,A,3,21,13,26,27,15,,,,,,,,0.86,0.55,0.66,3*09
$GNGSA,A,3,09,06,23,16,40,07,43,39,28,10,25,37,0.86,0.55,0.66,4*05
$GNGSA,A,3,34,,,,,,,,,,,,0.86,0.55,0.66,4*0D
$GPGSV,4,1,15,194,64,051,29,08,64,350,37,195,64,115,38,50,60,167,38,1*65
$GPGSV,4,2,15,199,60,167,36,21,57,158,37,02,45,177,16,07,39,317,43,1*57
$GPGSV,4,3,15,27,35,035,25,16,28,073,36,09,25,249,17,04,19,204,16,1*63
$GPGSV,4,4,15,196,19,170,23,30,09,320,14,26,09,097,21,1*6F
$GPGSV,2,1,08,194,64,051,37,195,64,115,44,08,64,350,37,199,60,167,41,8*58
$GPGSV,2,2,08,27,35,035,22,09,25,249,24,196,19,170,27,30,09,320,29,8*52
$GLGSV,2,1,06,81,62,198,46,88,58,034,31,78,55,032,34,77,25,107,25,1*75
$GLGSV,2,2,06,79,24,332,35,87,05,026,,1*7C
$GAGSV,2,1,07,21,54,008,27,13,54,084,37,26,41,172,17,27,29,077,37,7*7A
$GAGSV,2,2,07,15,15,040,24,04,12,301,,33,02,199,,7*40
$GAGSV,1,1,04,13,54,084,31,26,41,172,25,27,29,077,37,15,15,040,28,1*7A
$GBGSV,4,1,13,09,74,270,38,06,73,215,37,23,72,024,46,16,69,198,38,1*76
$GBGSV,4,2,13,40,61,327,43,07,61,306,40,43,61,038,33,39,59,186,40,1*77
$GBGSV,4,3,13,28,54,219,35,10,51,288,35,25,39,115,44,37,28,321,47,1*70
$GBGSV,4,4,13,34,13,040,35,1*43
$GBGSV,2,1,08,23,72,024,42,40,61,327,44,43,61,038,34,39,59,186,38,4*77
$GBGSV,2,2,08,28,54,219,37,25,39,115,35,37,28,321,39,34,13,040,28,4*7F
$GNACCURACY,3.8*1D
$PAIRSAT,1,34,2,0,201,3,0,200,4,0,221,5,0,200,6,0,200,7,0,201,8,0,221,9,0,200,10,0,200,11,0,200,12,0,200,13,0,200,14,0,200,15,0,200,16,0,201,17,0,200,18,0,200,20,0,200,21,0,201,22,0,200,23,0,200,24,0,200,25,0,200,26,0,220,27,0,221,28,0,200,29,0,200,30,0,220,31,0,200,32,0,200,194,0,621,195,0,621,196,0,600,199,0,621*7C
$PAIRSAT,2,24,65,0,200,66,0,200,67,0,200,68,0,200,69,0,200,70,0,200,71,0,200,72,0,200,73,0,200,74,0,200,75,0,200,76,0,200,77,0,1,78,0,201,79,0,201,80,0,200,81,0,201,82,0,200,83,0,200,84,0,200,85,0,200,86,0,200,87,0,201,88,0,201*78
$PAIRSAT,3,23,2,0,1200,3,0,1200,4,0,1200,5,0,200,7,0,1200,8,0,1200,9,0,1200,10,0,200,11,0,200,12,0,200,13,0,221,15,0,220,19,0,200,21,0,221,24,0,200,25,0,1200,26,0,1221,27,0,1221,30,0,1200,31,0,1000,33,0,1200,34,0,1000,36,0,1200*68
$PAIRSAT,4,45,1,0,200,2,0,200,3,0,600,4,0,200,5,0,200,6,0,201,7,0,201,9,0,201,10,0,201,11,0,200,12,0,200,13,0,200,14,0,200,16,0,201,19,0,600,20,0,600,21,0,600,22,0,600,23,0,621,24,0,600,25,0,621,26,0,600,27,0,600,28,0,621,29,0,600,30,0,600,32,0,400,33,0,400,34,0,421,35,0,400,36,0,400,37,0,421,38,0,400,39,0,421,40,0,421,41,0,400,42,0,400,43,0,421,44,0,400,45,0,400,46,0,400,59,0,400,60,0,400,61,0,400,62,0,400*5F
$PAIRDGP,10,2,4,7,8,9,16,21,26,27,30*42
$GNGGA,040350.200,2500.7794820,N,12132.4539882,E,4,50,0.55,16.712,M,15.25,M,1,3335*4F
$GNRMC,040350.200,A,2500.7794820,N,12132.4539882,E,0.11,145.54,090324,,,R,V*1E
$GPHDT,,T*1B
$GNACCURACY,3.8*1D
$GNGGA,040350.300,2500.7794806,N,12132.4539870,E,4,50,0.55,16.708,M,15.25,M,1,3335*4C
$GNRMC,040350.300,A,2500.7794806,N,12132.4539870,E,0.11,145.54,090324,,,R,V*16
$GPHDT,,T*1B
$GNACCURACY,3.8*1D
$GNGGA,040350.400,2500.7794799,N,12132.4539893,E,4,50,0.55,16.711,M,15.25,M,1,3335*47
$GNRMC,040350.400,A,2500.7794799,N,12132.4539893,E,0.11,145.54,090324,,,R,V*15
$GPHDT,,T*1B
$GNACCURACY,3.8*1D
$GNGGA,040350.500,2500.7794764,N,12132.4539812,E,4,50,0.55,16.700,M,15.25,M,1,3335*4D
$GNRMC,040350.500,A,2500.7794764,N,12132.4539812,E,0.10,145.54,090324,,,R,V*1E
$GPHDT,,T*1B
$GNACCURACY,3.8*1D
$GNGGA,040350.600,2500.7794840,N,12132.4539847,E,4,50,0.55,16.715,M,15.25,M,0,3335*42
$GNRMC,040350.600,A,2500.7794840,N,12132.4539847,E,0.10,145.54,090324,,,R,V*14
$GPHDT,,T*1B
$GNACCURACY,3.8*1D
$GNGGA,040350.700,2500.7794785,N,12132.4539853,E,4,51,0.55,16.704,M,15.25,M,0,3335*41
$GNRMC,040350.700,A,2500.7794785,N,12132.4539853,E,0.10,145.54,090324,,,R,V*16
$GPHDT,,T*1B
$GNACCURACY,3.8*1D
$GNGGA,040350.800,2500.7794784,N,12132.4539869,E,4,51,0.55,16.698,M,15.25,M,0,3335*42
$GNRMC,040350.800,A,2500.7794784,N,12132.4539869,E,0.10,145.54,090324,,,R,V*11
$GPHDT,,T*1B
$GNACCURACY,3.8*1D
$GNGGA,040350.900,2500.7794771,N,12132.4539848,E,4,51,0.55,16.692,M,15.25,M,0,3335*40
$GNRMC,040350.900,A,2500.7794771,N,12132.4539848,E,0.10,145.54,090324,,,R,V*19
$GPHDT,,T*1B
$GNACCURACY,3.8*1D
$GNGGA,040351.000,2500.7794772,N,12132.4539867,E,4,50,0.55,16.703,M,15.25,M,1,3335*4F
$GNRMC,040351.000,A,2500.7794772,N,12132.4539867,E,0.10,145.54,090324,,,R,V*1F
$GPHDT,,T*1B
$GNACCURACY,3.8*1D
$GNGGA,040351.100,2500.7794779,N,12132.4539837,E,4,50,0.55,16.692,M,15.25,M,1,3335*49
$GNRMC,040351.100,A,2500.7794779,N,12132.4539837,E,0.09,145.54,090324,,,R,V*18
$GPHDT,,T*1B
$GNGSA,A,3,194,08,195,199,21,02,07,16,04,27,,,0.86,0.55,0.66,1*37
$GNGSA,A,3,81,88,78,77,79,,,,,,,,0.86,0.55,0.66,2*04
$GNGSA,A,3,21,13,26,27,15,,,,,,,,0.86,0.55,0.66,3*09
$GNGSA,A,3,09,06,23,16,40,07,43,39,28,10,25,37,0.86,0.55,0.66,4*05
$GNGSA,A,3,34,,,,,,,,,,,,0.86,0.55,0.66,4*0D
$GPGSV,4,1,15,194,64,051,30,08,64,350,37,195,64,115,41,50,60,167,38,1*63
$GPGSV,4,2,15,199,60,167,36,21,57,158,38,02,45,177,16,07,39,317,43,1*58
$GPGSV,4,3,15,27,35,035,22,16,28,073,35,09,25,249,17,04,19,204,16,1*67
$GPGSV,4,4,15,196,19,170,23,30,09,320,14,26,09,097,21,1*6F
$GPGSV,3,1,09,194,64,051,35,08,64,350,35,195,64,115,44,199,60,167,41,8*58
$GPGSV,3,2,09,27,35,035,22,09,25,249,26,04,19,204,19,196,19,170,26,8*53
$GPGSV,3,3,09,30,09,320,29,8*54
$GLGSV,2,1,06,81,62,198,46,88,58,034,30,78,55,032,35,77,25,107,28,1*78
$GLGSV,2,2,06,79,24,332,35,87,05,026,,1*7C
$GAGSV,2,1,07,21,54,008,27,13,54,084,37,26,41,172,17,27,29,077,36,7*7B
$GAGSV,2,2,07,15,15,040,19,04,12,301,,33,02,199,,7*4E
$GAGSV,1,1,04,13,54,084,37,26,41,172,25,27,29,077,37,15,15,040,26,1*72
$GBGSV,4,1,13,09,74,270,37,06,73,215,36,23,72,025,46,16,69,198,38,1*79
$GBGSV,4,2,13,40,61,327,43,07,61,306,40,43,61,038,34,39,59,186,38,1*7F
$GBGSV,4,3,13,28,54,219,33,10,51,288,35,25,39,115,44,37,28,321,47,1*76
$GBGSV,4,4,13,34,13,040,32,1*44
$GBGSV,2,1,08,23,72,025,42,40,61,327,44,43,61,038,35,39,59,186,39,4*76
$GBGSV,2,2,08,28,54,219,38,25,39,115,34,37,28,321,39,34,13,040,28,4*71
$GNACCURACY,3.8*1D
$PAIRSAT,1,34,2,0,201,3,0,200,4,0,221,5,0,200,6,0,200,7,0,201,8,0,221,9,0,200,10,0,200,11,0,200,12,0,200,13,0,200,14,0,200,15,0,200,16,0,201,17,0,200,18,0,200,20,0,200,21,0,201,22,0,200,23,0,200,24,0,200,25,0,200,26,0,220,27,0,221,28,0,200,29,0,200,30,0,220,31,0,200,32,0,200,194,0,621,195,0,621,196,0,600,199,0,621*7C
$PAIRSAT,2,24,65,0,200,66,0,200,67,0,200,68,0,200,69,0,200,70,0,200,71,0,200,72,0,200,73,0,200,74,0,200,75,0,200,76,0,200,77,0,1,78,0,201,79,0,201,80,0,200,81,0,201,82,0,200,83,0,200,84,0,200,85,0,200,86,0,200,87,0,201,88,0,201*78
$PAIRSAT,3,23,2,0,1200,3,0,1200,4,0,1200,5,0,200,7,0,1200,8,0,1200,9,0,1200,10,0,200,11,0,200,12,0,200,13,0,221,15,0,220,19,0,200,21,0,221,24,0,200,25,0,1200,26,0,1221,27,0,1221,30,0,1200,31,0,1000,33,0,1200,34,0,1000,36,0,1200*68
$PAIRSAT,4,46,1,0,200,2,0,200,3,0,600,4,0,200,5,0,200,6,0,201,7,0,201,8,0,200,9,0,201,10,0,201,11,0,200,12,0,200,13,0,200,14,0,200,16,0,201,19,0,600,20,0,600,21,0,600,22,0,600,23,0,621,24,0,600,25,0,621,26,0,600,27,0,600,28,0,621,29,0,600,30,0,600,32,0,400,33,0,400,34,0,421,35,0,400,36,0,400,37,0,421,38,0,400,39,0,421,40,0,421,41,0,400,42,0,400,43,0,421,44,0,400,45,0,400,46,0,400,59,0,400,60,0,400,61,0,400,62,0,400*4A
$PAIRDGP,10,2,4,7,8,9,16,21,26,27,30*42
$GNGGA,040351.200,2500.7794864,N,12132.4539874,E,4,50,0.55,16.749,M,15.25,M,1,3335*49
$GNRMC,040351.200,A,2500.7794864,N,12132.4539874,E,0.09,145.54,090324,,,R,V*1F
$GPHDT,,T*1B
$GNACCURACY,3.8*1D
$GNGGA,040351.300,2500.7794776,N,12132.4539909,E,4,51,0.55,16.714,M,15.25,M,1,3335*46
$GNRMC,040351.300,A,2500.7794776,N,12132.4539909,E,0.09,145.54,090324,,,R,V*19
$GPHDT,,T*1B
$GNACCURACY,3.8*1D
$GNGGA,040351.400,2500.7794790,N,12132.4539920,E,4,51,0.55,16.715,M,15.25,M,1,3335*43
$GNRMC,040351.400,A,2500.7794790,N,12132.4539920,E,0.08,145.54,090324,,,R,V*1C
$GPHDT,,T*1B
$GNACCURACY,3.8*1D
$GNGGA,040351.500,2500.7794789,N,12132.4539934,E,4,51,0.55,16.708,M,15.25,M,1,3335*43
$GNRMC,040351.500,A,2500.7794789,N,12132.4539934,E,0.07,145.54,090324,,,R,V*1F
$GPHDT,,T*1B
$GNACCURACY,3.8*1D
$GNGGA,040351.600,2500.7794843,N,12132.4539889,E,4,51,0.55,16.715,M,15.25,M,0,3335*43
$GNRMC,040351.600,A,2500.7794843,N,12132.4539889,E,0.06,145.54,090324,,,R,V*13
$GPHDT,,T*1B
$GNACCURACY,3.8*1D
$GNGGA,040351.700,2500.7794834,N,12132.4539883,E,4,51,0.55,16.711,M,15.25,M,0,3335*4C
$GNRMC,040351.700,A,2500.7794834,N,12132.4539883,E,0.06,145.54,090324,,,R,V*18
$GPHDT,,T*1B
$GNACCURACY,3.8*1D
$GNGGA,040351.800,2500.7794794,N,12132.4539862,E,4,51,0.55,16.711,M,15.25,M,0,3335*49
$GNRMC,040351.800,A,2500.7794794,N,12132.4539862,E,0.08,145.54,090324,,,R,V*13
$GPHDT,,T*1B
$GNACCURACY,3.8*1D
$GNGGA,040351.900,2500.7794841,N,12132.4539882,E,4,51,0.55,16.714,M,15.25,M,0,3335*44
$GNRMC,040351.900,A,2500.7794841,N,12132.4539882,E,0.08,145.54,090324,,,R,V*1B
$GPHDT,,T*1B
$GNACCURACY,3.8*1D
$GNGGA,040352.000,2500.7794824,N,12132.4539842,E,4,51,0.55,16.717,M,15.25,M,1,3335*43
$GNRMC,040352.000,A,2500.7794824,N,12132.4539842,E,0.07,145.54,090324,,,R,V*11
$GPHDT,,T*1B
$GNACCURACY,3.8*1D
$GNGGA,040352.100,2500.7794828,N,12132.4539836,E,4,51,0.55,16.715,M,15.25,M,1,3335*4F
$GNRMC,040352.100,A,2500.7794828,N,12132.4539836,E,0.06,145.54,090324,,,R,V*1E
$GPHDT,,T*1B
$GNGSA,A,3,194,08,195,199,21,02,07,27,16,04,,,0.86,0.55,0.66,1*37
$GNGSA,A,3,81,88,78,77,79,,,,,,,,0.86,0.55,0.66,2*04
$GNGSA,A,3,21,13,26,27,15,,,,,,,,0.86,0.55,0.66,3*09
$GNGSA,A,3,09,06,23,16,40,43,07,39,28,10,25,37,0.86,0.55,0.66,4*05
$GNGSA,A,3,34,,,,,,,,,,,,0.86,0.55,0.66,4*0D
$GPGSV,4,1,16,194,64,051,31,08,64,350,37,195,64,115,39,50,60,167,38,1*6E
$GPGSV,4,2,16,199,60,167,35,21,57,158,38,02,45,177,16,07,39,317,43,1*58
$GPGSV,4,3,16,27,35,035,26,16,28,073,36,09,25,249,18,04,19,204,16,1*6C
$GPGSV,4,4,16,196,19,170,24,30,09,320,18,26,09,097,22,31,02,143,,1*52
$GPGSV,3,1,10,194,64,051,36,08,64,350,36,195,64,115,43,199,60,167,41,8*57
$GPGSV,3,2,10,27,35,035,21,09,25,249,23,04,19,204,19,196,19,170,28,8*53
$GPGSV,3,3,10,30,09,320,29,26,09,097,15,8*6B
$GLGSV,2,1,06,81,62,198,46,88,58,034,32,78,55,032,35,77,25,107,29,1*7B
$GLGSV,2,2,06,79,24,332,37,87,05,026,,1*7E
$GAGSV,2,1,07,21,54,008,28,13,54,084,38,26,41,172,17,27,29,077,37,7*7A
$GAGSV,2,2,07,15,15,040,21,04,12,301,,33,02,199,,7*45
$GAGSV,1,1,04,13,54,084,36,26,41,172,24,27,29,077,37,15,15,040,26,1*72
$GBGSV,4,1,13,09,74,270,37,06,73,215,36,23,72,025,46,16,69,198,38,1*79
$GBGSV,4,2,13,40,61,327,43,43,61,038,35,07,61,306,40,39,59,186,39,1*7F
$GBGSV,4,3,13,28,54,219,35,10,51,288,35,25,39,115,44,37,28,321,47,1*70
$GBGSV,4,4,13,34,13,040,35,1*43
$GBGSV,2,1,08,23,72,025,42,40,61,327,44,43,61,038,34,39,59,186,39,4*77
$GBGSV,2,2,08,28,54,219,38,25,39,115,34,37,28,321,40,34,13,040,27,4*70
$GNACCURACY,3.8*1D
$PAIRSAT,1,34,2,0,201,3,0,200,4,0,221,5,0,200,6,0,200,7,0,201,8,0,221,9,0,200,10,0,200,11,0,200,12,0,200,13,0,200,14,0,200,15,0,200,16,0,201,17,0,200,18,0,200,20,0,200,21,0,201,22,0,200,23,0,200,24,0,200,25,0,200,26,0,220,27,0,221,28,0,200,29,0,200,30,0,220,31,0,200,32,0,200,194,0,621,195,0,621,196,0,600,199,0,621*7C
$PAIRSAT,2,24,65,0,200,66,0,200,67,0,200,68,0,200,69,0,200,70,0,200,71,0,200,72,0,200,73,0,200,74,0,200,75,0,200,76,0,200,77,0,1,78,0,201,79,0,201,80,0,200,81,0,201,82,0,200,83,0,200,84,0,200,85,0,200,86,0,200,87,0,201,88,0,201*78
$PAIRSAT,3,23,2,0,1200,3,0,1200,4,0,1200,5,0,200,7,0,1200,8,0,1200,9,0,1200,10,0,1200,11,0,200,12,0,200,13,0,221,15,0,220,19,0,200,21,0,221,24,0,200,25,0,1200,26,0,1221,27,0,1221,30,0,1200,31,0,1000,33,0,1200,34,0,1000,36,0,1200*59
$PAIRSAT,4,46,1,0,200,2,0,200,3,0,600,4,0,200,5,0,200,6,0,201,7,0,201,8,0,200,9,0,201,10,0,201,11,0,200,12,0,200,13,0,200,14,0,200,16,0,201,19,0,600,20,0,600,21,0,600,22,0,600,23,0,621,24,0,600,25,0,621,26,0,600,27,0,600,28,0,621,29,0,600,30,0,600,32,0,400,33,0,400,34,0,421,35,0,400,36,0,400,37,0,421,38,0,400,39,0,421,40,0,421,41,0,400,42,0,400,43,0,421,44,0,400,45,0,400,46,0,400,59,0,400,60,0,400,61,0,400,62,0,400*4A
$PAIRDGP,10,2,4,7,8,9,16,21,26,27,30*42
$GNGGA,040352.200,2500.7794817,N,12132.4539880,E,4,51,0.55,16.726,M,15.25,M,1,3335*4D
$GNRMC,040352.200,A,2500.7794817,N,12132.4539880,E,0.06,145.54,090324,,,R,V*1C
$GPHDT,,T*1B
$GNACCURACY,3.8*1D
$GNGGA,040352.300,2500.7794831,N,12132.4539889,E,4,51,0.55,16.720,M,15.25,M,1,3335*47
$GNRMC,040352.300,A,2500.7794831,N,12132.4539889,E,0.06,145.54,090324,,,R,V*10
$GPHDT,,T*1B
$GNACCURACY,3.8*1D
$GNGGA,040352.400,2500.7794863,N,12132.4539844,E,4,51,0.55,16.729,M,15.25,M,1,3335*4F
$GNRMC,040352.400,A,2500.7794863,N,12132.4539844,E,0.05,145.54,090324,,,R,V*12
$GPHDT,,T*1B
$GNACCURACY,3.8*1D
$GNGGA,040352.500,2500.7794764,N,12132.4539827,E,4,51,0.55,16.700,M,15.25,M,0,3335*49
$GNRMC,040352.500,A,2500.7794764,N,12132.4539827,E,0.05,145.54,090324,,,R,V*1E
$GPHDT,,T*1B
$GNACCURACY,3.8*1D
$GNGGA,040352.600,2500.7794779,N,12132.4539832,E,4,50,0.55,16.702,M,15.25,M,0,3335*41
$GNRMC,040352.600,A,2500.7794779,N,12132.4539832,E,0.04,145.54,090324,,,R,V*14
$GPHDT,,T*1B
$GNACCURACY,3.8*1D
$GNGGA,040352.700,2500.7794786,N,12132.4539851,E,4,50,0.55,16.703,M,15.25,M,0,3335*44
$GNRMC,040352.700,A,2500.7794786,N,12132.4539851,E,0.02,145.54,090324,,,R,V*16
$GPHDT,,T*1B
$GNACCURACY,3.8*1D
$GNGGA,040352.800,2500.7794762,N,12132.4539831,E,4,50,0.55,16.701,M,15.25,M,0,3335*45
$GNRMC,040352.800,A,2500.7794762,N,12132.4539831,E,0.03,145.54,090324,,,R,V*14
$GPHDT,,T*1B
$GNACCURACY,3.8*1D
$GNGGA,040352.900,2500.7794768,N,12132.4539852,E,4,50,0.55,16.701,M,15.25,M,0,3335*4B
$GNRMC,040352.900,A,2500.7794768,N,12132.4539852,E,0.04,145.54,090324,,,R,V*1D
$GPHDT,,T*1B
$GNACCURACY,3.8*1D
$GNGGA,040353.000,2500.7794753,N,12132.4539836,E,4,50,0.55,16.692,M,15.25,M,1,3335*43
$GNRMC,040353.000,A,2500.7794753,N,12132.4539836,E,0.02,145.54,090324,,,R,V*19
$GPHDT,,T*1B
$GNACCURACY,3.8*1D
$GNGGA,040353.100,2500.7794857,N,12132.4539806,E,4,50,0.55,16.739,M,15.25,M,1,3335*4A
$GNRMC,040353.100,A,2500.7794857,N,12132.4539806,E,0.02,145.54,090324,,,R,V*10
$GPHDT,,T*1B
$GNGSA,A,3,194,08,195,199,21,02,07,16,04,27,,,0.86,0.55,0.66,1*37
$GNGSA,A,3,81,88,78,77,79,,,,,,,,0.86,0.55,0.66,2*04
$GNGSA,A,3,21,13,26,27,15,,,,,,,,0.86,0.55,0.66,3*09
$GNGSA,A,3,09,06,23,16,40,43,07,39,28,10,25,37,0.86,0.55,0.66,4*05
$GNGSA,A,3,34,,,,,,,,,,,,0.86,0.55,0.66,4*0D
$GPGSV,4,1,16,194,64,051,32,08,64,350,37,195,64,115,41,50,60,167,38,1*62
$GPGSV,4,2,16,199,60,167,35,21,57,158,40,02,45,177,12,07,39,317,43,1*53
$GPGSV,4,3,16,27,35,035,22,16,28,073,36,09,25,249,18,04,19,204,16,1*68
$GPGSV,4,4,16,196,19,170,24,30,09,320,19,26,09,097,23,31,02,143,,1*52
$GPGSV,3,1,10,194,64,051,37,08,64,350,35,195,64,115,43,199,60,167,41,8*55
$GPGSV,3,2,10,27,35,035,19,09,25,249,23,04,19,204,19,196,19,170,28,8*58
$GPGSV,3,3,10,30,09,320,29,26,09,097,14,8*6A
$GLGSV,2,1,06,81,62,198,46,88,58,034,31,78,55,032,35,77,25,107,32,1*72
$GLGSV,2,2,06,79,24,332,36,87,05,026,,1*7F
$GAGSV,2,1,07,21,54,008,29,13,54,084,38,26,41,172,17,27,29,077,36,7*7A
$GAGSV,2,2,07,15,15,040,19,04,12,301,,33,02,199,,7*4E
$GAGSV,1,1,04,13,54,084,37,26,41,172,26,27,29,077,38,15,15,040,28,1*70
$GBGSV,4,1,13,09,74,270,37,06,73,215,36,23,72,025,46,16,69,198,38,1*79
$GBGSV,4,2,13,40,61,327,43,43,61,038,36,07,61,306,40,39,59,186,39,1*7C
$GBGSV,4,3,13,28,54,219,33,10,51,288,34,25,39,115,44,37,28,321,47,1*77
$GBGSV,4,4,13,34,13,040,34,1*42
$GBGSV,2,1,08,23,72,025,43,40,61,327,44,43,61,038,36,39,59,186,39,4*74
$GBGSV,2,2,08,28,54,219,38,25,39,115,34,37,28,321,39,34,13,040,29,4*70
$GNACCURACY,3.8*1D
$PAIRSAT,1,34,2,0,201,3,0,200,4,0,221,5,0,200,6,0,200,7,0,201,8,0,221,9,0,200,10,0,200,11,0,200,12,0,200,13,0,200,14,0,200,15,0,200,16,0,201,17,0,200,18,0,200,20,0,200,21,0,201,22,0,200,23,0,200,24,0,200,25,0,200,26,0,220,27,0,221,28,0,200,29,0,200,30,0,220,31,0,200,32,0,200,194,0,621,195,0,621,196,0,600,199,0,621*7C
$PAIRSAT,2,24,65,0,200,66,0,200,67,0,200,68,0,200,69,0,200,70,0,200,71,0,200,72,0,200,73,0,200,74,0,200,75,0,200,76,0,200,77,0,1,78,0,201,79,0,201,80,0,200,81,0,201,82,0,200,83,0,200,84,0,200,85,0,200,86,0,200,87,0,201,88,0,201*78
$PAIRSAT,3,23,2,0,1200,3,0,1200,4,0,1200,5,0,200,7,0,1200,8,0,1200,9,0,1200,10,0,1200,11,0,200,12,0,200,13,0,221,15,0,220,19,0,200,21,0,221,24,0,200,25,0,1200,26,0,1221,27,0,1221,30,0,1200,31,0,1200,33,0,1200,34,0,1000,36,0,1200*5B
$PAIRSAT,4,46,1,0,200,2,0,200,3,0,600,4,0,200,5,0,200,6,0,201,7,0,201,8,0,200,9,0,201,10,0,201,11,0,200,12,0,200,13,0,200,14,0,200,16,0,201,19,0,600,20,0,600,21,0,600,22,0,600,23,0,621,24,0,600,25,0,621,26,0,600,27,0,600,28,0,621,29,0,600,30,0,600,32,0,400,33,0,400,34,0,421,35,0,400,36,0,400,37,0,421,38,0,400,39,0,421,40,0,421,41,0,400,42,0,400,43,0,421,44,0,400,45,0,400,46,0,400,59,0,400,60,0,400,61,0,400,62,0,400*4A
$PAIRDGP,10,2,4,7,8,9,16,21,26,27,30*42
$GNGGA,040353.200,2500.7794769,N,12132.4539827,E,4,50,0.55,16.706,M,15.25,M,1,3335*44
$GNRMC,040353.200,A,2500.7794769,N,12132.4539827,E,0.02,145.54,090324,,,R,V*12
$GPHDT,,T*1B
$GNACCURACY,3.8*1D
$GNGGA,040353.300,2500.7794762,N,12132.4539856,E,4,50,0.55,16.701,M,15.25,M,1,3335*4F
$GNRMC,040353.300,A,2500.7794762,N,12132.4539856,E,0.03,145.54,090324,,,R,V*1F
$GPHDT,,T*1B
$GNACCURACY,3.8*1D
$GNGGA,040353.400,2500.7794778,N,12132.4539844,E,4,50,0.55,16.702,M,15.25,M,1,3335*43
$GNRMC,040353.400,A,2500.7794778,N,12132.4539844,E,0.02,145.54,090324,,,R,V*11
$GPHDT,,T*1B
$GNACCURACY,3.8*1D
$GNGGA,040353.500,2500.7794765,N,12132.4539848,E,4,51,0.55,16.709,M,15.25,M,0,3335*49
$GNRMC,040353.500,A,2500.7794765,N,12132.4539848,E,0.02,145.54,090324,,,R,V*10
$GPHDT,,T*1B
$GNACCURACY,3.8*1D
$GNGGA,040353.600,2500.7794775,N,12132.4539890,E,4,51,0.55,16.710,M,15.25,M,0,3335*46
$GNRMC,040353.600,A,2500.7794775,N,12132.4539890,E,0.02,145.54,090324,,,R,V*17
$GPHDT,,T*1B
$GNACCURACY,3.8*1D
$GNGGA,040353.700,2500.7794809,N,12132.4539863,E,4,51,0.55,16.715,M,15.25,M,0,3335*4A
$GNRMC,040353.700,A,2500.7794809,N,12132.4539863,E,0.02,145.54,090324,,,R,V*1E
$GPHDT,,T*1B
$GNACCURACY,3.8*1D
$GNGGA,040353.800,2500.7794779,N,12132.4539908,E,4,51,0.55,16.728,M,15.25,M,0,3335*4F
$GNRMC,040353.800,A,2500.7794779,N,12132.4539908,E,0.03,145.54,090324,,,R,V*14
$GPHDT,,T*1B
$GNACCURACY,3.8*1D
$GNGGA,040353.900,2500.7794755,N,12132.4539928,E,4,51,0.55,16.711,M,15.25,M,0,3335*48
$GNRMC,040353.900,A,2500.7794755,N,12132.4539928,E,0.04,145.54,090324,,,R,V*1E
$GPHDT,,T*1B
$GNACCURACY,3.8*1D
$GNGGA,040354.000,2500.7794873,N,12132.4539921,E,4,51,0.55,16.716,M,15.25,M,1,3335*42
$GNRMC,040354.000,A,2500.7794873,N,12132.4539921,E,0.03,145.54,090324,,,R,V*15
$GPHDT,,T*1B
$GNACCURACY,3.8*1D
$GNGGA,040354.100,2500.7794849,N,12132.4539905,E,4,51,0.55,16.713,M,15.25,M,1,3335*49
$GNRMC,040354.100,A,2500.7794849,N,12132.4539905,E,0.03,145.54,090324,,,R,V*1B
$GPHDT,,T*1B
$GNGSA,A,3,194,08,195,199,21,02,07,27,16,04,,,0.86,0.55,0.66,1*37
$GNGSA,A,3,81,88,78,77,79,,,,,,,,0.86,0.55,0.66,2*04
$GNGSA,A,3,21,13,26,27,15,,,,,,,,0.86,0.55,0.66,3*09
$GNGSA,A,3,09,06,23,16,40,43,07,39,28,10,25,37,0.86,0.55,0.66,4*05
$GNGSA,A,3,34,,,,,,,,,,,,0.86,0.55,0.66,4*0D
$GPGSV,4,1,16,194,64,051,29,08,64,350,37,195,64,115,36,50,60,167,38,1*68
$GPGSV,4,2,16,199,60,167,35,21,57,158,39,02,45,177,16,07,39,317,43,1*59
$GPGSV,4,3,16,27,35,035,24,16,28,073,38,09,25,249,18,04,19,204,17,1*61
$GPGSV,4,4,16,196,19,170,23,30,09,320,22,26,09,097,23,31,02,143,,1*5D
$GPGSV,3,1,10,194,64,051,37,08,64,350,36,195,64,115,42,199,60,167,39,8*58
$GPGSV,3,2,10,27,35,035,21,09,25,249,22,04,19,204,20,196,19,170,26,8*56
$GPGSV,3,3,10,30,09,320,29,26,09,097,12,8*6C
$GLGSV,2,1,07,81,62,198,46,88,58,034,31,78,55,032,35,77,25,107,31,1*70
$GLGSV,2,2,07,79,24,332,36,87,05,026,,68,03,238,,1*4A
$GAGSV,2,1,06,21,54,008,27,13,54,084,38,26,41,172,17,27,29,077,36,7*75
$GAGSV,2,2,06,15,15,040,20,33,02,199,,7*70
$GAGSV,1,1,04,13,54,084,32,26,41,172,23,27,29,077,37,15,15,040,26,1*71
$GBGSV,4,1,14,09,74,270,37,06,73,215,38,23,72,025,46,16,69,198,38,1*70
$GBGSV,4,2,14,40,61,327,43,43,61,038,34,07,61,306,40,39,59,186,39,1*79
$GBGSV,4,3,14,28,54,219,34,10,51,288,35,25,39,115,44,37,28,321,47,1*76
$GBGSV,4,4,14,34,13,040,30,38,09,169,,1*7D
$GBGSV,2,1,08,23,72,025,42,40,61,327,44,43,61,038,35,39,59,186,37,4*78
$GBGSV,2,2,08,28,54,219,38,25,39,115,33,37,28,321,39,34,13,040,28,4*76
$GNACCURACY,3.8*1D
$PAIRSAT,1,34,2,0,201,3,0,200,4,0,221,5,0,200,6,0,200,7,0,201,8,0,221,9,0,200,10,0,200,11,0,200,12,0,200,13,0,200,14,0,200,15,0,200,16,0,201,17,0,200,18,0,200,20,0,200,21,0,201,22,0,200,23,0,200,24,0,200,25,0,200,26,0,220,27,0,221,28,0,200,29,0,200,30,0,220,31,0,200,32,0,200,194,0,621,195,0,621,196,0,600,199,0,621*7C
$PAIRSAT,2,24,65,0,200,66,0,200,67,0,200,68,0,200,69,0,200,70,0,200,71,0,200,72,0,200,73,0,200,74,0,200,75,0,200,76,0,200,77,0,1,78,0,201,79,0,201,80,0,200,81,0,201,82,0,200,83,0,200,84,0,200,85,0,200,86,0,200,87,0,201,88,0,201*78
$PAIRSAT,3,23,2,0,1200,3,0,1200,4,0,1200,5,0,200,7,0,1200,8,0,1200,9,0,1200,10,0,1200,11,0,200,12,0,200,13,0,221,15,0,220,19,0,200,21,0,221,24,0,200,25,0,1200,26,0,1221,27,0,1221,30,0,1200,31,0,1200,33,0,1200,34,0,1000,36,0,1200*5B
$PAIRSAT,4,46,1,0,200,2,0,200,3,0,600,4,0,200,5,0,200,6,0,201,7,0,201,8,0,200,9,0,201,10,0,201,11,0,200,12,0,200,13,0,200,14,0,200,16,0,201,19,0,600,20,0,600,21,0,600,22,0,600,23,0,621,24,0,600,25,0,621,26,0,600,27,0,600,28,0,621,29,0,600,30,0,600,32,0,400,33,0,400,34,0,421,35,0,400,36,0,400,37,0,421,38,0,400,39,0,421,40,0,421,41,0,400,42,0,400,43,0,421,44,0,400,45,0,400,46,0,400,59,0,400,60,0,400,61,0,400,62,0,400*4A
$PAIRDGP,10,2,4,7,8,9,16,21,26,27,30*42
$GNGGA,040354.200,2500.7794804,N,12132.4539926,E,4,51,0.55,16.718,M,15.25,M,1,3335*49
$GNRMC,040354.200,A,2500.7794804,N,12132.4539926,E,0.03,145.54,090324,,,R,V*10
$GPHDT,,T*1B
$GNACCURACY,3.8*1D
$GNGGA,040354.300,2500.7794828,N,12132.4539917,E,4,51,0.55,16.708,M,15.25,M,1,3335*45
$GNRMC,040354.300,A,2500.7794828,N,12132.4539917,E,0.03,145.54,090324,,,R,V*1D
$GPHDT,,T*1B
$GNACCURACY,3.8*1D
$GNGGA,040354.400,2500.7794830,N,12132.4539928,E,4,51,0.55,16.710,M,15.25,M,1,3335*4E
$GNRMC,040354.400,A,2500.7794830,N,12132.4539928,E,0.01,145.54,090324,,,R,V*1D
$GPHDT,,T*1B
$GNACCURACY,3.8*1D
$GNGGA,040354.500,2500.7794842,N,12132.4539924,E,4,50,0.55,16.703,M,15.25,M,1,3335*45
$GNRMC,040354.500,A,2500.7794842,N,12132.4539924,E,0.01,145.54,090324,,,R,V*15
$GPHDT,,T*1B
$GNACCURACY,3.8*1D
$GNGGA,040354.600,2500.7794873,N,12132.4539943,E,4,50,0.55,16.726,M,15.25,M,0,3335*43
$GNRMC,040354.600,A,2500.7794873,N,12132.4539943,E,0.01,145.54,090324,,,R,V*15
$GPHDT,,T*1B
$GNACCURACY,3.8*1D
$GNGGA,040354.700,2500.7794836,N,12132.4539857,E,4,50,0.55,16.738,M,15.25,M,0,3335*48
$GNRMC,040354.700,A,2500.7794836,N,12132.4539857,E,0.01,145.54,090324,,,R,V*11
$GPHDT,,T*1B
$GNACCURACY,3.7*12
$GNGGA,040354.800,2500.7794856,N,12132.4539902,E,4,51,0.54,16.732,M,15.25,M,0,3335*4A
$GNRMC,040354.800,A,2500.7794856,N,12132.4539902,E,0.03,145.54,090324,,,R,V*1B
$GPHDT,,T*1B
$GNACCURACY,3.7*12
$GNGGA,040354.900,2500.7794890,N,12132.4539871,E,4,52,0.54,16.746,M,15.25,M,0,3335*44
$GNRMC,040354.900,A,2500.7794890,N,12132.4539871,E,0.03,145.54,090324,,,R,V*15
$GPHDT,,T*1B
$GNACCURACY,3.7*12
$GNGGA,040355.000,2500.7794832,N,12132.4539903,E,4,53,0.54,16.716,M,15.25,M,1,3335*45
$GNRMC,040355.000,A,2500.7794832,N,12132.4539903,E,0.02,145.54,090324,,,R,V*10
$GPHDT,,T*1B
