$FW : RTK35X,V1.1X0314AS,Lib20210517,1*54
$Tool : LOCOSYS , GNSS Firebird , v1.0.0.19*39
$---------------------------------------------------*2D
$GPHDT,,T*1B
$GNACCURACY,4.0*12
$GNGGA,040320.800,2500.7794791,N,12132.4539772,E,4,50,0.55,16.725,M,15.25,M,0,3335*42
$GNRMC,040320.800,A,2500.7794791,N,12132.4539772,E,0.02,145.54,090324,,,R,V*14
$GPHDT,,T*1B
$GNACCURACY,4.0*12
$GNGGA,040320.900,2500.7794799,N,12132.4539785,E,4,50,0.55,16.724,M,15.25,M,0,3335*42
$GNRMC,040320.900,A,2500.7794799,N,12132.4539785,E,0.03,145.54,090324,,,R,V*14
$GPHDT,,T*1B
$GNACCURACY,4.0*12
$GNGGA,040321.000,2500.7794798,N,12132.4539776,E,4,50,0.55,16.721,M,15.25,M,1,3335*43
$GNRMC,040321.000,A,2500.7794798,N,12132.4539776,E,0.03,145.54,090324,,,R,V*11
$GPHDT,,T*1B
$GNACCURACY,4.0*12
$GNGGA,040321.100,2500.7794779,N,12132.4539751,E,4,50,0.55,16.719,M,15.25,M,1,3335*43
$GNRMC,040321.100,A,2500.7794779,N,12132.4539751,E,0.02,145.54,090324,,,R,V*1B
$GPHDT,,T*1B
$GNGSA,A,3,194,08,195,199,21,02,07,27,16,04,,,0.86,0.55,0.66,1*37
$GNGSA,A,3,81,88,78,77,79,,,,,,,,0.86,0.55,0.66,2*04
$GNGSA,A,3,13,21,26,27,15,,,,,,,,0.86,0.55,0.66,3*09
$GNGSA,A,3,09,06,23,16,43,40,07,39,28,10,25,37,0.86,0.55,0.66,4*05
$GNGSA,A,3,34,,,,,,,,,,,,0.86,0.55,0.66,4*0D
$GPGSV,4,1,16,194,64,051,31,08,64,350,38,195,63,116,40,50,60,167,40,1*64
$GPGSV,4,2,16,199,60,167,37,21,57,158,40,02,45,177,19,07,39,318,39,1*58
$GPGSV,4,3,16,27,35,034,34,16,28,072,39,09,25,249,15,04,20,205,18,1*68
$GPGSV,4,4,16,196,20,170,22,30,09,320,23,26,09,097,18,18,,,21,1*63
$GPGSV,3,1,10,194,64,051,40,08,64,350,31,195,63,116,44,199,60,167,38,8*5C
$GPGSV,3,2,10,27,35,034,15,09,25,249,22,04,20,205,16,196,20,170,25,8*57
$GPGSV,3,3,10,30,09,320,26,26,09,097,19,8*68
$GLGSV,2,1,06,81,61,198,41,88,58,034,36,78,55,032,30,77,25,107,33,1*75
$GLGSV,2,2,06,79,24,332,25,87,05,026,14,1*78
$GAGSV,2,1,06,13,54,085,39,21,54,008,26,26,41,172,22,27,29,077,38,7*7C
$GAGSV,2,2,06,19,29,243,,15,15,040,18,7*7E
$GAGSV,2,1,05,21,54,008,21,13,54,085,35,26,41,172,29,27,29,077,39,1*78
$GAGSV,2,2,05,15,15,040,22,1*44
$GBGSV,4,1,14,09,74,270,39,06,73,215,33,23,72,024,47,16,70,198,37,1*72
$GBGSV,4,2,14,43,61,038,38,40,61,327,44,07,61,306,39,39,59,186,37,1*72
$GBGSV,4,3,14,28,53,219,32,10,51,288,31,25,39,115,47,37,28,321,44,1*73
$GBGSV,4,4,14,34,13,040,30,58,,,31,1*4E
$GBGSV,2,1,07,23,72,024,42,40,61,327,42,43,61,038,34,39,59,186,37,4*71
$GBGSV,2,2,07,28,53,219,36,25,39,115,44,37,28,321,29,4*4A
$GNACCURACY,4.0*12
$PAIRSAT,1,33,2,0,201,3,0,200,4,0,221,5,0,200,6,0,200,7,0,201,8,0,221,9,0,200,10,0,200,11,0,200,12,0,200,13,0,200,14,0,200,15,0,200,16,0,201,17,0,200,20,0,200,21,0,201,22,0,200,23,0,200,24,0,200,25,0,200,26,0,220,27,0,221,28,0,200,29,0,200,30,0,200,31,0,200,32,0,200,194,0,621,195,0,621,196,0,600,199,0,621*5E
$PAIRSAT,2,24,65,0,200,66,0,200,67,0,200,68,0,200,69,0,200,70,0,200,71,0,200,72,0,200,73,0,200,74,0,200,75,0,200,76,0,200,77,0,1,78,0,201,79,0,201,80,0,200,81,0,201,82,0,200,83,0,200,84,0,200,85,0,200,86,0,200,87,0,201,88,0,201*78
$PAIRSAT,3,23,2,0,1200,3,0,1200,4,0,1200,5,0,200,7,0,1200,8,0,1200,9,0,1200,10,0,200,11,0,200,12,0,200,13,0,221,15,0,220,19,0,200,21,0,221,24,0,200,25,0,1200,26,0,1221,27,0,1221,30,0,1000,31,0,1000,33,0,1200,34,0,1000,36,0,1200*6A
$PAIRSAT,4,45,1,0,200,2,0,200,3,0,600,4,0,200,5,0,200,6,0,201,7,0,201,9,0,201,10,0,201,11,0,200,12,0,200,13,0,200,14,0,200,16,0,201,19,0,600,20,0,600,21,0,600,22,0,600,23,0,621,24,0,600,25,0,621,26,0,600,27,0,600,28,0,621,29,0,600,30,0,600,32,0,400,33,0,400,34,0,421,35,0,400,36,0,400,37,0,421,38,0,400,39,0,421,40,0,421,41,0,400,42,0,400,43,0,421,44,0,400,45,0,400,46,0,400,59,0,400,60,0,400,61,0,400,62,0,400*5F
$PAIRDGP,10,2,4,7,8,9,16,21,26,27,30*42
$GNGGA,040321.200,2500.7794816,N,12132.4539812,E,4,50,0.55,16.717,M,15.25,M,1,3335*40
$GNRMC,040321.200,A,2500.7794816,N,12132.4539812,E,0.02,145.54,090324,,,R,V*16
$GPHDT,,T*1B
$GNACCURACY,4.0*12
$GNGGA,040321.300,2500.7794842,N,12132.4539824,E,4,50,0.55,16.725,M,15.25,M,1,3335*44
$GNRMC,040321.300,A,2500.7794842,N,12132.4539824,E,0.03,145.54,090324,,,R,V*12
$GPHDT,,T*1B
$GNACCURACY,4.0*12
$GNGGA,040321.400,2500.7794807,N,12132.4539789,E,4,50,0.55,16.713,M,15.25,M,1,3335*4F
$GNRMC,040321.400,A,2500.7794807,N,12132.4539789,E,0.02,145.54,090324,,,R,V*1D
$GPHDT,,T*1B
$GNACCURACY,4.0*12
$GNGGA,040321.500,2500.7794807,N,12132.4539805,E,4,50,0.55,16.723,M,15.25,M,1,3335*46
$GNRMC,040321.500,A,2500.7794807,N,12132.4539805,E,0.03,145.54,090324,,,R,V*16
$GPHDT,,T*1B
$GNACCURACY,4.0*12
$GNGGA,040321.600,2500.7794860,N,12132.4539810,E,4,50,0.55,16.746,M,15.25,M,0,3335*42
$GNRMC,040321.600,A,2500.7794860,N,12132.4539810,E,0.02,145.54,090324,,,R,V*11
$GPHDT,,T*1B
$GNACCURACY,4.0*12
$GNGGA,040321.700,2500.7794882,N,12132.4539823,E,4,50,0.55,16.746,M,15.25,M,0,3335*4F
$GNRMC,040321.700,A,2500.7794882,N,12132.4539823,E,0.03,145.54,090324,,,R,V*1D
$GPHDT,,T*1B
$GNACCURACY,4.0*12
$GNGGA,040321.800,2500.7794882,N,12132.4539854,E,4,50,0.55,16.749,M,15.25,M,0,3335*4F
$GNRMC,040321.800,A,2500.7794882,N,12132.4539854,E,0.02,145.54,090324,,,R,V*13
$GPHDT,,T*1B
$GNACCURACY,4.0*12
$GNGGA,040321.900,2500.7794930,N,12132.4539912,E,4,51,0.55,16.739,M,15.25,M,0,3335*43
$GNRMC,040321.900,A,2500.7794930,N,12132.4539912,E,0.02,145.54,090324,,,R,V*19
$GPHDT,,T*1B
$GNACCURACY,4.0*12
$GNGGA,040322.000,2500.7794866,N,12132.4539909,E,4,51,0.55,16.713,M,15.25,M,1,3335*48
$GNRMC,040322.000,A,2500.7794866,N,12132.4539909,E,0.02,145.54,090324,,,R,V*1B
$GPHDT,,T*1B
$GNACCURACY,4.0*12
$GNGGA,040322.100,2500.7794883,N,12132.4539884,E,4,51,0.55,16.722,M,15.25,M,1,3335*44
$GNRMC,040322.100,A,2500.7794883,N,12132.4539884,E,0.02,145.54,090324,,,R,V*15
$GPHDT,,T*1B
$GNGSA,A,3,194,08,195,199,21,02,07,27,16,04,,,0.86,0.55,0.66,1*37
$GNGSA,A,3,81,88,78,77,79,,,,,,,,0.86,0.55,0.66,2*04
$GNGSA,A,3,21,13,26,27,15,,,,,,,,0.86,0.55,0.66,3*09
$GNGSA,A,3,09,06,23,16,40,43,07,39,28,10,25,37,0.86,0.55,0.66,4*05
$GNGSA,A,3,34,,,,,,,,,,,,0.86,0.55,0.66,4*0D
$GPGSV,4,1,16,194,64,051,32,08,64,350,37,195,63,116,41,50,60,167,39,1*67
$GPGSV,4,2,16,199,60,167,36,21,57,158,37,02,45,177,19,07,39,318,40,1*57
$GPGSV,4,3,16,27,35,034,34,16,28,072,39,09,25,249,16,04,20,205,17,1*64
$GPGSV,4,4,16,196,20,170,22,26,09,097,16,30,09,320,23,18,,,18,1*67
$GPGSV,3,1,10,194,64,051,40,08,64,350,35,195,63,116,44,199,60,167,42,8*55
$GPGSV,3,2,10,27,35,034,17,09,25,249,23,04,20,205,16,196,20,170,25,8*54
$GPGSV,3,3,10,30,09,320,28,26,09,097,19,8*66
$GLGSV,2,1,07,81,61,198,43,88,58,034,36,78,55,032,32,77,25,107,33,1*74
$GLGSV,2,2,07,79,24,332,23,82,13,203,,87,05,026,13,1*41
$GAGSV,2,1,07,21,54,008,28,13,54,085,38,26,41,172,24,19,29,243,,7*77
$GAGSV,2,2,07,27,29,077,38,15,15,040,19,04,12,301,,7*48
$GAGSV,2,1,05,21,54,008,24,13,54,085,35,26,41,172,29,27,29,077,39,1*7D
$GAGSV,2,2,05,15,15,040,22,1*44
$GBGSV,4,1,15,09,74,270,38,06,73,215,33,23,72,024,46,16,70,198,37,1*73
$GBGSV,4,2,15,40,61,327,44,43,61,038,38,07,61,306,39,39,59,186,39,1*7D
$GBGSV,4,3,15,28,53,219,34,10,51,288,31,25,39,115,47,37,28,321,42,1*72
$GBGSV,4,4,15,34,13,040,31,27,08,219,,58,,,31,1*79
$GBGSV,2,1,07,23,72,024,44,40,61,327,42,43,61,038,34,39,59,186,37,4*77
$GBGSV,2,2,07,28,53,219,40,25,39,115,43,37,28,321,33,4*47
$GNACCURACY,4.0*12
$PAIRSAT,1,33,2,0,201,3,0,200,4,0,221,5,0,200,6,0,200,7,0,201,8,0,221,9,0,200,10,0,200,11,0,200,12,0,200,13,0,200,14,0,200,15,0,200,16,0,201,17,0,200,20,0,200,21,0,201,22,0,200,23,0,200,24,0,200,25,0,200,26,0,220,27,0,221,28,0,200,29,0,200,30,0,200,31,0,200,32,0,200,194,0,621,195,0,621,196,0,600,199,0,621*5E
$PAIRSAT,2,24,65,0,200,66,0,200,67,0,200,68,0,200,69,0,200,70,0,200,71,0,200,72,0,200,73,0,200,74,0,200,75,0,200,76,0,200,77,0,1,78,0,201,79,0,201,80,0,200,81,0,201,82,0,200,83,0,200,84,0,200,85,0,200,86,0,200,87,0,201,88,0,201*78
$PAIRSAT,3,23,2,0,1200,3,0,1200,4,0,1200,5,0,200,7,0,1200,8,0,1200,9,0,1200,10,0,200,11,0,200,12,0,200,13,0,221,15,0,220,19,0,200,21,0,221,24,0,200,25,0,1200,26,0,1221,27,0,1221,30,0,1000,31,0,1000,33,0,1200,34,0,1000,36,0,1200*6A
$PAIRSAT,4,45,1,0,200,2,0,200,3,0,600,4,0,200,5,0,200,6,0,201,7,0,201,9,0,201,10,0,201,11,0,200,12,0,200,13,0,200,14,0,200,16,0,201,19,0,600,20,0,600,21,0,600,22,0,600,23,0,621,24,0,600,25,0,621,26,0,600,27,0,600,28,0,621,29,0,600,30,0,600,32,0,400,33,0,400,34,0,421,35,0,400,36,0,400,37,0,421,38,0,400,39,0,421,40,0,421,41,0,400,42,0,400,43,0,421,44,0,400,45,0,400,46,0,400,59,0,400,60,0,400,61,0,400,62,0,400*5F
$PAIRDGP,10,2,4,7,8,9,16,21,26,27,30*42
$GNGGA,040322.200,2500.7794875,N,12132.4539923,E,4,51,0.55,16.709,M,15.25,M,1,3335*4B
$GNRMC,040322.200,A,2500.7794875,N,12132.4539923,E,0.01,145.54,090324,,,R,V*10
$GPHDT,,T*1B
$GNACCURACY,4.0*12
$GNGGA,040322.300,2500.7794864,N,12132.4539901,E,4,51,0.55,16.717,M,15.25,M,1,3335*45
$GNRMC,040322.300,A,2500.7794864,N,12132.4539901,E,0.01,145.54,090324,,,R,V*11
$GPHDT,,T*1B
$GNACCURACY,4.0*12
$GNGGA,040322.400,2500.7794865,N,12132.4539913,E,4,51,0.55,16.721,M,15.25,M,1,3335*45
$GNRMC,040322.400,A,2500.7794865,N,12132.4539913,E,0.02,145.54,090324,,,R,V*17
$GPHDT,,T*1B
$GNACCURACY,4.0*12
$GNGGA,040322.500,2500.7794867,N,12132.4539896,E,4,51,0.55,16.704,M,15.25,M,1,3335*4D
$GNRMC,040322.500,A,2500.7794867,N,12132.4539896,E,0.02,145.54,090324,,,R,V*18
$GPHDT,,T*1B
$GNACCURACY,4.0*12
$GNGGA,040322.600,2500.7794921,N,12132.4539943,E,4,51,0.55,16.718,M,15.25,M,1,3335*49
$GNRMC,040322.600,A,2500.7794921,N,12132.4539943,E,0.02,145.54,090324,,,R,V*11
$GPHDT,,T*1B
$GNACCURACY,4.0*12
$GNGGA,040322.700,2500.7794899,N,12132.4539919,E,4,51,0.55,16.716,M,15.25,M,1,3335*4B
$GNRMC,040322.700,A,2500.7794899,N,12132.4539919,E,0.03,145.54,090324,,,R,V*1C
$GPHDT,,T*1B
$GNACCURACY,4.0*12
$GNGGA,040322.800,2500.7794893,N,12132.4539905,E,4,51,0.55,16.721,M,15.25,M,0,3335*46
$GNRMC,040322.800,A,2500.7794893,N,12132.4539905,E,0.03,145.54,090324,,,R,V*14
$GPHDT,,T*1B
$GNACCURACY,4.0*12
$GNGGA,040322.900,2500.7794900,N,12132.4539861,E,4,51,0.55,16.739,M,15.25,M,0,3335*46
$GNRMC,040322.900,A,2500.7794900,N,12132.4539861,E,0.03,145.54,090324,,,R,V*1D
$GPHDT,,T*1B
$GNACCURACY,4.0*12
$GNGGA,040323.000,2500.7794874,N,12132.4539812,E,4,51,0.55,16.729,M,15.25,M,1,3335*48
$GNRMC,040323.000,A,2500.7794874,N,12132.4539812,E,0.03,145.54,090324,,,R,V*13
$GPHDT,,T*1B
$GNACCURACY,4.0*12
$GNGGA,040323.100,2500.7794839,N,12132.4539828,E,4,51,0.55,16.724,M,15.25,M,1,3335*44
$GNRMC,040323.100,A,2500.7794839,N,12132.4539828,E,0.03,145.54,090324,,,R,V*12
$GPHDT,,T*1B
$GNGSA,A,3,08,194,195,199,21,02,07,27,16,04,,,0.86,0.55,0.66,1*37
$GNGSA,A,3,81,88,78,77,79,,,,,,,,0.86,0.55,0.66,2*04
$GNGSA,A,3,13,21,26,27,15,,,,,,,,0.86,0.55,0.66,3*09
$GNGSA,A,3,09,06,23,16,43,07,40,39,28,10,25,37,0.86,0.55,0.66,4*05
$GNGSA,A,3,34,,,,,,,,,,,,0.86,0.55,0.66,4*0D
$GPGSV,4,1,16,08,64,350,38,194,64,051,34,195,63,116,41,199,60,167,35,1*56
$GPGSV,4,2,16,50,60,167,38,21,57,158,37,02,45,177,17,07,39,317,40,1*6C
$GPGSV,4,3,16,27,35,034,33,16,28,072,39,09,25,249,17,196,20,170,22,1*5F
$GPGSV,4,4,16,04,19,204,15,30,09,320,21,26,09,097,16,18,,,18,1*51
$GPGSV,3,1,10,194,64,051,40,08,64,350,34,195,63,116,44,199,60,167,43,8*55
$GPGSV,3,2,10,27,35,034,17,09,25,249,24,196,20,170,24,04,19,204,16,8*59
$GPGSV,3,3,10,30,09,320,27,26,09,097,18,8*68
$GLGSV,2,1,06,81,61,198,44,88,58,034,37,78,55,032,32,77,25,107,32,1*72
$GLGSV,2,2,06,79,24,332,24,87,05,026,15,1*78
$GAGSV,2,1,07,13,54,085,37,21,54,008,25,26,41,172,26,27,29,077,38,7*74
$GAGSV,2,2,07,19,29,243,,15,15,040,22,04,12,301,,7*43
$GAGSV,2,1,05,21,54,008,24,13,54,085,36,26,41,172,29,27,29,077,40,1*70
$GAGSV,2,2,05,15,15,040,23,1*45
$GBGSV,4,1,15,09,74,270,37,06,73,215,33,23,72,024,46,16,70,198,37,1*7C
$GBGSV,4,2,15,43,61,038,38,07,61,306,39,40,61,327,44,39,59,186,40,1*73
$GBGSV,4,3,15,28,53,219,33,10,51,288,33,25,39,115,47,37,28,321,42,1*77
$GBGSV,4,4,15,34,13,040,33,27,08,219,,58,,,33,1*79
$GBGSV,2,1,07,23,72,024,44,40,61,327,42,43,61,038,34,39,59,186,37,4*77
$GBGSV,2,2,07,28,53,219,40,25,39,115,43,37,28,321,31,4*45
$GNACCURACY,4.0*12
$PAIRSAT,1,33,2,0,201,3,0,200,4,0,221,5,0,200,6,0,200,7,0,201,8,0,221,9,0,200,10,0,200,11,0,200,12,0,200,13,0,200,14,0,200,15,0,200,16,0,201,17,0,200,20,0,200,21,0,201,22,0,200,23,0,200,24,0,200,25,0,200,26,0,220,27,0,221,28,0,200,29,0,200,30,0,200,31,0,200,32,0,200,194,0,621,195,0,621,196,0,600,199,0,621*5E
$PAIRSAT,2,24,65,0,200,66,0,200,67,0,200,68,0,200,69,0,200,70,0,200,71,0,200,72,0,200,73,0,200,74,0,200,75,0,200,76,0,200,77,0,1,78,0,201,79,0,201,80,0,200,81,0,201,82,0,200,83,0,200,84,0,200,85,0,200,86,0,200,87,0,201,88,0,201*78
$PAIRSAT,3,23,2,0,1200,3,0,1200,4,0,1200,5,0,200,7,0,1200,8,0,1200,9,0,1200,10,0,200,11,0,200,12,0,200,13,0,221,15,0,220,19,0,200,21,0,221,24,0,200,25,0,1200,26,0,1221,27,0,1221,30,0,1200,31,0,1000,33,0,1200,34,0,1000,36,0,1200*68
$PAIRSAT,4,45,1,0,200,2,0,200,3,0,600,4,0,200,5,0,200,6,0,201,7,0,201,9,0,201,10,0,201,11,0,200,12,0,200,13,0,200,14,0,200,16,0,201,19,0,600,20,0,600,21,0,600,22,0,600,23,0,621,24,0,600,25,0,621,26,0,600,27,0,600,28,0,621,29,0,600,30,0,600,32,0,400,33,0,400,34,0,421,35,0,400,36,0,400,37,0,421,38,0,400,39,0,421,40,0,421,41,0,400,42,0,400,43,0,421,44,0,400,45,0,400,46,0,400,59,0,400,60,0,400,61,0,400,62,0,400*5F
$PAIRDGP,10,2,4,7,8,9,16,21,26,27,30*42
$GNGGA,040323.200,2500.7794840,N,12132.4539795,E,4,51,0.55,16.713,M,15.25,M,1,3335*44
$GNRMC,040323.200,A,2500.7794840,N,12132.4539795,E,0.02,145.54,090324,,,R,V*17
$GPHDT,,T*1B
$GNACCURACY,4.0*12
$GNGGA,040323.300,2500.7794827,N,12132.4539767,E,4,51,0.55,16.730,M,15.25,M,1,3335*48
$GNRMC,040323.300,A,2500.7794827,N,12132.4539767,E,0.03,145.54,090324,,,R,V*1B
$GPHDT,,T*1B
$GNACCURACY,4.0*12
$GNGGA,040323.400,2500.7794866,N,12132.4539836,E,4,51,0.55,16.720,M,15.25,M,1,3335*40
$GNRMC,040323.400,A,2500.7794866,N,12132.4539836,E,0.03,145.54,090324,,,R,V*12
$GPHDT,,T*1B
$GNACCURACY,4.0*12
$GNGGA,040323.500,2500.7794853,N,12132.4539808,E,4,51,0.55,16.720,M,15.25,M,1,3335*4A
$GNRMC,040323.500,A,2500.7794853,N,12132.4539808,E,0.03,145.54,090324,,,R,V*18
$GPHDT,,T*1B
$GNACCURACY,4.0*12
$GNGGA,040323.600,2500.7794828,N,12132.4539772,E,4,51,0.55,16.725,M,15.25,M,0,3335*43
$GNRMC,040323.600,A,2500.7794828,N,12132.4539772,E,0.03,145.54,090324,,,R,V*15
$GPHDT,,T*1B
$GNACCURACY,4.0*12
$GNGGA,040323.700,2500.7794872,N,12132.4539811,E,4,51,0.55,16.724,M,15.25,M,0,3335*46
$GNRMC,040323.700,A,2500.7794872,N,12132.4539811,E,0.03,145.54,090324,,,R,V*11
$GPHDT,,T*1B
$GNACCURACY,4.0*12
$GNGGA,040323.800,2500.7794853,N,12132.4539810,E,4,51,0.55,16.709,M,15.25,M,0,3335*44
$GNRMC,040323.800,A,2500.7794853,N,12132.4539810,E,0.03,145.54,090324,,,R,V*1C
$GPHDT,,T*1B
$GNACCURACY,4.0*12
$GNGGA,040323.900,2500.7794854,N,12132.4539780,E,4,51,0.55,16.728,M,15.25,M,0,3335*47
$GNRMC,040323.900,A,2500.7794854,N,12132.4539780,E,0.03,145.54,090324,,,R,V*1C
$GPHDT,,T*1B
$GNACCURACY,4.0*12
$GNGGA,040324.000,2500.7794828,N,12132.4539835,E,4,51,0.55,16.700,M,15.25,M,1,3335*48
$GNRMC,040324.000,A,2500.7794828,N,12132.4539835,E,0.04,145.54,090324,,,R,V*1F
$GPHDT,,T*1B
$GNACCURACY,4.0*12
$GNGGA,040324.100,2500.7794839,N,12132.4539830,E,4,50,0.55,16.707,M,15.25,M,1,3335*4A
$GNRMC,040324.100,A,2500.7794839,N,12132.4539830,E,0.03,145.54,090324,,,R,V*1C
$GPHDT,,T*1B
$GNGSA,A,3,08,194,195,199,21,02,07,27,16,04,,,0.86,0.55,0.66,1*37
$GNGSA,A,3,81,88,78,77,79,,,,,,,,0.86,0.55,0.66,2*04
$GNGSA,A,3,13,21,26,27,15,,,,,,,,0.86,0.55,0.66,3*09
$GNGSA,A,3,09,06,23,16,43,07,40,39,28,10,25,37,0.86,0.55,0.66,4*05
$GNGSA,A,3,34,,,,,,,,,,,,0.86,0.55,0.66,4*0D
$GPGSV,4,1,16,08,64,350,38,194,64,051,33,195,63,116,41,199,60,167,35,1*51
$GPGSV,4,2,16,50,60,167,38,21,57,158,38,02,45,177,15,07,39,317,40,1*61
$GPGSV,4,3,16,27,35,034,32,16,28,073,39,09,25,249,17,196,20,170,21,1*5C
$GPGSV,4,4,16,04,19,204,15,30,09,320,23,26,09,097,14,18,,,18,1*51
$GPGSV,3,1,10,194,64,051,40,08,64,350,34,195,63,116,44,199,60,167,42,8*54
$GPGSV,3,2,10,27,35,034,12,09,25,249,22,196,20,170,21,04,19,204,16,8*5F
$GPGSV,3,3,10,30,09,320,25,26,09,097,17,8*65
$GLGSV,2,1,06,81,61,198,44,88,58,034,37,78,55,032,32,77,25,107,33,1*73
$GLGSV,2,2,06,79,24,332,26,87,05,026,14,1*7B
$GAGSV,2,1,07,13,54,085,38,21,54,008,24,26,41,172,28,19,29,243,,7*77
$GAGSV,2,2,07,27,29,077,38,15,15,040,21,04,12,301,,7*43
$GAGSV,2,1,05,21,54,008,23,13,54,085,35,26,41,172,29,27,29,077,40,1*74
$GAGSV,2,2,05,15,15,040,24,1*42
$GBGSV,4,1,14,09,74,270,38,06,73,215,32,23,72,024,46,16,70,198,38,1*7C
$GBGSV,4,2,14,43,61,038,38,07,61,306,39,40,61,327,44,39,59,186,39,1*7C
$GBGSV,4,3,14,28,53,219,34,10,51,288,32,25,39,115,47,37,28,321,42,1*70
$GBGSV,4,4,14,34,13,040,32,58,,,34,1*49
$GBGSV,2,1,07,23,72,024,44,40,61,327,42,43,61,038,34,39,59,186,38,4*78
$GBGSV,2,2,07,28,53,219,40,25,39,115,43,37,28,321,31,4*45
$GNACCURACY,4.0*12
$PAIRSAT,1,33,2,0,201,3,0,200,4,0,221,5,0,200,6,0,200,7,0,201,8,0,221,9,0,200,10,0,200,11,0,200,12,0,200,13,0,200,14,0,200,15,0,200,16,0,201,17,0,200,20,0,200,21,0,201,22,0,200,23,0,200,24,0,200,25,0,200,26,0,220,27,0,221,28,0,200,29,0,200,30,0,200,31,0,200,32,0,200,194,0,621,195,0,621,196,0,600,199,0,621*5E
$PAIRSAT,2,24,65,0,200,66,0,200,67,0,200,68,0,200,69,0,200,70,0,200,71,0,200,72,0,200,73,0,200,74,0,200,75,0,200,76,0,200,77,0,1,78,0,201,79,0,201,80,0,200,81,0,201,82,0,200,83,0,200,84,0,200,85,0,200,86,0,200,87,0,201,88,0,201*78
$PAIRSAT,3,23,2,0,1200,3,0,1200,4,0,1200,5,0,200,7,0,1200,8,0,1200,9,0,1200,10,0,200,11,0,200,12,0,200,13,0,221,15,0,220,19,0,200,21,0,221,24,0,200,25,0,1200,26,0,1221,27,0,1221,30,0,1200,31,0,1000,33,0,1200,34,0,1000,36,0,1200*68
$PAIRSAT,4,45,1,0,200,2,0,200,3,0,600,4,0,200,5,0,200,6,0,201,7,0,201,9,0,201,10,0,201,11,0,200,12,0,200,13,0,200,14,0,200,16,0,201,19,0,600,20,0,600,21,0,600,22,0,600,23,0,621,24,0,600,25,0,621,26,0,600,27,0,600,28,0,621,29,0,600,30,0,600,32,0,400,33,0,400,34,0,421,35,0,400,36,0,400,37,0,421,38,0,400,39,0,421,40,0,421,41,0,400,42,0,400,43,0,421,44,0,400,45,0,400,46,0,400,59,0,400,60,0,400,61,0,400,62,0,400*5F
$PAIRDGP,10,2,4,7,8,9,16,21,26,27,30*42
$GNGGA,040324.200,2500.7794844,N,12132.4539861,E,4,50,0.55,16.708,M,15.25,M,1,3335*48
$GNRMC,040324.200,A,2500.7794844,N,12132.4539861,E,0.03,145.54,090324,,,R,V*11
$GPHDT,,T*1B
$GNACCURACY,4.0*12
$GNGGA,040324.300,2500.7794851,N,12132.4539855,E,4,50,0.55,16.707,M,15.25,M,1,3335*45
$GNRMC,040324.300,A,2500.7794851,N,12132.4539855,E,0.03,145.54,090324,,,R,V*13
$GPHDT,,T*1B
$GNACCURACY,4.0*12
$GNGGA,040324.400,2500.7794833,N,12132.4539878,E,4,50,0.55,16.707,M,15.25,M,1,3335*49
$GNRMC,040324.400,A,2500.7794833,N,12132.4539878,E,0.03,145.54,090324,,,R,V*1F
$GPHDT,,T*1B
$GNACCURACY,4.0*12
$GNGGA,040324.500,2500.7794843,N,12132.4539896,E,4,50,0.55,16.707,M,15.25,M,1,3335*4F
$GNRMC,040324.500,A,2500.7794843,N,12132.4539896,E,0.03,145.54,090324,,,R,V*19
$GPHDT,,T*1B
$GNACCURACY,4.0*12
$GNGGA,040324.600,2500.7794819,N,12132.4539855,E,4,50,0.55,16.695,M,15.25,M,1,3335*46
$GNRMC,040324.600,A,2500.7794819,N,12132.4539855,E,0.03,145.54,090324,,,R,V*1A
$GPHDT,,T*1B
$GNACCURACY,4.0*12
$GNGGA,040324.700,2500.7794811,N,12132.4539857,E,4,50,0.55,16.701,M,15.25,M,1,3335*41
$GNRMC,040324.700,A,2500.7794811,N,12132.4539857,E,0.02,145.54,090324,,,R,V*10
$GPHDT,,T*1B
$GNACCURACY,4.0*12
$GNGGA,040324.800,2500.7794852,N,12132.4539893,E,4,50,0.55,16.705,M,15.25,M,1,3335*45
$GNRMC,040324.800,A,2500.7794852,N,12132.4539893,E,0.02,145.54,090324,,,R,V*10
$GPHDT,,T*1B
$GNACCURACY,4.0*12
$GNGGA,040324.900,2500.7794812,N,12132.4539868,E,4,50,0.55,16.696,M,15.25,M,0,3335*4E
$GNRMC,040324.900,A,2500.7794812,N,12132.4539868,E,0.02,145.54,090324,,,R,V*11
$GPHDT,,T*1B
$GNACCURACY,4.0*12
$GNGGA,040325.000,2500.7794796,N,12132.4539813,E,4,50,0.55,16.688,M,15.25,M,1,3335*47
$GNRMC,040325.000,A,2500.7794796,N,12132.4539813,E,0.02,145.54,090324,,,R,V*16
$GPHDT,,T*1B
$GNACCURACY,4.0*12
$GNGGA,040325.100,2500.7794829,N,12132.4539841,E,4,49,0.57,16.693,M,15.25,M,1,3335*4A
$GNRMC,040325.100,A,2500.7794829,N,12132.4539841,E,0.02,145.54,090324,,,R,V*1B
$GPHDT,,T*1B
$GNGSA,A,3,194,08,195,199,21,07,27,16,04,,,,0.87,0.57,0.66,1*36
$GNGSA,A,3,81,88,78,77,79,,,,,,,,0.87,0.57,0.66,2*07
$GNGSA,A,3,21,13,26,27,15,,,,,,,,0.87,0.57,0.66,3*0A
$GNGSA,A,3,09,06,23,16,43,40,07,39,28,10,25,37,0.87,0.57,0.66,4*06
$GNGSA,A,3,34,,,,,,,,,,,,0.87,0.57,0.66,4*0E
$GPGSV,4,1,16,194,64,051,31,08,64,350,37,195,63,116,41,50,60,167,38,1*65
$GPGSV,4,2,16,199,60,167,35,21,57,158,37,02,45,177,15,07,39,317,40,1*57
$GPGSV,4,3,16,27,35,034,31,16,28,073,39,09,25,249,17,196,20,170,21,1*5F
$GPGSV,4,4,16,04,19,204,14,30,09,320,24,26,09,097,13,18,,,20,1*5B
$GPGSV,3,1,10,194,64,051,40,08,64,350,35,195,63,116,44,199,60,167,42,8*55
$GPGSV,3,2,10,27,35,034,17,09,25,249,24,196,20,170,21,04,19,204,16,8*5C
$GPGSV,3,3,10,30,09,320,28,26,09,097,17,8*68
$GLGSV,2,1,07,81,61,198,44,88,58,034,37,78,55,032,31,77,25,107,33,1*71
$GLGSV,2,2,07,79,24,332,25,69,05,284,,87,05,026,16,1*4F
$GAGSV,2,1,08,21,54,008,24,13,54,085,38,26,41,172,28,19,29,243,,7*78
$GAGSV,2,2,08,27,29,077,38,15,15,040,20,04,12,301,,33,02,199,,7*7E
$GAGSV,2,1,05,21,54,008,24,13,54,085,37,26,41,172,30,27,29,077,40,1*79
$GAGSV,2,2,05,15,15,040,26,1*40
$GBGSV,4,1,14,09,74,270,37,06,73,215,31,23,72,024,46,16,70,198,38,1*70
$GBGSV,4,2,14,43,61,038,38,40,61,327,44,07,61,306,39,39,59,186,39,1*7C
$GBGSV,4,3,14,28,53,219,33,10,51,288,34,25,39,115,46,37,28,321,42,1*70
$GBGSV,4,4,14,34,13,040,32,58,,,35,1*48
$GBGSV,2,1,07,23,72,024,44,40,61,327,43,43,61,038,34,39,59,186,39,4*78
$GBGSV,2,2,07,28,53,219,41,25,39,115,43,37,28,321,34,4*41
$GNACCURACY,4.0*12
$PAIRSAT,1,33,2,0,201,3,0,200,4,0,221,5,0,200,6,0,200,7,0,201,8,0,221,9,0,200,10,0,200,11,0,200,12,0,200,13,0,200,14,0,200,15,0,200,16,0,201,17,0,200,20,0,200,21,0,201,22,0,200,23,0,200,24,0,200,25,0,200,26,0,220,27,0,221,28,0,200,29,0,200,30,0,200,31,0,200,32,0,200,194,0,621,195,0,621,196,0,600,199,0,621*5E
$PAIRSAT,2,24,65,0,200,66,0,200,67,0,200,68,0,200,69,0,200,70,0,200,71,0,200,72,0,200,73,0,200,74,0,200,75,0,200,76,0,200,77,0,1,78,0,201,79,0,201,80,0,200,81,0,201,82,0,200,83,0,200,84,0,200,85,0,200,86,0,200,87,0,201,88,0,201*78
$PAIRSAT,3,23,2,0,1200,3,0,1200,4,0,1200,5,0,200,7,0,1200,8,0,1200,9,0,1200,10,0,200,11,0,200,12,0,200,13,0,221,15,0,220,19,0,200,21,0,221,24,0,200,25,0,1200,26,0,1221,27,0,1221,30,0,1200,31,0,1000,33,0,1200,34,0,1000,36,0,1200*68
$PAIRSAT,4,45,1,0,200,2,0,200,3,0,600,4,0,200,5,0,200,6,0,201,7,0,201,9,0,201,10,0,201,11,0,200,12,0,200,13,0,200,14,0,200,16,0,201,19,0,600,20,0,600,21,0,600,22,0,600,23,0,621,24,0,600,25,0,621,26,0,600,27,0,600,28,0,621,29,0,600,30,0,600,32,0,400,33,0,400,34,0,421,35,0,400,36,0,400,37,0,421,38,0,400,39,0,421,40,0,421,41,0,400,42,0,400,43,0,421,44,0,400,45,0,400,46,0,400,59,0,400,60,0,400,61,0,400,62,0,400*5F
$PAIRDGP,10,2,4,7,8,9,16,21,26,27,30*42
$GNGGA,040325.200,2500.7794842,N,12132.4539891,E,4,49,0.57,16.707,M,15.25,M,1,3335*45
$GNRMC,040325.200,A,2500.7794842,N,12132.4539891,E,0.02,145.54,090324,,,R,V*18
$GPHDT,,T*1B
$GNACCURACY,4.0*12
$GNGGA,040325.300,2500.7794860,N,12132.4539905,E,4,49,0.57,16.695,M,15.25,M,1,3335*42
$GNRMC,040325.300,A,2500.7794860,N,12132.4539905,E,0.03,145.54,090324,,,R,V*14
$GPHDT,,T*1B
$GNACCURACY,4.0*12
$GNGGA,040325.400,2500.7794799,N,12132.4539891,E,4,49,0.57,16.698,M,15.25,M,1,3335*4D
$GNRMC,040325.400,A,2500.7794799,N,12132.4539891,E,0.02,145.54,090324,,,R,V*17
$GPHDT,,T*1B
$GNACCURACY,4.0*12
$GNGGA,040325.500,2500.7794783,N,12132.4539799,E,4,49,0.57,16.689,M,15.25,M,1,3335*40
$GNRMC,040325.500,A,2500.7794783,N,12132.4539799,E,0.04,145.54,090324,,,R,V*1C
$GPHDT,,T*1B
$GNACCURACY,4.0*12
$GNGGA,040325.600,2500.7794777,N,12132.4539838,E,4,49,0.57,16.691,M,15.25,M,1,3335*45
$GNRMC,040325.600,A,2500.7794777,N,12132.4539838,E,0.04,145.54,090324,,,R,V*10
$GPHDT,,T*1B
$GNACCURACY,4.0*12
$GNGGA,040325.700,2500.7794813,N,12132.4539846,E,4,48,0.57,16.692,M,15.25,M,0,3335*43
$GNRMC,040325.700,A,2500.7794813,N,12132.4539846,E,0.03,145.54,090324,,,R,V*12
$GPHDT,,T*1B
$GNACCURACY,4.0*12
$GNGGA,040325.800,2500.7794820,N,12132.4539852,E,4,48,0.57,16.689,M,15.25,M,0,3335*43
$GNRMC,040325.800,A,2500.7794820,N,12132.4539852,E,0.04,145.54,090324,,,R,V*1F
$GPHDT,,T*1B
$GNACCURACY,4.0*12
$GNGGA,040325.900,2500.7794816,N,12132.4539851,E,4,48,0.57,16.691,M,15.25,M,0,3335*4D
$GNRMC,040325.900,A,2500.7794816,N,12132.4539851,E,0.04,145.54,090324,,,R,V*18
$GPHDT,,T*1B
$GNACCURACY,4.0*12
$GNGGA,040326.000,2500.7794828,N,12132.4539844,E,4,48,0.57,16.693,M,15.25,M,1,3335*4D
$GNRMC,040326.000,A,2500.7794828,N,12132.4539844,E,0.04,145.54,090324,,,R,V*1B
$GPHDT,,T*1B
$GNACCURACY,4.0*12
$GNGGA,040326.100,2500.7794829,N,12132.4539831,E,4,48,0.57,16.698,M,15.25,M,1,3335*44
$GNRMC,040326.100,A,2500.7794829,N,12132.4539831,E,0.04,145.54,090324,,,R,V*19
$GPHDT,,T*1B
$GNGSA,A,3,08,195,194,199,21,07,27,16,04,,,,0.87,0.57,0.66,1*36
$GNGSA,A,3,81,88,78,77,79,,,,,,,,0.87,0.57,0.66,2*07
$GNGSA,A,3,13,21,26,27,15,,,,,,,,0.87,0.57,0.66,3*0A
$GNGSA,A,3,09,06,23,16,07,43,40,39,28,10,25,37,0.87,0.57,0.66,4*06
$GNGSA,A,3,34,,,,,,,,,,,,0.87,0.57,0.66,4*0E
$GPGSV,4,1,16,08,64,350,36,195,64,116,41,194,64,051,31,50,60,167,38,1*63
$GPGSV,4,2,16,199,60,167,36,21,57,158,37,02,45,177,16,07,39,317,39,1*59
$GPGSV,4,3,16,27,35,034,31,16,28,073,39,09,25,249,17,196,20,170,21,1*5F
$GPGSV,4,4,16,04,19,204,15,30,09,320,23,26,09,097,12,18,,,18,1*57
$GPGSV,3,1,09,194,64,051,40,08,64,350,36,195,64,116,45,199,60,167,42,8*58
$GPGSV,3,2,09,09,25,249,24,196,20,170,23,04,19,204,17,30,09,320,28,8*54
$GPGSV,3,3,09,26,09,097,17,8*51
$GLGSV,2,1,06,81,61,198,44,88,58,034,36,78,55,032,30,77,25,107,33,1*70
$GLGSV,2,2,06,79,24,332,28,87,05,026,14,1*75
$GAGSV,2,1,07,13,54,085,37,21,54,008,24,26,41,172,28,27,29,077,38,7*7B
$GAGSV,2,2,07,15,15,040,20,04,12,301,,33,02,199,,7*44
$GAGSV,2,1,05,21,54,008,24,13,54,085,36,26,41,172,30,27,29,077,41,1*79
$GAGSV,2,2,05,15,15,040,27,1*41
$GBGSV,4,1,14,09,74,270,38,06,73,215,31,23,72,024,46,16,70,198,38,1*7F
$GBGSV,4,2,14,07,61,306,39,43,61,038,38,40,61,327,44,39,59,186,39,1*7C
$GBGSV,4,3,14,28,53,219,34,10,51,288,32,25,39,115,46,37,28,321,43,1*70
$GBGSV,4,4,14,34,13,040,32,58,,,35,1*48
$GBGSV,2,1,07,23,72,024,44,40,61,327,43,43,61,038,34,39,59,186,39,4*78
$GBGSV,2,2,07,28,53,219,41,25,39,115,43,37,28,321,33,4*46
$GNACCURACY,4.0*12
$PAIRSAT,1,33,2,0,201,3,0,200,4,0,221,5,0,200,6,0,200,7,0,201,8,0,221,9,0,200,10,0,200,11,0,200,12,0,200,13,0,200,14,0,200,15,0,200,16,0,201,17,0,200,20,0,200,21,0,201,22,0,200,23,0,200,24,0,200,25,0,200,26,0,220,27,0,221,28,0,200,29,0,200,30,0,200,31,0,200,32,0,200,194,0,621,195,0,621,196,0,600,199,0,621*5E
$PAIRSAT,2,24,65,0,200,66,0,200,67,0,200,68,0,200,69,0,200,70,0,200,71,0,200,72,0,200,73,0,200,74,0,200,75,0,200,76,0,200,77,0,1,78,0,201,79,0,201,80,0,200,81,0,201,82,0,200,83,0,200,84,0,200,85,0,200,86,0,200,87,0,201,88,0,201*78
$PAIRSAT,3,23,2,0,1200,3,0,1200,4,0,1200,5,0,200,7,0,1200,8,0,1200,9,0,1200,10,0,200,11,0,200,12,0,200,13,0,221,15,0,220,19,0,200,21,0,221,24,0,200,25,0,1200,26,0,1221,27,0,1221,30,0,1200,31,0,1000,33,0,1200,34,0,1000,36,0,1200*68
$PAIRSAT,4,45,1,0,200,2,0,200,3,0,600,4,0,200,5,0,200,6,0,201,7,0,201,9,0,201,10,0,201,11,0,200,12,0,200,13,0,200,14,0,200,16,0,201,19,0,600,20,0,600,21,0,600,22,0,600,23,0,621,24,0,600,25,0,621,26,0,600,27,0,600,28,0,621,29,0,600,30,0,600,32,0,400,33,0,400,34,0,421,35,0,400,36,0,400,37,0,421,38,0,400,39,0,421,40,0,421,41,0,400,42,0,400,43,0,421,44,0,400,45,0,400,46,0,400,59,0,400,60,0,400,61,0,400,62,0,400*5F
$PAIRDGP,10,2,4,7,8,9,16,21,26,27,30*42
$GNGGA,040326.200,2500.7794822,N,12132.4539884,E,4,48,0.57,16.697,M,15.25,M,1,3335*4D
$GNRMC,040326.200,A,2500.7794822,N,12132.4539884,E,0.03,145.54,090324,,,R,V*18
$GPHDT,,T*1B
$GNACCURACY,4.0*12
$GNGGA,040326.300,2500.7794850,N,12132.4539891,E,4,48,0.57,16.686,M,15.25,M,1,3335*4D
$GNRMC,040326.300,A,2500.7794850,N,12132.4539891,E,0.03,145.54,090324,,,R,V*18
$GPHDT,,T*1B
$GNACCURACY,4.0*12
$GNGGA,040326.400,2500.7794836,N,12132.4539880,E,4,48,0.57,16.695,M,15.25,M,1,3335*48
$GNRMC,040326.400,A,2500.7794836,N,12132.4539880,E,0.02,145.54,090324,,,R,V*1E
$GPHDT,,T*1B
$GNACCURACY,4.0*12
$GNGGA,040326.500,2500.7794867,N,12132.4539872,E,4,48,0.57,16.699,M,15.25,M,0,3335*4D
$GNRMC,040326.500,A,2500.7794867,N,12132.4539872,E,0.03,145.54,090324,,,R,V*17
$GPHDT,,T*1B
$GNACCURACY,4.0*12
$GNGGA,040326.600,2500.7794873,N,12132.4539867,E,4,49,0.57,16.703,M,15.25,M,0,3335*4C
$GNRMC,040326.600,A,2500.7794873,N,12132.4539867,E,0.03,145.54,090324,,,R,V*15
$GPHDT,,T*1B
$GNACCURACY,4.1*13
$GNGGA,040326.700,2500.7794876,N,12132.4539876,E,4,49,0.57,16.698,M,15.25,M,0,3335*4B
$GNRMC,040326.700,A,2500.7794876,N,12132.4539876,E,0.03,145.54,090324,,,R,V*11
$GPHDT,,T*1B
$GNACCURACY,4.1*13
$GNGGA,040326.800,2500.7794863,N,12132.4539902,E,4,49,0.57,16.706,M,15.25,M,0,3335*44
$GNRMC,040326.800,A,2500.7794863,N,12132.4539902,E,0.04,145.54,090324,,,R,V*1F
$GPHDT,,T*1B
$GNACCURACY,4.1*13
$GNGGA,040326.900,2500.7794847,N,12132.4539814,E,4,49,0.57,16.696,M,15.25,M,0,3335*4D
$GNRMC,040326.900,A,2500.7794847,N,12132.4539814,E,0.04,145.54,090324,,,R,V*1E
$GPHDT,,T*1B
$GNACCURACY,4.1*13
$GNGGA,040327.000,2500.7794807,N,12132.4539857,E,4,49,0.57,16.693,M,15.25,M,1,3335*42
$GNRMC,040327.000,A,2500.7794807,N,12132.4539857,E,0.04,145.54,090324,,,R,V*15
$GPHDT,,T*1B
$GNACCURACY,4.1*13
$GNGGA,040327.100,2500.7794810,N,12132.4539824,E,4,49,0.57,16.693,M,15.25,M,1,3335*41
$GNRMC,040327.100,A,2500.7794810,N,12132.4539824,E,0.04,145.54,090324,,,R,V*16
$GPHDT,,T*1B
$GNGSA,A,3,194,08,195,199,21,07,27,16,04,,,,0.87,0.57,0.66,1*36
$GNGSA,A,3,81,88,78,77,79,,,,,,,,0.87,0.57,0.66,2*07
$GNGSA,A,3,21,13,26,27,15,,,,,,,,0.87,0.57,0.66,3*0A
$GNGSA,A,3,09,06,23,16,07,40,43,39,28,10,25,37,0.87,0.57,0.66,4*06
$GNGSA,A,3,34,,,,,,,,,,,,0.87,0.57,0.66,4*0E
$GPGSV,5,1,17,194,64,051,31,08,64,350,37,195,64,116,41,50,60,167,38,1*62
$GPGSV,5,2,17,199,60,167,35,21,57,158,37,02,45,177,17,07,39,317,38,1*5A
$GPGSV,5,3,17,27,35,034,29,16,28,073,39,09,25,249,17,196,20,170,20,1*57
$GPGSV,5,4,17,04,19,204,15,26,09,097,15,30,09,320,21,31,02,143,,1*64
$GPGSV,5,5,17,18,,,19,1*63
$GPGSV,3,1,10,194,64,051,40,08,64,350,36,195,64,116,45,199,60,167,42,8*50
$GPGSV,3,2,10,27,35,034,32,09,25,249,24,196,20,170,22,04,19,204,14,8*5A
$GPGSV,3,3,10,30,09,320,28,26,09,097,16,8*69
$GLGSV,2,1,06,81,61,198,44,88,58,034,36,78,55,032,31,77,25,107,34,1*76
$GLGSV,2,2,06,79,24,332,28,87,05,026,14,1*75
$GAGSV,2,1,07,21,54,008,24,13,54,085,38,26,41,172,27,27,29,077,38,7*7B
$GAGSV,2,2,07,15,15,040,20,04,12,301,,33,02,199,,7*44
$GAGSV,2,1,05,21,54,008,24,13,54,085,35,26,41,172,29,27,29,077,40,1*73
$GAGSV,2,2,05,15,15,040,27,1*41
$GBGSV,4,1,14,09,74,270,37,06,73,215,30,23,72,024,46,16,70,198,38,1*71
$GBGSV,4,2,14,07,61,306,39,40,61,327,44,43,61,038,38,39,59,186,39,1*7C
$GBGSV,4,3,14,28,53,219,32,10,51,288,32,25,39,115,46,37,28,321,43,1*76
$GBGSV,4,4,14,34,13,040,32,58,,,34,1*49
$GBGSV,2,1,07,23,72,024,43,40,61,327,43,43,61,038,34,39,59,186,39,4*7F
$GBGSV,2,2,07,28,53,219,41,25,39,115,43,37,28,321,34,4*41
$GNACCURACY,4.1*13
$PAIRSAT,1,33,2,0,201,3,0,200,4,0,221,5,0,200,6,0,200,7,0,201,8,0,221,9,0,200,10,0,200,11,0,200,12,0,200,13,0,200,14,0,200,15,0,200,16,0,201,17,0,200,20,0,200,21,0,201,22,0,200,23,0,200,24,0,200,25,0,200,26,0,220,27,0,221,28,0,200,29,0,200,30,0,200,31,0,200,32,0,200,194,0,621,195,0,621,196,0,600,199,0,621*5E
$PAIRSAT,2,24,65,0,200,66,0,200,67,0,200,68,0,200,69,0,200,70,0,200,71,0,200,72,0,200,73,0,200,74,0,200,75,0,200,76,0,200,77,0,1,78,0,201,79,0,201,80,0,200,81,0,201,82,0,200,83,0,200,84,0,200,85,0,200,86,0,200,87,0,201,88,0,201*78
$PAIRSAT,3,23,2,0,1200,3,0,1200,4,0,1200,5,0,200,7,0,1200,8,0,1200,9,0,1200,10,0,200,11,0,200,12,0,200,13,0,221,15,0,220,19,0,200,21,0,221,24,0,200,25,0,1200,26,0,1221,27,0,1221,30,0,1200,31,0,1000,33,0,1200,34,0,1000,36,0,1200*68
$PAIRSAT,4,45,1,0,200,2,0,200,3,0,600,4,0,200,5,0,200,6,0,201,7,0,201,9,0,201,10,0,201,11,0,200,12,0,200,13,0,200,14,0,200,16,0,201,19,0,600,20,0,600,21,0,600,22,0,600,23,0,621,24,0,600,25,0,621,26,0,600,27,0,600,28,0,621,29,0,600,30,0,600,32,0,400,33,0,400,34,0,421,35,0,400,36,0,400,37,0,421,38,0,400,39,0,421,40,0,421,41,0,400,42,0,400,43,0,421,44,0,400,45,0,400,46,0,400,59,0,400,60,0,400,61,0,400,62,0,400*5F
$PAIRDGP,10,2,4,7,8,9,16,21,26,27,30*42
$GNGGA,040327.200,2500.7794840,N,12132.4539864,E,4,49,0.57,16.695,M,15.25,M,1,3335*45
$GNRMC,040327.200,A,2500.7794840,N,12132.4539864,E,0.03,145.54,090324,,,R,V*13
$GPHDT,,T*1B
$GNACCURACY,4.1*13
$GNGGA,040327.300,2500.7794816,N,12132.4539836,E,4,49,0.57,16.688,M,15.25,M,1,3335*4C
$GNRMC,040327.300,A,2500.7794816,N,12132.4539836,E,0.03,145.54,090324,,,R,V*16
$GPHDT,,T*1B
$GNACCURACY,4.1*13
$GNGGA,040327.400,2500.7794891,N,12132.4539870,E,4,49,0.57,16.691,M,15.25,M,1,3335*4E
$GNRMC,040327.400,A,2500.7794891,N,12132.4539870,E,0.04,145.54,090324,,,R,V*1B
$GPHDT,,T*1B
$GNACCURACY,4.1*13
$GNGGA,040327.500,2500.7794865,N,12132.4539858,E,4,49,0.57,16.693,M,15.25,M,1,3335*4C
$GNRMC,040327.500,A,2500.7794865,N,12132.4539858,E,0.04,145.54,090324,,,R,V*1B
$GPHDT,,T*1B
$GNACCURACY,4.1*13
$GNGGA,040327.600,2500.7794883,N,12132.4539851,E,4,49,0.57,16.691,M,15.25,M,1,3335*4C
$GNRMC,040327.600,A,2500.7794883,N,12132.4539851,E,0.05,145.54,090324,,,R,V*18
$GPHDT,,T*1B
$GNACCURACY,4.1*13
$GNGGA,040327.700,2500.7794851,N,12132.4539854,E,4,50,0.55,16.696,M,15.25,M,1,3335*4A
$GNRMC,040327.700,A,2500.7794851,N,12132.4539854,E,0.05,145.54,090324,,,R,V*13
$GPHDT,,T*1B
$GNACCURACY,4.1*13
$GNGGA,040327.800,2500.7794795,N,12132.4539824,E,4,50,0.55,16.685,M,15.25,M,0,3335*46
$GNRMC,040327.800,A,2500.7794795,N,12132.4539824,E,0.04,145.54,090324,,,R,V*1D
$GPHDT,,T*1B
$GNACCURACY,4.0*12
$GNGGA,040327.900,2500.7794912,N,12132.4539863,E,4,50,0.55,16.722,M,15.25,M,0,3335*49
$GNRMC,040327.900,A,2500.7794912,N,12132.4539863,E,0.05,145.54,090324,,,R,V*1F
$GPHDT,,T*1B
$GNACCURACY,4.0*12
$GNGGA,040328.000,2500.7794865,N,12132.4539842,E,4,50,0.55,16.722,M,15.25,M,1,3335*4C
$GNRMC,040328.000,A,2500.7794865,N,12132.4539842,E,0.13,145.54,090324,,,R,V*1C
$GPHDT,,T*1B
$GNACCURACY,4.0*12
$GNGGA,040328.100,2500.7794886,N,12132.4539835,E,4,50,0.55,16.718,M,15.25,M,1,3335*49
$GNRMC,040328.100,A,2500.7794886,N,12132.4539835,E,0.05,145.54,090324,,,R,V*17
$GPHDT,,T*1B
$GNGSA,A,3,194,08,195,199,21,02,07,27,16,04,,,0.86,0.55,0.66,1*37
$GNGSA,A,3,81,88,78,77,79,,,,,,,,0.86,0.55,0.66,2*04
$GNGSA,A,3,21,13,26,27,15,,,,,,,,0.86,0.55,0.66,3*09
$GNGSA,A,3,09,06,23,16,07,40,43,39,28,10,25,37,0.86,0.55,0.66,4*05
$GNGSA,A,3,34,,,,,,,,,,,,0.86,0.55,0.66,4*0D
$GPGSV,5,1,17,194,64,051,31,08,64,350,37,195,64,116,41,50,60,167,37,1*6D
$GPGSV,5,2,17,199,60,167,35,21,57,158,37,02,45,177,15,07,39,317,38,1*58
$GPGSV,5,3,17,27,35,034,28,16,28,073,39,09,25,249,17,196,20,170,18,1*5D
$GPGSV,5,4,17,04,19,204,16,26,09,097,16,30,09,320,22,31,02,143,,1*67
$GPGSV,5,5,17,18,,,17,1*6D
$GPGSV,3,1,10,194,64,051,40,08,64,350,35,195,64,116,45,199,60,167,42,8*53
$GPGSV,3,2,10,27,35,034,32,09,25,249,23,196,20,170,21,04,19,204,16,8*5C
$GPGSV,3,3,10,30,09,320,28,26,09,097,16,8*69
$GLGSV,2,1,06,81,61,198,44,88,58,034,36,78,55,032,31,77,25,107,33,1*71
$GLGSV,2,2,06,79,24,332,28,87,05,026,13,1*72
$GAGSV,2,1,07,21,54,008,22,13,54,085,38,26,41,172,28,27,29,077,38,7*72
$GAGSV,2,2,07,15,15,040,19,04,12,301,,33,02,199,,7*4E
$GAGSV,2,1,05,21,54,008,21,13,54,085,35,26,41,172,29,27,29,077,41,1*77
$GAGSV,2,2,05,15,15,040,27,1*41
$GBGSV,4,1,14,09,74,270,37,06,73,215,30,23,72,024,46,16,70,198,38,1*71
$GBGSV,4,2,14,07,61,306,39,40,61,327,44,43,61,038,38,39,59,186,39,1*7C
$GBGSV,4,3,14,28,53,219,33,10,51,288,30,25,39,115,46,37,28,321,43,1*75
$GBGSV,4,4,14,34,13,040,32,58,,,34,1*49
$GBGSV,2,1,07,23,72,024,44,40,61,327,43,43,61,038,34,39,59,186,39,4*78
$GBGSV,2,2,07,28,53,219,41,25,39,115,43,37,28,321,33,4*46
$GNACCURACY,4.0*12
$PAIRSAT,1,33,2,0,201,3,0,200,4,0,221,5,0,200,6,0,200,7,0,201,8,0,221,9,0,200,10,0,200,11,0,200,12,0,200,13,0,200,14,0,200,15,0,200,16,0,201,17,0,200,20,0,200,21,0,201,22,0,200,23,0,200,24,0,200,25,0,200,26,0,220,27,0,221,28,0,200,29,0,200,30,0,200,31,0,200,32,0,200,194,0,621,195,0,621,196,0,600,199,0,621*5E
$PAIRSAT,2,24,65,0,200,66,0,200,67,0,200,68,0,200,69,0,200,70,0,200,71,0,200,72,0,200,73,0,200,74,0,200,75,0,200,76,0,200,77,0,1,78,0,201,79,0,201,80,0,200,81,0,201,82,0,200,83,0,200,84,0,200,85,0,200,86,0,200,87,0,201,88,0,201*78
$PAIRSAT,3,23,2,0,1200,3,0,1200,4,0,1200,5,0,200,7,0,1200,8,0,1200,9,0,1200,10,0,200,11,0,200,12,0,200,13,0,221,15,0,220,19,0,200,21,0,221,24,0,200,25,0,1200,26,0,1221,27,0,1221,30,0,1200,31,0,1000,33,0,1200,34,0,1000,36,0,1200*68
$PAIRSAT,4,45,1,0,200,2,0,200,3,0,600,4,0,200,5,0,200,6,0,201,7,0,201,9,0,201,10,0,201,11,0,200,12,0,200,13,0,200,14,0,200,16,0,201,19,0,600,20,0,600,21,0,600,22,0,600,23,0,621,24,0,600,25,0,621,26,0,600,27,0,600,28,0,621,29,0,600,30,0,600,32,0,400,33,0,400,34,0,421,35,0,400,36,0,400,37,0,421,38,0,400,39,0,421,40,0,421,41,0,400,42,0,400,43,0,421,44,0,400,45,0,400,46,0,400,59,0,400,60,0,400,61,0,400,62,0,400*5F
$PAIRDGP,10,2,4,7,8,9,16,21,26,27,30*42
$GNGGA,040328.200,2500.7794894,N,12132.4539904,E,4,50,0.55,16.695,M,15.25,M,1,3335*4E
$GNRMC,040328.200,A,2500.7794894,N,12132.4539904,E,0.01,145.54,090324,,,R,V*10
$GPHDT,,T*1B
$GNACCURACY,3.9*1C
$GNGGA,040328.300,2500.7794923,N,12132.4539848,E,4,50,0.55,16.725,M,15.25,M,1,3335*41
$GNRMC,040328.300,A,2500.7794923,N,12132.4539848,E,0.01,145.54,090324,,,R,V*15
$GPHDT,,T*1B
$GNACCURACY,4.0*12
$GNGGA,040328.400,2500.7794890,N,12132.4539902,E,4,50,0.55,16.694,M,15.25,M,1,3335*4B
$GNRMC,040328.400,A,2500.7794890,N,12132.4539902,E,0.02,145.54,090324,,,R,V*17
$GPHDT,,T*1B
$GNACCURACY,4.0*12
$GNGGA,040328.500,2500.7794889,N,12132.4539871,E,4,50,0.55,16.682,M,15.25,M,1,3335*40
$GNRMC,040328.500,A,2500.7794889,N,12132.4539871,E,0.01,145.54,090324,,,R,V*18
$GPHDT,,T*1B
$GNACCURACY,4.0*12
$GNGGA,040328.600,2500.7794903,N,12132.4539928,E,4,50,0.55,16.700,M,15.25,M,0,3335*47
$GNRMC,040328.600,A,2500.7794903,N,12132.4539928,E,0.01,145.54,090324,,,R,V*15
$GPHDT,,T*1B
$GNACCURACY,4.0*12
$GNGGA,040328.700,2500.7794824,N,12132.4539888,E,4,50,0.55,16.686,M,15.25,M,0,3335*46
$GNRMC,040328.700,A,2500.7794824,N,12132.4539888,E,0.02,145.54,090324,,,R,V*18
$GPHDT,,T*1B
$GNACCURACY,4.0*12
$GNGGA,040328.800,2500.7794908,N,12132.4539851,E,4,50,0.55,16.724,M,15.25,M,0,3335*4B
$GNRMC,040328.800,A,2500.7794908,N,12132.4539851,E,0.02,145.54,090324,,,R,V*1C
$GPHDT,,T*1B
$GNACCURACY,4.0*12
$GNGGA,040328.900,2500.7794928,N,12132.4539837,E,4,50,0.55,16.714,M,15.25,M,0,3335*4B
$GNRMC,040328.900,A,2500.7794928,N,12132.4539837,E,0.01,145.54,090324,,,R,V*1C
$GPHDT,,T*1B
$GNACCURACY,4.0*12
$GNGGA,040329.000,2500.7794912,N,12132.4539858,E,4,50,0.55,16.708,M,15.25,M,1,3335*4F
$GNRMC,040329.000,A,2500.7794912,N,12132.4539858,E,0.02,145.54,090324,,,R,V*17
$GPHDT,,T*1B
$GNACCURACY,4.0*12
$GNGGA,040329.100,2500.7794907,N,12132.4539822,E,4,49,0.55,16.708,M,15.25,M,1,3335*4F
$GNRMC,040329.100,A,2500.7794907,N,12132.4539822,E,0.01,145.54,090324,,,R,V*1C
$GPHDT,,T*1B
$GNGSA,A,3,194,08,195,199,21,02,07,27,16,04,,,0.86,0.55,0.66,1*37
$GNGSA,A,3,81,88,78,77,79,,,,,,,,0.86,0.55,0.66,2*04
$GNGSA,A,3,21,13,26,27,15,,,,,,,,0.86,0.55,0.66,3*09
$GNGSA,A,3,09,06,23,16,07,40,43,39,28,10,25,37,0.86,0.55,0.66,4*05
$GNGSA,A,3,34,,,,,,,,,,,,0.86,0.55,0.66,4*0D
$GPGSV,5,1,17,194,64,051,31,08,64,350,37,195,64,116,41,50,60,167,37,1*6D
$GPGSV,5,2,17,199,60,167,35,21,57,158,37,02,45,177,14,07,39,317,38,1*59
$GPGSV,5,3,17,27,35,034,25,16,28,073,39,09,25,249,17,196,20,170,18,1*50
$GPGSV,5,4,17,04,19,204,15,26,09,097,16,30,09,320,22,31,02,143,,1*64
$GPGSV,5,5,17,18,,,17,1*6D
$GPGSV,3,1,10,194,64,051,40,08,64,350,35,195,64,116,45,199,60,167,42,8*53
$GPGSV,3,2,10,27,35,034,33,09,25,249,25,196,20,170,22,04,19,204,16,8*58
$GPGSV,3,3,10,30,09,320,28,26,09,097,16,8*69
$GLGSV,2,1,06,81,61,198,44,88,58,034,36,78,55,032,31,77,25,107,34,1*76
$GLGSV,2,2,06,79,24,332,27,87,05,026,12,1*7C
$GAGSV,2,1,07,21,54,008,23,13,54,085,38,26,41,172,27,27,29,077,38,7*7C
$GAGSV,2,2,07,15,15,040,19,04,12,301,,33,02,199,,7*4E
$GAGSV,2,1,05,21,54,008,20,13,54,085,36,26,41,172,29,27,29,077,40,1*74
$GAGSV,2,2,05,15,15,040,27,1*41
$GBGSV,4,1,14,09,74,270,37,06,73,215,30,23,72,024,46,16,70,198,38,1*71
$GBGSV,4,2,14,07,61,306,39,40,61,327,43,43,61,038,38,39,59,186,39,1*7B
$GBGSV,4,3,14,28,53,219,34,10,51,288,30,25,39,115,46,37,28,321,42,1*73
$GBGSV,4,4,14,34,13,040,31,58,,,34,1*4A
$GBGSV,2,1,07,23,72,024,44,40,61,327,43,43,61,038,34,39,59,186,39,4*78
$GBGSV,2,2,07,28,53,219,41,25,39,115,43,37,28,321,32,4*47
$GNACCURACY,4.0*12
$PAIRSAT,1,33,2,0,201,3,0,200,4,0,221,5,0,200,6,0,200,7,0,201,8,0,221,9,0,200,10,0,200,11,0,200,12,0,200,13,0,200,14,0,200,15,0,200,16,0,201,17,0,200,20,0,200,21,0,201,22,0,200,23,0,200,24,0,200,25,0,200,26,0,220,27,0,221,28,0,200,29,0,200,30,0,200,31,0,200,32,0,200,194,0,621,195,0,621,196,0,600,199,0,621*5E
$PAIRSAT,2,24,65,0,200,66,0,200,67,0,200,68,0,200,69,0,200,70,0,200,71,0,200,72,0,200,73,0,200,74,0,200,75,0,200,76,0,200,77,0,1,78,0,201,79,0,201,80,0,200,81,0,201,82,0,200,83,0,200,84,0,200,85,0,200,86,0,200,87,0,201,88,0,201*78
$PAIRSAT,3,23,2,0,1200,3,0,1200,4,0,1200,5,0,200,7,0,1200,8,0,1200,9,0,1200,10,0,200,11,0,200,12,0,200,13,0,221,15,0,220,19,0,200,21,0,221,24,0,200,25,0,1200,26,0,1221,27,0,1221,30,0,1200,31,0,1000,33,0,1200,34,0,1000,36,0,1200*68
$PAIRSAT,4,45,1,0,200,2,0,200,3,0,600,4,0,200,5,0,200,6,0,201,7,0,201,9,0,201,10,0,201,11,0,200,12,0,200,13,0,200,14,0,200,16,0,201,19,0,600,20,0,600,21,0,600,22,0,600,23,0,621,24,0,600,25,0,621,26,0,600,27,0,600,28,0,621,29,0,600,30,0,600,32,0,400,33,0,400,34,0,421,35,0,400,36,0,400,37,0,421,38,0,400,39,0,421,40,0,421,41,0,400,42,0,400,43,0,421,44,0,400,45,0,400,46,0,400,59,0,400,60,0,400,61,0,400,62,0,400*5F
$PAIRDGP,10,2,4,7,8,9,16,21,26,27,30*42
$GNGGA,040329.200,2500.7794909,N,12132.4539833,E,4,50,0.55,16.707,M,15.25,M,1,3335*45
$GNRMC,040329.200,A,2500.7794909,N,12132.4539833,E,0.01,145.54,090324,,,R,V*11
$GPHDT,,T*1B
$GNACCURACY,4.0*12
$GNGGA,040329.300,2500.7794899,N,12132.4539856,E,4,50,0.55,16.713,M,15.25,M,1,3335*4A
$GNRMC,040329.300,A,2500.7794899,N,12132.4539856,E,0.01,145.54,090324,,,R,V*1B
$GPHDT,,T*1B
$GNACCURACY,4.0*12
$GNGGA,040329.400,2500.7794906,N,12132.4539842,E,4,50,0.55,16.705,M,15.25,M,1,3335*48
$GNRMC,040329.400,A,2500.7794906,N,12132.4539842,E,0.01,145.54,090324,,,R,V*1E
$GPHDT,,T*1B
$GNACCURACY,4.0*12
$GNGGA,040329.500,2500.7794897,N,12132.4539842,E,4,51,0.55,16.707,M,15.25,M,1,3335*43
$GNRMC,040329.500,A,2500.7794897,N,12132.4539842,E,0.02,145.54,090324,,,R,V*15
$GPHDT,,T*1B
$GNACCURACY,4.0*12
$GNGGA,040329.600,2500.7794876,N,12132.4539795,E,4,50,0.55,16.699,M,15.25,M,0,3335*4C
$GNRMC,040329.600,A,2500.7794876,N,12132.4539795,E,0.01,145.54,090324,,,R,V*1F
$GPHDT,,T*1B
$GNACCURACY,4.0*12
$GNGGA,040329.700,2500.7794839,N,12132.4539768,E,4,51,0.55,16.708,M,15.25,M,0,3335*4C
$GNRMC,040329.700,A,2500.7794839,N,12132.4539768,E,0.01,145.54,090324,,,R,V*17
$GPHDT,,T*1B
$GNACCURACY,4.0*12
$GNGGA,040329.800,2500.7794858,N,12132.4539816,E,4,51,0.55,16.710,M,15.25,M,0,3335*4B
$GNRMC,040329.800,A,2500.7794858,N,12132.4539816,E,0.01,145.54,090324,,,R,V*19
$GPHDT,,T*1B
$GNACCURACY,4.0*12
$GNGGA,040329.900,2500.7794875,N,12132.4539824,E,4,51,0.55,16.709,M,15.25,M,0,3335*4C
$GNRMC,040329.900,A,2500.7794875,N,12132.4539824,E,0.02,145.54,090324,,,R,V*15
$GPHDT,,T*1B
$GNACCURACY,4.0*12
$GNGGA,040330.000,2500.7794882,N,12132.4539838,E,4,51,0.55,16.706,M,15.25,M,1,3335*46
$GNRMC,040330.000,A,2500.7794882,N,12132.4539838,E,0.02,145.54,090324,,,R,V*11
$GPHDT,,T*1B
$GNACCURACY,4.0*12
$GNGGA,040330.100,2500.7794962,N,12132.4539855,E,4,51,0.55,16.707,M,15.25,M,1,3335*42
$GNRMC,040330.100,A,2500.7794962,N,12132.4539855,E,0.00,145.54,090324,,,R,V*16
$GPHDT,,T*1B
$GNGSA,A,3,194,08,195,199,21,07,27,16,04,,,,0.87,0.57,0.66,1*36
$GNGSA,A,3,81,88,78,77,79,,,,,,,,0.87,0.57,0.66,2*07
$GNGSA,A,3,21,13,26,27,15,,,,,,,,0.87,0.57,0.66,3*0A
$GNGSA,A,3,09,06,23,16,40,43,07,39,28,10,25,37,0.87,0.57,0.66,4*06
$GNGSA,A,3,34,,,,,,,,,,,,0.87,0.57,0.66,4*0E
$GPGSV,5,1,17,194,64,051,31,08,64,350,37,195,64,116,40,50,60,167,37,1*6C
$GPGSV,5,2,17,199,60,167,35,21,57,158,38,02,45,177,14,07,39,317,38,1*56
$GPGSV,5,3,17,27,35,034,25,16,28,073,39,09,25,249,18,196,20,170,18,1*5F
$GPGSV,5,4,17,04,19,204,14,26,09,097,17,30,09,320,23,31,02,143,,1*65
$GPGSV,5,5,17,18,,,18,1*62
$GPGSV,3,1,09,194,64,051,40,195,64,116,45,08,64,350,34,199,60,167,42,8*5A
$GPGSV,3,2,09,27,35,034,32,09,25,249,23,196,20,170,21,04,19,204,16,8*54
$GPGSV,3,3,09,30,09,320,28,8*55
$GLGSV,2,1,07,81,61,198,44,88,58,034,36,78,55,032,31,77,25,107,34,1*77
$GLGSV,2,2,07,79,24,332,26,87,05,026,12,68,03,238,,1*48
$GAGSV,2,1,07,21,54,008,21,13,54,085,37,26,41,172,26,27,29,077,38,7*70
$GAGSV,2,2,07,15,15,040,18,04,12,301,,33,02,199,,7*4F
$GAGSV,2,1,05,13,54,085,34,21,54,008,23,26,41,172,29,27,29,077,40,1*75
$GAGSV,2,2,05,15,15,040,26,1*40
$GBGSV,4,1,15,09,74,270,37,06,73,215,32,23,72,024,46,16,70,198,38,1*72
$GBGSV,4,2,15,40,61,327,43,43,61,038,38,07,61,306,38,39,59,186,39,1*7B
$GBGSV,4,3,15,28,53,219,35,10,51,288,30,25,39,115,46,37,28,321,42,1*73
$GBGSV,4,4,15,34,13,040,32,38,09,169,,58,,,32,1*72
$GBGSV,2,1,08,23,72,024,44,40,61,327,43,43,61,038,34,39,59,186,38,4*76
$GBGSV,2,2,08,28,53,219,41,25,39,115,43,37,28,321,31,34,13,040,22,4*7A
$GNACCURACY,4.0*12
$PAIRSAT,1,33,2,0,201,3,0,200,4,0,221,5,0,200,6,0,200,7,0,201,8,0,221,9,0,200,10,0,200,11,0,200,12,0,200,13,0,200,14,0,200,15,0,200,16,0,201,17,0,200,20,0,200,21,0,201,22,0,200,23,0,200,24,0,200,25,0,200,26,0,220,27,0,221,28,0,200,29,0,200,30,0,200,31,0,200,32,0,200,194,0,621,195,0,621,196,0,600,199,0,621*5E
$PAIRSAT,2,24,65,0,200,66,0,200,67,0,200,68,0,200,69,0,200,70,0,200,71,0,200,72,0,200,73,0,200,74,0,200,75,0,200,76,0,200,77,0,1,78,0,201,79,0,201,80,0,200,81,0,201,82,0,200,83,0,200,84,0,200,85,0,200,86,0,200,87,0,201,88,0,201*78
$PAIRSAT,3,23,2,0,1200,3,0,1200,4,0,1200,5,0,200,7,0,1200,8,0,1200,9,0,1200,10,0,200,11,0,200,12,0,200,13,0,221,15,0,220,19,0,200,21,0,221,24,0,200,25,0,1200,26,0,1221,27,0,1221,30,0,1200,31,0,1000,33,0,1200,34,0,1000,36,0,1200*68
$PAIRSAT,4,45,1,0,200,2,0,200,3,0,600,4,0,200,5,0,200,6,0,201,7,0,201,9,0,201,10,0,201,11,0,200,12,0,200,13,0,200,14,0,200,16,0,201,19,0,600,20,0,600,21,0,600,22,0,600,23,0,621,24,0,600,25,0,621,26,0,600,27,0,600,28,0,621,29,0,600,30,0,600,32,0,400,33,0,400,34,0,421,35,0,400,36,0,400,37,0,421,38,0,400,39,0,421,40,0,421,41,0,400,42,0,400,43,0,421,44,0,400,45,0,400,46,0,400,59,0,400,60,0,400,61,0,400,62,0,400*5F
$PAIRDGP,10,2,4,7,8,9,16,21,26,27,30*42
$GNGGA,040330.200,2500.7794913,N,12132.4539871,E,4,50,0.57,16.712,M,15.25,M,1,3335*46
$GNRMC,040330.200,A,2500.7794913,N,12132.4539871,E,0.00,145.54,090324,,,R,V*15
$GPHDT,,T*1B
$GNACCURACY,4.0*12
$GNGGA,040330.300,2500.7794940,N,12132.4539877,E,4,50,0.57,16.720,M,15.25,M,1,3335*46
$GNRMC,040330.300,A,2500.7794940,N,12132.4539877,E,0.01,145.54,090324,,,R,V*15
$GPHDT,,T*1B
$GNACCURACY,4.0*12
$GNGGA,040330.400,2500.7794950,N,12132.4539871,E,4,49,0.57,16.714,M,15.25,M,1,3335*49
$GNRMC,040330.400,A,2500.7794950,N,12132.4539871,E,0.00,145.54,090324,,,R,V*14
$GPHDT,,T*1B
$GNACCURACY,4.0*12
$GNGGA,040330.500,2500.7794941,N,12132.4539889,E,4,50,0.57,16.722,M,15.25,M,0,3335*43
$GNRMC,040330.500,A,2500.7794941,N,12132.4539889,E,0.01,145.54,090324,,,R,V*13
$GPHDT,,T*1B
$GNACCURACY,4.0*12
$GNGGA,040330.600,2500.7794935,N,12132.4539872,E,4,50,0.57,16.721,M,15.25,M,0,3335*44
$GNRMC,040330.600,A,2500.7794935,N,12132.4539872,E,0.01,145.54,090324,,,R,V*17
$GPHDT,,T*1B
$GNACCURACY,4.0*12
$GNGGA,040330.700,2500.7794897,N,12132.4539867,E,4,50,0.57,16.717,M,15.25,M,0,3335*4D
$GNRMC,040330.700,A,2500.7794897,N,12132.4539867,E,0.02,145.54,090324,,,R,V*18
$GPHDT,,T*1B
$GNACCURACY,4.0*12
$GNGGA,040330.800,2500.7794902,N,12132.4539840,E,4,50,0.57,16.715,M,15.25,M,0,3335*48
$GNRMC,040330.800,A,2500.7794902,N,12132.4539840,E,0.02,145.54,090324,,,R,V*1F
$GPHDT,,T*1B
$GNACCURACY,4.0*12
$GNGGA,040330.900,2500.7794904,N,12132.4539832,E,4,50,0.57,16.711,M,15.25,M,0,3335*4E
$GNRMC,040330.900,A,2500.7794904,N,12132.4539832,E,0.01,145.54,090324,,,R,V*1E
$GPHDT,,T*1B
$GNACCURACY,4.0*12
$GNGGA,040331.000,2500.7794919,N,12132.4539820,E,4,50,0.57,16.708,M,15.25,M,1,3335*40
$GNRMC,040331.000,A,2500.7794919,N,12132.4539820,E,0.01,145.54,090324,,,R,V*19
$GPHDT,,T*1B
$GNACCURACY,4.0*12
$GNGGA,040331.100,2500.7794886,N,12132.4539821,E,4,49,0.57,16.708,M,15.25,M,1,3335*4F
$GNRMC,040331.100,A,2500.7794886,N,12132.4539821,E,0.02,145.54,090324,,,R,V*1D
$GPHDT,,T*1B
$GNGSA,A,3,194,08,195,199,21,07,16,27,04,,,,0.87,0.57,0.66,1*36
$GNGSA,A,3,81,88,78,77,79,,,,,,,,0.87,0.57,0.66,2*07
$GNGSA,A,3,21,13,26,27,15,,,,,,,,0.87,0.57,0.66,3*0A
$GNGSA,A,3,09,06,23,16,40,43,07,39,28,10,25,37,0.87,0.57,0.66,4*06
$GNGSA,A,3,34,,,,,,,,,,,,0.87,0.57,0.66,4*0E
$GPGSV,5,1,17,194,64,051,31,08,64,350,36,195,64,116,41,50,60,167,37,1*6C
$GPGSV,5,2,17,199,60,167,34,21,57,158,37,02,45,177,15,07,39,317,38,1*59
$GPGSV,5,3,17,27,35,034,24,16,28,073,39,09,25,249,18,196,20,170,18,1*5E
$GPGSV,5,4,17,04,19,204,16,26,09,097,16,30,09,320,23,31,02,143,,1*66
$GPGSV,5,5,17,18,,,21,1*68
$GPGSV,3,1,09,194,64,051,39,195,64,116,45,08,64,350,34,199,60,167,42,8*54
$GPGSV,3,2,09,27,35,034,32,09,25,249,23,196,20,170,22,04,19,204,16,8*57
$GPGSV,3,3,09,30,09,320,28,8*55
$GLGSV,2,1,06,81,61,198,44,88,58,034,36,78,55,032,31,77,25,107,34,1*76
$GLGSV,2,2,06,79,24,332,25,87,05,026,13,1*7F
$GAGSV,2,1,06,21,54,008,22,13,54,085,36,26,41,172,27,27,29,077,38,7*72
$GAGSV,2,2,06,15,15,040,18,33,02,199,,7*7B
$GAGSV,2,1,05,13,54,085,34,21,54,008,23,26,41,172,29,27,29,077,40,1*75
$GAGSV,2,2,05,15,15,040,26,1*40
$GBGSV,4,1,14,09,74,270,37,06,73,215,32,23,72,024,46,16,70,198,38,1*73
$GBGSV,4,2,14,40,61,327,43,43,61,038,38,07,61,306,38,39,59,186,39,1*7A
$GBGSV,4,3,14,28,53,219,35,10,51,288,32,25,39,115,46,37,28,321,42,1*70
$GBGSV,4,4,14,34,13,040,32,58,,,32,1*4F
$GBGSV,2,1,08,23,72,024,43,40,61,327,43,43,61,038,34,39,59,186,38,4*71
$GBGSV,2,2,08,28,53,219,41,25,39,115,43,37,28,321,32,34,13,040,23,4*78
$GNACCURACY,4.0*12
$PAIRSAT,1,33,2,0,201,3,0,200,4,0,221,5,0,200,6,0,200,7,0,201,8,0,221,9,0,200,10,0,200,11,0,200,12,0,200,13,0,200,14,0,200,15,0,200,16,0,201,17,0,200,20,0,200,21,0,201,22,0,200,23,0,200,24,0,200,25,0,200,26,0,220,27,0,221,28,0,200,29,0,200,30,0,220,31,0,200,32,0,200,194,0,621,195,0,621,196,0,600,199,0,621*5C
$PAIRSAT,2,24,65,0,200,66,0,200,67,0,200,68,0,200,69,0,200,70,0,200,71,0,200,72,0,200,73,0,200,74,0,200,75,0,200,76,0,200,77,0,1,78,0,201,79,0,201,80,0,200,81,0,201,82,0,200,83,0,200,84,0,200,85,0,200,86,0,200,87,0,201,88,0,201*78
$PAIRSAT,3,23,2,0,1200,3,0,1200,4,0,1200,5,0,200,7,0,1200,8,0,1200,9,0,1200,10,0,200,11,0,200,12,0,200,13,0,221,15,0,220,19,0,200,21,0,221,24,0,200,25,0,1200,26,0,1221,27,0,1221,30,0,1200,31,0,1000,33,0,1200,34,0,1000,36,0,1200*68
$PAIRSAT,4,45,1,0,200,2,0,200,3,0,600,4,0,200,5,0,200,6,0,201,7,0,201,9,0,201,10,0,201,11,0,200,12,0,200,13,0,200,14,0,200,16,0,201,19,0,600,20,0,600,21,0,600,22,0,600,23,0,621,24,0,600,25,0,621,26,0,600,27,0,600,28,0,621,29,0,600,30,0,600,32,0,400,33,0,400,34,0,421,35,0,400,36,0,400,37,0,421,38,0,400,39,0,421,40,0,421,41,0,400,42,0,400,43,0,421,44,0,400,45,0,400,46,0,400,59,0,400,60,0,400,61,0,400,62,0,400*5F
$PAIRDGP,10,2,4,7,8,9,16,21,26,27,30*42
$GNGGA,040331.200,2500.7794831,N,12132.4539836,E,4,49,0.57,16.684,M,15.25,M,1,3335*43
$GNRMC,040331.200,A,2500.7794831,N,12132.4539836,E,0.02,145.54,090324,,,R,V*14
$GPHDT,,T*1B
$GNACCURACY,4.0*12
$GNGGA,040331.300,2500.7794818,N,12132.4539850,E,4,49,0.57,16.684,M,15.25,M,1,3335*49
$GNRMC,040331.300,A,2500.7794818,N,12132.4539850,E,0.02,145.54,090324,,,R,V*1E
$GPHDT,,T*1B
$GNACCURACY,4.0*12
$GNGGA,040331.400,2500.7794876,N,12132.4539813,E,4,49,0.57,16.705,M,15.25,M,1,3335*49
$GNRMC,040331.400,A,2500.7794876,N,12132.4539813,E,0.02,145.54,090324,,,R,V*16
$GPHDT,,T*1B
$GNACCURACY,4.0*12
$GNGGA,040331.500,2500.7794852,N,12132.4539826,E,4,49,0.57,16.695,M,15.25,M,0,3335*41
$GNRMC,040331.500,A,2500.7794852,N,12132.4539826,E,0.02,145.54,090324,,,R,V*17
$GPHDT,,T*1B
$GNACCURACY,4.0*12
$GNGGA,040331.600,2500.7794848,N,12132.4539766,E,4,49,0.57,16.698,M,15.25,M,0,3335*4F
$GNRMC,040331.600,A,2500.7794848,N,12132.4539766,E,0.01,145.54,090324,,,R,V*17
$GPHDT,,T*1B
$GNACCURACY,4.0*12
$GNGGA,040331.700,2500.7794868,N,12132.4539767,E,4,49,0.57,16.696,M,15.25,M,0,3335*43
$GNRMC,040331.700,A,2500.7794868,N,12132.4539767,E,0.01,145.54,090324,,,R,V*15
$GPHDT,,T*1B
$GNACCURACY,4.0*12
$GNGGA,040331.800,2500.7794888,N,12132.4539850,E,4,51,0.57,16.705,M,15.25,M,0,3335*4B
$GNRMC,040331.800,A,2500.7794888,N,12132.4539850,E,0.01,145.54,090324,,,R,V*1F
$GPHDT,,T*1B
$GNACCURACY,4.0*12
$GNGGA,040331.900,2500.7794871,N,12132.4539852,E,4,51,0.57,16.702,M,15.25,M,0,3335*49
$GNRMC,040331.900,A,2500.7794871,N,12132.4539852,E,0.02,145.54,090324,,,R,V*19
$GPHDT,,T*1B
$GNACCURACY,4.0*12
$GNGGA,040332.000,2500.7794878,N,12132.4539851,E,4,51,0.57,16.697,M,15.25,M,1,3335*45
$GNRMC,040332.000,A,2500.7794878,N,12132.4539851,E,0.02,145.54,090324,,,R,V*19
$GPHDT,,T*1B
$GNACCURACY,4.0*12
$GNGGA,040332.100,2500.7794919,N,12132.4539834,E,4,50,0.57,16.702,M,15.25,M,1,3335*4D
$GNRMC,040332.100,A,2500.7794919,N,12132.4539834,E,0.01,145.54,090324,,,R,V*1E
$GPHDT,,T*1B
$GNGSA,A,3,194,08,195,199,21,07,16,04,27,,,,0.87,0.57,0.66,1*36
$GNGSA,A,3,81,88,78,77,79,,,,,,,,0.87,0.57,0.66,2*07
$GNGSA,A,3,21,13,26,27,15,,,,,,,,0.87,0.57,0.66,3*0A
$GNGSA,A,3,09,06,23,16,40,43,07,39,28,10,25,37,0.87,0.57,0.66,4*06
$GNGSA,A,3,34,,,,,,,,,,,,0.87,0.57,0.66,4*0E
$GPGSV,5,1,17,194,64,051,31,08,64,350,36,195,64,116,41,50,60,167,38,1*63
$GPGSV,5,2,17,199,60,167,34,21,57,158,38,02,45,177,14,07,39,317,38,1*57
$GPGSV,5,3,17,27,35,034,24,16,28,073,39,09,25,249,18,196,20,170,17,1*51
$GPGSV,5,4,17,04,19,204,16,26,09,097,16,30,09,320,24,31,02,143,,1*61
$GPGSV,5,5,17,18,,,19,1*63
$GPGSV,3,1,09,194,64,051,39,195,64,116,45,08,64,350,34,199,60,167,42,8*54
$GPGSV,3,2,09,27,35,034,33,09,25,249,24,196,20,170,22,04,19,204,15,8*52
$GPGSV,3,3,09,30,09,320,28,8*55
$GLGSV,2,1,06,81,62,198,44,88,58,034,36,78,55,032,32,77,25,107,34,1*76
$GLGSV,2,2,06,79,24,332,24,87,05,026,,1*7C
$GAGSV,2,1,06,21,54,008,20,13,54,085,37,26,41,172,28,27,29,077,38,7*7E
$GAGSV,2,2,06,15,15,040,16,33,02,199,,7*75
$GAGSV,2,1,05,13,54,085,35,21,54,008,24,26,41,172,29,27,29,077,40,1*73
$GAGSV,2,2,05,15,15,040,27,1*41
$GBGSV,4,1,14,09,74,270,37,06,73,215,31,23,72,024,46,16,70,198,38,1*70
$GBGSV,4,2,14,40,61,327,43,43,61,038,38,07,61,306,38,39,59,186,39,1*7A
$GBGSV,4,3,14,28,53,219,35,10,51,288,30,25,39,115,46,37,28,321,42,1*72
$GBGSV,4,4,14,34,13,040,32,58,,,32,1*4F
$GBGSV,2,1,08,23,72,024,44,40,61,327,43,43,61,038,34,39,59,186,38,4*76
$GBGSV,2,2,08,28,53,219,41,25,39,115,44,37,28,321,32,34,13,040,25,4*79
$GNACCURACY,4.0*12
$PAIRSAT,1,33,2,0,201,3,0,200,4,0,221,5,0,200,6,0,200,7,0,201,8,0,221,9,0,200,10,0,200,11,0,200,12,0,200,13,0,200,14,0,200,15,0,200,16,0,201,17,0,200,20,0,200,21,0,201,22,0,200,23,0,200,24,0,200,25,0,200,26,0,220,27,0,221,28,0,200,29,0,200,30,0,220,31,0,200,32,0,200,194,0,621,195,0,621,196,0,600,199,0,621*5C
$PAIRSAT,2,24,65,0,200,66,0,200,67,0,200,68,0,200,69,0,200,70,0,200,71,0,200,72,0,200,73,0,200,74,0,200,75,0,200,76,0,200,77,0,1,78,0,201,79,0,201,80,0,200,81,0,201,82,0,200,83,0,200,84,0,200,85,0,200,86,0,200,87,0,201,88,0,201*78
$PAIRSAT,3,23,2,0,1200,3,0,1200,4,0,1200,5,0,200,7,0,1200,8,0,1200,9,0,1200,10,0,200,11,0,200,12,0,200,13,0,221,15,0,220,19,0,200,21,0,221,24,0,200,25,0,1200,26,0,1221,27,0,1221,30,0,1200,31,0,1000,33,0,1200,34,0,1000,36,0,1200*68
$PAIRSAT,4,45,1,0,200,2,0,200,3,0,600,4,0,200,5,0,200,6,0,201,7,0,201,9,0,201,10,0,201,11,0,200,12,0,200,13,0,200,14,0,200,16,0,201,19,0,600,20,0,600,21,0,600,22,0,600,23,0,621,24,0,600,25,0,621,26,0,600,27,0,600,28,0,621,29,0,600,30,0,600,32,0,400,33,0,400,34,0,421,35,0,400,36,0,400,37,0,421,38,0,400,39,0,421,40,0,421,41,0,400,42,0,400,43,0,421,44,0,400,45,0,400,46,0,400,59,0,400,60,0,400,61,0,400,62,0,400*5F
$PAIRDGP,10,2,4,7,8,9,16,21,26,27,30*42
$GNGGA,040332.200,2500.7794907,N,12132.4539871,E,4,50,0.57,16.703,M,15.25,M,1,3335*41
$GNRMC,040332.200,A,2500.7794907,N,12132.4539871,E,0.01,145.54,090324,,,R,V*13
$GPHDT,,T*1B
$GNACCURACY,4.0*12
$GNGGA,040332.300,2500.7794897,N,12132.4539850,E,4,50,0.57,16.697,M,15.25,M,1,3335*47
$GNRMC,040332.300,A,2500.7794897,N,12132.4539850,E,0.01,145.54,090324,,,R,V*19
$GPHDT,,T*1B
$GNACCURACY,4.1*13
$GNGGA,040332.400,2500.7794871,N,12132.4539816,E,4,51,0.57,16.702,M,15.25,M,1,3335*46
$GNRMC,040332.400,A,2500.7794871,N,12132.4539816,E,0.01,145.54,090324,,,R,V*14
$GPHDT,,T*1B
$GNACCURACY,4.1*13
$GNGGA,040332.500,2500.7794920,N,12132.4539836,E,4,51,0.57,16.723,M,15.25,M,0,3335*42
$GNRMC,040332.500,A,2500.7794920,N,12132.4539836,E,0.00,145.54,090324,,,R,V*13
$GPHDT,,T*1B
$GNACCURACY,4.1*13
$GNGGA,040332.600,2500.7794912,N,12132.4539883,E,4,51,0.57,16.721,M,15.25,M,0,3335*4C
$GNRMC,040332.600,A,2500.7794912,N,12132.4539883,E,0.01,145.54,090324,,,R,V*1E
$GPHDT,,T*1B
$GNACCURACY,4.1*13
$GNGGA,040332.700,2500.7794870,N,12132.4539843,E,4,50,0.57,16.717,M,15.25,M,0,3335*40
$GNRMC,040332.700,A,2500.7794870,N,12132.4539843,E,0.02,145.54,090324,,,R,V*15
$GPHDT,,T*1B
$GNACCURACY,4.1*13
$GNGGA,040332.800,2500.7794912,N,12132.4539843,E,4,50,0.57,16.720,M,15.25,M,0,3335*4E
$GNRMC,040332.800,A,2500.7794912,N,12132.4539843,E,0.02,145.54,090324,,,R,V*1F
$GPHDT,,T*1B
$GNACCURACY,4.1*13
$GNGGA,040332.900,2500.7794904,N,12132.4539822,E,4,50,0.57,16.710,M,15.25,M,0,3335*4C
$GNRMC,040332.900,A,2500.7794904,N,12132.4539822,E,0.02,145.54,090324,,,R,V*1E
$GPHDT,,T*1B
$GNACCURACY,4.1*13
$GNGGA,040333.000,2500.7794912,N,12132.4539840,E,4,51,0.57,16.704,M,15.25,M,1,3335*42
$GNRMC,040333.000,A,2500.7794912,N,12132.4539840,E,0.02,145.54,090324,,,R,V*15
$GPHDT,,T*1B
$GNACCURACY,4.1*13
$GNGGA,040333.100,2500.7794853,N,12132.4539840,E,4,50,0.57,16.694,M,15.25,M,1,3335*4E
$GNRMC,040333.100,A,2500.7794853,N,12132.4539840,E,0.01,145.54,090324,,,R,V*13
$GPHDT,,T*1B
$GNGSA,A,3,194,195,08,199,21,07,27,16,04,,,,1.04,0.57,0.87,1*33
$GNGSA,A,3,81,88,78,77,79,,,,,,,,1.04,0.57,0.87,2*02
$GNGSA,A,3,13,21,26,27,15,,,,,,,,1.04,0.57,0.87,3*0F
$GNGSA,A,3,09,06,23,16,43,40,07,39,28,10,25,37,1.04,0.57,0.87,4*03
$GNGSA,A,3,34,,,,,,,,,,,,1.04,0.57,0.87,4*0B
$GPGSV,4,1,16,194,64,051,31,195,64,116,41,08,64,350,37,50,60,167,38,1*62
$GPGSV,4,2,16,199,60,167,35,21,57,158,38,02,45,177,17,07,39,317,38,1*55
$GPGSV,4,3,16,27,35,034,26,16,28,073,39,09,25,249,17,196,20,170,17,1*5C
$GPGSV,4,4,16,04,19,204,17,30,09,320,25,26,09,097,16,18,,,19,1*56
$GPGSV,3,1,09,194,64,051,39,195,64,116,45,08,64,350,34,199,60,167,41,8*57
$GPGSV,3,2,09,27,35,034,32,09,25,249,23,196,20,170,22,04,19,204,15,8*54
$GPGSV,3,3,09,30,09,320,28,8*55
$GLGSV,2,1,06,81,62,198,44,88,58,034,36,78,55,032,33,77,25,107,34,1*77
$GLGSV,2,2,06,79,24,332,23,87,05,026,,1*7B
$GAGSV,2,1,06,13,54,085,37,21,54,008,20,26,41,172,29,27,29,077,37,7*70
$GAGSV,2,2,06,15,15,040,17,33,02,199,,7*74
$GAGSV,2,1,05,13,54,085,35,21,54,008,24,26,41,172,30,27,29,077,40,1*7B
$GAGSV,2,2,05,15,15,040,27,1*41
$GBGSV,4,1,14,09,74,270,37,06,73,215,32,23,72,024,46,16,70,198,38,1*73
$GBGSV,4,2,14,43,61,038,38,40,61,327,43,07,61,306,38,39,59,186,39,1*7A
$GBGSV,4,3,14,28,53,219,35,10,51,288,30,25,39,115,46,37,28,321,42,1*72
$GBGSV,4,4,14,34,13,040,30,58,,,34,1*4B
$GBGSV,2,1,08,23,72,024,43,40,61,327,43,43,61,038,35,39,59,186,38,4*70
$GBGSV,2,2,08,28,53,219,41,25,39,115,44,37,28,321,34,34,13,040,23,4*79
$GNACCURACY,4.1*13
$PAIRSAT,1,33,2,0,201,3,0,200,4,0,221,5,0,200,6,0,200,7,0,201,8,0,221,9,0,200,10,0,200,11,0,200,12,0,200,13,0,200,14,0,200,15,0,200,16,0,201,17,0,200,20,0,200,21,0,201,22,0,200,23,0,200,24,0,200,25,0,200,26,0,220,27,0,221,28,0,200,29,0,200,30,0,220,31,0,200,32,0,200,194,0,621,195,0,621,196,0,600,199,0,621*5C
$PAIRSAT,2,24,65,0,200,66,0,200,67,0,200,68,0,200,69,0,200,70,0,200,71,0,200,72,0,200,73,0,200,74,0,200,75,0,200,76,0,200,77,0,1,78,0,201,79,0,201,80,0,200,81,0,201,82,0,200,83,0,200,84,0,200,85,0,200,86,0,200,87,0,201,88,0,201*78
$PAIRSAT,3,23,2,0,1200,3,0,1200,4,0,1200,5,0,200,7,0,1200,8,0,1200,9,0,1200,10,0,200,11,0,200,12,0,200,13,0,221,15,0,220,19,0,200,21,0,221,24,0,200,25,0,1200,26,0,1221,27,0,1221,30,0,1200,31,0,1000,33,0,1200,34,0,1000,36,0,1200*68
$PAIRSAT,4,45,1,0,200,2,0,200,3,0,600,4,0,200,5,0,200,6,0,201,7,0,201,9,0,201,10,0,201,11,0,200,12,0,200,13,0,200,14,0,200,16,0,201,19,0,600,20,0,600,21,0,600,22,0,600,23,0,621,24,0,600,25,0,621,26,0,600,27,0,600,28,0,621,29,0,600,30,0,600,32,0,400,33,0,400,34,0,421,35,0,400,36,0,400,37,0,421,38,0,400,39,0,421,40,0,421,41,0,400,42,0,400,43,0,421,44,0,400,45,0,400,46,0,400,59,0,400,60,0,400,61,0,400,62,0,400*5F
