$FW : RTK35X,V1.1X0314AS,Lib20210517,1*54
$Tool : LOCOSYS , GNSS Firebird , v1.0.0.19*39
$---------------------------------------------------*2D
42513.400,2500.7889200,N,12132.4466900,E,2,57,0.47,12.85,M,15.25,M,1,3335*7E
$GNRMC,042513.400,A,2500.7889200,N,12132.4466900,E,0.05,141.40,270623,,,D,V*0C
$GPHDT,,T*1B
$GNGGA,042513.600,2500.7889200,N,12132.4466800,E,2,57,0.47,12.85,M,15.25,M,1,3335*7D
$GNRMC,042513.600,A,2500.7889200,N,12132.4466800,E,0.05,141.40,270623,,,D,V*0F
$GPHDT,,T*1B
$GNGGA,042513.800,2500.7889200,N,12132.4466700,E,2,57,0.47,12.84,M,15.25,M,1,3335*7D
$GNRMC,042513.800,A,2500.7889200,N,12132.4466700,E,0.03,141.40,270623,,,D,V*08
$GPHDT,,T*1B
$GNGSA,A,3,19,196,195,199,17,06,20,09,11,194,12,04,0.80,0.47,0.64,1*02
$GNGSA,A,3,14,,,,,,,,,,,,0.80,0.47,0.64,1*0D
$GNGSA,A,3,68,83,82,67,69,,,,,,,,0.80,0.47,0.64,2*0A
$GNGSA,A,3,10,12,04,24,11,19,25,,,,,,0.80,0.47,0.64,3*05
$GNGSA,A,3,33,40,07,10,08,14,43,28,13,41,42,11,0.80,0.47,0.64,4*0E
$GPGSV,4,1,15,19,71,076,42,196,69,119,41,195,69,050,40,199,60,167,26,1*51
$GPGSV,4,2,15,50,60,167,28,17,56,113,43,06,49,007,42,20,42,247,32,1*60
$GPGSV,4,3,15,09,37,083,28,11,35,304,32,194,34,173,33,12,23,304,28,1*5A
$GPGSV,4,4,15,04,18,055,31,05,17,231,,14,10,172,17,1*5A
$GPGSV,2,1,08,195,69,050,45,196,69,119,44,199,60,167,42,06,49,007,45,8*54
$GPGSV,2,2,08,09,37,083,28,11,35,304,27,194,34,173,36,04,18,055,23,8*5A
$GLGSV,2,1,07,68,68,117,42,83,40,005,28,82,35,064,33,67,35,038,37,1*7B
$GLGSV,2,2,07,69,30,184,36,73,18,268,18,80,10,216,,1*4F
$GAGSV,3,1,09,10,50,355,34,12,45,034,37,04,41,144,42,24,40,226,22,7*7B
$GAGSV,3,2,09,11,39,317,40,19,32,069,16,25,29,292,25,09,10,188,,7*7A
$GAGSV,3,3,09,33,09,077,18,7*4A
$GAGSV,2,1,07,10,50,355,35,12,45,034,42,04,41,144,44,24,40,226,25,1*70
$GAGSV,2,2,07,11,39,317,36,19,32,069,15,25,29,292,28,1*45
$GBGSV,4,1,16,33,76,104,40,40,76,176,42,07,73,225,39,10,70,265,38,1*77
$GBGSV,4,2,16,08,55,287,32,14,53,053,45,43,49,082,34,28,48,339,45,1*7E
$GBGSV,4,3,16,13,47,273,30,41,38,200,36,42,28,042,36,11,26,098,30,1*72
$GBGSV,4,4,16,37,11,258,,23,09,209,,34,09,111,,38,,,42,1*4B
$GBGSV,2,1,06,33,76,104,46,40,76,176,43,43,49,082,14,28,48,339,34,4*7F
$GBGSV,2,2,06,41,38,200,44,42,28,042,39,4*79
$GNGGA,042514.000,2500.7889200,N,12132.4466700,E,2,57,0.47,12.84,M,15.25,M,2,3335*71
$GNRMC,042514.000,A,2500.7889200,N,12132.4466700,E,0.02,141.40,270623,,,D,V*06
$GPHDT,,T*1B
$GNGGA,042514.200,2500.7889200,N,12132.4466700,E,2,57,0.47,12.84,M,15.25,M,1,3335*70
$GNRMC,042514.200,A,2500.7889200,N,12132.4466700,E,0.02,141.40,270623,,,D,V*04
$GPHDT,,T*1B
$GNGGA,042514.400,2500.7889200,N,12132.4466700,E,2,57,0.47,12.84,M,15.25,M,1,3335*76
$GNRMC,042514.400,A,2500.7889200,N,12132.4466700,E,0.02,141.40,270623,,,D,V*02
$GPHDT,,T*1B
$GNGGA,042514.600,2500.7889200,N,12132.4466700,E,2,57,0.47,12.84,M,15.25,M,0,3335*75
$GNRMC,042514.600,A,2500.7889200,N,12132.4466700,E,0.02,141.40,270623,,,D,V*00
$GPHDT,,T*1B
$GNGGA,042514.800,2500.7889200,N,12132.4466600,E,2,57,0.47,12.84,M,15.25,M,0,3335*7A
$GNRMC,042514.800,A,2500.7889200,N,12132.4466600,E,0.02,141.40,270623,,,D,V*0F
$GPHDT,,T*1B
$GNGSA,A,3,19,196,195,199,17,06,20,09,11,194,12,04,0.80,0.47,0.64,1*02
$GNGSA,A,3,14,,,,,,,,,,,,0.80,0.47,0.64,1*0D
$GNGSA,A,3,68,83,82,67,69,,,,,,,,0.80,0.47,0.64,2*0A
$GNGSA,A,3,10,12,04,24,11,19,25,,,,,,0.80,0.47,0.64,3*05
$GNGSA,A,3,33,40,07,10,08,14,43,28,13,41,42,11,0.80,0.47,0.64,4*0E
$GPGSV,4,1,15,19,71,076,42,196,69,119,41,195,69,050,40,50,60,167,28,1*6B
$GPGSV,4,2,15,199,60,167,26,17,56,113,42,06,49,007,42,20,42,247,36,1*5F
$GPGSV,4,3,15,09,37,083,32,11,35,304,33,194,34,173,33,12,23,304,28,1*50
$GPGSV,4,4,15,04,18,055,30,05,17,231,,14,10,172,17,1*5B
$GPGSV,2,1,07,196,69,119,44,195,69,050,45,199,60,167,42,06,49,007,45,8*5B
$GPGSV,2,2,07,09,37,083,28,11,35,304,27,04,18,055,24,8*59
$GLGSV,2,1,07,68,68,117,41,83,40,005,28,82,35,064,33,67,35,038,37,1*78
$GLGSV,2,2,07,69,30,184,36,73,18,268,18,80,10,216,,1*4F
$GAGSV,3,1,09,10,50,355,33,12,45,034,37,04,41,144,42,24,40,226,20,7*7E
$GAGSV,3,2,09,11,39,317,40,19,32,069,17,25,29,292,25,09,10,188,,7*7B
$GAGSV,3,3,09,33,09,077,18,7*4A
$GAGSV,2,1,07,10,50,355,35,12,45,034,41,04,41,144,44,24,40,226,22,1*74
$GAGSV,2,2,07,11,39,317,36,19,32,069,17,25,29,292,29,1*46
$GBGSV,4,1,15,33,76,104,40,40,76,176,42,07,73,225,39,10,70,265,38,1*74
$GBGSV,4,2,15,08,55,287,33,14,53,053,45,43,49,082,33,28,48,339,45,1*7B
$GBGSV,4,3,15,13,47,273,32,41,38,200,40,42,28,042,35,11,26,098,30,1*71
$GBGSV,4,4,15,37,11,258,,34,09,111,,27,09,308,,1*41
$GBGSV,2,1,06,33,76,104,46,40,76,176,43,43,49,082,13,28,48,339,34,4*78
$GBGSV,2,2,06,41,38,200,44,42,28,042,39,4*79
$GNGGA,042515.000,2500.7889100,N,12132.4466600,E,2,56,0.47,12.84,M,15.25,M,1,3335*70
$GNRMC,042515.000,A,2500.7889100,N,12132.4466600,E,0.02,141.40,270623,,,D,V*05
$GPHDT,,T*1B
$GNGGA,042515.200,2500.7889100,N,12132.4466600,E,2,56,0.47,12.85,M,15.25,M,1,3335*73
$GNRMC,042515.200,A,2500.7889100,N,12132.4466600,E,0.01,141.40,270623,,,D,V*04
$GPHDT,,T*1B
$GNGGA,042515.400,2500.7889100,N,12132.4466600,E,2,56,0.47,12.85,M,15.25,M,1,3335*75
$GNRMC,042515.400,A,2500.7889100,N,12132.4466600,E,0.02,141.40,270623,,,D,V*01
$GPHDT,,T*1B
$GNGGA,042515.600,2500.7889000,N,12132.4466700,E,2,56,0.47,12.85,M,15.25,M,1,3335*77
$GNRMC,042515.600,A,2500.7889000,N,12132.4466700,E,0.03,141.40,270623,,,D,V*02
$GPHDT,,T*1B
$GNGGA,042515.800,2500.7889100,N,12132.4466800,E,2,57,0.47,12.85,M,15.25,M,0,3335*77
$GNRMC,042515.800,A,2500.7889100,N,12132.4466800,E,0.04,141.40,270623,,,D,V*05
$GPHDT,,T*1B
$GNGSA,A,3,19,195,196,199,17,06,20,09,11,194,12,04,0.80,0.47,0.64,1*02
$GNGSA,A,3,14,,,,,,,,,,,,0.80,0.47,0.64,1*0D
$GNGSA,A,3,68,83,67,82,69,,,,,,,,0.80,0.47,0.64,2*0A
$GNGSA,A,3,10,12,04,24,11,19,25,,,,,,0.80,0.47,0.64,3*05
$GNGSA,A,3,33,40,07,10,08,14,43,28,13,41,42,11,0.80,0.47,0.64,4*0E
$GPGSV,4,1,15,19,71,076,42,195,69,050,40,196,69,119,39,50,60,167,31,1*6C
$GPGSV,4,2,15,199,60,167,28,17,56,113,42,06,49,007,42,20,42,247,37,1*50
$GPGSV,4,3,15,09,37,083,32,11,35,304,34,194,34,173,30,12,23,304,25,1*59
$GPGSV,4,4,15,04,18,055,30,05,17,231,15,14,10,172,19,1*51
$GPGSV,2,1,08,195,69,050,45,196,69,119,44,199,60,167,42,06,49,007,45,8*54
$GPGSV,2,2,08,09,37,083,32,11,35,304,26,194,34,173,29,04,18,055,25,8*58
$GLGSV,3,1,09,68,68,117,41,83,40,005,28,67,35,038,35,82,35,064,32,1*74
$GLGSV,3,2,09,69,30,184,37,73,18,268,17,80,10,216,,74,08,311,,1*76
$GLGSV,3,3,09,84,06,310,,1*49
$GAGSV,3,1,09,10,50,355,34,12,45,034,36,04,41,144,42,24,40,226,17,7*7C
$GAGSV,3,2,09,11,39,317,39,19,32,069,18,25,29,292,25,09,10,188,,7*7A
$GAGSV,3,3,09,33,09,077,20,7*41
$GAGSV,2,1,08,10,50,355,32,12,45,034,41,04,41,144,43,24,40,226,21,1*78
$GAGSV,2,2,08,11,39,317,37,19,32,069,18,25,29,292,30,33,09,077,16,1*71
$GBGSV,4,1,15,33,76,104,41,40,76,176,44,07,73,225,39,10,70,265,38,1*73
$GBGSV,4,2,15,08,55,287,31,14,53,053,45,43,49,082,29,28,48,339,46,1*71
$GBGSV,4,3,15,13,47,273,33,41,38,200,42,42,28,042,35,11,26,098,27,1*74
$GBGSV,4,4,15,37,11,258,,34,09,111,,23,09,209,,1*45
$GBGSV,2,1,06,33,76,104,46,40,76,176,43,43,49,082,15,28,48,339,39,4*73
$GBGSV,2,2,06,41,38,200,45,42,28,042,40,4*76
$GNGGA,042516.000,2500.7889100,N,12132.4466900,E,2,57,0.47,12.86,M,15.25,M,1,3335*7F
$GNRMC,042516.000,A,2500.7889100,N,12132.4466900,E,0.04,141.40,270623,,,D,V*0F
$GPHDT,,T*1B
$GNGGA,042516.200,2500.7889000,N,12132.4466900,E,2,57,0.47,12.86,M,15.25,M,1,3335*7C
$GNRMC,042516.200,A,2500.7889000,N,12132.4466900,E,0.02,141.40,270623,,,D,V*0A
$GPHDT,,T*1B
$GNGGA,042516.400,2500.7889100,N,12132.4466900,E,2,57,0.47,12.87,M,15.25,M,1,3335*7A
$GNRMC,042516.400,A,2500.7889100,N,12132.4466900,E,0.02,141.40,270623,,,D,V*0D
$GPHDT,,T*1B
$GNGGA,042516.600,2500.7889000,N,12132.4466900,E,2,56,0.47,12.87,M,15.25,M,1,3335*78
$GNRMC,042516.600,A,2500.7889000,N,12132.4466900,E,0.02,141.40,270623,,,D,V*0E
$GPHDT,,T*1B
$GNGGA,042516.800,2500.7888900,N,12132.4467000,E,2,56,0.47,12.88,M,15.25,M,0,3335*78
$GNRMC,042516.800,A,2500.7888900,N,12132.4467000,E,0.03,141.40,270623,,,D,V*01
$GPHDT,,T*1B
$GNGSA,A,3,19,195,196,199,17,06,20,09,11,194,12,04,0.80,0.47,0.64,1*02
$GNGSA,A,3,14,,,,,,,,,,,,0.80,0.47,0.64,1*0D
$GNGSA,A,3,68,83,82,67,69,,,,,,,,0.80,0.47,0.64,2*0A
$GNGSA,A,3,10,12,04,24,11,19,25,,,,,,0.80,0.47,0.64,3*05
$GNGSA,A,3,33,40,07,10,08,14,43,28,13,41,42,11,0.80,0.47,0.64,4*0E
$GPGSV,4,1,15,19,71,076,41,195,69,050,40,196,69,119,40,50,60,167,33,1*63
$GPGSV,4,2,15,199,60,167,29,17,56,113,41,06,49,007,42,20,42,247,37,1*52
$GPGSV,4,3,15,09,37,083,30,11,35,304,33,194,34,173,33,12,23,304,24,1*5E
$GPGSV,4,4,15,04,18,055,28,05,17,231,15,14,10,172,19,1*58
$GPGSV,2,1,07,195,69,050,45,196,69,119,44,199,60,167,44,06,49,007,45,8*5D
$GPGSV,2,2,07,09,37,083,32,11,35,304,29,04,18,055,25,8*5D
$GLGSV,2,1,06,68,68,117,40,83,40,005,28,82,35,064,32,67,35,038,34,1*7A
$GLGSV,2,2,06,69,30,184,38,73,18,268,17,1*73
$GAGSV,3,1,09,10,50,355,34,12,45,034,36,04,41,144,42,24,40,226,18,7*73
$GAGSV,3,2,09,11,39,317,39,19,32,069,18,25,29,292,25,09,10,188,,7*7A
$GAGSV,3,3,09,33,09,077,20,7*41
$GAGSV,2,1,08,10,50,355,34,12,45,034,41,04,41,144,44,24,40,226,23,1*7B
$GAGSV,2,2,08,11,39,317,37,19,32,069,17,25,29,292,28,33,09,077,16,1*77
$GBGSV,4,1,15,33,76,104,41,40,76,176,43,07,73,225,39,10,70,265,39,1*75
$GBGSV,4,2,15,08,55,287,30,14,53,053,45,43,49,082,29,28,48,339,46,1*70
$GBGSV,4,3,15,13,47,273,33,41,38,200,42,42,28,042,34,11,26,098,26,1*74
$GBGSV,4,4,15,37,11,258,,34,09,111,,23,09,209,,1*45
$GBGSV,2,1,06,33,76,104,46,40,76,176,43,43,49,082,18,28,48,339,39,4*7E
$GBGSV,2,2,06,41,38,200,45,42,28,042,40,4*76
$GNGGA,042517.000,2500.7888900,N,12132.4467000,E,2,56,0.47,12.88,M,15.25,M,1,3335*70
$GNRMC,042517.000,A,2500.7888900,N,12132.4467000,E,0.02,141.40,270623,,,D,V*09
$GPHDT,,T*1B
$GNGGA,042517.200,2500.7888800,N,12132.4467000,E,2,57,0.47,12.89,M,15.25,M,1,3335*73
$GNRMC,042517.200,A,2500.7888800,N,12132.4467000,E,0.02,141.40,270623,,,D,V*0A
$GPHDT,,T*1B
$GNGGA,042517.400,2500.7888700,N,12132.4467100,E,2,57,0.47,12.90,M,15.25,M,1,3335*73
$GNRMC,042517.400,A,2500.7888700,N,12132.4467100,E,0.02,141.40,270623,,,D,V*02
$GPHDT,,T*1B
$GNGGA,042517.600,2500.7888700,N,12132.4467200,E,2,56,0.47,12.90,M,15.25,M,0,3335*72
$GNRMC,042517.600,A,2500.7888700,N,12132.4467200,E,0.00,141.40,270623,,,D,V*01
$GPHDT,,T*1B
$GNGGA,042517.800,2500.7888700,N,12132.4467300,E,2,56,0.47,12.91,M,15.25,M,0,3335*7C
$GNRMC,042517.800,A,2500.7888700,N,12132.4467300,E,0.02,141.40,270623,,,D,V*0C
$GPHDT,,T*1B
$GNGSA,A,3,19,196,195,199,17,06,20,09,11,194,12,04,0.80,0.47,0.64,1*02
$GNGSA,A,3,14,,,,,,,,,,,,0.80,0.47,0.64,1*0D
$GNGSA,A,3,68,83,67,82,69,,,,,,,,0.80,0.47,0.64,2*0A
$GNGSA,A,3,10,12,04,24,11,19,25,,,,,,0.80,0.47,0.64,3*05
$GNGSA,A,3,33,40,07,10,08,14,43,28,13,41,42,11,0.80,0.47,0.64,4*0E
$GPGSV,4,1,15,19,71,076,41,196,69,119,40,195,69,050,40,50,60,167,33,1*63
$GPGSV,4,2,15,199,60,167,30,17,56,113,39,06,49,007,42,20,42,247,35,1*57
$GPGSV,4,3,15,09,37,083,30,11,35,304,33,194,34,173,29,12,23,304,20,1*51
$GPGSV,4,4,15,04,18,055,28,05,17,231,16,14,10,172,18,1*5A
$GPGSV,2,1,07,195,69,050,45,196,69,119,43,199,60,167,45,06,49,007,45,8*5B
$GPGSV,2,2,07,09,37,083,32,11,35,304,29,04,18,055,25,8*5D
$GLGSV,2,1,06,68,68,117,39,83,40,005,28,67,35,038,35,82,35,064,30,1*77
$GLGSV,2,2,06,69,30,184,38,73,18,268,16,1*72
$GAGSV,3,1,10,10,50,355,33,12,45,034,37,04,41,144,42,24,40,226,23,7*75
$GAGSV,3,2,10,11,39,317,39,19,32,069,18,25,29,292,25,09,10,188,,7*72
$GAGSV,3,3,10,33,09,077,20,36,04,282,,7*70
$GAGSV,2,1,08,10,50,355,36,12,45,034,41,04,41,144,44,24,40,226,21,1*7B
$GAGSV,2,2,08,11,39,317,37,19,32,069,15,25,29,292,28,33,09,077,13,1*70
$GBGSV,4,1,16,33,76,104,42,40,76,176,43,07,73,225,38,10,70,265,38,1*75
$GBGSV,4,2,16,08,55,287,31,14,53,053,45,43,49,082,30,28,48,339,46,1*7A
$GBGSV,4,3,16,13,47,273,33,41,38,200,42,42,28,042,34,11,26,098,24,1*75
$GBGSV,4,4,16,37,11,258,,23,09,209,,34,09,111,,39,06,175,,1*79
$GBGSV,2,1,06,33,76,104,46,40,76,176,44,28,48,339,39,41,38,200,45,4*7D
$GBGSV,2,2,06,42,28,042,40,34,09,111,19,4*7C
$GNGGA,042518.000,2500.7888600,N,12132.4467300,E,2,56,0.47,12.92,M,15.25,M,1,3335*78
$GNRMC,042518.000,A,2500.7888600,N,12132.4467300,E,0.01,141.40,270623,,,D,V*09
$GPHDT,,T*1B
$GNGGA,042518.200,2500.7888600,N,12132.4467400,E,2,57,0.47,12.93,M,15.25,M,1,3335*7D
$GNRMC,042518.200,A,2500.7888600,N,12132.4467400,E,0.04,141.40,270623,,,D,V*09
$GPHDT,,T*1B
$GNGGA,042518.400,2500.7888600,N,12132.4467500,E,2,57,0.47,12.93,M,15.25,M,1,3335*7A
$GNRMC,042518.400,A,2500.7888600,N,12132.4467500,E,0.05,141.40,270623,,,D,V*0F
$GPHDT,,T*1B
$GNGGA,042518.600,2500.7888500,N,12132.4467500,E,2,57,0.47,12.94,M,15.25,M,1,3335*7C
$GNRMC,042518.600,A,2500.7888500,N,12132.4467500,E,0.05,141.40,270623,,,D,V*0E
$GPHDT,,T*1B
$GNGGA,042518.800,2500.7888400,N,12132.4467500,E,2,57,0.47,12.94,M,15.25,M,0,3335*72
$GNRMC,042518.800,A,2500.7888400,N,12132.4467500,E,0.04,141.40,270623,,,D,V*00
$GPHDT,,T*1B
$GNGSA,A,3,19,195,196,199,17,06,20,09,11,194,12,04,0.80,0.47,0.64,1*02
$GNGSA,A,3,14,,,,,,,,,,,,0.80,0.47,0.64,1*0D
$GNGSA,A,3,68,83,67,82,69,,,,,,,,0.80,0.47,0.64,2*0A
$GNGSA,A,3,10,12,04,24,11,19,25,,,,,,0.80,0.47,0.64,3*05
$GNGSA,A,3,33,40,07,10,08,14,43,28,13,41,42,11,0.80,0.47,0.64,4*0E
$GPGSV,4,1,15,19,71,076,40,195,69,050,40,196,69,119,40,50,60,167,33,1*62
$GPGSV,4,2,15,199,60,167,32,17,56,113,41,06,49,007,42,20,42,247,35,1*5A
$GPGSV,4,3,15,09,37,083,31,11,35,304,34,194,34,173,30,12,23,304,23,1*5C
$GPGSV,4,4,15,04,18,055,29,05,17,231,17,14,10,172,20,1*51
$GPGSV,2,1,08,195,69,050,45,196,69,119,43,199,60,167,45,06,49,007,45,8*54
$GPGSV,2,2,08,09,37,083,30,11,35,304,28,194,34,173,33,04,18,055,25,8*5F
$GLGSV,2,1,06,68,68,117,40,83,40,005,28,67,35,038,35,82,35,064,29,1*71
$GLGSV,2,2,06,69,30,184,38,73,18,268,16,1*72
$GAGSV,3,1,10,10,50,355,34,12,45,034,38,04,41,144,42,24,40,226,20,7*7E
$GAGSV,3,2,10,11,39,317,39,19,32,069,19,25,29,292,23,09,10,188,,7*75
$GAGSV,3,3,10,33,09,077,19,36,04,282,,7*7A
$GAGSV,2,1,08,10,50,355,36,12,45,034,41,04,41,144,44,24,40,226,20,1*7A
$GAGSV,2,2,08,11,39,317,36,19,32,069,15,25,29,292,30,33,09,077,13,1*78
$GBGSV,4,1,15,33,76,104,42,40,76,176,43,07,73,225,40,10,70,265,38,1*79
$GBGSV,4,2,15,08,55,287,30,14,53,053,45,43,49,082,30,28,48,339,46,1*78
$GBGSV,4,3,15,13,47,273,31,41,38,200,42,42,28,042,31,11,26,098,26,1*73
$GBGSV,4,4,15,37,11,258,,23,09,209,,34,09,111,,1*45
$GBGSV,2,1,06,33,76,104,46,40,76,176,44,28,48,339,38,41,38,200,45,4*7C
$GBGSV,2,2,06,42,28,042,39,34,09,111,19,4*72
$GNGGA,042519.000,2500.7888400,N,12132.4467500,E,2,57,0.47,12.95,M,15.25,M,1,3335*7B
$GNRMC,042519.000,A,2500.7888400,N,12132.4467500,E,0.03,141.40,270623,,,D,V*0E
$GPHDT,,T*1B
$GNGGA,042519.200,2500.7888400,N,12132.4467600,E,2,57,0.47,12.96,M,15.25,M,1,3335*79
$GNRMC,042519.200,A,2500.7888400,N,12132.4467600,E,0.04,141.40,270623,,,D,V*08
$GPHDT,,T*1B
$GNGGA,042519.400,2500.7888400,N,12132.4467600,E,2,57,0.47,12.96,M,15.25,M,1,3335*7F
$GNRMC,042519.400,A,2500.7888400,N,12132.4467600,E,0.00,141.40,270623,,,D,V*0A
$GPHDT,,T*1B
$GNGGA,042519.600,2500.7888400,N,12132.4467600,E,2,57,0.47,12.97,M,15.25,M,1,3335*7C
$GNRMC,042519.600,A,2500.7888400,N,12132.4467600,E,0.00,141.40,270623,,,D,V*08
$GPHDT,,T*1B
$GNGGA,042519.800,2500.7888400,N,12132.4467600,E,2,57,0.47,12.97,M,15.25,M,0,3335*73
$GNRMC,042519.800,A,2500.7888400,N,12132.4467600,E,0.01,141.40,270623,,,D,V*07
$GPHDT,,T*1B
$GNGSA,A,3,19,195,196,199,17,06,20,09,11,194,12,04,0.80,0.47,0.64,1*02
$GNGSA,A,3,14,,,,,,,,,,,,0.80,0.47,0.64,1*0D
$GNGSA,A,3,68,83,67,82,69,,,,,,,,0.80,0.47,0.64,2*0A
$GNGSA,A,3,10,12,04,24,11,19,25,,,,,,0.80,0.47,0.64,3*05
$GNGSA,A,3,33,40,07,10,08,14,43,28,13,41,42,11,0.80,0.47,0.64,4*0E
$GPGSV,4,1,15,19,71,076,40,195,69,050,40,196,69,119,40,50,60,167,33,1*62
$GPGSV,4,2,15,199,60,167,31,17,56,113,41,06,49,007,42,20,42,247,35,1*59
$GPGSV,4,3,15,09,37,083,31,11,35,304,33,194,34,173,30,12,23,304,22,1*5A
$GPGSV,4,4,15,04,18,055,28,05,17,231,17,14,10,172,21,1*51
$GPGSV,2,1,08,195,69,050,44,196,69,119,43,199,60,167,44,06,49,007,45,8*54
$GPGSV,2,2,08,09,37,083,28,11,35,304,27,194,34,173,33,04,18,055,25,8*59
$GLGSV,2,1,06,68,68,117,40,83,40,005,28,67,35,038,33,82,35,064,31,1*7E
$GLGSV,2,2,06,69,30,184,37,73,18,268,16,1*7D
$GAGSV,3,1,10,10,50,355,35,12,45,034,39,04,41,144,42,24,40,226,20,7*7E
$GAGSV,3,2,10,11,39,317,39,19,32,069,19,25,29,292,22,09,10,188,,7*74
$GAGSV,3,3,10,33,09,077,19,36,04,282,,7*7A
$GAGSV,2,1,08,10,50,355,36,12,45,034,41,04,41,144,44,24,40,226,21,1*7B
$GAGSV,2,2,08,11,39,317,36,19,32,069,15,25,29,292,30,33,09,077,14,1*7F
$GBGSV,4,1,15,33,76,104,42,40,76,176,42,07,73,225,40,10,70,265,38,1*78
$GBGSV,4,2,15,08,55,287,28,14,53,053,45,43,49,082,28,28,48,339,46,1*78
$GBGSV,4,3,15,13,47,273,31,41,38,200,42,42,28,042,32,11,26,098,28,1*7E
$GBGSV,4,4,15,37,11,258,,23,09,209,,34,09,111,,1*45
$GBGSV,2,1,06,33,76,104,46,40,76,176,44,28,48,339,38,41,38,200,45,4*7C
$GBGSV,2,2,06,42,28,042,38,34,09,111,19,4*73
$GNGGA,042520.000,2500.7888300,N,12132.4467700,E,2,57,0.47,12.98,M,15.25,M,1,3335*79
$GNRMC,042520.000,A,2500.7888300,N,12132.4467700,E,0.01,141.40,270623,,,D,V*03
$GPHDT,,T*1B
$GNGGA,042520.200,2500.7888300,N,12132.4467800,E,2,57,0.47,12.98,M,15.25,M,1,3335*74
$GNRMC,042520.200,A,2500.7888300,N,12132.4467800,E,0.01,141.40,270623,,,D,V*0E
$GPHDT,,T*1B
$GNGGA,042520.400,2500.7888300,N,12132.4467800,E,2,58,0.47,12.99,M,15.25,M,1,3335*7C
$GNRMC,042520.400,A,2500.7888300,N,12132.4467800,E,0.02,141.40,270623,,,D,V*0B
$GPHDT,,T*1B
$GNGGA,042520.600,2500.7888300,N,12132.4467900,E,2,58,0.47,13.00,M,15.25,M,0,3335*7F
$GNRMC,042520.600,A,2500.7888300,N,12132.4467900,E,0.02,141.40,270623,,,D,V*08
$GPHDT,,T*1B
$GNGGA,042520.800,2500.7888300,N,12132.4468000,E,2,58,0.47,13.00,M,15.25,M,0,3335*77
$GNRMC,042520.800,A,2500.7888300,N,12132.4468000,E,0.02,141.40,270623,,,D,V*00
$GPHDT,,T*1B
$GNGSA,A,3,19,195,196,199,17,06,20,09,11,194,12,04,0.81,0.49,0.65,1*0C
$GNGSA,A,3,14,,,,,,,,,,,,0.81,0.49,0.65,1*03
$GNGSA,A,3,68,83,67,82,69,,,,,,,,0.81,0.49,0.65,2*04
$GNGSA,A,3,10,12,04,24,11,19,25,,,,,,0.81,0.49,0.65,3*0B
$GNGSA,A,3,33,40,07,10,08,14,43,28,13,41,42,,0.81,0.49,0.65,4*00
$GPGSV,4,1,15,19,71,076,40,195,69,050,41,196,69,119,39,50,60,167,34,1*6A
$GPGSV,4,2,15,199,60,167,32,17,56,113,41,06,49,007,42,20,42,247,34,1*5B
$GPGSV,4,3,15,09,37,083,31,11,35,304,35,194,34,173,25,12,23,304,21,1*5B
$GPGSV,4,4,15,04,18,055,26,05,17,231,17,14,10,172,21,1*5F
$GPGSV,2,1,08,195,69,050,44,196,69,119,43,199,60,167,44,06,49,007,45,8*54
$GPGSV,2,2,08,09,37,083,26,11,35,304,27,194,34,173,35,04,18,055,23,8*57
$GLGSV,2,1,06,68,68,117,39,83,40,005,27,67,35,038,35,82,35,064,30,1*78
$GLGSV,2,2,06,69,30,184,36,73,18,268,17,1*7D
$GAGSV,3,1,10,10,50,355,34,12,45,034,38,04,41,144,42,24,40,226,20,7*7E
$GAGSV,3,2,10,11,39,317,39,19,32,069,20,25,29,292,22,09,10,188,,7*7E
$GAGSV,3,3,10,33,09,077,19,36,04,282,,7*7A
$GAGSV,2,1,08,10,50,355,36,12,45,034,41,04,41,144,44,24,40,226,21,1*7B
$GAGSV,2,2,08,11,39,317,36,19,32,069,15,25,29,292,29,33,09,077,15,1*76
$GBGSV,4,1,15,33,76,104,42,40,76,176,42,07,73,225,40,10,70,265,39,1*79
$GBGSV,4,2,15,08,55,287,29,14,53,053,45,43,49,082,27,28,48,339,46,1*76
$GBGSV,4,3,15,13,47,273,32,41,38,200,42,42,28,042,32,11,26,098,23,1*76
$GBGSV,4,4,15,37,11,258,,23,09,209,,34,09,111,,1*45
$GBGSV,2,1,07,33,76,104,46,40,76,176,44,43,49,082,27,28,48,339,39,4*74
$GBGSV,2,2,07,41,38,200,45,42,28,042,38,34,09,111,20,4*45
$GNGGA,042521.000,2500.7888300,N,12132.4468100,E,2,57,0.49,13.01,M,15.25,M,1,3335*7E
$GNRMC,042521.000,A,2500.7888300,N,12132.4468100,E,0.03,141.40,270623,,,D,V*09
$GPHDT,,T*1B
$GNGGA,042521.200,2500.7888200,N,12132.4468200,E,2,57,0.49,13.02,M,15.25,M,1,3335*7D
$GNRMC,042521.200,A,2500.7888200,N,12132.4468200,E,0.02,141.40,270623,,,D,V*08
$GPHDT,,T*1B
$GNGGA,042521.400,2500.7888200,N,12132.4468200,E,2,57,0.49,13.02,M,15.25,M,1,3335*7B
$GNRMC,042521.400,A,2500.7888200,N,12132.4468200,E,0.03,141.40,270623,,,D,V*0F
$GPHDT,,T*1B
$GNGGA,042521.600,2500.7888200,N,12132.4468400,E,2,57,0.49,13.03,M,15.25,M,1,3335*7E
$GNRMC,042521.600,A,2500.7888200,N,12132.4468400,E,0.03,141.40,270623,,,D,V*0B
$GPHDT,,T*1B
$GNGGA,042521.800,2500.7888200,N,12132.4468400,E,2,57,0.49,13.04,M,15.25,M,0,3335*76
$GNRMC,042521.800,A,2500.7888200,N,12132.4468400,E,0.03,141.40,270623,,,D,V*05
$GPHDT,,T*1B
$GNGSA,A,3,19,195,196,199,17,06,20,09,11,194,12,04,0.81,0.49,0.65,1*0C
$GNGSA,A,3,14,,,,,,,,,,,,0.81,0.49,0.65,1*03
$GNGSA,A,3,68,83,82,67,69,,,,,,,,0.81,0.49,0.65,2*04
$GNGSA,A,3,10,12,04,24,11,19,25,,,,,,0.81,0.49,0.65,3*0B
$GNGSA,A,3,33,40,07,10,08,14,43,28,13,41,42,,0.81,0.49,0.65,4*00
$GPGSV,4,1,15,19,71,076,40,195,69,050,41,196,69,119,39,50,60,167,34,1*6A
$GPGSV,4,2,15,199,60,167,33,17,56,113,41,06,49,007,42,20,42,247,34,1*5A
$GPGSV,4,3,15,09,37,083,29,11,35,304,35,194,34,173,27,12,23,304,21,1*50
$GPGSV,4,4,15,04,18,055,27,05,17,231,17,14,10,172,21,1*5E
$GPGSV,2,1,08,195,69,050,44,196,69,119,43,199,60,167,44,06,49,007,45,8*54
$GPGSV,2,2,08,09,37,083,31,11,35,304,29,194,34,173,35,04,18,055,24,8*58
$GLGSV,2,1,06,68,68,117,40,83,40,005,27,82,35,064,28,67,35,038,34,1*7E
$GLGSV,2,2,06,69,30,184,36,73,18,268,19,1*73
$GAGSV,3,1,09,10,50,355,34,12,45,034,38,04,41,144,43,24,40,226,20,7*77
$GAGSV,3,2,09,11,39,317,39,19,32,068,20,25,29,292,23,33,09,077,19,7*7E
$GAGSV,3,3,09,36,04,282,,7*43
$GAGSV,2,1,08,10,50,355,36,12,45,034,41,04,41,144,44,24,40,226,21,1*7B
$GAGSV,2,2,08,11,39,317,36,19,32,068,14,25,29,292,28,33,09,077,15,1*77
$GBGSV,4,1,15,33,76,104,42,40,76,176,42,07,73,225,40,10,70,265,39,1*79
$GBGSV,4,2,15,08,55,287,29,14,53,053,45,43,49,082,29,28,48,339,46,1*78
$GBGSV,4,3,15,13,47,273,32,41,38,200,42,42,28,042,32,11,26,098,19,1*7F
$GBGSV,4,4,15,37,11,258,,34,09,111,,23,09,209,,1*45
$GBGSV,2,1,07,33,76,104,45,40,76,176,44,43,49,082,25,28,48,339,40,4*7B
$GBGSV,2,2,07,41,38,200,45,42,28,042,38,34,09,111,19,4*4F
$GNGGA,042522.000,2500.7888200,N,12132.4468500,E,2,57,0.49,13.04,M,15.25,M,1,3335*7D
$GNRMC,042522.000,A,2500.7888200,N,12132.4468500,E,0.04,141.40,270623,,,D,V*08
$GPHDT,,T*1B
$GNGGA,042522.200,2500.7888200,N,12132.4468700,E,2,57,0.49,13.05,M,15.25,M,1,3335*7C
$GNRMC,042522.200,A,2500.7888200,N,12132.4468700,E,0.03,141.40,270623,,,D,V*0F
$GPHDT,,T*1B
$GNGGA,042522.400,2500.7888200,N,12132.4468800,E,2,57,0.49,13.06,M,15.25,M,1,3335*76
$GNRMC,042522.400,A,2500.7888200,N,12132.4468800,E,0.02,141.40,270623,,,D,V*07
$GPHDT,,T*1B
$GNGGA,042522.600,2500.7888200,N,12132.4468800,E,2,57,0.49,13.06,M,15.25,M,0,3335*75
$GNRMC,042522.600,A,2500.7888200,N,12132.4468800,E,0.02,141.40,270623,,,D,V*05
$GPHDT,,T*1B
$GNGGA,042522.800,2500.7888200,N,12132.4469000,E,2,58,0.47,13.07,M,15.25,M,0,3335*72
$GNRMC,042522.800,A,2500.7888200,N,12132.4469000,E,0.02,141.40,270623,,,D,V*02
$GPHDT,,T*1B
$GNGSA,A,3,19,195,196,199,17,06,20,09,11,194,12,04,0.80,0.47,0.64,1*02
$GNGSA,A,3,14,,,,,,,,,,,,0.80,0.47,0.64,1*0D
$GNGSA,A,3,68,83,67,82,69,,,,,,,,0.80,0.47,0.64,2*0A
$GNGSA,A,3,10,12,04,24,11,19,25,,,,,,0.80,0.47,0.64,3*05
$GNGSA,A,3,40,33,07,10,08,14,43,28,13,41,42,11,0.80,0.47,0.64,4*0E
$GPGSV,4,1,15,19,71,076,41,195,69,050,40,196,69,119,40,50,60,167,34,1*64
$GPGSV,4,2,15,199,60,167,33,17,56,113,40,06,49,007,42,20,42,247,35,1*5A
$GPGSV,4,3,15,09,37,083,29,11,35,304,34,194,34,173,28,12,23,304,22,1*5D
$GPGSV,4,4,15,04,18,055,28,05,17,231,16,14,10,172,22,1*53
$GPGSV,2,1,08,195,69,050,44,196,69,119,43,199,60,167,44,06,49,007,45,8*54
$GPGSV,2,2,08,09,37,083,33,11,35,304,29,194,34,173,34,04,18,055,24,8*5B
$GLGSV,2,1,08,68,68,117,42,83,40,005,26,67,35,038,35,82,35,064,25,1*7F
$GLGSV,2,2,08,69,30,184,36,73,18,268,20,74,08,311,,84,06,310,,1*77
$GAGSV,3,1,09,10,50,355,34,12,45,034,38,04,41,144,43,24,40,226,17,7*73
$GAGSV,3,2,09,11,39,317,39,19,32,068,20,25,29,292,23,33,09,077,18,7*7F
$GAGSV,3,3,09,36,04,282,,7*43
$GAGSV,2,1,08,10,50,355,35,12,45,034,41,04,41,144,44,24,40,226,19,1*73
$GAGSV,2,2,08,11,39,317,36,19,32,068,13,25,29,292,28,33,09,077,15,1*70
$GBGSV,5,1,18,40,76,176,42,33,76,104,42,07,73,225,40,10,70,265,39,1*75
$GBGSV,5,2,18,08,55,287,27,14,53,053,45,43,49,082,28,28,48,339,46,1*7B
$GBGSV,5,3,18,13,47,273,33,41,38,200,42,42,28,042,34,11,26,098,22,1*7C
$GBGSV,5,4,18,37,11,258,,27,09,308,,23,09,209,,34,09,111,,1*7E
$GBGSV,5,5,18,39,06,175,,06,03,185,,1*79
$GBGSV,2,1,07,33,76,104,45,40,76,176,44,43,49,082,21,28,48,339,40,4*7F
$GBGSV,2,2,07,41,38,200,45,42,28,042,38,34,09,111,19,4*4F
$GNGGA,042523.000,2500.7888200,N,12132.4469100,E,2,58,0.47,13.07,M,15.25,M,1,3335*7B
$GNRMC,042523.000,A,2500.7888200,N,12132.4469100,E,0.02,141.40,270623,,,D,V*0A
$PAIR010,0,1,2268,188741*37
$GPHDT,,T*1B
$GNGGA,042523.200,2500.7888200,N,12132.4469200,E,2,58,0.47,13.07,M,15.25,M,1,3335*7A
$GNRMC,042523.200,A,2500.7888200,N,12132.4469200,E,0.03,141.40,270623,,,D,V*0A
$GPHDT,,T*1B
$GNGGA,042523.400,2500.7888200,N,12132.4469400,E,2,57,0.50,13.08,M,15.25,M,1,3335*7C
$GNRMC,042523.400,A,2500.7888200,N,12132.4469400,E,0.02,141.40,270623,,,D,V*0B
$GPHDT,,T*1B
$GNGGA,042523.600,2500.7888200,N,12132.4469600,E,2,58,0.47,13.09,M,15.25,M,0,3335*75
$GNRMC,042523.600,A,2500.7888200,N,12132.4469600,E,0.04,141.40,270623,,,D,V*0D
$GPHDT,,T*1B
$GNGGA,042523.800,2500.7888200,N,12132.4469600,E,2,57,0.47,13.09,M,15.25,M,0,3335*74
$GNRMC,042523.800,A,2500.7888200,N,12132.4469600,E,0.03,141.40,270623,,,D,V*04
$GPHDT,,T*1B
$GNGSA,A,3,19,195,196,199,17,06,20,09,11,194,12,04,0.85,0.50,0.69,1*0C
$GNGSA,A,3,68,83,67,82,69,,,,,,,,0.85,0.50,0.69,2*04
$GNGSA,A,3,10,12,04,24,11,19,25,,,,,,0.85,0.50,0.69,3*0B
$GNGSA,A,3,40,33,07,10,08,14,43,28,13,41,42,11,0.85,0.50,0.69,4*00
$GPGSV,4,1,15,19,71,076,41,195,69,050,40,196,69,119,40,50,60,167,34,1*64
$GPGSV,4,2,15,199,60,167,31,17,56,113,40,06,49,007,42,20,42,247,37,1*5A
$GPGSV,4,3,15,09,37,083,27,11,35,304,34,194,34,173,30,12,23,304,23,1*5B
$GPGSV,4,4,15,04,18,055,28,05,17,231,16,14,10,172,21,1*50
$GPGSV,2,1,08,195,69,050,44,196,69,119,43,199,60,167,44,06,49,007,45,8*54
$GPGSV,2,2,08,09,37,083,32,11,35,304,29,194,34,173,36,04,18,055,25,8*59
$GLGSV,2,1,06,68,68,117,42,83,40,005,25,67,35,038,37,82,35,064,24,1*71
$GLGSV,2,2,06,69,30,184,36,73,18,268,21,1*78
$GAGSV,3,1,09,10,50,355,31,12,45,034,38,04,41,144,42,24,40,226,20,7*73
$GAGSV,3,2,09,11,39,317,39,19,32,068,23,25,29,292,25,33,09,078,18,7*75
$GAGSV,3,3,09,36,04,282,,7*43
$GAGSV,2,1,08,10,50,355,34,12,45,034,40,04,41,144,44,24,40,226,19,1*73
$GAGSV,2,2,08,11,39,317,37,19,32,068,13,25,29,292,29,33,09,078,12,1*78
$GBGSV,4,1,16,40,76,176,41,33,76,104,43,07,73,225,39,10,70,265,39,1*76
$GBGSV,4,2,16,08,55,287,31,14,53,053,45,43,49,082,32,28,48,339,46,1*78
$GBGSV,4,3,16,13,47,273,33,41,38,200,42,42,28,042,35,11,26,098,24,1*74
$GBGSV,4,4,16,37,11,258,,34,09,111,,27,09,308,,23,09,209,,1*71
$GBGSV,2,1,06,33,76,104,45,40,76,176,44,28,48,339,41,41,38,200,44,4*70
$GBGSV,2,2,06,42,28,042,38,34,09,111,18,4*72
$GNGGA,042524.000,2500.7888300,N,12132.4469700,E,2,56,0.50,13.09,M,15.25,M,1,3335*7D
$GNRMC,042524.000,A,2500.7888300,N,12132.4469700,E,0.03,141.40,270623,,,D,V*0B
$GPHDT,,T*1B
$GNGGA,042524.200,2500.7888300,N,12132.4469800,E,2,56,0.50,13.09,M,15.25,M,1,3335*70
$GNRMC,042524.200,A,2500.7888300,N,12132.4469800,E,0.02,141.40,270623,,,D,V*07
$GPHDT,,T*1B
$GNGGA,042524.400,2500.7888200,N,12132.4470000,E,2,55,0.51,13.10,M,15.25,M,1,3335*7D
$GNRMC,042524.400,A,2500.7888200,N,12132.4470000,E,0.03,141.40,270623,,,D,V*01
