$FW : RTK35X,V1.1X0314AS,Lib20210517,1*54
$Tool : LOCOSYS , GNSS Firebird , v1.0.0.19*39
$---------------------------------------------------*2D
$GNGGA,042612.800,2500.7896300,N,12132.4474200,E,2,56,0.50,14.20,M,15.25,M,0,3335*78
$GNRMC,042612.800,A,2500.7896300,N,12132.4474200,E,0.02,141.40,270623,,,D,V*02
$GPHDT,,T*1B
$GNGSA,A,3,19,195,196,199,17,06,20,09,11,194,12,04,0.85,0.50,0.69,1*0C
$GNGSA,A,3,68,83,82,67,69,,,,,,,,0.85,0.50,0.69,2*04
$GNGSA,A,3,10,12,04,24,11,19,25,,,,,,0.85,0.50,0.69,3*0B
$GNGSA,A,3,33,40,07,10,08,14,28,43,13,41,42,11,0.85,0.50,0.69,4*00
$GPGSV,4,1,15,19,71,077,40,195,69,050,38,196,69,119,39,50,60,167,37,1*66
$GPGSV,4,2,15,199,60,167,35,17,56,113,42,06,49,007,44,20,42,247,43,1*59
$GPGSV,4,3,15,09,37,083,32,11,35,304,30,194,34,173,30,12,23,304,22,1*5A
$GPGSV,4,4,15,05,17,231,13,04,17,055,19,14,10,171,16,1*5F
$GPGSV,2,1,08,195,69,050,44,196,69,119,45,199,60,167,46,06,49,007,47,8*52
$GPGSV,2,2,08,09,37,083,28,11,35,304,31,194,34,173,37,04,17,055,18,8*5B
$GLGSV,2,1,07,68,68,116,40,83,40,005,31,82,35,064,28,67,34,038,33,1*7F
$GLGSV,2,2,07,69,31,184,38,73,17,268,,80,09,215,,1*4D
$GAGSV,2,1,08,10,50,356,41,12,44,035,35,04,41,144,41,24,40,225,21,7*7B
$GAGSV,2,2,08,11,39,317,40,19,32,068,17,25,29,292,26,33,09,078,16,7*71
$GAGSV,2,1,06,10,50,356,42,12,44,035,38,04,41,144,45,24,40,225,23,1*7B
$GAGSV,2,2,06,11,39,317,41,25,29,292,20,1*7E
$GBGSV,4,1,15,33,76,102,38,40,76,177,42,07,73,224,40,10,70,265,39,1*72
$GBGSV,4,2,15,08,55,288,31,14,53,053,44,28,49,339,48,43,49,083,29,1*71
$GBGSV,4,3,15,13,47,273,18,41,39,201,40,42,28,042,33,11,26,099,29,1*76
$GBGSV,4,4,15,37,11,257,,34,09,112,,23,09,208,,1*48
$GBGSV,2,1,06,33,76,102,44,40,76,177,45,28,49,339,45,43,49,083,26,4*7B
$GBGSV,2,2,06,41,39,201,42,42,28,042,34,4*72
$GNGGA,042613.000,2500.7896300,N,12132.4474200,E,2,56,0.50,14.20,M,15.25,M,1,3335*70
$GNRMC,042613.000,A,2500.7896300,N,12132.4474200,E,0.02,141.40,270623,,,D,V*0B
$GPHDT,,T*1B
$GNGGA,042613.200,2500.7896200,N,12132.4474100,E,2,56,0.50,14.20,M,15.25,M,1,3335*70
$GNRMC,042613.200,A,2500.7896200,N,12132.4474100,E,0.03,141.40,270623,,,D,V*0A
$GPHDT,,T*1B
$GNGGA,042613.400,2500.7896200,N,12132.4474100,E,2,54,0.50,14.20,M,15.25,M,1,3335*74
$GNRMC,042613.400,A,2500.7896200,N,12132.4474100,E,0.05,141.40,270623,,,D,V*0A
$GPHDT,,T*1B
$GNGGA,042613.600,2500.7896100,N,12132.4474100,E,2,54,0.50,14.21,M,15.25,M,1,3335*74
$GNRMC,042613.600,A,2500.7896100,N,12132.4474100,E,0.07,141.40,270623,,,D,V*09
$GPHDT,,T*1B
$GNGGA,042613.800,2500.7896100,N,12132.4474100,E,2,55,0.50,14.21,M,15.25,M,0,3335*7A
$GNRMC,042613.800,A,2500.7896100,N,12132.4474100,E,0.07,141.40,270623,,,D,V*07
$GPHDT,,T*1B
$GNGSA,A,3,19,195,196,199,17,06,20,09,11,194,12,04,0.85,0.50,0.69,1*0C
$GNGSA,A,3,68,83,82,67,69,,,,,,,,0.85,0.50,0.69,2*04
$GNGSA,A,3,10,12,04,24,11,19,25,,,,,,0.85,0.50,0.69,3*0B
$GNGSA,A,3,40,33,07,10,08,14,28,13,41,42,11,43,0.85,0.50,0.69,4*00
$GPGSV,4,1,15,19,71,077,40,195,69,050,39,196,69,119,38,50,60,167,37,1*66
$GPGSV,4,2,15,199,60,167,35,17,56,113,42,06,49,007,44,20,42,247,42,1*58
$GPGSV,4,3,15,09,37,083,28,11,35,304,32,194,34,173,31,12,23,304,22,1*52
$GPGSV,4,4,15,05,17,231,13,04,17,055,21,14,10,171,16,1*54
$GPGSV,2,1,08,195,69,050,44,196,69,119,45,199,60,167,46,06,49,007,47,8*52
$GPGSV,2,2,08,09,37,083,26,11,35,304,33,194,34,173,36,04,17,055,16,8*58
$GLGSV,3,1,09,68,68,116,40,83,40,005,30,82,35,064,26,67,34,038,35,1*79
$GLGSV,3,2,09,69,31,184,38,73,17,268,,80,09,215,,74,08,310,,1*7B
$GLGSV,3,3,09,84,06,310,,1*49
$GAGSV,3,1,09,10,50,356,41,12,44,035,35,04,41,144,40,24,40,225,21,7*7A
$GAGSV,3,2,09,11,39,317,40,19,32,068,17,25,29,292,29,33,09,078,17,7*7F
$GAGSV,3,3,09,36,04,283,,7*42
$GAGSV,2,1,07,10,50,356,41,12,44,035,38,04,41,144,45,24,40,225,25,1*7F
$GAGSV,2,2,07,11,39,317,41,19,32,068,17,25,29,292,20,1*4E
$GBGSV,4,1,16,40,76,177,42,33,76,102,40,07,73,224,40,10,70,265,39,1*7E
$GBGSV,4,2,16,08,55,288,31,14,53,053,44,43,49,083,25,28,49,339,48,1*7E
$GBGSV,4,3,16,13,47,273,20,41,39,201,40,42,28,042,34,11,26,099,26,1*76
$GBGSV,4,4,16,34,09,112,,23,09,208,,27,09,309,,39,06,174,,1*77
$GBGSV,2,1,06,33,76,102,43,40,76,177,45,28,49,339,45,43,49,083,26,4*7C
$GBGSV,2,2,06,41,39,201,43,42,28,042,34,4*73
$GNGGA,042614.000,2500.7896100,N,12132.4473900,E,2,56,0.50,14.21,M,15.25,M,1,3335*78
$GNRMC,042614.000,A,2500.7896100,N,12132.4473900,E,0.04,141.40,270623,,,D,V*04
$GPHDT,,T*1B
$GNGGA,042614.200,2500.7896100,N,12132.4473900,E,2,55,0.50,14.21,M,15.25,M,1,3335*79
$GNRMC,042614.200,A,2500.7896100,N,12132.4473900,E,0.01,141.40,270623,,,D,V*03
$GPHDT,,T*1B
$GNGGA,042614.400,2500.7896200,N,12132.4473900,E,2,55,0.50,14.21,M,15.25,M,1,3335*7C
$GNRMC,042614.400,A,2500.7896200,N,12132.4473900,E,0.01,141.40,270623,,,D,V*06
$GPHDT,,T*1B
$GNGGA,042614.600,2500.7896200,N,12132.4473800,E,2,55,0.50,14.21,M,15.25,M,1,3335*7F
$GNRMC,042614.600,A,2500.7896200,N,12132.4473800,E,0.02,141.40,270623,,,D,V*06
$GPHDT,,T*1B
$GNGGA,042614.800,2500.7896200,N,12132.4473800,E,2,55,0.50,14.21,M,15.25,M,0,3335*70
$GNRMC,042614.800,A,2500.7896200,N,12132.4473800,E,0.02,141.40,270623,,,D,V*08
$GPHDT,,T*1B
$GNGSA,A,3,19,195,196,199,17,06,20,09,11,194,12,04,0.85,0.50,0.69,1*0C
$GNGSA,A,3,68,83,82,67,69,,,,,,,,0.85,0.50,0.69,2*04
$GNGSA,A,3,10,12,04,24,11,19,25,,,,,,0.85,0.50,0.69,3*0B
$GNGSA,A,3,33,40,07,10,08,14,28,13,41,42,11,43,0.85,0.50,0.69,4*00
$GPGSV,4,1,15,19,71,077,40,195,69,050,39,196,69,119,39,199,60,167,35,1*51
$GPGSV,4,2,15,50,60,167,37,17,56,113,42,06,49,007,44,20,42,247,42,1*6E
$GPGSV,4,3,15,09,37,083,26,11,35,304,32,194,34,173,28,12,23,304,19,1*5C
$GPGSV,4,4,15,04,17,055,20,05,17,231,13,14,10,171,15,1*56
$GPGSV,2,1,07,196,69,119,45,195,69,050,44,199,60,167,46,06,49,007,46,8*5C
$GPGSV,2,2,07,09,37,083,24,11,35,304,33,04,17,055,15,8*5D
$GLGSV,2,1,08,68,68,116,40,83,40,005,30,82,35,064,24,67,34,038,35,1*7B
$GLGSV,2,2,08,69,31,184,38,73,17,268,,80,09,215,,74,08,310,,1*7B
$GAGSV,3,1,09,10,50,356,41,12,44,035,35,04,41,144,39,24,40,225,25,7*70
$GAGSV,3,2,09,11,39,317,40,19,32,068,17,25,29,292,29,33,09,078,20,7*7B
$GAGSV,3,3,09,36,04,283,,7*42
$GAGSV,2,1,07,10,50,356,41,12,44,035,37,04,41,144,45,24,40,225,27,1*72
$GAGSV,2,2,07,11,39,317,41,19,32,068,14,25,29,292,20,1*4D
$GBGSV,4,1,15,33,76,102,40,40,76,177,42,07,73,224,40,10,70,265,40,1*73
$GBGSV,4,2,15,08,55,288,32,14,53,053,44,28,49,339,48,43,49,083,24,1*7F
$GBGSV,4,3,15,13,47,273,21,41,39,201,40,42,28,042,34,11,26,099,25,1*77
$GBGSV,4,4,15,37,11,257,,34,09,112,,23,09,208,,1*48
$GBGSV,2,1,06,33,76,102,43,40,76,177,45,28,49,339,45,43,49,083,25,4*7F
$GBGSV,2,2,06,41,39,201,43,42,28,042,34,4*73
$GNGGA,042615.000,2500.7896200,N,12132.4473700,E,2,55,0.50,14.22,M,15.25,M,1,3335*74
$GNRMC,042615.000,A,2500.7896200,N,12132.4473700,E,0.03,141.40,270623,,,D,V*0F
$GPHDT,,T*1B
$GNGGA,042615.200,2500.7896200,N,12132.4473600,E,2,55,0.50,14.22,M,15.25,M,1,3335*77
$GNRMC,042615.200,A,2500.7896200,N,12132.4473600,E,0.02,141.40,270623,,,D,V*0D
$GPHDT,,T*1B
$GNGGA,042615.400,2500.7896200,N,12132.4473600,E,2,56,0.50,14.22,M,15.25,M,1,3335*72
$GNRMC,042615.400,A,2500.7896200,N,12132.4473600,E,0.02,141.40,270623,,,D,V*0B
$GPHDT,,T*1B
$GNGGA,042615.600,2500.7896200,N,12132.4473500,E,2,56,0.50,14.22,M,15.25,M,1,3335*73
$GNRMC,042615.600,A,2500.7896200,N,12132.4473500,E,0.02,141.40,270623,,,D,V*0A
$GPHDT,,T*1B
$GNGGA,042615.800,2500.7896200,N,12132.4473500,E,2,55,0.50,14.22,M,15.25,M,0,3335*7F
$GNRMC,042615.800,A,2500.7896200,N,12132.4473500,E,0.01,141.40,270623,,,D,V*07
$GPHDT,,T*1B
$GNGSA,A,3,19,195,196,199,17,06,20,09,11,194,12,04,0.85,0.50,0.69,1*0C
$GNGSA,A,3,68,83,82,67,69,,,,,,,,0.85,0.50,0.69,2*04
$GNGSA,A,3,10,12,04,24,11,19,25,,,,,,0.85,0.50,0.69,3*0B
$GNGSA,A,3,33,40,07,10,08,14,28,13,41,42,11,43,0.85,0.50,0.69,4*00
$GPGSV,4,1,15,19,71,077,39,195,69,050,39,196,69,119,39,50,60,167,37,1*69
$GPGSV,4,2,15,199,60,167,35,17,56,113,43,06,49,008,44,20,42,247,42,1*56
$GPGSV,4,3,15,09,37,083,25,11,35,304,31,194,34,173,27,12,23,304,19,1*53
$GPGSV,4,4,15,05,17,231,14,04,17,055,23,14,10,171,17,1*50
$GPGSV,2,1,07,196,69,119,45,195,69,050,44,199,60,167,46,06,49,008,46,8*53
$GPGSV,2,2,07,09,37,083,25,11,35,304,34,04,17,055,15,8*5B
$GLGSV,2,1,07,68,68,116,40,83,40,005,30,82,35,064,24,67,34,038,36,1*77
$GLGSV,2,2,07,69,31,184,39,73,17,268,,80,09,215,,1*4C
$GAGSV,3,1,09,10,50,356,41,12,44,035,35,04,41,144,39,24,40,225,24,7*71
$GAGSV,3,2,09,11,39,317,40,19,32,068,16,25,29,292,29,33,09,078,20,7*7A
$GAGSV,3,3,09,36,04,283,,7*42
$GAGSV,2,1,07,10,50,356,41,12,44,035,37,04,41,144,45,24,40,225,27,1*72
$GAGSV,2,2,07,11,39,317,41,19,32,068,14,25,29,292,20,1*4D
$GBGSV,4,1,15,33,76,102,40,40,76,177,42,07,73,224,40,10,70,265,40,1*73
$GBGSV,4,2,15,08,55,288,32,14,53,053,44,43,49,083,20,28,49,339,48,1*7B
$GBGSV,4,3,15,13,47,273,20,41,39,201,40,42,28,042,34,11,26,099,25,1*76
$GBGSV,4,4,15,37,11,257,,34,09,112,,23,09,208,,1*48
$GBGSV,2,1,06,33,76,102,43,40,76,177,45,28,49,339,45,43,49,083,26,4*7C
$GBGSV,2,2,06,41,39,201,43,42,28,042,34,4*73
$GNGGA,042616.000,2500.7896100,N,12132.4473400,E,2,55,0.50,14.23,M,15.25,M,1,3335*76
$GNRMC,042616.000,A,2500.7896100,N,12132.4473400,E,0.02,141.40,270623,,,D,V*0D
$GPHDT,,T*1B
$GNGGA,042616.200,2500.7896200,N,12132.4473300,E,2,56,0.50,14.23,M,15.25,M,1,3335*73
$GNRMC,042616.200,A,2500.7896200,N,12132.4473300,E,0.01,141.40,270623,,,D,V*08
$GPHDT,,T*1B
$GNGGA,042616.400,2500.7896200,N,12132.4473300,E,2,55,0.50,14.23,M,15.25,M,1,3335*76
$GNRMC,042616.400,A,2500.7896200,N,12132.4473300,E,0.01,141.40,270623,,,D,V*0E
$GPHDT,,T*1B
$GNGGA,042616.600,2500.7896200,N,12132.4473300,E,2,55,0.50,14.23,M,15.25,M,1,3335*74
$GNRMC,042616.600,A,2500.7896200,N,12132.4473300,E,0.00,141.40,270623,,,D,V*0D
$GPHDT,,T*1B
$GNGGA,042616.800,2500.7896200,N,12132.4473300,E,2,56,0.50,14.23,M,15.25,M,1,3335*79
$GNRMC,042616.800,A,2500.7896200,N,12132.4473300,E,0.00,141.40,270623,,,D,V*03
$GPHDT,,T*1B
$GNGSA,A,3,19,195,196,199,17,06,20,09,11,194,12,04,1.07,0.50,0.95,1*04
$GNGSA,A,3,68,83,82,67,69,,,,,,,,1.07,0.50,0.95,2*0C
$GNGSA,A,3,10,12,04,24,11,19,25,,,,,,1.07,0.50,0.95,3*03
$GNGSA,A,3,33,40,07,10,08,14,28,13,41,42,11,43,1.07,0.50,0.95,4*08
$GPGSV,4,1,15,19,71,077,40,195,69,050,38,196,69,119,39,50,60,167,37,1*66
$GPGSV,4,2,15,199,60,167,35,17,56,113,42,06,49,008,44,20,42,247,42,1*57
$GPGSV,4,3,15,09,37,082,25,11,35,305,31,194,34,173,30,12,23,304,19,1*55
$GPGSV,4,4,15,05,17,231,14,04,17,055,24,14,10,171,14,1*54
$GPGSV,2,1,07,195,69,050,44,196,69,119,46,199,60,167,46,06,49,008,46,8*50
$GPGSV,2,2,07,09,37,082,25,11,35,305,34,04,17,055,15,8*5B
$GLGSV,2,1,06,68,68,116,39,83,40,005,30,82,35,064,24,67,34,038,36,1*78
$GLGSV,2,2,06,69,31,184,39,73,17,268,,1*7A
$GAGSV,3,1,09,10,50,356,41,12,44,035,35,04,41,144,39,24,40,225,23,7*76
$GAGSV,3,2,09,11,39,317,40,19,32,068,16,25,29,292,29,33,09,078,20,7*7A
$GAGSV,3,3,09,36,04,283,,7*42
$GAGSV,2,1,08,10,50,356,41,12,44,035,37,04,41,144,45,24,40,225,27,1*7D
$GAGSV,2,2,08,11,39,317,41,19,32,068,14,25,29,292,21,33,09,078,16,1*72
$GBGSV,4,1,15,33,76,102,41,40,76,177,42,07,73,224,40,10,70,265,40,1*72
$GBGSV,4,2,15,08,55,288,34,14,53,053,44,28,49,339,48,43,49,083,20,1*7D
$GBGSV,4,3,15,13,47,273,20,41,39,201,40,42,28,042,34,11,26,099,26,1*75
$GBGSV,4,4,15,37,11,257,,34,09,112,,23,09,208,,1*48
$GBGSV,2,1,06,33,76,102,44,40,76,177,45,28,49,339,45,43,49,083,26,4*7B
$GBGSV,2,2,06,41,39,201,43,42,28,042,34,4*73
$GNGGA,042617.000,2500.7896200,N,12132.4473200,E,2,55,0.50,14.24,M,15.25,M,2,3335*76
$GNRMC,042617.000,A,2500.7896200,N,12132.4473200,E,0.00,141.40,270623,,,D,V*0B
$GPHDT,,T*1B
$GNGGA,042617.200,2500.7896200,N,12132.4473200,E,2,55,0.50,14.24,M,15.25,M,2,3335*74
$GNRMC,042617.200,A,2500.7896200,N,12132.4473200,E,0.00,141.40,270623,,,D,V*09
$GPHDT,,T*1B
$GNGGA,042617.400,2500.7896300,N,12132.4473200,E,2,56,0.50,14.24,M,15.25,M,2,3335*70
$GNRMC,042617.400,A,2500.7896300,N,12132.4473200,E,0.00,141.40,270623,,,D,V*0E
$GPHDT,,T*1B
$GNGGA,042617.600,2500.7896300,N,12132.4473200,E,2,57,0.50,14.24,M,15.25,M,2,3335*73
$GNRMC,042617.600,A,2500.7896300,N,12132.4473200,E,0.00,141.40,270623,,,D,V*0C
$GPHDT,,T*1B
$GNGGA,042617.800,2500.7896300,N,12132.4473200,E,2,57,0.50,14.24,M,15.25,M,0,3335*7F
$GNRMC,042617.800,A,2500.7896300,N,12132.4473200,E,0.00,141.40,270623,,,D,V*02
$GPHDT,,T*1B
$GNGSA,A,3,19,195,196,199,17,06,20,09,11,194,12,04,1.07,0.50,0.95,1*04
$GNGSA,A,3,68,83,82,67,69,,,,,,,,1.07,0.50,0.95,2*0C
$GNGSA,A,3,10,12,04,24,11,19,25,,,,,,1.07,0.50,0.95,3*03
$GNGSA,A,3,40,33,07,10,08,14,43,28,13,41,42,11,1.07,0.50,0.95,4*08
$GPGSV,4,1,15,19,71,077,40,195,69,050,38,196,69,119,39,50,60,167,37,1*66
$GPGSV,4,2,15,199,60,167,35,17,56,114,41,06,49,008,44,20,42,247,41,1*50
$GPGSV,4,3,15,09,37,082,26,11,35,305,29,194,34,173,33,12,23,304,21,1*57
$GPGSV,4,4,15,05,17,231,14,04,17,055,24,14,09,171,14,1*5C
$GPGSV,2,1,07,195,69,050,44,196,69,119,46,199,60,167,46,06,49,008,46,8*50
$GPGSV,2,2,07,09,37,082,27,11,35,305,35,04,17,055,14,8*59
$GLGSV,2,1,05,68,68,116,38,83,40,005,31,82,35,064,24,67,34,038,36,1*7B
$GLGSV,2,2,05,69,31,184,40,1*49
$GAGSV,3,1,09,10,50,356,41,12,44,035,35,04,41,144,40,24,40,225,24,7*7F
$GAGSV,3,2,09,11,39,317,40,19,32,068,14,25,29,292,29,33,09,078,20,7*78
$GAGSV,3,3,09,36,04,283,,7*42
$GAGSV,2,1,08,10,50,356,41,12,44,035,37,04,41,144,45,24,40,225,28,1*72
$GAGSV,2,2,08,11,39,317,41,19,32,068,13,25,29,292,20,33,09,078,16,1*74
$GBGSV,4,1,15,40,76,177,42,33,76,102,41,07,73,224,40,10,70,265,40,1*72
$GBGSV,4,2,15,08,55,288,34,14,53,053,44,43,49,083,28,28,49,339,48,1*75
$GBGSV,4,3,15,13,47,273,22,41,39,201,39,42,28,042,34,11,26,099,24,1*7B
$GBGSV,4,4,15,37,11,257,,34,09,112,,23,09,208,,1*48
$GBGSV,2,1,06,33,76,102,44,40,76,177,44,28,49,339,45,43,49,083,28,4*74
$GBGSV,2,2,06,41,39,201,43,42,28,042,34,4*73
$GNGGA,042618.000,2500.7896400,N,12132.4473200,E,2,56,0.50,14.25,M,15.25,M,1,3335*7E
$GNRMC,042618.000,A,2500.7896400,N,12132.4473200,E,0.00,141.40,270623,,,D,V*02
$GPHDT,,T*1B
$GNGGA,042618.200,2500.7896300,N,12132.4473100,E,2,56,0.50,14.25,M,15.25,M,1,3335*78
$GNRMC,042618.200,A,2500.7896300,N,12132.4473100,E,0.01,141.40,270623,,,D,V*05
$GPHDT,,T*1B
$GNGGA,042618.400,2500.7896400,N,12132.4473100,E,2,56,0.50,14.25,M,15.25,M,1,3335*79
$GNRMC,042618.400,A,2500.7896400,N,12132.4473100,E,0.00,141.40,270623,,,D,V*05
$GPHDT,,T*1B
$GNGGA,042618.600,2500.7896300,N,12132.4473000,E,2,56,0.50,14.25,M,15.25,M,0,3335*7C
$GNRMC,042618.600,A,2500.7896300,N,12132.4473000,E,0.00,141.40,270623,,,D,V*01
$GPHDT,,T*1B
$GNGGA,042618.800,2500.7896300,N,12132.4473000,E,2,57,0.50,14.25,M,15.25,M,0,3335*73
$GNRMC,042618.800,A,2500.7896300,N,12132.4473000,E,0.00,141.40,270623,,,D,V*0F
$GPHDT,,T*1B
$GNGSA,A,3,19,195,196,199,17,06,20,09,11,194,12,04,1.07,0.50,0.95,1*04
$GNGSA,A,3,68,83,82,67,69,,,,,,,,1.07,0.50,0.95,2*0C
$GNGSA,A,3,10,12,04,24,11,19,25,,,,,,1.07,0.50,0.95,3*03
$GNGSA,A,3,33,40,07,10,08,14,28,43,13,41,42,11,1.07,0.50,0.95,4*08
$GPGSV,4,1,15,19,71,078,40,195,69,050,39,196,69,119,39,50,60,167,37,1*68
$GPGSV,4,2,15,199,60,167,35,17,56,114,41,06,49,008,44,20,42,247,43,1*52
$GPGSV,4,3,15,09,37,082,27,11,35,305,28,194,34,173,26,12,23,304,21,1*53
$GPGSV,4,4,15,05,17,231,15,04,17,055,25,14,09,171,15,1*5D
$GPGSV,2,1,08,195,69,050,44,196,69,119,46,199,60,167,46,06,49,008,46,8*5F
$GPGSV,2,2,08,09,37,082,25,11,35,305,35,194,34,173,33,04,17,055,15,8*5B
$GLGSV,2,1,06,68,68,116,38,83,40,005,30,82,35,064,27,67,34,038,36,1*7A
$GLGSV,2,2,06,69,31,184,40,80,09,215,,1*7D
$GAGSV,3,1,09,10,50,356,41,12,44,035,35,04,41,144,40,24,40,225,20,7*7B
$GAGSV,3,2,09,11,39,317,40,19,32,068,14,25,29,292,29,33,09,078,20,7*78
$GAGSV,3,3,09,36,04,283,,7*42
$GAGSV,2,1,08,10,50,356,41,12,44,035,37,04,41,144,45,24,40,225,26,1*7C
$GAGSV,2,2,08,11,39,317,41,19,32,068,10,25,29,292,20,33,09,078,16,1*77
$GBGSV,4,1,15,33,76,102,41,40,76,177,42,07,73,224,40,10,70,265,40,1*72
$GBGSV,4,2,15,08,55,288,34,14,53,053,44,28,49,339,48,43,49,083,29,1*74
$GBGSV,4,3,15,13,47,273,20,41,39,201,40,42,28,042,34,11,26,099,25,1*76
$GBGSV,4,4,15,37,11,257,,34,09,112,,23,09,208,,1*48
$GBGSV,2,1,06,33,76,102,44,40,76,177,44,28,49,339,45,43,49,083,29,4*75
$GBGSV,2,2,06,41,39,201,43,42,28,042,34,4*73
$GNGGA,042619.000,2500.7896300,N,12132.4473000,E,2,57,0.50,14.26,M,15.25,M,1,3335*78
$GNRMC,042619.000,A,2500.7896300,N,12132.4473000,E,0.00,141.40,270623,,,D,V*06
$GPHDT,,T*1B
$GNGGA,042619.200,2500.7896300,N,12132.4472900,E,2,56,0.50,14.26,M,15.25,M,1,3335*73
$GNRMC,042619.200,A,2500.7896300,N,12132.4472900,E,0.00,141.40,270623,,,D,V*0C
$GPHDT,,T*1B
$GNGGA,042619.400,2500.7896200,N,12132.4472900,E,2,56,0.50,14.27,M,15.25,M,0,3335*74
$GNRMC,042619.400,A,2500.7896200,N,12132.4472900,E,0.00,141.40,270623,,,D,V*0B
$GPHDT,,T*1B
$GNGGA,042619.600,2500.7896200,N,12132.4472900,E,2,56,0.50,14.27,M,15.25,M,0,3335*76
$GNRMC,042619.600,A,2500.7896200,N,12132.4472900,E,0.00,141.40,270623,,,D,V*09
$GPHDT,,T*1B
$GNGGA,042619.800,2500.7896100,N,12132.4472800,E,2,56,0.50,14.27,M,15.25,M,0,3335*7A
$GNRMC,042619.800,A,2500.7896100,N,12132.4472800,E,0.00,141.40,270623,,,D,V*05
$GPHDT,,T*1B
$GNGSA,A,3,19,195,196,199,17,06,20,09,11,194,12,04,1.07,0.50,0.95,1*04
$GNGSA,A,3,68,83,82,67,69,,,,,,,,1.07,0.50,0.95,2*0C
$GNGSA,A,3,10,12,04,24,11,19,25,,,,,,1.07,0.50,0.95,3*03
$GNGSA,A,3,33,40,07,10,08,14,28,43,13,41,42,11,1.07,0.50,0.95,4*08
$GPGSV,4,1,15,19,71,078,40,195,69,050,39,196,69,119,39,199,60,167,35,1*5E
$GPGSV,4,2,15,50,60,167,37,17,56,114,41,06,49,008,44,20,42,247,44,1*63
$GPGSV,4,3,15,09,37,082,29,11,35,305,29,194,34,173,23,12,23,304,21,1*59
$GPGSV,4,4,15,04,17,055,25,05,17,231,16,14,09,171,,1*5A
$GPGSV,2,1,07,195,69,050,44,196,69,119,46,199,60,167,46,06,49,008,46,8*50
$GPGSV,2,2,07,09,37,082,25,11,35,305,35,04,17,055,15,8*5A
$GLGSV,2,1,08,68,68,116,38,83,40,005,30,82,35,064,27,67,34,038,36,1*74
$GLGSV,2,2,08,69,31,184,40,80,09,215,,74,08,310,,84,06,310,,1*72
$GAGSV,3,1,09,10,50,356,41,12,44,035,35,04,41,144,40,24,40,225,20,7*7B
$GAGSV,3,2,09,11,39,317,40,19,32,068,14,25,29,292,29,33,09,078,22,7*7A
$GAGSV,3,3,09,36,04,283,,7*42
$GAGSV,2,1,08,10,50,356,42,12,44,035,37,04,41,144,45,24,40,225,26,1*7F
$GAGSV,2,2,08,11,39,317,41,19,32,068,08,25,29,292,21,33,09,078,16,1*7F
$GBGSV,4,1,15,33,76,102,41,40,76,177,42,07,73,224,40,10,70,265,40,1*72
$GBGSV,4,2,15,08,55,288,34,14,53,053,44,28,49,339,48,43,49,083,28,1*75
$GBGSV,4,3,15,13,47,273,20,41,39,201,40,42,28,042,34,11,26,099,25,1*76
$GBGSV,4,4,15,37,11,257,,34,09,112,,23,09,208,,1*48
$GBGSV,2,1,06,33,76,102,44,40,76,177,44,28,49,339,45,43,49,083,28,4*74
$GBGSV,2,2,06,41,39,201,43,42,28,042,34,4*73
$GNGGA,042620.000,2500.7896100,N,12132.4472700,E,2,56,0.50,14.27,M,15.25,M,1,3335*76
$GNRMC,042620.000,A,2500.7896100,N,12132.4472700,E,0.00,141.40,270623,,,D,V*08
$GPHDT,,T*1B
$GNGGA,042620.200,2500.7896100,N,12132.4472700,E,2,55,0.50,14.27,M,15.25,M,1,3335*77
$GNRMC,042620.200,A,2500.7896100,N,12132.4472700,E,0.00,141.40,270623,,,D,V*0A
$GPHDT,,T*1B
$GNGGA,042620.400,2500.7896100,N,12132.4472600,E,2,55,0.50,14.28,M,15.25,M,1,3335*7F
$GNRMC,042620.400,A,2500.7896100,N,12132.4472600,E,0.00,141.40,270623,,,D,V*0D
$GPHDT,,T*1B
$GNGGA,042620.600,2500.7896000,N,12132.4472600,E,2,55,0.50,14.29,M,15.25,M,0,3335*7C
$GNRMC,042620.600,A,2500.7896000,N,12132.4472600,E,0.00,141.40,270623,,,D,V*0E
$GPHDT,,T*1B
$GNGGA,042620.800,2500.7895900,N,12132.4472600,E,2,55,0.50,14.29,M,15.25,M,0,3335*78
$GNRMC,042620.800,A,2500.7895900,N,12132.4472600,E,0.00,141.40,270623,,,D,V*0A
$GPHDT,,T*1B
$GNGSA,A,3,19,195,196,199,17,06,20,09,11,194,04,,1.12,0.52,0.99,1*0D
$GNGSA,A,3,68,83,82,67,69,,,,,,,,1.12,0.52,0.99,2*06
$GNGSA,A,3,10,12,04,24,11,19,25,,,,,,1.12,0.52,0.99,3*09
$GNGSA,A,3,33,40,07,10,08,14,28,13,41,42,11,43,1.12,0.52,0.99,4*02
$GPGSV,4,1,15,19,71,078,40,195,69,050,39,196,69,119,39,50,60,167,37,1*68
$GPGSV,4,2,15,199,60,167,35,17,56,114,40,06,49,008,44,20,42,247,44,1*54
$GPGSV,4,3,15,09,37,082,28,11,35,305,28,194,34,173,24,12,23,304,25,1*5A
$GPGSV,4,4,15,05,17,231,16,04,17,055,25,14,09,171,,1*5A
$GPGSV,2,1,07,195,69,050,45,196,69,119,46,199,60,167,46,06,49,008,46,8*51
$GPGSV,2,2,07,09,37,082,25,11,35,305,35,04,17,055,16,8*59
$GLGSV,2,1,06,68,68,116,37,83,40,005,30,82,35,064,28,67,34,038,35,1*79
$GLGSV,2,2,06,69,31,184,40,80,09,215,,1*7D
$GAGSV,3,1,09,10,50,356,41,12,44,035,36,04,41,144,40,24,40,225,21,7*79
$GAGSV,3,2,09,11,39,317,40,19,32,068,13,25,29,292,29,33,09,078,22,7*7D
$GAGSV,3,3,09,36,04,283,,7*42
$GAGSV,2,1,08,10,50,356,42,12,44,035,37,04,41,144,45,24,40,225,27,1*7E
$GAGSV,2,2,08,11,39,317,41,19,32,068,09,25,29,292,21,33,09,078,15,1*7D
$GBGSV,4,1,15,33,76,102,41,40,76,177,42,07,73,224,40,10,70,265,40,1*72
$GBGSV,4,2,15,08,55,288,34,14,53,053,44,28,49,339,48,43,49,083,26,1*7B
$GBGSV,4,3,15,13,47,273,20,41,39,201,40,42,28,042,33,11,26,099,25,1*71
$GBGSV,4,4,15,37,11,257,,34,09,112,,23,09,208,,1*48
$GBGSV,2,1,06,33,76,102,44,40,76,177,44,28,49,339,45,43,49,083,28,4*74
$GBGSV,2,2,06,41,39,201,43,42,28,042,35,4*72
$GNGGA,042621.000,2500.7895800,N,12132.4472500,E,2,54,0.52,14.29,M,15.25,M,1,3335*71
$GNRMC,042621.000,A,2500.7895800,N,12132.4472500,E,0.00,141.40,270623,,,D,V*01
$GPHDT,,T*1B
$GNGGA,042621.200,2500.7895800,N,12132.4472400,E,2,55,0.52,14.30,M,15.25,M,1,3335*7B
$GNRMC,042621.200,A,2500.7895800,N,12132.4472400,E,0.00,141.40,270623,,,D,V*02
$GPHDT,,T*1B
$GNGGA,042621.400,2500.7895700,N,12132.4472400,E,2,56,0.50,14.30,M,15.25,M,1,3335*73
$GNRMC,042621.400,A,2500.7895700,N,12132.4472400,E,0.00,141.40,270623,,,D,V*0B
$GPHDT,,T*1B
$GNGGA,042621.600,2500.7895600,N,12132.4472300,E,2,56,0.50,14.31,M,15.25,M,0,3335*77
$GNRMC,042621.600,A,2500.7895600,N,12132.4472300,E,0.00,141.40,270623,,,D,V*0F
$GPHDT,,T*1B
$GNGGA,042621.800,2500.7895600,N,12132.4472300,E,2,55,0.52,14.31,M,15.25,M,0,3335*78
$GNRMC,042621.800,A,2500.7895600,N,12132.4472300,E,0.00,141.40,270623,,,D,V*01
$GPHDT,,T*1B
$GNGSA,A,3,19,195,196,199,17,06,20,09,11,12,04,,1.10,0.52,0.97,1*3E
$GNGSA,A,3,68,83,82,67,69,,,,,,,,1.10,0.52,0.97,2*0A
$GNGSA,A,3,10,12,04,24,11,19,25,,,,,,1.10,0.52,0.97,3*05
$GNGSA,A,3,33,40,07,10,08,14,28,43,13,41,42,11,1.10,0.52,0.97,4*0E
$GPGSV,4,1,15,19,71,078,40,195,69,050,39,196,69,118,39,50,60,167,37,1*69
$GPGSV,4,2,15,199,60,167,35,17,56,114,40,06,49,008,44,20,42,247,44,1*54
$GPGSV,4,3,15,09,37,082,29,11,35,305,28,194,34,173,,12,23,304,24,1*5C
$GPGSV,4,4,15,05,17,231,16,04,17,055,27,14,09,171,,1*58
$GPGSV,2,1,07,196,69,118,46,195,69,050,45,199,60,167,46,06,49,008,46,8*50
$GPGSV,2,2,07,09,37,082,25,11,35,305,35,04,17,055,16,8*59
$GLGSV,2,1,06,68,68,116,37,83,40,005,31,82,35,064,27,67,34,038,33,1*71
$GLGSV,2,2,06,69,31,184,40,80,09,215,,1*7D
$GAGSV,3,1,09,10,50,356,42,12,44,035,36,04,41,144,40,24,40,225,20,7*7B
$GAGSV,3,2,09,11,39,317,40,19,32,068,13,25,29,292,29,33,09,078,21,7*7E
$GAGSV,3,3,09,36,04,283,,7*42
$GAGSV,2,1,07,10,50,356,42,12,44,035,37,04,41,144,45,24,40,225,26,1*70
$GAGSV,2,2,07,11,39,317,41,19,32,068,09,25,29,292,21,1*40
$GBGSV,4,1,14,33,76,102,41,40,76,177,42,07,73,224,40,10,70,265,39,1*7D
$GBGSV,4,2,14,08,55,288,33,14,53,053,44,28,49,339,47,43,49,083,28,1*7C
$GBGSV,4,3,14,13,47,273,20,41,39,201,40,42,28,042,34,11,26,099,25,1*77
$GBGSV,4,4,14,37,11,257,,23,09,208,,1*75
$GBGSV,2,1,06,33,76,102,44,40,76,177,44,28,49,339,45,43,49,083,27,4*7B
$GBGSV,2,2,06,41,39,201,43,42,28,042,35,4*72
$GNGGA,042622.000,2500.7895500,N,12132.4472100,E,2,54,0.52,14.32,M,15.25,M,1,3335*71
$GNRMC,042622.000,A,2500.7895500,N,12132.4472100,E,0.00,141.40,270623,,,D,V*0B
$GPHDT,,T*1B
$GNGGA,042622.200,2500.7895400,N,12132.4472100,E,2,54,0.52,14.32,M,15.25,M,1,3335*72
$GNRMC,042622.200,A,2500.7895400,N,12132.4472100,E,0.00,141.40,270623,,,D,V*08
$GPHDT,,T*1B
$GNGGA,042622.400,2500.7895300,N,12132.4472000,E,2,55,0.50,14.33,M,15.25,M,1,3335*70
$GNRMC,042622.400,A,2500.7895300,N,12132.4472000,E,0.00,141.40,270623,,,D,V*08
$GPHDT,,T*1B
$GNGGA,042622.600,2500.7895300,N,12132.4472000,E,2,55,0.50,14.33,M,15.25,M,0,3335*73
$GNRMC,042622.600,A,2500.7895300,N,12132.4472000,E,0.00,141.40,270623,,,D,V*0A
$GPHDT,,T*1B
$GNGGA,042622.800,2500.7895300,N,12132.4471800,E,2,55,0.50,14.33,M,15.25,M,0,3335*76
$GNRMC,042622.800,A,2500.7895300,N,12132.4471800,E,0.00,141.40,270623,,,D,V*0F
$GPHDT,,T*1B
$GNGSA,A,3,19,195,196,199,17,06,20,09,11,194,12,04,1.07,0.50,0.95,1*04
$GNGSA,A,3,68,83,82,67,69,,,,,,,,1.07,0.50,0.95,2*0C
$GNGSA,A,3,10,12,04,24,11,19,25,,,,,,1.07,0.50,0.95,3*03
$GNGSA,A,3,33,40,07,10,08,14,28,13,41,42,11,43,1.07,0.50,0.95,4*08
$GPGSV,4,1,15,19,71,078,41,195,69,050,39,196,69,118,39,50,60,167,37,1*68
$GPGSV,4,2,15,199,60,167,35,17,56,114,40,06,49,008,44,20,42,247,44,1*54
$GPGSV,4,3,15,09,37,082,29,11,35,305,28,194,34,173,28,12,23,304,23,1*51
$GPGSV,4,4,15,05,17,231,16,04,17,055,27,14,09,171,,1*58
$GPGSV,2,1,07,196,69,118,47,195,69,050,45,199,60,167,46,06,49,008,46,8*51
$GPGSV,2,2,07,09,37,082,24,11,35,305,34,04,17,055,14,8*5B
$GLGSV,2,1,06,68,68,116,36,83,40,005,31,82,35,064,26,67,34,038,31,1*73
$GLGSV,2,2,06,69,31,184,40,80,09,215,,1*7D
$GAGSV,3,1,09,10,50,356,42,12,44,035,36,04,41,143,40,24,40,225,19,7*76
$GAGSV,3,2,09,11,39,317,40,19,32,068,13,25,29,292,29,33,09,078,21,7*7E
$GAGSV,3,3,09,36,04,283,,7*42
$GAGSV,2,1,07,10,50,356,43,12,44,035,37,04,41,143,45,24,40,225,26,1*76
$GAGSV,2,2,07,11,39,317,41,19,32,068,09,25,29,292,20,1*41
$GBGSV,4,1,14,33,76,102,41,40,76,177,42,07,73,224,40,10,70,265,39,1*7D
$GBGSV,4,2,14,08,55,288,33,14,53,053,44,28,49,339,47,43,49,083,28,1*7C
$GBGSV,4,3,14,13,47,273,20,41,39,201,40,42,28,042,34,11,26,099,25,1*77
$GBGSV,4,4,14,37,11,257,,23,09,208,,1*75
$GBGSV,2,1,06,33,76,102,44,40,76,177,44,28,49,339,45,43,49,083,26,4*7A
$GBGSV,2,2,06,41,39,201,43,42,28,042,35,4*72
$GNGGA,042623.000,2500.7895200,N,12132.4471800,E,2,54,0.50,14.33,M,15.25,M,1,3335*7E
$GNRMC,042623.000,A,2500.7895200,N,12132.4471800,E,0.00,141.40,270623,,,D,V*07
$PAIR010,0,1,2268,188801*3C
$GPHDT,,T*1B
$GNGGA,042623.200,2500.7895100,N,12132.4471700,E,2,55,0.50,14.34,M,15.25,M,1,3335*76
$GNRMC,042623.200,A,2500.7895100,N,12132.4471700,E,0.00,141.40,270623,,,D,V*09
$GPHDT,,T*1B
$GNGGA,042623.400,2500.7895000,N,12132.4471600,E,2,56,0.50,14.34,M,15.25,M,1,3335*73
$GNRMC,042623.400,A,2500.7895000,N,12132.4471600,E,0.00,141.40,270623,,,D,V*0F
$GPHDT,,T*1B
$GNGGA,042623.600,2500.7895000,N,12132.4471500,E,2,55,0.52,14.34,M,15.25,M,1,3335*73
$GNRMC,042623.600,A,2500.7895000,N,12132.4471500,E,0.00,141.40,270623,,,D,V*0E
$GPHDT,,T*1B
$GNGGA,042623.800,2500.7894900,N,12132.4471400,E,2,55,0.52,14.34,M,15.25,M,1,3335*74
$GNRMC,042623.800,A,2500.7894900,N,12132.4471400,E,0.00,141.40,270623,,,D,V*09
