$FW : RTK35X,V1.1X0314AS,Lib20210517,1*54
$Tool : LOCOSYS , GNSS Firebird , v1.0.0.19*39
$---------------------------------------------------*2D
$GPHDT,,T*1B
$GNGGA,042422.400,2500.7864371,N,12132.4455764,E,2,58,0.47,15.415,M,15.25,M,1,3335*40
$GNRMC,042422.400,A,2500.7864371,N,12132.4455764,E,0.00,141.40,270623,,,D,V*02
$GPHDT,,T*1B
$GNGGA,042422.600,2500.7864311,N,12132.4455764,E,2,58,0.47,15.409,M,15.25,M,0,3335*48
$GNRMC,042422.600,A,2500.7864311,N,12132.4455764,E,0.00,141.40,270623,,,D,V*06
$GPHDT,,T*1B
$GNGGA,042422.800,2500.7864311,N,12132.4455764,E,2,58,0.47,15.404,M,15.25,M,0,3335*4B
$GNRMC,042422.800,A,2500.7864311,N,12132.4455764,E,0.00,141.40,270623,,,D,V*08
$GPHDT,,T*1B
$GNGSA,A,3,19,195,196,199,17,06,20,09,194,11,12,04,0.96,0.47,0.84,1*0B
$GNGSA,A,3,14,,,,,,,,,,,,0.96,0.47,0.84,1*04
$GNGSA,A,3,68,83,67,82,69,,,,,,,,0.96,0.47,0.84,2*03
$GNGSA,A,3,10,12,04,24,11,19,25,,,,,,0.96,0.47,0.84,3*0C
$GNGSA,A,3,40,33,07,10,08,14,28,13,41,42,11,43,0.96,0.47,0.84,4*07
$GPGSV,4,1,15,19,72,074,41,195,69,050,42,196,69,119,38,50,60,167,37,1*6B
$GPGSV,4,2,15,199,60,167,34,17,56,112,38,06,49,006,41,20,41,246,39,1*5F
$GPGSV,4,3,15,09,37,084,23,194,34,173,31,11,34,304,24,12,23,305,28,1*53
$GPGSV,4,4,15,04,18,056,26,05,16,230,14,14,10,172,17,1*5A
$GPGSV,3,1,09,196,69,119,43,195,69,050,46,199,60,167,46,06,49,006,46,8*56
$GPGSV,3,2,09,09,37,084,33,11,34,304,29,194,34,173,37,04,18,056,23,8*5A
$GPGSV,3,3,09,14,10,172,19,8*5C
$GLGSV,2,1,06,68,68,118,40,83,40,004,31,67,35,039,29,82,35,063,27,1*72
$GLGSV,2,2,06,69,30,184,23,73,18,268,14,1*7A
$GAGSV,3,1,09,10,50,355,44,12,45,034,36,04,40,144,40,24,40,226,19,7*76
$GAGSV,3,2,09,11,39,317,36,19,32,069,15,25,29,292,27,09,10,189,,7*7B
$GAGSV,3,3,09,33,09,077,19,7*4B
$GAGSV,2,1,08,10,50,355,46,12,45,034,42,04,40,144,40,24,40,226,29,1*72
$GAGSV,2,2,08,11,39,317,38,19,32,069,19,25,29,292,31,33,09,077,15,1*7D
$GBGSV,4,1,16,40,76,176,43,33,75,106,45,07,73,225,38,10,70,266,38,1*70
$GBGSV,4,2,16,38,62,310,42,08,55,287,34,14,53,054,40,43,50,081,,1*73
$GBGSV,4,3,16,28,48,338,45,13,47,273,27,41,38,200,43,42,28,042,35,1*7C
$GBGSV,4,4,16,11,26,098,33,37,11,258,,34,09,111,24,23,09,209,,1*75
$GBGSV,2,1,08,40,76,176,43,33,75,106,46,38,62,310,45,43,50,081,28,4*70
$GBGSV,2,2,08,28,48,338,42,41,38,200,44,42,28,042,35,34,09,111,20,4*7E
$GNGGA,042423.000,2500.7864311,N,12132.4455704,E,2,58,0.47,15.402,M,15.25,M,1,3335*43
$GNRMC,042423.000,A,2500.7864311,N,12132.4455704,E,0.00,141.40,270623,,,D,V*07
$PAIR010,0,1,2268,188681*3A
$GPHDT,,T*1B
$GNGGA,042423.200,2500.7864311,N,12132.4455704,E,2,57,0.47,15.404,M,15.25,M,1,3335*48
$GNRMC,042423.200,A,2500.7864311,N,12132.4455704,E,0.00,141.40,270623,,,D,V*05
$GPHDT,,T*1B
$GNGGA,042423.400,2500.7864311,N,12132.4455704,E,2,58,0.47,15.404,M,15.25,M,1,3335*41
$GNRMC,042423.400,A,2500.7864311,N,12132.4455704,E,0.00,141.40,270623,,,D,V*03
$GPHDT,,T*1B
$GNGGA,042423.600,2500.7864311,N,12132.4455704,E,2,58,0.47,15.402,M,15.25,M,0,3335*44
$GNRMC,042423.600,A,2500.7864311,N,12132.4455704,E,0.00,141.40,270623,,,D,V*01
$GPHDT,,T*1B
$GNGGA,042423.800,2500.7864191,N,12132.4455704,E,2,56,0.47,15.390,M,15.25,M,0,3335*42
$GNRMC,042423.800,A,2500.7864191,N,12132.4455704,E,0.00,141.40,270623,,,D,V*05
$GPHDT,,T*1B
$GNGSA,A,3,19,195,196,199,17,06,20,09,194,12,04,14,0.96,0.47,0.84,1*0E
$GNGSA,A,3,11,,,,,,,,,,,,0.96,0.47,0.84,1*01
$GNGSA,A,3,68,83,67,82,69,,,,,,,,0.96,0.47,0.84,2*03
$GNGSA,A,3,10,12,04,24,11,19,25,,,,,,0.96,0.47,0.84,3*0C
$GNGSA,A,3,40,33,07,10,08,14,28,13,41,42,11,43,0.96,0.47,0.84,4*07
$GPGSV,4,1,15,19,72,074,42,195,69,050,42,196,69,119,40,50,60,167,37,1*67
$GPGSV,4,2,15,199,60,167,34,17,56,112,40,06,49,006,43,20,41,246,40,1*5C
$GPGSV,4,3,15,09,37,084,24,194,34,173,31,11,34,304,22,12,23,305,28,1*52
$GPGSV,4,4,15,04,18,056,28,05,16,230,13,14,10,172,17,1*53
$GPGSV,2,1,08,196,69,119,43,195,69,050,46,199,60,167,46,06,49,006,46,8*56
$GPGSV,2,2,08,09,37,084,30,11,34,304,29,04,18,056,23,14,10,172,18,8*6A
$GLGSV,2,1,06,68,68,118,41,83,40,004,31,67,35,039,29,82,35,063,30,1*75
$GLGSV,2,2,06,69,30,184,27,73,18,268,14,1*7E
$GAGSV,3,1,09,10,50,355,44,12,45,034,36,04,40,144,40,24,40,226,19,7*76
$GAGSV,3,2,09,11,39,317,38,19,32,069,16,25,29,292,27,09,10,189,,7*76
$GAGSV,3,3,09,33,09,077,18,7*4A
$GAGSV,2,1,08,10,50,355,46,12,45,034,42,04,40,144,42,24,40,226,28,1*71
$GAGSV,2,2,08,11,39,317,38,19,32,069,20,25,29,292,31,33,09,077,15,1*77
$GBGSV,4,1,16,40,76,176,43,33,75,106,43,07,73,225,38,10,70,266,38,1*76
$GBGSV,4,2,16,38,62,310,41,08,55,287,34,14,53,054,40,43,50,081,,1*70
$GBGSV,4,3,16,28,48,338,45,13,47,273,28,41,38,200,43,42,28,042,32,1*74
$GBGSV,4,4,16,11,26,098,33,37,11,258,,34,09,111,21,23,09,209,,1*70
$GBGSV,2,1,08,40,76,176,43,33,75,106,46,38,62,310,45,43,50,081,28,4*70
$GBGSV,2,2,08,28,48,338,43,41,38,200,44,42,28,042,35,34,09,111,20,4*7F
$GNGGA,042424.000,2500.7864191,N,12132.4455704,E,2,56,0.47,15.385,M,15.25,M,1,3335*48
$GNRMC,042424.000,A,2500.7864191,N,12132.4455704,E,0.00,141.40,270623,,,D,V*0A
$GPHDT,,T*1B
$GNGGA,042424.200,2500.7864191,N,12132.4455644,E,2,57,0.47,15.382,M,15.25,M,1,3335*49
$GNRMC,042424.200,A,2500.7864191,N,12132.4455644,E,0.00,141.40,270623,,,D,V*0D
$GPHDT,,T*1B
$GNGGA,042424.400,2500.7864131,N,12132.4455644,E,2,56,0.47,15.372,M,15.25,M,1,3335*4B
$GNRMC,042424.400,A,2500.7864131,N,12132.4455644,E,0.01,141.40,270623,,,D,V*00
$GPHDT,,T*1B
$GNGGA,042424.600,2500.7864131,N,12132.4455584,E,2,57,0.47,15.366,M,15.25,M,0,3335*43
$GNRMC,042424.600,A,2500.7864131,N,12132.4455584,E,0.00,141.40,270623,,,D,V*0C
$GPHDT,,T*1B
$GNGGA,042424.800,2500.7864191,N,12132.4455524,E,2,57,0.47,15.370,M,15.25,M,0,3335*4A
$GNRMC,042424.800,A,2500.7864191,N,12132.4455524,E,0.00,141.40,270623,,,D,V*02
$GPHDT,,T*1B
$GNGSA,A,3,19,195,196,199,17,06,20,09,194,11,12,04,0.96,0.47,0.84,1*0B
$GNGSA,A,3,14,,,,,,,,,,,,0.96,0.47,0.84,1*04
$GNGSA,A,3,68,83,67,82,69,,,,,,,,0.96,0.47,0.84,2*03
$GNGSA,A,3,10,12,24,04,11,19,25,,,,,,0.96,0.47,0.84,3*0C
$GNGSA,A,3,40,33,07,10,08,14,28,13,41,42,11,43,0.96,0.47,0.84,4*07
$GPGSV,4,1,15,19,72,074,42,195,69,050,38,196,69,119,41,50,60,167,37,1*6B
$GPGSV,4,2,15,199,60,167,34,17,56,112,41,06,49,006,43,20,41,246,40,1*5D
$GPGSV,4,3,15,09,37,084,28,194,34,173,31,11,34,304,20,12,23,305,25,1*51
$GPGSV,4,4,15,04,18,056,24,05,16,230,,14,10,172,18,1*52
$GPGSV,3,1,09,196,69,119,43,195,69,050,46,199,60,167,46,06,49,006,47,8*57
$GPGSV,3,2,09,09,37,084,30,11,34,304,30,194,34,173,34,04,18,056,22,8*53
$GPGSV,3,3,09,14,10,172,18,8*5D
$GLGSV,2,1,07,68,68,118,43,83,40,004,31,67,35,039,27,82,35,063,30,1*78
$GLGSV,2,2,07,69,30,184,28,73,18,268,14,80,10,216,,1*4C
$GAGSV,3,1,09,10,50,355,43,12,45,034,36,24,40,226,20,04,40,144,40,7*7B
$GAGSV,3,2,09,11,39,317,38,19,32,069,17,25,29,292,24,09,10,189,,7*74
$GAGSV,3,3,09,33,09,077,19,7*4B
$GAGSV,2,1,08,10,50,355,46,12,45,034,42,04,40,144,43,24,40,226,29,1*71
$GAGSV,2,2,08,11,39,317,37,19,32,069,19,25,29,292,30,33,09,077,15,1*73
$GBGSV,4,1,15,40,76,176,43,33,75,106,44,07,73,225,38,10,70,266,38,1*72
$GBGSV,4,2,15,08,55,287,35,14,53,054,40,43,50,081,,28,48,338,45,1*75
$GBGSV,4,3,15,13,47,273,28,41,38,200,43,42,28,042,32,11,26,098,34,1*7A
$GBGSV,4,4,15,37,11,258,,23,09,209,,34,09,111,20,1*47
$GBGSV,2,1,08,40,76,176,44,33,75,106,48,38,62,310,44,43,50,081,28,4*78
$GBGSV,2,2,08,28,48,338,42,41,38,200,43,42,28,042,34,34,09,111,21,4*79
$GNGGA,042425.000,2500.7864311,N,12132.4455464,E,2,58,0.47,15.373,M,15.25,M,1,3335*41
$GNRMC,042425.000,A,2500.7864311,N,12132.4455464,E,0.00,141.40,270623,,,D,V*04
$GPHDT,,T*1B
$GNGGA,042425.200,2500.7864311,N,12132.4455344,E,2,57,0.47,15.371,M,15.25,M,1,3335*4B
$GNRMC,042425.200,A,2500.7864311,N,12132.4455344,E,0.00,141.40,270623,,,D,V*03
$GPHDT,,T*1B
$GNGGA,042425.400,2500.7864431,N,12132.4455284,E,2,57,0.47,15.384,M,15.25,M,1,3335*4F
$GNRMC,042425.400,A,2500.7864431,N,12132.4455284,E,0.00,141.40,270623,,,D,V*0D
$GPHDT,,T*1B
$GNGGA,042425.600,2500.7864491,N,12132.4455164,E,2,57,0.47,15.384,M,15.25,M,1,3335*4A
$GNRMC,042425.600,A,2500.7864491,N,12132.4455164,E,0.00,141.40,270623,,,D,V*08
$GPHDT,,T*1B
$GNGGA,042425.800,2500.7864491,N,12132.4455104,E,2,57,0.47,15.379,M,15.25,M,0,3335*41
$GNRMC,042425.800,A,2500.7864491,N,12132.4455104,E,0.00,141.40,270623,,,D,V*00
$GPHDT,,T*1B
$GNGSA,A,3,19,195,196,199,17,06,20,09,11,194,12,04,0.96,0.47,0.84,1*0B
$GNGSA,A,3,14,,,,,,,,,,,,0.96,0.47,0.84,1*04
$GNGSA,A,3,68,83,67,82,69,,,,,,,,0.96,0.47,0.84,2*03
$GNGSA,A,3,10,12,04,24,11,19,25,,,,,,0.96,0.47,0.84,3*0C
$GNGSA,A,3,40,33,07,10,08,14,28,13,41,42,11,43,0.96,0.47,0.84,4*07
$GPGSV,4,1,15,19,72,074,42,195,69,050,41,196,69,119,41,199,60,167,34,1*52
$GPGSV,4,2,15,50,60,167,37,17,56,112,40,06,49,006,43,20,41,246,39,1*65
$GPGSV,4,3,15,09,37,084,28,11,34,304,22,194,34,173,34,12,23,305,25,1*56
$GPGSV,4,4,15,04,18,056,25,05,16,230,,14,10,172,18,1*53
$GPGSV,3,1,09,196,69,119,43,195,69,050,46,199,60,167,46,06,49,006,47,8*57
$GPGSV,3,2,09,09,37,084,31,11,34,304,30,194,34,173,35,04,18,056,22,8*53
$GPGSV,3,3,09,14,10,172,18,8*5D
$GLGSV,2,1,08,68,68,118,43,83,40,004,31,67,35,039,27,82,35,063,30,1*77
$GLGSV,2,2,08,69,30,184,30,73,18,268,13,80,10,216,,74,08,311,,1*75
$GAGSV,3,1,09,10,50,355,43,12,45,034,37,04,40,144,39,24,40,226,22,7*76
$GAGSV,3,2,09,11,39,317,37,19,32,069,17,25,29,292,26,09,10,189,,7*79
$GAGSV,3,3,09,33,09,077,19,7*4B
$GAGSV,2,1,07,10,50,355,46,12,45,034,42,04,40,144,43,24,40,226,29,1*7E
$GAGSV,2,2,07,11,39,317,39,25,29,292,31,33,09,077,15,1*4D
$GBGSV,4,1,16,40,76,176,43,33,75,106,44,07,73,225,38,10,70,266,38,1*71
$GBGSV,4,2,16,08,55,287,34,14,53,054,41,43,50,081,,28,48,338,45,1*76
$GBGSV,4,3,16,13,47,273,27,41,38,200,43,42,28,042,32,11,26,098,34,1*76
$GBGSV,4,4,16,37,11,258,,23,09,209,,34,09,111,20,27,08,308,,1*72
$GBGSV,2,1,08,40,76,176,44,33,75,106,48,38,62,310,47,43,50,081,26,4*75
$GBGSV,2,2,08,28,48,338,42,41,38,200,43,42,28,042,34,34,09,111,21,4*79
$GNGGA,042426.000,2500.7864551,N,12132.4454984,E,2,57,0.47,15.370,M,15.25,M,1,3335*4E
$GNRMC,042426.000,A,2500.7864551,N,12132.4454984,E,0.00,141.40,270623,,,D,V*07
$GPHDT,,T*1B
$GNGGA,042426.200,2500.7864431,N,12132.4454924,E,2,56,0.49,15.351,M,15.25,M,1,3335*4D
$GNRMC,042426.200,A,2500.7864431,N,12132.4454924,E,0.00,141.40,270623,,,D,V*08
$GPHDT,,T*1B
$GNGGA,042426.400,2500.7864371,N,12132.4454864,E,2,56,0.49,15.328,M,15.25,M,1,3335*43
$GNRMC,042426.400,A,2500.7864371,N,12132.4454864,E,0.00,141.40,270623,,,D,V*08
$GPHDT,,T*1B
$GNGGA,042426.600,2500.7864251,N,12132.4454804,E,2,58,0.47,15.309,M,15.25,M,0,3335*46
$GNRMC,042426.600,A,2500.7864251,N,12132.4454804,E,0.00,141.40,270623,,,D,V*0F
$GPHDT,,T*1B
$GNGGA,042426.800,2500.7864311,N,12132.4454684,E,2,58,0.47,15.308,M,15.25,M,0,3335*4A
$GNRMC,042426.800,A,2500.7864311,N,12132.4454684,E,0.00,141.40,270623,,,D,V*02
$GPHDT,,T*1B
$GNGSA,A,3,19,195,196,199,17,06,20,09,194,11,12,04,0.96,0.47,0.84,1*0B
$GNGSA,A,3,14,,,,,,,,,,,,0.96,0.47,0.84,1*04
$GNGSA,A,3,68,83,67,82,69,,,,,,,,0.96,0.47,0.84,2*03
$GNGSA,A,3,10,12,04,24,11,19,25,,,,,,0.96,0.47,0.84,3*0C
$GNGSA,A,3,40,33,07,10,08,14,28,13,41,42,11,43,0.96,0.47,0.84,4*07
$GPGSV,4,1,15,19,72,074,42,195,69,050,42,196,69,119,41,50,60,167,36,1*67
$GPGSV,4,2,15,199,60,167,34,17,56,112,40,06,49,006,43,20,41,246,38,1*53
$GPGSV,4,3,15,09,37,084,20,194,34,173,32,11,34,304,26,12,23,305,21,1*58
$GPGSV,4,4,15,04,18,056,26,05,16,230,,14,10,172,17,1*5F
$GPGSV,3,1,09,196,69,119,43,195,69,050,46,199,60,167,45,06,49,006,47,8*54
$GPGSV,3,2,09,09,37,084,30,11,34,304,29,194,34,173,35,04,18,056,22,8*5A
$GPGSV,3,3,09,14,10,172,18,8*5D
$GLGSV,3,1,09,68,68,118,43,83,40,004,32,67,35,039,30,82,35,063,34,1*76
$GLGSV,3,2,09,69,30,184,32,73,18,268,14,80,10,216,,74,08,311,,1*70
$GLGSV,3,3,09,84,06,310,,1*49
$GAGSV,3,1,10,10,50,355,42,12,45,034,36,04,40,144,40,24,40,226,22,7*70
$GAGSV,3,2,10,11,39,317,37,19,32,069,17,25,29,292,26,09,10,189,,7*71
$GAGSV,3,3,10,33,09,077,18,36,04,282,,7*7B
$GAGSV,2,1,08,10,50,355,46,12,45,034,40,04,40,144,42,24,40,226,29,1*72
$GAGSV,2,2,08,11,39,317,39,19,32,069,22,25,29,292,31,33,09,077,14,1*75
$GBGSV,4,1,14,40,76,176,43,33,75,106,43,07,73,225,38,10,70,265,38,1*77
$GBGSV,4,2,14,08,55,287,35,14,53,054,42,28,48,338,46,13,47,273,29,1*72
$GBGSV,4,3,14,41,38,200,42,42,28,042,31,11,26,098,33,37,11,258,,1*78
$GBGSV,4,4,14,34,09,111,21,23,09,209,,1*7C
$GBGSV,2,1,08,40,76,176,44,33,75,106,47,38,62,310,45,43,50,081,25,4*7B
$GBGSV,2,2,08,28,48,338,42,41,38,200,43,42,28,042,33,34,09,111,20,4*7F
$GNGGA,042427.000,2500.7864431,N,12132.4454564,E,2,58,0.47,15.314,M,15.25,M,1,3335*47
$GNRMC,042427.000,A,2500.7864431,N,12132.4454564,E,0.00,141.40,270623,,,D,V*03
$GPHDT,,T*1B
$GNGGA,042427.200,2500.7864611,N,12132.4454444,E,2,58,0.47,15.324,M,15.25,M,1,3335*45
$GNRMC,042427.200,A,2500.7864611,N,12132.4454444,E,0.00,141.40,270623,,,D,V*02
$GPHDT,,T*1B
$GNGGA,042427.400,2500.7864791,N,12132.4454384,E,2,58,0.47,15.326,M,15.25,M,1,3335*43
$GNRMC,042427.400,A,2500.7864791,N,12132.4454384,E,0.00,141.40,270623,,,D,V*06
$GPHDT,,T*1B
$GNGGA,042427.600,2500.7864911,N,12132.4454264,E,2,58,0.47,15.329,M,15.25,M,0,3335*46
$GNRMC,042427.600,A,2500.7864911,N,12132.4454264,E,0.00,141.40,270623,,,D,V*0D
$GPHDT,,T*1B
$GNGGA,042427.800,2500.7865091,N,12132.4454144,E,2,57,0.47,15.324,M,15.25,M,0,3335*4B
$GNRMC,042427.800,A,2500.7865091,N,12132.4454144,E,0.00,141.40,270623,,,D,V*02
$GPHDT,,T*1B
$GNGSA,A,3,19,196,195,199,17,06,20,09,11,194,12,14,0.96,0.47,0.84,1*0A
$GNGSA,A,3,04,,,,,,,,,,,,0.96,0.47,0.84,1*05
$GNGSA,A,3,68,83,82,67,69,,,,,,,,0.96,0.47,0.84,2*03
$GNGSA,A,3,10,12,24,04,11,19,25,,,,,,0.96,0.47,0.84,3*0C
$GNGSA,A,3,40,33,07,10,08,14,28,13,41,42,11,43,0.96,0.47,0.84,4*07
$GPGSV,4,1,15,19,72,074,42,196,69,119,41,195,69,050,43,199,60,167,33,1*57
$GPGSV,4,2,15,50,60,167,35,17,56,112,39,06,49,006,44,20,41,246,38,1*6F
$GPGSV,4,3,15,09,37,084,20,11,34,304,27,194,34,173,30,12,23,305,24,1*5E
$GPGSV,4,4,15,04,18,056,21,05,16,230,,14,10,172,16,1*59
$GPGSV,3,1,09,196,69,119,43,195,69,050,46,199,60,167,44,06,49,006,47,8*55
$GPGSV,3,2,09,09,37,084,32,11,34,304,27,194,34,173,36,04,18,056,23,8*54
$GPGSV,3,3,09,14,10,172,18,8*5D
$GLGSV,2,1,07,68,68,118,42,83,40,004,32,82,35,063,35,67,35,039,32,1*7B
$GLGSV,2,2,07,69,30,184,33,73,18,268,15,80,10,216,,1*47
$GAGSV,3,1,10,10,50,355,42,12,45,034,36,24,40,226,23,04,40,144,41,7*70
$GAGSV,3,2,10,11,39,317,37,19,32,069,16,25,29,292,26,09,10,189,,7*70
$GAGSV,3,3,10,33,09,077,18,36,04,282,,7*7B
$GAGSV,2,1,08,10,50,355,46,12,45,034,41,04,40,144,42,24,40,226,29,1*73
$GAGSV,2,2,08,11,39,317,39,19,32,069,22,25,29,292,32,33,09,077,15,1*77
$GBGSV,4,1,14,40,76,176,43,33,75,106,43,07,73,225,39,10,70,265,38,1*76
$GBGSV,4,2,14,08,55,287,35,14,53,054,42,43,50,081,,28,48,338,46,1*75
$GBGSV,4,3,14,13,47,273,30,41,38,200,42,42,28,042,32,11,26,098,33,1*74
$GBGSV,4,4,14,37,11,258,,34,09,111,22,1*77
$GBGSV,2,1,08,40,76,176,44,33,75,106,47,38,62,310,45,43,50,081,25,4*7B
$GBGSV,2,2,08,28,48,338,42,41,38,200,44,42,28,042,34,34,09,111,21,4*7E
$GNGGA,042428.000,2500.7865271,N,12132.4453964,E,2,57,0.47,15.334,M,15.25,M,1,3335*4D
$GNRMC,042428.000,A,2500.7865271,N,12132.4453964,E,0.00,141.40,270623,,,D,V*04
$GPHDT,,T*1B
$GNGGA,042428.200,2500.7865451,N,12132.4453844,E,2,57,0.47,15.337,M,15.25,M,1,3335*4B
$GNRMC,042428.200,A,2500.7865451,N,12132.4453844,E,0.00,141.40,270623,,,D,V*01
$GPHDT,,T*1B
$GNGGA,042428.400,2500.7865631,N,12132.4453724,E,2,57,0.47,15.342,M,15.25,M,1,3335*42
$GNRMC,042428.400,A,2500.7865631,N,12132.4453724,E,0.00,141.40,270623,,,D,V*0A
$GPHDT,,T*1B
$GNGGA,042428.600,2500.7865811,N,12132.4453604,E,2,57,0.47,15.353,M,15.25,M,1,3335*4F
$GNRMC,042428.600,A,2500.7865811,N,12132.4453604,E,0.00,141.40,270623,,,D,V*07
$GPHDT,,T*1B
$GNGGA,042428.800,2500.7865991,N,12132.4453484,E,2,56,0.47,15.359,M,15.25,M,0,3335*48
$GNRMC,042428.800,A,2500.7865991,N,12132.4453484,E,0.00,141.40,270623,,,D,V*0A
$GPHDT,,T*1B
$GNGSA,A,3,19,195,196,199,17,06,20,11,194,12,14,09,0.96,0.47,0.84,1*0A
$GNGSA,A,3,04,,,,,,,,,,,,0.96,0.47,0.84,1*05
$GNGSA,A,3,68,83,82,67,69,,,,,,,,0.96,0.47,0.84,2*03
$GNGSA,A,3,10,12,04,24,11,19,25,,,,,,0.96,0.47,0.84,3*0C
$GNGSA,A,3,40,33,07,10,08,14,28,13,41,42,11,43,0.96,0.47,0.84,4*07
$GPGSV,4,1,15,19,72,074,42,195,69,050,43,196,69,119,41,199,60,167,32,1*56
$GPGSV,4,2,15,50,60,167,35,17,56,112,40,06,49,006,44,20,41,246,38,1*61
$GPGSV,4,3,15,09,37,084,20,11,34,304,29,194,34,173,32,12,23,305,23,1*55
$GPGSV,4,4,15,04,18,056,17,05,16,230,,14,10,172,16,1*5C
$GPGSV,3,1,09,196,69,119,43,195,69,050,46,199,60,167,44,06,49,006,47,8*55
$GPGSV,3,2,09,09,37,084,32,11,34,304,27,194,34,173,37,04,18,056,23,8*55
$GPGSV,3,3,09,14,10,172,17,8*52
$GLGSV,2,1,07,68,68,118,42,83,40,004,32,82,35,063,35,67,35,039,32,1*7B
$GLGSV,2,2,07,69,30,184,34,73,18,268,16,80,10,216,,1*43
$GAGSV,3,1,10,10,50,355,42,12,45,034,35,04,40,144,41,24,40,226,20,7*70
$GAGSV,3,2,10,11,39,317,37,19,32,069,17,25,29,292,26,09,10,189,,7*71
$GAGSV,3,3,10,33,09,077,18,36,04,282,,7*7B
$GAGSV,2,1,07,10,50,355,46,12,45,034,41,04,40,144,42,24,40,226,31,1*75
$GAGSV,2,2,07,11,39,317,39,19,32,069,22,25,29,292,32,1*45
$GBGSV,4,1,15,40,76,176,43,33,75,106,43,07,73,225,39,10,70,265,38,1*77
$GBGSV,4,2,15,08,55,287,35,14,53,054,42,43,50,081,,28,48,338,46,1*74
$GBGSV,4,3,15,13,47,273,28,41,38,200,42,42,28,042,32,11,26,098,33,1*7C
$GBGSV,4,4,15,37,11,258,,34,09,111,23,23,09,209,,1*44
$GBGSV,2,1,08,40,76,176,44,33,75,106,47,38,62,310,46,43,50,081,24,4*79
$GBGSV,2,2,08,28,48,338,42,41,38,200,44,42,28,042,33,34,09,111,21,4*79
$GNGGA,042429.000,2500.7866171,N,12132.4453364,E,2,56,0.47,15.369,M,15.25,M,1,3335*4F
$GNRMC,042429.000,A,2500.7866171,N,12132.4453364,E,0.00,141.40,270623,,,D,V*0F
$GPHDT,,T*1B
$GNGGA,042429.200,2500.7866291,N,12132.4453304,E,2,56,0.47,15.371,M,15.25,M,1,3335*4F
$GNRMC,042429.200,A,2500.7866291,N,12132.4453304,E,0.00,141.40,270623,,,D,V*06
$GPHDT,,T*1B
$GNGGA,042429.400,2500.7866411,N,12132.4453244,E,2,56,0.47,15.381,M,15.25,M,1,3335*4D
$GNRMC,042429.400,A,2500.7866411,N,12132.4453244,E,0.00,141.40,270623,,,D,V*0B
$GPHDT,,T*1B
$GNGGA,042429.600,2500.7866591,N,12132.4453184,E,2,56,0.47,15.391,M,15.25,M,1,3335*48
$GNRMC,042429.600,A,2500.7866591,N,12132.4453184,E,0.00,141.40,270623,,,D,V*0F
$GPHDT,,T*1B
$GNGGA,042429.800,2500.7866771,N,12132.4453124,E,2,56,0.47,15.401,M,15.25,M,0,3335*4F
$GNRMC,042429.800,A,2500.7866771,N,12132.4453124,E,0.00,141.40,270623,,,D,V*07
$GPHDT,,T*1B
$GNGSA,A,3,19,195,196,199,17,06,20,194,11,12,14,09,0.96,0.47,0.84,1*0A
$GNGSA,A,3,04,,,,,,,,,,,,0.96,0.47,0.84,1*05
$GNGSA,A,3,68,83,67,82,69,,,,,,,,0.96,0.47,0.84,2*03
$GNGSA,A,3,10,12,24,04,11,19,25,,,,,,0.96,0.47,0.84,3*0C
$GNGSA,A,3,40,33,07,10,08,14,28,13,41,42,11,43,0.96,0.47,0.84,4*07
$GPGSV,4,1,15,19,72,074,42,195,69,050,43,196,69,119,41,50,60,167,34,1*64
$GPGSV,4,2,15,199,60,167,31,17,56,112,41,06,49,006,44,20,41,246,39,1*51
$GPGSV,4,3,15,09,37,084,17,194,34,173,32,11,34,304,29,12,23,305,23,1*51
$GPGSV,4,4,15,04,18,056,13,05,16,230,,14,10,172,16,1*58
$GPGSV,3,1,09,196,69,119,43,195,69,050,46,199,60,167,43,06,49,006,47,8*52
$GPGSV,3,2,09,09,37,084,32,11,34,304,27,194,34,173,36,04,18,056,22,8*55
$GPGSV,3,3,09,14,10,172,17,8*52
$GLGSV,2,1,06,68,68,118,42,83,40,004,32,67,35,039,34,82,35,063,34,1*7D
$GLGSV,2,2,06,69,30,184,34,73,18,268,18,1*70
$GAGSV,3,1,10,10,50,355,41,12,45,034,35,24,40,226,20,04,40,144,41,7*73
$GAGSV,3,2,10,11,39,317,37,19,32,069,19,25,29,292,27,09,10,189,,7*7E
$GAGSV,3,3,10,33,09,077,16,36,04,282,,7*75
$GAGSV,2,1,07,10,50,355,46,12,45,034,41,04,40,144,42,24,40,226,30,1*74
$GAGSV,2,2,07,11,39,317,39,19,32,069,20,25,29,292,32,1*47
$GBGSV,4,1,15,40,76,176,43,33,75,106,43,07,73,225,39,10,70,265,38,1*77
$GBGSV,4,2,15,08,55,287,35,14,53,054,42,43,50,081,,28,48,338,46,1*74
$GBGSV,4,3,15,13,47,273,28,41,38,200,42,42,28,042,31,11,26,098,33,1*7F
$GBGSV,4,4,15,37,11,258,,23,09,209,,34,09,111,21,1*46
$GBGSV,2,1,08,40,76,176,44,33,75,106,46,38,62,310,46,43,50,081,23,4*7F
$GBGSV,2,2,08,28,48,338,42,41,38,200,44,42,28,042,32,34,09,111,20,4*79
$GNGGA,042430.000,2500.7866951,N,12132.4453004,E,2,56,0.47,15.406,M,15.25,M,1,3335*46
$GNRMC,042430.000,A,2500.7866951,N,12132.4453004,E,0.00,141.40,270623,,,D,V*08
$GPHDT,,T*1B
$GNGGA,042430.200,2500.7867131,N,12132.4452884,E,2,56,0.47,15.415,M,15.25,M,1,3335*48
$GNRMC,042430.200,A,2500.7867131,N,12132.4452884,E,0.00,141.40,270623,,,D,V*04
$GPHDT,,T*1B
$GNGGA,042430.400,2500.7867311,N,12132.4452944,E,2,56,0.47,15.422,M,15.25,M,0,3335*46
$GNRMC,042430.400,A,2500.7867311,N,12132.4452944,E,0.00,141.40,270623,,,D,V*0F
$GPHDT,,T*1B
$GNGGA,042430.600,2500.7867431,N,12132.4452824,E,2,57,0.47,15.431,M,15.25,M,0,3335*45
$GNRMC,042430.600,A,2500.7867431,N,12132.4452824,E,0.00,141.40,270623,,,D,V*0F
$GPHDT,,T*1B
$GNGGA,042430.800,2500.7867611,N,12132.4452704,E,2,57,0.47,15.447,M,15.25,M,0,3335*47
$GNRMC,042430.800,A,2500.7867611,N,12132.4452704,E,0.00,141.40,270623,,,D,V*0C
$GPHDT,,T*1B
$GNGSA,A,3,19,195,196,199,17,06,20,194,11,12,04,14,0.96,0.47,0.84,1*07
$GNGSA,A,3,09,,,,,,,,,,,,0.96,0.47,0.84,1*08
$GNGSA,A,3,68,83,82,67,69,,,,,,,,0.96,0.47,0.84,2*03
$GNGSA,A,3,10,12,04,24,11,19,25,,,,,,0.96,0.47,0.84,3*0C
$GNGSA,A,3,40,33,07,10,08,14,43,28,13,41,42,11,0.96,0.47,0.84,4*07
$GPGSV,4,1,15,19,72,074,40,195,69,050,43,196,69,119,41,50,60,167,34,1*66
$GPGSV,4,2,15,199,60,167,32,17,56,112,41,06,49,006,45,20,41,246,39,1*53
$GPGSV,4,3,15,09,37,084,17,194,34,173,33,11,34,304,29,12,23,305,27,1*54
$GPGSV,4,4,15,04,18,056,19,05,16,230,,14,10,172,17,1*53
$GPGSV,3,1,09,196,69,119,43,195,69,050,46,199,60,167,43,06,49,006,47,8*52
$GPGSV,3,2,09,09,37,084,31,11,34,304,28,194,34,173,37,04,18,056,23,8*59
$GPGSV,3,3,09,14,10,172,17,8*52
$GLGSV,2,1,06,68,68,118,41,83,40,004,31,82,35,063,33,67,35,039,36,1*78
$GLGSV,2,2,06,69,30,184,34,73,18,268,18,1*70
$GAGSV,3,1,09,10,50,355,42,12,45,034,35,04,40,144,41,24,40,226,20,7*78
$GAGSV,3,2,09,11,39,317,37,19,32,069,20,25,29,292,25,33,09,077,16,7*78
$GAGSV,3,3,09,36,04,282,,7*43
$GAGSV,2,1,07,10,50,355,46,12,45,034,41,04,40,144,42,24,40,226,29,1*7C
$GAGSV,2,2,07,11,39,317,37,19,32,069,22,25,29,292,32,1*4B
$GBGSV,4,1,15,40,76,176,43,33,75,106,41,07,73,225,39,10,70,265,39,1*74
$GBGSV,4,2,15,08,55,287,34,14,53,054,42,43,50,081,25,28,48,338,46,1*72
$GBGSV,4,3,15,13,47,273,29,41,38,200,42,42,28,042,28,11,26,098,34,1*71
$GBGSV,4,4,15,37,11,258,,34,09,111,21,23,09,209,,1*46
$GBGSV,2,1,08,40,76,176,44,33,75,106,45,38,62,310,45,43,50,081,23,4*7F
$GBGSV,2,2,08,28,48,338,42,41,38,200,44,42,28,042,32,34,09,111,20,4*79
$GNGGA,042431.000,2500.7867731,N,12132.4452704,E,2,58,0.47,15.452,M,15.25,M,1,3335*47
$GNRMC,042431.000,A,2500.7867731,N,12132.4452704,E,0.00,141.40,270623,,,D,V*06
$GPHDT,,T*1B
$GNGGA,042431.200,2500.7867851,N,12132.4452584,E,2,57,0.47,15.462,M,15.25,M,1,3335*4A
$GNRMC,042431.200,A,2500.7867851,N,12132.4452584,E,0.00,141.40,270623,,,D,V*07
$GPHDT,,T*1B
$GNGGA,042431.400,2500.7868031,N,12132.4452524,E,2,56,0.47,15.465,M,15.25,M,1,3335*41
$GNRMC,042431.400,A,2500.7868031,N,12132.4452524,E,0.00,141.40,270623,,,D,V*0A
$GPHDT,,T*1B
$GNGGA,042431.600,2500.7868151,N,12132.4452404,E,2,57,0.47,15.477,M,15.25,M,0,3335*44
$GNRMC,042431.600,A,2500.7868151,N,12132.4452404,E,0.00,141.40,270623,,,D,V*0C
$GPHDT,,T*1B
$GNGGA,042431.800,2500.7868271,N,12132.4452344,E,2,56,0.48,15.485,M,15.25,M,0,3335*4B
$GNRMC,042431.800,A,2500.7868271,N,12132.4452344,E,0.00,141.40,270623,,,D,V*00
$GPHDT,,T*1B
$GNGSA,A,3,19,196,195,199,17,06,20,194,11,12,14,09,1.00,0.48,0.88,1*07
$GNGSA,A,3,68,83,82,67,69,,,,,,,,1.00,0.48,0.88,2*0E
$GNGSA,A,3,10,12,24,04,11,19,25,,,,,,1.00,0.48,0.88,3*01
$GNGSA,A,3,40,33,07,10,08,14,43,28,13,41,42,11,1.00,0.48,0.88,4*0A
$GPGSV,4,1,15,19,72,074,39,196,69,119,41,195,69,050,43,199,60,167,32,1*5A
$GPGSV,4,2,15,50,60,167,35,17,56,112,40,06,49,006,45,20,41,246,39,1*61
$GPGSV,4,3,15,09,37,084,17,194,34,173,33,11,34,304,29,12,23,305,29,1*5A
$GPGSV,4,4,15,04,18,056,17,05,16,230,,14,10,172,17,1*5D
$GPGSV,2,1,08,196,69,119,43,195,69,050,46,199,60,167,43,06,49,006,47,8*52
$GPGSV,2,2,08,09,37,084,31,11,34,304,28,194,34,173,38,14,10,172,17,8*5F
$GLGSV,2,1,07,68,68,118,41,83,40,004,30,82,35,063,33,67,35,039,35,1*7B
$GLGSV,2,2,07,69,30,184,35,73,18,268,18,80,10,216,,1*4C
$GAGSV,3,1,09,10,50,355,42,12,45,034,35,24,40,226,22,04,40,144,41,7*7A
$GAGSV,3,2,09,11,39,317,37,19,32,069,23,25,29,292,25,33,09,077,17,7*7A
$GAGSV,3,3,09,36,04,282,,7*43
$GAGSV,2,1,07,10,50,355,46,12,45,034,41,04,40,144,42,24,40,226,29,1*7C
$GAGSV,2,2,07,11,39,317,37,19,32,069,21,25,29,292,32,1*48
$GBGSV,5,1,17,40,76,176,43,33,75,105,41,07,73,225,38,10,70,265,39,1*75
$GBGSV,5,2,17,38,62,310,,08,55,287,36,14,53,054,42,43,50,081,25,1*72
$GBGSV,5,3,17,28,48,338,46,13,47,273,30,41,38,200,42,42,28,042,28,1*74
$GBGSV,5,4,17,11,26,098,34,37,11,258,,23,09,209,,34,09,111,21,1*77
$GBGSV,5,5,17,39,06,175,,1*4F
$GBGSV,2,1,08,40,76,176,44,33,75,105,45,38,62,310,45,43,50,081,24,4*7B
$GBGSV,2,2,08,28,48,338,42,41,38,200,44,42,28,042,32,34,09,111,20,4*79
$GNGGA,042432.000,2500.7868451,N,12132.4452344,E,2,56,0.48,15.492,M,15.25,M,1,3335*43
$GNRMC,042432.000,A,2500.7868451,N,12132.4452344,E,0.00,141.40,270623,,,D,V*0F
$GPHDT,,T*1B
$GNGGA,042432.200,2500.7868631,N,12132.4452284,E,2,55,0.48,15.501,M,15.25,M,1,3335*40
$GNRMC,042432.200,A,2500.7868631,N,12132.4452284,E,0.00,141.40,270623,,,D,V*04
$GPHDT,,T*1B
$GNGGA,042432.400,2500.7868751,N,12132.4452224,E,2,57,0.47,15.520,M,15.25,M,1,3335*45
$GNRMC,042432.400,A,2500.7868751,N,12132.4452224,E,0.00,141.40,270623,,,D,V*0F
$GPHDT,,T*1B
$GNGGA,042432.600,2500.7868811,N,12132.4452224,E,2,57,0.48,15.525,M,15.25,M,0,3335*47
$GNRMC,042432.600,A,2500.7868811,N,12132.4452224,E,0.00,141.40,270623,,,D,V*06
$GPHDT,,T*1B
$GNGGA,042432.800,2500.7868871,N,12132.4452224,E,2,58,0.47,15.533,M,15.25,M,0,3335*48
$GNRMC,042432.800,A,2500.7868871,N,12132.4452224,E,0.00,141.40,270623,,,D,V*0E
$GPHDT,,T*1B
$GNGSA,A,3,19,195,196,199,17,06,20,09,11,194,12,14,1.00,0.48,0.88,1*07
$GNGSA,A,3,68,83,67,82,69,,,,,,,,1.00,0.48,0.88,2*0E
$GNGSA,A,3,10,12,24,04,11,19,25,,,,,,1.00,0.48,0.88,3*01
$GNGSA,A,3,40,33,07,10,08,14,43,28,13,41,42,11,1.00,0.48,0.88,4*0A
$GPGSV,4,1,15,19,72,074,38,195,69,050,43,196,69,119,40,199,60,167,33,1*5B
$GPGSV,4,2,15,50,60,167,35,17,56,112,39,06,49,006,45,20,41,246,40,1*61
$GPGSV,4,3,15,09,37,084,20,11,34,304,30,194,34,173,32,12,23,305,29,1*57
$GPGSV,4,4,15,04,18,056,19,05,16,230,18,14,10,172,16,1*5B
$GPGSV,2,1,08,196,69,119,43,195,69,050,46,199,60,167,44,06,49,006,46,8*54
$GPGSV,2,2,08,09,37,084,31,11,34,304,28,194,34,173,37,14,10,172,16,8*51
$GLGSV,2,1,07,68,68,118,40,83,40,004,30,67,35,039,35,82,35,063,34,1*7D
$GLGSV,2,2,07,69,30,184,35,73,18,268,18,80,10,216,,1*4C
$GAGSV,3,1,10,10,50,355,42,12,45,034,35,24,40,226,23,04,40,144,42,7*70
$GAGSV,3,2,10,11,39,317,37,19,32,069,23,25,29,292,26,09,10,189,,7*76
$GAGSV,3,3,10,33,09,077,18,36,04,282,,7*7B
$GAGSV,2,1,07,10,50,355,46,12,45,034,41,04,40,144,42,24,40,226,29,1*7C
$GAGSV,2,2,07,11,39,317,37,19,32,069,23,25,29,292,32,1*4A
$GBGSV,4,1,16,40,76,176,43,33,75,105,41,07,73,225,38,10,70,265,39,1*75
$GBGSV,4,2,16,38,62,310,41,08,55,287,36,14,53,054,42,43,50,081,25,1*77
$GBGSV,4,3,16,28,48,338,46,13,47,273,30,41,38,200,42,42,28,042,28,1*74
$GBGSV,4,4,16,11,26,098,33,37,11,258,,34,09,111,21,23,09,209,,1*70
$GBGSV,2,1,08,40,76,176,44,33,75,105,45,38,62,310,45,43,50,081,26,4*79
$GBGSV,2,2,08,28,48,338,43,41,38,200,44,42,28,042,33,34,09,111,20,4*79
$GNGGA,042433.000,2500.7868991,N,12132.4452224,E,2,57,0.48,15.545