$FW : RTK35X,V1.1X0314AS,Lib20210517,1*54
$Tool : LOCOSYS , GNSS Firebird , v1.0.0.19*39
$---------------------------------------------------*2D
$GPHDT,,T*1B
$GNGGA,042722.600,2500.7895600,N,12132.4465500,E,2,56,0.50,16.18,M,15.25,M,0,3335*7C
$GNRMC,042722.600,A,2500.7895600,N,12132.4465500,E,0.05,141.40,270623,,,D,V*08
$GPHDT,,T*1B
$GNGGA,042722.800,2500.7895600,N,12132.4465500,E,2,56,0.50,16.18,M,15.25,M,0,3335*72
$GNRMC,042722.800,A,2500.7895600,N,12132.4465500,E,0.05,141.40,270623,,,D,V*06
$GPHDT,,T*1B
$GNGSA,A,3,19,195,196,199,17,06,20,09,11,194,12,04,0.85,0.50,0.69,1*0C
$GNGSA,A,3,68,83,82,67,69,,,,,,,,0.85,0.50,0.69,2*04
$GNGSA,A,3,10,12,04,24,11,19,25,,,,,,0.85,0.50,0.69,3*0B
$GNGSA,A,3,33,40,07,10,08,14,28,13,41,42,11,43,0.85,0.50,0.69,4*00
$GPGSV,4,1,15,19,71,079,42,195,69,050,40,196,69,118,39,50,60,167,35,1*66
$GPGSV,4,2,15,199,60,167,32,17,55,114,40,06,49,008,44,20,42,248,43,1*58
$GPGSV,4,3,15,09,37,082,26,11,35,305,33,194,34,173,35,12,23,303,18,1*57
$GPGSV,4,4,15,05,17,231,16,04,17,054,28,14,09,171,,1*56
$GPGSV,2,1,08,195,69,050,46,196,69,118,47,199,60,167,45,06,49,008,46,8*5E
$GPGSV,2,2,08,09,37,082,29,11,35,305,31,194,34,173,32,04,17,054,25,8*50
$GLGSV,2,1,06,68,69,114,39,83,41,006,32,82,35,065,29,67,34,038,32,1*73
$GLGSV,2,2,06,69,31,184,31,73,17,267,,1*7D
$GAGSV,3,1,09,10,50,356,41,12,44,035,31,04,41,143,37,24,40,225,19,7*72
$GAGSV,3,2,09,11,39,318,40,19,32,068,23,25,29,291,29,09,11,188,,7*7C
$GAGSV,3,3,09,33,09,078,20,7*4E
$GAGSV,2,1,08,10,50,356,44,12,44,035,38,04,41,143,40,24,40,225,30,1*73
$GAGSV,2,2,08,11,39,318,41,19,32,068,18,25,29,291,25,33,09,078,22,1*71
$GBGSV,4,1,14,33,76,100,41,40,75,177,44,07,73,224,41,10,70,264,39,1*7A
$GBGSV,4,2,14,08,55,288,31,14,52,052,38,28,49,339,44,43,49,083,,1*7C
$GBGSV,4,3,14,13,47,274,26,41,39,201,33,42,27,042,32,11,26,099,30,1*7F
$GBGSV,4,4,14,37,10,257,,23,09,208,,1*74
$GBGSV,2,1,06,33,76,100,46,40,75,177,45,28,49,339,46,43,49,083,30,4*7C
$GBGSV,2,2,06,41,39,201,40,42,27,042,33,4*78
$GNGGA,042723.000,2500.7895600,N,12132.4465400,E,2,56,0.50,16.18,M,15.25,M,1,3335*7B
$GNRMC,042723.000,A,2500.7895600,N,12132.4465400,E,0.02,141.40,270623,,,D,V*09
$PAIR010,0,1,2268,188861*3A
$GPHDT,,T*1B
$GNGGA,042723.200,2500.7895600,N,12132.4465400,E,2,56,0.50,16.18,M,15.25,M,1,3335*79
$GNRMC,042723.200,A,2500.7895600,N,12132.4465400,E,0.02,141.40,270623,,,D,V*0B
$GPHDT,,T*1B
$GNGGA,042723.400,2500.7895600,N,12132.4465400,E,2,55,0.50,16.18,M,15.25,M,1,3335*7C
$GNRMC,042723.400,A,2500.7895600,N,12132.4465400,E,0.02,141.40,270623,,,D,V*0D
$GPHDT,,T*1B
$GNGGA,042723.600,2500.7895700,N,12132.4465300,E,2,55,0.50,16.18,M,15.25,M,0,3335*79
$GNRMC,042723.600,A,2500.7895700,N,12132.4465300,E,0.02,141.40,270623,,,D,V*09
$GPHDT,,T*1B
$GNGGA,042723.800,2500.7895800,N,12132.4465200,E,2,55,0.50,16.18,M,15.25,M,0,3335*79
$GNRMC,042723.800,A,2500.7895800,N,12132.4465200,E,0.02,141.40,270623,,,D,V*09
$GPHDT,,T*1B
$GNGSA,A,3,19,195,196,199,17,06,20,09,11,194,12,04,0.85,0.50,0.69,1*0C
$GNGSA,A,3,68,83,82,67,69,,,,,,,,0.85,0.50,0.69,2*04
$GNGSA,A,3,10,12,04,24,11,19,25,,,,,,0.85,0.50,0.69,3*0B
$GNGSA,A,3,33,40,07,10,08,14,28,13,41,11,43,42,0.85,0.50,0.69,4*00
$GPGSV,4,1,15,19,71,079,43,195,69,050,40,196,69,118,40,50,60,167,35,1*69
$GPGSV,4,2,15,199,60,167,32,17,55,114,40,06,49,008,44,20,42,248,44,1*5F
$GPGSV,4,3,15,09,37,082,25,11,35,305,33,194,34,173,35,12,23,303,17,1*5B
$GPGSV,4,4,15,05,17,231,14,04,17,054,23,14,09,171,,1*5F
$GPGSV,2,1,07,195,69,050,46,196,69,118,47,199,60,167,45,06,49,008,46,8*51
$GPGSV,2,2,07,09,37,082,29,11,35,305,31,04,17,054,26,8*53
$GLGSV,2,1,07,68,69,114,39,83,41,006,29,82,35,065,26,67,34,038,31,1*74
$GLGSV,2,2,07,69,31,184,25,73,17,267,,80,09,215,,1*4E
$GAGSV,3,1,09,10,50,356,40,12,44,035,33,04,41,143,41,24,40,225,21,7*7B
$GAGSV,3,2,09,11,39,318,40,19,32,068,23,25,29,291,29,09,11,188,,7*7C
$GAGSV,3,3,09,33,09,078,19,7*44
$GAGSV,2,1,08,10,50,356,43,12,44,035,38,04,41,143,44,24,40,225,29,1*78
$GAGSV,2,2,08,11,39,318,41,19,32,068,18,25,29,291,25,33,09,078,22,1*71
$GBGSV,4,1,14,33,76,100,39,40,75,177,44,07,73,224,41,10,70,264,39,1*75
$GBGSV,4,2,14,08,55,288,31,14,52,052,38,28,49,339,44,43,49,083,,1*7C
$GBGSV,4,3,14,13,47,274,25,41,39,201,32,42,27,042,,11,26,099,30,1*7C
$GBGSV,4,4,14,37,10,257,,23,09,208,,1*74
$GBGSV,2,1,06,33,76,100,46,40,75,177,45,28,49,339,46,43,49,083,30,4*7C
$GBGSV,2,2,06,41,39,201,40,42,27,042,33,4*78
$GNGGA,042724.000,2500.7895800,N,12132.4465200,E,2,54,0.50,16.18,M,15.25,M,1,3335*76
$GNRMC,042724.000,A,2500.7895800,N,12132.4465200,E,0.01,141.40,270623,,,D,V*05
$GPHDT,,T*1B
$GNGGA,042724.200,2500.7895800,N,12132.4465100,E,2,56,0.50,16.18,M,15.25,M,1,3335*75
$GNRMC,042724.200,A,2500.7895800,N,12132.4465100,E,0.01,141.40,270623,,,D,V*04
$GPHDT,,T*1B
$GNGGA,042724.400,2500.7895800,N,12132.4465100,E,2,56,0.50,16.18,M,15.25,M,1,3335*73
$GNRMC,042724.400,A,2500.7895800,N,12132.4465100,E,0.00,141.40,270623,,,D,V*03
$GPHDT,,T*1B
$GNGGA,042724.600,2500.7895800,N,12132.4465100,E,2,56,0.50,16.18,M,15.25,M,1,3335*71
$GNRMC,042724.600,A,2500.7895800,N,12132.4465100,E,0.02,141.40,270623,,,D,V*03
$GPHDT,,T*1B
$GNGGA,042724.800,2500.7895900,N,12132.4465100,E,2,55,0.50,16.18,M,15.25,M,0,3335*7C
$GNRMC,042724.800,A,2500.7895900,N,12132.4465100,E,0.03,141.40,270623,,,D,V*0D
$GPHDT,,T*1B
$GNGSA,A,3,19,195,196,199,17,06,20,09,11,194,12,04,0.85,0.50,0.69,1*0C
$GNGSA,A,3,68,83,82,67,69,,,,,,,,0.85,0.50,0.69,2*04
$GNGSA,A,3,10,12,04,24,11,19,25,,,,,,0.85,0.50,0.69,3*0B
$GNGSA,A,3,33,40,07,10,08,14,28,13,41,42,11,43,0.85,0.50,0.69,4*00
$GPGSV,4,1,15,19,71,079,43,195,69,050,39,196,69,118,40,50,60,167,33,1*61
$GPGSV,4,2,15,199,60,167,30,17,55,114,40,06,49,008,43,20,42,248,44,1*5A
$GPGSV,4,3,15,09,37,082,27,11,35,305,32,194,34,173,34,12,23,303,17,1*59
$GPGSV,4,4,15,05,17,231,13,04,17,054,18,14,09,171,,1*50
$GPGSV,2,1,07,195,69,050,45,196,69,118,46,199,60,167,45,06,49,008,45,8*50
$GPGSV,2,2,07,09,37,082,28,11,35,305,31,04,17,054,27,8*53
$GLGSV,3,1,09,68,69,114,39,83,41,006,30,82,35,065,29,67,34,038,31,1*7C
$GLGSV,3,2,09,69,31,184,21,73,17,267,,80,09,215,,74,08,310,,1*7C
$GLGSV,3,3,09,84,06,311,,1*48
$GAGSV,3,1,09,10,50,356,40,12,44,035,31,04,41,143,41,24,40,225,23,7*7B
$GAGSV,3,2,09,11,39,318,40,19,32,068,23,25,29,291,29,09,11,188,,7*7C
$GAGSV,3,3,09,33,09,078,16,7*4B
$GAGSV,2,1,08,10,50,356,43,12,44,035,38,04,41,143,44,24,40,225,27,1*76
$GAGSV,2,2,08,11,39,318,41,19,32,068,17,25,29,291,26,33,09,078,20,1*7F
$GBGSV,4,1,15,33,76,100,39,40,75,177,44,07,73,224,41,10,70,264,39,1*74
$GBGSV,4,2,15,08,55,288,32,14,52,052,38,28,49,339,44,43,49,083,,1*7E
$GBGSV,4,3,15,13,47,274,25,41,39,201,33,42,27,042,31,11,26,099,30,1*7E
$GBGSV,4,4,15,37,10,257,,34,09,112,,23,09,208,,1*49
$GBGSV,2,1,06,33,76,100,46,40,75,177,45,28,49,339,46,43,49,083,30,4*7C
$GBGSV,2,2,06,41,39,201,40,42,27,042,33,4*78
$GNGGA,042725.000,2500.7895900,N,12132.4465100,E,2,54,0.50,16.18,M,15.25,M,1,3335*75
$GNRMC,042725.000,A,2500.7895900,N,12132.4465100,E,0.03,141.40,270623,,,D,V*04
$GPHDT,,T*1B
$GNGGA,042725.200,2500.7895900,N,12132.4465100,E,2,54,0.50,16.17,M,15.25,M,1,3335*78
$GNRMC,042725.200,A,2500.7895900,N,12132.4465100,E,0.04,141.40,270623,,,D,V*01
$GPHDT,,T*1B
$GNGGA,042725.400,2500.7895900,N,12132.4465000,E,2,55,0.50,16.17,M,15.25,M,1,3335*7E
$GNRMC,042725.400,A,2500.7895900,N,12132.4465000,E,0.04,141.40,270623,,,D,V*06
$GPHDT,,T*1B
$GNGGA,042725.600,2500.7895900,N,12132.4465000,E,2,54,0.51,16.17,M,15.25,M,0,3335*7D
$GNRMC,042725.600,A,2500.7895900,N,12132.4465000,E,0.04,141.40,270623,,,D,V*04
$GPHDT,,T*1B
$GNGGA,042725.800,2500.7895900,N,12132.4464900,E,2,54,0.51,16.17,M,15.25,M,0,3335*7B
$GNRMC,042725.800,A,2500.7895900,N,12132.4464900,E,0.04,141.40,270623,,,D,V*02
$GPHDT,,T*1B
$GNGSA,A,3,19,195,196,199,17,06,20,09,11,194,04,,0.87,0.51,0.70,1*04
$GNGSA,A,3,68,83,82,67,69,,,,,,,,0.87,0.51,0.70,2*0F
$GNGSA,A,3,10,12,04,24,11,19,25,,,,,,0.87,0.51,0.70,3*00
$GNGSA,A,3,33,40,07,10,08,14,28,13,41,11,43,42,0.87,0.51,0.70,4*0B
$GPGSV,4,1,15,19,71,079,43,195,69,050,39,196,69,118,40,50,60,167,32,1*60
$GPGSV,4,2,15,199,60,167,29,17,55,114,40,06,49,008,44,20,42,248,44,1*55
$GPGSV,4,3,15,09,37,082,24,11,35,305,32,194,33,173,36,12,23,303,16,1*5E
$GPGSV,4,4,15,05,17,231,14,04,17,054,18,14,09,171,,1*57
$GPGSV,2,1,08,195,69,050,45,196,69,118,46,199,60,167,45,06,49,008,45,8*5F
$GPGSV,2,2,08,09,37,082,28,11,35,305,32,194,33,173,32,04,17,054,27,8*57
$GLGSV,2,1,08,68,69,114,39,83,41,006,31,82,35,065,23,67,34,038,30,1*76
$GLGSV,2,2,08,69,31,184,25,73,17,267,,80,09,215,,74,08,310,,1*78
$GAGSV,3,1,10,10,50,356,39,12,44,035,32,04,41,143,40,24,40,225,24,7*78
$GAGSV,3,2,10,11,39,318,40,19,32,068,22,25,29,291,28,09,11,188,,7*74
$GAGSV,3,3,10,33,09,078,17,36,04,283,,7*7A
$GAGSV,2,1,08,10,50,356,44,12,44,035,38,04,41,143,44,24,40,225,27,1*71
$GAGSV,2,2,08,11,39,318,41,19,32,068,17,25,29,291,27,33,09,078,20,1*7E
$GBGSV,4,1,14,33,76,100,41,40,75,177,44,07,73,224,41,10,70,264,37,1*74
$GBGSV,4,2,14,08,55,288,31,14,52,052,39,28,49,339,44,43,49,083,,1*7D
$GBGSV,4,3,14,13,47,274,25,41,39,201,27,42,27,042,,11,26,099,29,1*70
$GBGSV,4,4,14,37,10,257,,23,09,208,,1*74
$GBGSV,2,1,06,33,76,100,47,40,75,177,45,28,49,339,46,43,49,083,32,4*7F
$GBGSV,2,2,06,41,39,201,40,42,27,042,33,4*78
$GNGGA,042726.000,2500.7895900,N,12132.4465000,E,2,54,0.51,16.17,M,15.25,M,1,3335*79
$GNRMC,042726.000,A,2500.7895900,N,12132.4465000,E,0.03,141.40,270623,,,D,V*06
$GPHDT,,T*1B
$GNGGA,042726.200,2500.7895900,N,12132.4464900,E,2,54,0.51,16.17,M,15.25,M,1,3335*73
$GNRMC,042726.200,A,2500.7895900,N,12132.4464900,E,0.02,141.40,270623,,,D,V*0D
$GPHDT,,T*1B
$GNGGA,042726.400,2500.7895900,N,12132.4464900,E,2,54,0.51,16.17,M,15.25,M,1,3335*75
$GNRMC,042726.400,A,2500.7895900,N,12132.4464900,E,0.01,141.40,270623,,,D,V*08
$GPHDT,,T*1B
$GNGGA,042726.600,2500.7895900,N,12132.4464900,E,2,54,0.51,16.18,M,15.25,M,1,3335*78
$GNRMC,042726.600,A,2500.7895900,N,12132.4464900,E,0.04,141.40,270623,,,D,V*0F
$GPHDT,,T*1B
$GNGGA,042726.800,2500.7895900,N,12132.4465000,E,2,54,0.51,16.18,M,15.25,M,0,3335*7F
$GNRMC,042726.800,A,2500.7895900,N,12132.4465000,E,0.02,141.40,270623,,,D,V*0F
$GPHDT,,T*1B
$GNGSA,A,3,19,196,195,199,17,06,20,09,11,194,04,,0.87,0.51,0.70,1*04
$GNGSA,A,3,68,83,82,67,69,,,,,,,,0.87,0.51,0.70,2*0F
$GNGSA,A,3,10,12,04,24,11,19,25,,,,,,0.87,0.51,0.70,3*00
$GNGSA,A,3,33,40,07,10,08,14,28,13,41,11,43,42,0.87,0.51,0.70,4*0B
$GPGSV,4,1,15,19,71,079,43,196,69,118,40,195,69,051,39,199,60,167,31,1*56
$GPGSV,4,2,15,50,60,167,33,17,55,114,40,06,49,008,43,20,42,248,44,1*6D
$GPGSV,4,3,15,09,37,082,26,11,35,305,32,194,33,173,36,12,23,303,14,1*5E
$GPGSV,4,4,15,04,17,054,22,05,17,231,14,14,09,171,,1*5E
$GPGSV,2,1,08,195,69,051,45,196,69,118,46,199,60,167,45,06,49,008,45,8*5E
$GPGSV,2,2,08,09,37,082,28,11,35,305,31,194,33,173,33,04,17,054,28,8*5A
$GLGSV,2,1,07,68,69,114,39,83,41,006,30,82,35,065,22,67,34,038,29,1*71
$GLGSV,2,2,07,69,31,184,27,73,17,267,,80,09,215,,1*4C
$GAGSV,3,1,10,10,50,356,37,12,44,035,32,04,41,143,38,24,40,225,24,7*79
$GAGSV,3,2,10,11,39,318,40,19,32,068,22,25,29,291,27,09,11,188,,7*7B
$GAGSV,3,3,10,33,09,078,17,36,04,283,,7*7A
$GAGSV,2,1,08,10,50,356,43,12,44,035,38,04,41,143,43,24,40,225,26,1*70
$GAGSV,2,2,08,11,39,318,41,19,32,068,17,25,29,291,27,33,09,078,21,1*7F
$GBGSV,4,1,14,33,76,100,40,40,75,177,44,07,73,224,41,10,70,264,38,1*7A
$GBGSV,4,2,14,08,55,288,31,14,52,052,39,43,49,083,,28,49,339,44,1*7D
$GBGSV,4,3,14,13,47,274,26,41,39,201,31,42,27,042,,11,26,099,29,1*74
$GBGSV,4,4,14,37,10,257,,23,09,208,,1*74
$GBGSV,2,1,06,33,76,100,47,40,75,177,45,28,49,339,46,43,49,083,31,4*7C
$GBGSV,2,2,06,41,39,201,40,42,27,042,33,4*78
$GNGGA,042727.000,2500.7895900,N,12132.4465000,E,2,53,0.51,16.18,M,15.25,M,1,3335*70
$GNRMC,042727.000,A,2500.7895900,N,12132.4465000,E,0.03,141.40,270623,,,D,V*07
$GPHDT,,T*1B
$GNGGA,042727.200,2500.7896000,N,12132.4465000,E,2,55,0.51,16.18,M,15.25,M,1,3335*7E
$GNRMC,042727.200,A,2500.7896000,N,12132.4465000,E,0.04,141.40,270623,,,D,V*08
$GPHDT,,T*1B
$GNGGA,042727.400,2500.7895900,N,12132.4465000,E,2,55,0.51,16.18,M,15.25,M,1,3335*72
$GNRMC,042727.400,A,2500.7895900,N,12132.4465000,E,0.02,141.40,270623,,,D,V*02
$GPHDT,,T*1B
$GNGGA,042727.600,2500.7895900,N,12132.4464900,E,2,55,0.51,16.18,M,15.25,M,0,3335*79
$GNRMC,042727.600,A,2500.7895900,N,12132.4464900,E,0.01,141.40,270623,,,D,V*0B
$GPHDT,,T*1B
$GNGGA,042727.800,2500.7895900,N,12132.4464900,E,2,55,0.51,16.18,M,15.25,M,0,3335*77
$GNRMC,042727.800,A,2500.7895900,N,12132.4464900,E,0.03,141.40,270623,,,D,V*07
$GPHDT,,T*1B
$GNGSA,A,3,19,195,196,199,17,06,20,09,11,194,04,,0.87,0.51,0.70,1*04
$GNGSA,A,3,68,83,82,67,69,,,,,,,,0.87,0.51,0.70,2*0F
$GNGSA,A,3,10,12,04,24,11,19,25,,,,,,0.87,0.51,0.70,3*00
$GNGSA,A,3,33,40,07,10,08,14,28,13,41,42,11,43,0.87,0.51,0.70,4*0B
$GPGSV,4,1,15,19,71,079,44,195,69,051,40,196,69,118,40,50,60,167,33,1*69
$GPGSV,4,2,15,199,60,167,32,17,55,114,41,06,49,008,43,20,42,248,44,1*59
$GPGSV,4,3,15,09,37,082,29,11,35,305,32,194,33,173,37,12,23,303,15,1*51
$GPGSV,4,4,15,05,17,231,14,04,17,054,20,14,09,171,,1*5C
$GPGSV,2,1,08,195,69,051,45,196,69,118,46,199,60,167,45,06,49,008,45,8*5E
$GPGSV,2,2,08,09,37,082,29,11,35,305,32,194,33,173,35,04,17,054,30,8*57
$GLGSV,2,1,07,68,69,114,39,83,41,006,31,82,35,065,23,67,34,038,32,1*7B
$GLGSV,2,2,07,69,31,184,24,73,17,267,,80,09,215,,1*4F
$GAGSV,3,1,09,10,50,356,37,12,44,035,32,04,42,143,37,24,40,225,23,7*7A
$GAGSV,3,2,09,11,39,318,40,19,32,068,21,25,29,291,26,33,09,078,17,7*79
$GAGSV,3,3,09,36,04,283,,7*42
$GAGSV,2,1,08,10,50,356,43,12,44,035,38,04,42,143,41,24,40,225,25,1*72
$GAGSV,2,2,08,11,39,318,41,19,32,068,17,25,29,291,26,33,09,078,21,1*7E
$GBGSV,4,1,14,33,76,100,40,40,75,177,44,07,73,224,41,10,70,264,38,1*7A
$GBGSV,4,2,14,08,55,288,33,14,52,052,39,28,49,339,44,43,49,083,,1*7F
$GBGSV,4,3,14,13,47,274,26,41,39,201,33,42,27,042,30,11,26,099,28,1*74
$GBGSV,4,4,14,37,10,257,,23,09,208,,1*74
$GBGSV,2,1,06,33,76,100,47,40,75,177,45,28,49,339,46,43,49,083,31,4*7C
$GBGSV,2,2,06,41,39,201,40,42,27,042,33,4*78
$GNGGA,042728.000,2500.7896000,N,12132.4464900,E,2,55,0.51,16.18,M,15.25,M,1,3335*7B
$GNRMC,042728.000,A,2500.7896000,N,12132.4464900,E,0.04,141.40,270623,,,D,V*0D
$GPHDT,,T*1B
$GNGGA,042728.200,2500.7895900,N,12132.4464900,E,2,54,0.51,16.18,M,15.25,M,1,3335*72
$GNRMC,042728.200,A,2500.7895900,N,12132.4464900,E,0.01,141.40,270623,,,D,V*00
$GPHDT,,T*1B
$GNGGA,042728.400,2500.7896000,N,12132.4464900,E,2,54,0.51,16.17,M,15.25,M,1,3335*71
$GNRMC,042728.400,A,2500.7896000,N,12132.4464900,E,0.01,141.40,270623,,,D,V*0C
$GPHDT,,T*1B
$GNGGA,042728.600,2500.7895900,N,12132.4464800,E,2,54,0.51,16.17,M,15.25,M,0,3335*79
$GNRMC,042728.600,A,2500.7895900,N,12132.4464800,E,0.01,141.40,270623,,,D,V*05
$GPHDT,,T*1B
$GNGGA,042728.800,2500.7896000,N,12132.4464800,E,2,54,0.51,16.17,M,15.25,M,0,3335*7D
$GNRMC,042728.800,A,2500.7896000,N,12132.4464800,E,0.01,141.40,270623,,,D,V*01
$GPHDT,,T*1B
$GNGSA,A,3,19,195,196,199,17,06,20,09,11,194,04,,0.87,0.51,0.70,1*04
$GNGSA,A,3,68,83,82,67,69,,,,,,,,0.87,0.51,0.70,2*0F
$GNGSA,A,3,10,12,04,24,11,19,25,,,,,,0.87,0.51,0.70,3*00
$GNGSA,A,3,33,40,07,10,08,14,28,13,41,11,43,42,0.87,0.51,0.70,4*0B
$GPGSV,4,1,15,19,71,079,44,195,69,051,40,196,69,118,40,50,60,167,34,1*6E
$GPGSV,4,2,15,199,60,167,32,17,55,114,41,06,49,008,43,20,42,248,44,1*59
$GPGSV,4,3,15,09,37,082,21,11,35,305,34,194,33,173,38,12,23,303,13,1*56
$GPGSV,4,4,15,05,17,231,15,04,17,054,17,14,09,171,,1*59
$GPGSV,2,1,08,195,69,051,45,196,69,118,45,199,60,167,45,06,49,008,45,8*5D
$GPGSV,2,2,08,09,37,082,29,11,35,305,31,194,33,173,34,04,17,054,29,8*5D
$GLGSV,2,1,07,68,69,114,38,83,41,006,31,82,35,065,21,67,34,038,31,1*7B
$GLGSV,2,2,07,69,31,184,24,73,17,267,,80,09,215,,1*4F
$GAGSV,3,1,09,10,50,356,37,12,44,035,32,04,42,143,36,24,40,225,23,7*7B
$GAGSV,3,2,09,11,39,318,40,19,32,068,22,25,29,291,26,33,09,078,16,7*7B
$GAGSV,3,3,09,36,04,283,,7*42
$GAGSV,2,1,07,10,50,356,43,12,44,035,38,04,42,143,40,24,40,225,26,1*7F
$GAGSV,2,2,07,11,39,318,41,25,29,291,25,33,09,078,20,1*42
$GBGSV,4,1,14,33,76,100,39,40,75,177,44,07,73,224,41,10,70,264,38,1*74
$GBGSV,4,2,14,08,55,288,32,14,52,052,39,28,49,339,43,43,49,083,,1*79
$GBGSV,4,3,14,13,47,274,26,41,39,201,33,42,27,042,,11,26,099,28,1*77
$GBGSV,4,4,14,37,10,257,,23,09,208,,1*74
$GBGSV,2,1,06,33,76,100,47,40,75,177,45,28,49,339,46,43,49,083,28,4*74
$GBGSV,2,2,06,41,39,201,40,42,27,042,34,4*7F
$GNGGA,042729.000,2500.7896000,N,12132.4464700,E,2,53,0.51,16.16,M,15.25,M,1,3335*7C
$GNRMC,042729.000,A,2500.7896000,N,12132.4464700,E,0.01,141.40,270623,,,D,V*07
$GPHDT,,T*1B
$GNGGA,042729.200,2500.7896100,N,12132.4464600,E,2,53,0.51,16.16,M,15.25,M,1,3335*7E
$GNRMC,042729.200,A,2500.7896100,N,12132.4464600,E,0.03,141.40,270623,,,D,V*07
$GPHDT,,T*1B
$GNGGA,042729.400,2500.7896100,N,12132.4464500,E,2,53,0.51,16.16,M,15.25,M,1,3335*7B
$GNRMC,042729.400,A,2500.7896100,N,12132.4464500,E,0.02,141.40,270623,,,D,V*03
$GPHDT,,T*1B
$GNGGA,042729.600,2500.7896100,N,12132.4464500,E,2,55,0.51,16.15,M,15.25,M,1,3335*7C
$GNRMC,042729.600,A,2500.7896100,N,12132.4464500,E,0.01,141.40,270623,,,D,V*02
$GPHDT,,T*1B
$GNGGA,042729.800,2500.7896100,N,12132.4464400,E,2,55,0.51,16.15,M,15.25,M,0,3335*72
$GNRMC,042729.800,A,2500.7896100,N,12132.4464400,E,0.00,141.40,270623,,,D,V*0C
$GPHDT,,T*1B
$GNGSA,A,3,19,195,196,199,17,06,20,09,11,194,04,,0.87,0.51,0.70,1*04
$GNGSA,A,3,68,83,82,67,69,,,,,,,,0.87,0.51,0.70,2*0F
$GNGSA,A,3,10,12,04,24,11,19,25,,,,,,0.87,0.51,0.70,3*00
$GNGSA,A,3,33,40,07,10,08,14,28,13,41,42,11,43,0.87,0.51,0.70,4*0B
$GPGSV,4,1,15,19,71,079,44,195,69,051,39,196,69,118,40,50,60,167,34,1*60
$GPGSV,4,2,15,199,60,167,31,17,55,114,42,06,49,008,43,20,42,248,44,1*59
$GPGSV,4,3,15,09,37,082,23,11,35,305,34,194,33,173,38,12,23,303,10,1*57
$GPGSV,4,4,15,05,17,231,15,04,17,054,17,14,09,171,,1*59
$GPGSV,2,1,08,195,69,051,45,196,69,118,45,199,60,167,46,06,49,008,46,8*5D
$GPGSV,2,2,08,09,37,082,29,11,35,305,32,194,33,173,34,04,17,054,28,8*5F
$GLGSV,2,1,06,68,69,114,38,83,41,006,31,82,35,065,18,67,34,038,30,1*71
$GLGSV,2,2,06,69,31,184,26,73,17,267,,1*7B
$GAGSV,3,1,10,10,50,356,37,12,44,035,33,04,42,143,36,24,40,225,23,7*72
$GAGSV,3,2,10,11,39,318,40,19,32,068,23,25,29,291,26,09,11,188,,7*7B
$GAGSV,3,3,10,33,09,078,16,36,04,283,,7*7B
$GAGSV,2,1,08,10,50,356,43,12,44,035,37,04,42,143,40,24,40,225,25,1*7C
$GAGSV,2,2,08,11,39,318,41,19,32,068,19,25,29,291,25,33,09,078,21,1*73
$GBGSV,4,1,14,33,76,100,40,40,75,177,44,07,73,224,41,10,70,264,38,1*7A
$GBGSV,4,2,14,08,55,288,32,14,52,052,39,28,49,339,43,43,49,083,,1*79
$GBGSV,4,3,14,13,47,274,25,41,39,201,33,42,27,042,30,11,26,099,26,1*79
$GBGSV,4,4,14,37,10,257,,23,09,208,,1*74
$GBGSV,2,1,06,33,76,100,47,40,75,177,45,28,49,339,46,43,49,083,30,4*7D
$GBGSV,2,2,06,41,39,201,40,42,27,042,34,4*7F
$GNGGA,042730.000,2500.7896100,N,12132.4464300,E,2,55,0.51,16.15,M,15.25,M,1,3335*74
$GNRMC,042730.000,A,2500.7896100,N,12132.4464300,E,0.00,141.40,270623,,,D,V*0B
$GPHDT,,T*1B
$GNGGA,042730.200,2500.7896100,N,12132.4464200,E,2,55,0.51,16.14,M,15.25,M,1,3335*76
$GNRMC,042730.200,A,2500.7896100,N,12132.4464200,E,0.01,141.40,270623,,,D,V*09
$GPHDT,,T*1B
$GNGGA,042730.400,2500.7896200,N,12132.4464100,E,2,54,0.51,16.14,M,15.25,M,1,3335*71
$GNRMC,042730.400,A,2500.7896200,N,12132.4464100,E,0.02,141.40,270623,,,D,V*0C
$GPHDT,,T*1B
$GNGGA,042730.600,2500.7896200,N,12132.4464000,E,2,54,0.51,16.14,M,15.25,M,1,3335*72
$GNRMC,042730.600,A,2500.7896200,N,12132.4464000,E,0.01,141.40,270623,,,D,V*0C
$GPHDT,,T*1B
$GNGGA,042730.800,2500.7896200,N,12132.4464100,E,2,54,0.51,16.14,M,15.25,M,0,3335*7C
$GNRMC,042730.800,A,2500.7896200,N,12132.4464100,E,0.05,141.40,270623,,,D,V*07
$GPHDT,,T*1B
$GNGSA,A,3,19,195,196,199,17,06,20,09,11,194,04,,0.87,0.51,0.70,1*04
$GNGSA,A,3,68,83,82,67,69,,,,,,,,0.87,0.51,0.70,2*0F
$GNGSA,A,3,10,12,04,24,11,19,25,,,,,,0.87,0.51,0.70,3*00
$GNGSA,A,3,33,40,07,10,08,14,28,13,41,11,43,42,0.87,0.51,0.70,4*0B
$GPGSV,4,1,15,19,71,079,44,195,69,051,39,196,69,118,38,50,60,167,34,1*6F
$GPGSV,4,2,15,199,60,167,32,17,55,114,42,06,49,008,43,20,42,248,44,1*5A
$GPGSV,4,3,15,09,37,082,26,11,35,305,33,194,33,173,38,12,23,303,13,1*56
$GPGSV,4,4,15,05,17,231,14,04,17,054,19,14,09,171,,1*56
$GPGSV,2,1,08,195,69,051,45,196,69,118,45,199,60,167,46,06,49,008,46,8*5D
$GPGSV,2,2,08,09,37,082,29,11,35,305,32,194,33,173,34,04,17,054,28,8*5F
$GLGSV,2,1,07,68,69,114,39,83,41,006,31,82,35,065,19,67,34,038,24,1*75
$GLGSV,2,2,07,69,31,184,28,73,17,267,,80,09,215,,1*43
$GAGSV,3,1,09,10,50,356,37,12,44,035,35,04,42,143,35,24,40,225,24,7*78
$GAGSV,3,2,09,11,39,318,40,19,32,067,22,25,29,291,24,09,11,188,,7*7F
$GAGSV,3,3,09,33,09,078,16,7*4B
$GAGSV,2,1,08,10,50,356,42,12,44,035,37,04,42,143,41,24,40,225,28,1*71
$GAGSV,2,2,08,11,39,318,41,19,32,067,17,25,29,291,25,33,09,078,20,1*73
$GBGSV,4,1,14,33,76,100,41,40,75,177,44,07,73,224,41,10,70,264,37,1*74
$GBGSV,4,2,14,08,55,288,31,14,52,052,40,28,49,339,43,43,49,083,,1*74
$GBGSV,4,3,14,13,47,274,25,41,39,201,35,42,27,042,,11,26,099,25,1*7F
$GBGSV,4,4,14,37,10,257,,34,09,112,,1*7A
$GBGSV,2,1,06,33,76,100,47,40,75,177,45,28,49,339,45,43,49,083,32,4*7C
$GBGSV,2,2,06,41,39,201,40,42,27,042,34,4*7F
$GNGGA,042731.000,2500.7896200,N,12132.4464000,E,2,54,0.51,16.14,M,15.25,M,1,3335*75
$GNRMC,042731.000,A,2500.7896200,N,12132.4464000,E,0.03,141.40,270623,,,D,V*09
$GPHDT,,T*1B
$GNGGA,042731.200,2500.7896100,N,12132.4464100,E,2,54,0.51,16.14,M,15.25,M,1,3335*75
$GNRMC,042731.200,A,2500.7896100,N,12132.4464100,E,0.04,141.40,270623,,,D,V*0E
$GPHDT,,T*1B
$GNGGA,042731.400,2500.7896100,N,12132.4464000,E,2,54,0.51,16.14,M,15.25,M,1,3335*72
$GNRMC,042731.400,A,2500.7896100,N,12132.4464000,E,0.03,141.40,270623,,,D,V*0E
$GPHDT,,T*1B
$GNGGA,042731.600,2500.7896100,N,12132.4464100,E,2,54,0.51,16.14,M,15.25,M,0,3335*70
$GNRMC,042731.600,A,2500.7896100,N,12132.4464100,E,0.05,141.40,270623,,,D,V*0B
$GPHDT,,T*1B
$GNGGA,042731.800,2500.7896100,N,12132.4464000,E,2,54,0.51,16.14,M,15.25,M,0,3335*7F
$GNRMC,042731.800,A,2500.7896100,N,12132.4464000,E,0.08,141.40,270623,,,D,V*09
$GPHDT,,T*1B
$GNGSA,A,3,19,195,196,199,17,06,20,09,11,194,04,,0.87,0.51,0.70,1*04
$GNGSA,A,3,68,83,82,67,69,,,,,,,,0.87,0.51,0.70,2*0F
$GNGSA,A,3,10,12,04,11,24,19,25,,,,,,0.87,0.51,0.70,3*00
$GNGSA,A,3,33,40,07,10,08,14,28,13,41,11,43,42,0.87,0.51,0.70,4*0B
$GPGSV,4,1,15,19,71,079,43,195,69,051,39,196,69,118,38,50,60,167,34,1*68
$GPGSV,4,2,15,199,60,167,32,17,55,114,43,06,49,008,43,20,42,248,44,1*5B
$GPGSV,4,3,15,09,37,082,25,11,35,305,32,194,33,173,38,12,23,303,15,1*52
$GPGSV,4,4,15,05,17,231,13,04,17,054,21,14,09,171,,1*5A
$GPGSV,2,1,08,195,69,051,45,196,69,118,45,199,60,167,46,06,49,008,46,8*5D
$GPGSV,2,2,08,09,37,082,29,11,35,305,32,194,33,173,36,04,17,054,27,8*52
$GLGSV,2,1,07,68,69,114,39,83,41,006,32,82,35,065,21,67,34,038,21,1*78
$GLGSV,2,2,07,69,31,184,31,73,17,267,,80,09,215,,1*4B
$GAGSV,3,1,09,10,50,356,37,12,44,035,35,04,42,143,33,11,39,318,40,7*7B
$GAGSV,3,2,09,24,39,225,24,19,32,067,21,25,29,291,23,09,11,188,,7*70
$GAGSV,3,3,09,33,09,078,17,7*4A
$GAGSV,2,1,08,10,50,356,42,12,44,035,37,04,42,143,41,11,39,318,41,1*79
$GAGSV,2,2,08,24,39,225,28,19,32,067,19,25,29,291,25,33,09,078,21,1*7A
$GBGSV,4,1,14,33,76,100,42,40,75,177,44,07,73,224,41,10,70,264,38,1*78
$GBGSV,4,2,14,08,55,288,31,14,52,052,40,28,49,339,44,43,49,083,,1*73
$GBGSV,4,3,14,13,47,274,24,41,39,201,35,42,27,042,,11,26,099,23,1*78
$GBGSV,4,4,14,37,10,257,,23,09,208,,1*74
$GBGSV,2,1,06,33,76,100,47,40,75,177,45,28,49,339,45,43,49,083,32,4*7C
$GBGSV,2,2,06,41,39,201,40,42,27,042,34,4*7F
$GNGGA,042732.000,2500.7896100,N,12132.4464000,E,2,54,0.51,16.14,M,15.25,M,1,3335*75
$GNRMC,042732.000,A,2500.7896100,N,12132.4464000,E,0.05,141.40,270623,,,D,V*0F
$GPHDT,,T*1B
$GNGGA,042732.200,2500.7896100,N,12132.4464000,E,2,53,0.52,16.13,M,15.25,M,1,3335*74
$GNRMC,042732.200,A,2500.7896100,N,12132.4464000,E,0.05,141.40,270623,,,D,V*0D
$GPHDT,,T*1B
$GNGGA,042732.400,2500.7896100,N,12132.4464000,E,2,53,0.52,16.13,M,15.25,M,1,3335*72
$GNRMC,042732.400,A,2500.7896100,N,12132.4464000,E,0.05,141.40,270623,,,D,V*0B
$GPHDT,,T*1B
$GNGGA,042732.600,2500.7896100,N,12132.4464000,E,2,53,0.52,16.13,M,15.25,M,0,3335*71
$GNRMC,042732.600,A,2500.7896100,N,12132.4464000,E,0.04,141.40,270623,,,D,V*08
$GPHDT,,T*1B
$GNGGA,042732.800,2500.7896100,N,12132.4463900,E,2,52,0.52,16.13,M,15.25,M,0,3335*70
$GNRMC,042732.800,A,2500.7896100,N,12132.4463900,E,0.01,141.40,270623,,,D,V*0D
$GPHDT,,T*1B
$GNGSA,A,3,19,195,196,199,17,06,20,09,11,194,04,,0.89,0.52,0.72,1*0B
$GNGSA,A,3,68,83,82,67,69,,,,,,,,0.89,0.52,0.72,2*00
$GNGSA,A,3,10,12,04,11,24,19,25,,,,,,0.89,0.52,0.72,3*0F
$GNGSA,A,3,33,40,07,10,08,14,28,13,41,43,42,,0.89,0.52,0.72,4*04
$GPGSV,4,1,15,19,71,079,43,195,69,051,38,196,69,118,38,50,60,167,33,1*6E
$GPGSV,4,2,15,199,60,167,30,17,55,114,43,06,49,008,42,20,42,248,44,1*58
$GPGSV,4,3,15,09,37,082,30,11,35,305,31,194,33,173,38,12,23,303,14,1*54
$GPGSV,4,4,15,05,17,231,13,04,17,054,23,14,09,171,,1*58
$GPGSV,2,1,08,195,69,051,45,196,69,118,46,199,60,167,45,06,49,008,45,8*5E
$GPGSV,2,2,08,09,37,082,29,11,35,305,31,194,33,173,31,04,17,054,26,8*57
$GLGSV,2,1,07,68,69,114,39,83,41,006,31,82,35,065,20,67,34,038,19,1*71
$GLGSV,2,2,07,69,31,184,31,73,17,267,,80,09,215,,1*4B
$GAGSV,3,1,09,10,50,356,37,12,44,035,34,04,42,143,36,11,39,318,40,7*7F
$GAGSV,3,2,09,24,39,225,28,19,32,067,23,25,29,291,21,09,11,188,,7*7C
$GAGSV,3,3,09,33,09,078,17,7*4A
$GAGSV,2,1,08,10,50,356,42,12,44,035,37,04,42,143,39,11,39,318,41,1*76
$GAGSV,2,2,08,24,39,225,27,19,32,067,17,25,29,291,25,33,09,078,20,1*7A
$GBGSV,4,1,14,33,76,100,42,40,75,177,44,07,73,224,41,10,70,264,38,1*78
$GBGSV,4,2,14,08,55,288,31,14,52,052,40,28,49,339,44,43,49,083,,1*73
$GBGSV,4,3,14,13,47,274,22,41,39,201,33,42,27,042,,11,26,099,20,1*7B
$GBGSV,4,4,14,37,10,257,,23,09,208,,1*74
$GBGSV,2,1,06,33,76,100,46,40,75,177,45,28,49,339,45,43,49,083,32,4*7D
$GBGSV,2,2,06,41,39,201,40,42,27,042,34,4*7F
$GNGGA,042733.000,2500.7896100,N,12132.4463900,E,2,53,0.52,16.13,M,15.25,M,1,3335*79
$GNRMC,042733.000,A,2500.7896100,N,12132.4463900,E,0.01,141.40,270623,,,D,V*04
$GPHDT,,T*1B
