$FW : RTK35X,V1.1X0314AS,Lib20210517,1*54
$Tool : LOCOSYS , GNSS Firebird , v1.0.0.19*39
$---------------------------------------------------*2D
,200,44,4*72
$GBGSV,2,2,05,42,28,042,31,4*4E
$GNGGA,042444.000,2500.7869891,N,12132.4451564,E,2,56,0.50,15.677,M,15.25,M,1,3335*44
$GNRMC,042444.000,A,2500.7869891,N,12132.4451564,E,0.02,141.40,270623,,,D,V*0A
$GPHDT,,T*1B
$GNGGA,042444.200,2500.7869951,N,12132.4451684,E,2,57,0.50,15.682,M,15.25,M,1,3335*4D
$GNRMC,042444.200,A,2500.7869951,N,12132.4451684,E,0.02,141.40,270623,,,D,V*08
$GPHDT,,T*1B
$GNGGA,042444.400,2500.7869951,N,12132.4451744,E,2,57,0.50,15.684,M,15.25,M,1,3335*40
$GNRMC,042444.400,A,2500.7869951,N,12132.4451744,E,0.01,141.40,270623,,,D,V*00
$GPHDT,,T*1B
$GNGGA,042444.600,2500.7869891,N,12132.4451744,E,2,57,0.50,15.676,M,15.25,M,1,3335*42
$GNRMC,042444.600,A,2500.7869891,N,12132.4451744,E,0.01,141.40,270623,,,D,V*0F
$GPHDT,,T*1B
$GNGGA,042444.800,2500.7869951,N,12132.4451744,E,2,54,0.52,15.673,M,15.25,M,0,3335*44
$GNRMC,042444.800,A,2500.7869951,N,12132.4451744,E,0.05,141.40,270623,,,D,V*08
$GPHDT,,T*1B
$GNGSA,A,3,19,196,195,199,17,06,20,09,194,11,04,,0.88,0.52,0.71,1*09
$GNGSA,A,3,68,83,82,67,69,,,,,,,,0.88,0.52,0.71,2*02
$GNGSA,A,3,10,12,24,04,11,19,25,,,,,,0.88,0.52,0.71,3*0D
$GNGSA,A,3,40,33,07,10,08,14,28,13,41,42,43,,0.88,0.52,0.71,4*06
$GPGSV,4,1,15,19,72,075,41,196,69,119,40,195,69,050,39,199,60,167,31,1*5B
$GPGSV,4,2,15,50,60,167,33,17,56,112,44,06,49,007,44,20,42,247,41,1*6E
$GPGSV,4,3,15,09,37,083,28,194,34,173,30,11,34,304,28,12,23,304,14,1*5C
$GPGSV,4,4,15,04,18,055,24,05,17,230,14,14,10,172,12,1*5F
$GPGSV,2,1,06,195,69,050,43,196,69,119,45,199,60,167,45,06,49,007,47,8*58
$GPGSV,2,2,06,09,37,083,24,11,34,304,27,8*6E
$GLGSV,2,1,06,68,68,118,41,83,40,004,31,82,35,063,21,67,35,039,34,1*79
$GLGSV,2,2,06,69,30,184,36,73,18,268,14,1*7E
$GAGSV,3,1,09,10,50,355,40,12,45,034,35,24,40,226,19,04,40,144,42,7*73
$GAGSV,3,2,09,11,39,317,37,19,32,069,20,25,29,292,27,33,09,077,21,7*7E
$GAGSV,3,3,09,36,04,282,,7*43
$GAGSV,2,1,08,10,50,355,45,12,45,034,37,04,40,144,44,24,40,226,25,1*7B
$GAGSV,2,2,08,11,39,317,36,19,32,069,24,25,29,292,27,33,09,077,18,1*77
$GBGSV,4,1,16,40,76,176,43,33,75,105,43,07,73,225,38,10,70,265,39,1*77
$GBGSV,4,2,16,08,55,287,34,14,53,054,38,43,49,082,23,28,48,338,47,1*70
$GBGSV,4,3,16,13,47,273,27,41,38,200,43,42,28,042,34,11,26,098,21,1*74
$GBGSV,4,4,16,37,11,258,,23,09,209,,34,09,111,19,38,,,42,1*43
$GBGSV,2,1,06,40,76,176,43,33,75,105,45,43,49,082,24,28,48,338,41,4*7E
$GBGSV,2,2,06,41,38,200,44,42,28,042,33,4*73
$GNGGA,042445.000,2500.7869951,N,12132.4451804,E,2,52,0.52,15.672,M,15.25,M,1,3335*40
$GNRMC,042445.000,A,2500.7869951,N,12132.4451804,E,0.03,141.40,270623,,,D,V*0C
$GPHDT,,T*1B
$GNGGA,042445.200,2500.7869951,N,12132.4451864,E,2,54,0.51,15.666,M,15.25,M,1,3335*44
$GNRMC,042445.200,A,2500.7869951,N,12132.4451864,E,0.06,141.40,270623,,,D,V*0D
$GPHDT,,T*1B
$GNGGA,042445.400,2500.7869951,N,12132.4451864,E,2,53,0.52,15.664,M,15.25,M,1,3335*44
$GNRMC,042445.400,A,2500.7869951,N,12132.4451864,E,0.02,141.40,270623,,,D,V*0F
$GPHDT,,T*1B
$GNGGA,042445.600,2500.7869951,N,12132.4451864,E,2,54,0.52,15.660,M,15.25,M,1,3335*45
$GNRMC,042445.600,A,2500.7869951,N,12132.4451864,E,0.03,141.40,270623,,,D,V*0C
$GPHDT,,T*1B
$GNGGA,042445.800,2500.7869951,N,12132.4451864,E,2,53,0.52,15.662,M,15.25,M,0,3335*4F
$GNRMC,042445.800,A,2500.7869951,N,12132.4451864,E,0.01,141.40,270623,,,D,V*00
$GPHDT,,T*1B
$GNGSA,A,3,19,196,195,199,17,06,20,09,194,11,12,04,0.87,0.51,0.70,1*07
$GNGSA,A,3,68,83,82,67,69,,,,,,,,0.87,0.51,0.70,2*0F
$GNGSA,A,3,10,12,04,24,11,19,25,,,,,,0.87,0.51,0.70,3*00
$GNGSA,A,3,40,33,07,10,08,14,43,28,13,41,42,,0.87,0.51,0.70,4*0B
$GPGSV,4,1,15,19,72,075,41,196,69,119,41,195,69,050,38,199,60,167,31,1*5B
$GPGSV,4,2,15,50,60,167,33,17,56,112,43,06,49,007,44,20,42,247,40,1*68
$GPGSV,4,3,15,09,37,083,25,194,34,173,29,11,34,304,27,12,23,304,23,1*52
$GPGSV,4,4,15,04,18,055,20,05,17,230,14,14,10,172,12,1*5B
$GPGSV,2,1,07,195,69,050,44,196,69,119,46,199,60,167,46,06,49,007,47,8*5E
$GPGSV,2,2,07,09,37,083,22,11,34,304,28,04,18,055,25,8*5C
$GLGSV,2,1,06,68,68,118,41,83,40,004,30,82,35,063,20,67,35,039,33,1*7E
$GLGSV,2,2,06,69,30,184,36,73,18,268,15,1*7F
$GAGSV,3,1,09,10,50,355,41,12,45,034,36,04,41,144,42,24,40,226,22,7*78
$GAGSV,3,2,09,11,39,317,38,19,32,069,21,25,29,292,27,33,09,077,21,7*70
$GAGSV,3,3,09,36,04,282,,7*43
$GAGSV,2,1,08,10,50,355,45,12,45,034,37,04,41,144,44,24,40,226,28,1*77
$GAGSV,2,2,08,11,39,317,35,19,32,069,24,25,29,292,27,33,09,077,18,1*74
$GBGSV,4,1,16,40,76,176,43,33,75,105,44,07,73,225,38,10,70,265,39,1*70
$GBGSV,4,2,16,08,55,287,34,14,53,054,37,43,49,082,18,28,48,338,47,1*77
$GBGSV,4,3,16,13,47,273,28,41,38,200,43,42,28,042,35,11,26,098,20,1*7B
$GBGSV,4,4,16,37,11,258,,23,09,209,,34,09,111,19,38,,,43,1*42
$GBGSV,2,1,07,40,76,176,43,33,75,105,46,43,49,082,23,28,48,338,41,4*7B
$GBGSV,2,2,07,41,38,200,45,42,28,042,33,34,09,111,20,4*4E
$GNGGA,042446.000,2500.7869951,N,12132.4451924,E,2,54,0.51,15.660,M,15.25,M,1,3335*46
$GNRMC,042446.000,A,2500.7869951,N,12132.4451924,E,0.02,141.40,270623,,,D,V*0D
$GPHDT,,T*1B
$GNGGA,042446.200,2500.7869891,N,12132.4451924,E,2,55,0.51,15.658,M,15.25,M,1,3335*43
$GNRMC,042446.200,A,2500.7869891,N,12132.4451924,E,0.03,141.40,270623,,,D,V*03
$GPHDT,,T*1B
$GNGGA,042446.400,2500.7869951,N,12132.4451924,E,2,55,0.51,15.657,M,15.25,M,1,3335*47
$GNRMC,042446.400,A,2500.7869951,N,12132.4451924,E,0.03,141.40,270623,,,D,V*08
$GPHDT,,T*1B
$GNGGA,042446.600,2500.7869891,N,12132.4451924,E,2,55,0.51,15.656,M,15.25,M,1,3335*49
$GNRMC,042446.600,A,2500.7869891,N,12132.4451924,E,0.04,141.40,270623,,,D,V*00
$GPHDT,,T*1B
$GNGGA,042446.800,2500.7869891,N,12132.4451984,E,2,54,0.51,15.653,M,15.25,M,1,3335*49
$GNRMC,042446.800,A,2500.7869891,N,12132.4451984,E,0.05,141.40,270623,,,D,V*05
$GPHDT,,T*1B
$GNGSA,A,3,19,196,195,199,17,06,20,09,194,11,12,04,0.85,0.50,0.69,1*0C
$GNGSA,A,3,68,83,82,67,69,,,,,,,,0.85,0.50,0.69,2*04
$GNGSA,A,3,10,12,04,24,11,19,25,,,,,,0.85,0.50,0.69,3*0B
$GNGSA,A,3,40,33,07,10,08,14,28,13,41,42,11,43,0.85,0.50,0.69,4*00
$GPGSV,4,1,15,19,72,075,41,196,69,119,41,195,69,050,38,199,60,167,32,1*58
$GPGSV,4,2,15,50,60,167,34,17,56,112,43,06,49,007,44,20,42,247,40,1*6F
$GPGSV,4,3,15,09,37,083,20,194,34,173,26,11,34,304,29,12,23,304,25,1*50
$GPGSV,4,4,15,04,18,055,19,05,17,230,15,14,10,172,15,1*57
$GPGSV,2,1,07,195,69,050,44,196,69,119,46,199,60,167,46,06,49,007,47,8*5E
$GPGSV,2,2,07,09,37,083,22,11,34,304,28,194,34,173,35,8*6E
$GLGSV,2,1,06,68,68,118,41,83,40,004,28,82,35,063,21,67,35,039,32,1*77
$GLGSV,2,2,06,69,30,184,36,73,18,268,15,1*7F
$GAGSV,3,1,09,10,50,355,41,12,45,034,35,04,41,144,42,24,40,226,22,7*7B
$GAGSV,3,2,09,11,39,317,38,19,32,069,23,25,29,292,26,33,09,077,21,7*73
$GAGSV,3,3,09,36,04,282,,7*43
$GAGSV,2,1,08,10,50,355,46,12,45,034,37,04,41,144,44,24,40,226,28,1*74
$GAGSV,2,2,08,11,39,317,36,19,32,069,24,25,29,292,27,33,09,077,18,1*77
$GBGSV,4,1,16,40,76,176,43,33,75,105,44,07,73,225,38,10,70,265,39,1*70
$GBGSV,4,2,16,08,55,287,34,14,53,054,36,43,49,082,17,28,48,338,47,1*79
$GBGSV,4,3,16,13,47,273,28,41,38,200,43,42,28,042,35,11,26,098,22,1*79
$GBGSV,4,4,16,37,11,258,,23,09,209,,34,09,111,19,38,,,43,1*42
$GBGSV,2,1,07,40,76,176,43,33,75,105,47,43,49,082,22,28,48,338,42,4*78
$GBGSV,2,2,07,41,38,200,45,42,28,042,34,34,09,111,19,4*43
$GNGGA,042447.000,2500.7869891,N,12132.4451984,E,2,55,0.50,15.653,M,15.25,M,1,3335*40
$GNRMC,042447.000,A,2500.7869891,N,12132.4451984,E,0.04,141.40,270623,,,D,V*0D
$GPHDT,,T*1B
$GNGGA,042447.200,2500.7869891,N,12132.4451984,E,2,54,0.50,15.650,M,15.25,M,1,3335*40
$GNRMC,042447.200,A,2500.7869891,N,12132.4451984,E,0.03,141.40,270623,,,D,V*08
$GPHDT,3.378,T*3A
$GNGGA,042447.400,2500.7869891,N,12132.4452044,E,2,55,0.50,15.655,M,15.25,M,1,3335*44
$GNRMC,042447.400,A,2500.7869891,N,12132.4452044,E,0.03,141.40,270623,,,D,V*08
$GPHDT,3.510,T*32
$GNGGA,042447.600,2500.7869891,N,12132.4452044,E,2,53,0.50,15.656,M,15.25,M,0,3335*42
$GNRMC,042447.600,A,2500.7869891,N,12132.4452044,E,0.02,141.40,270623,,,D,V*0B
$GPHDT,3.355,T*35
$GNGGA,042447.800,2500.7869891,N,12132.4452044,E,2,53,0.50,15.651,M,15.25,M,0,3335*4B
$GNRMC,042447.800,A,2500.7869891,N,12132.4452044,E,0.01,141.40,270623,,,D,V*06
$GPHDT,3.751,T*35
$GNGSA,A,3,19,196,195,199,17,06,20,09,194,11,12,04,0.85,0.50,0.69,1*0C
$GNGSA,A,3,68,83,82,67,69,,,,,,,,0.85,0.50,0.69,2*04
$GNGSA,A,3,10,12,04,24,11,19,25,,,,,,0.85,0.50,0.69,3*0B
$GNGSA,A,3,40,33,07,10,08,14,43,28,13,41,42,11,0.85,0.50,0.69,4*00
$GPGSV,4,1,15,19,72,075,41,196,69,119,41,195,69,050,37,199,60,167,33,1*56
$GPGSV,4,2,15,50,60,167,35,17,56,112,43,06,49,007,44,20,42,247,39,1*60
$GPGSV,4,3,15,09,37,083,18,194,34,173,32,11,34,304,26,12,23,304,20,1*54
$GPGSV,4,4,15,04,18,055,,05,17,230,15,14,10,172,17,1*5D
$GPGSV,2,1,08,196,69,119,46,195,69,050,44,199,60,167,46,06,49,007,47,8*51
$GPGSV,2,2,08,09,37,083,22,11,34,304,29,194,34,173,36,04,18,055,32,8*5F
$GLGSV,2,1,06,68,68,118,41,83,40,004,28,82,35,063,20,67,35,039,32,1*76
$GLGSV,2,2,06,69,30,184,36,73,18,268,16,1*7C
$GAGSV,3,1,09,10,50,355,41,12,45,034,33,04,41,144,42,24,40,226,23,7*7C
$GAGSV,3,2,09,11,39,317,38,19,32,069,22,25,29,292,24,33,09,077,21,7*70
$GAGSV,3,3,09,36,04,282,,7*43
$GAGSV,2,1,08,10,50,355,46,12,45,034,37,04,41,144,44,24,40,226,29,1*75
$GAGSV,2,2,08,11,39,317,36,19,32,069,23,25,29,292,28,33,09,077,18,1*7F
$GBGSV,4,1,16,40,76,176,43,33,75,105,44,07,73,225,38,10,70,265,39,1*70
$GBGSV,4,2,16,08,55,287,34,14,53,054,35,43,49,082,21,28,48,338,47,1*7F
$GBGSV,4,3,16,13,47,273,28,41,38,200,43,42,28,042,33,11,26,098,22,1*7F
$GBGSV,4,4,16,37,11,258,,23,09,209,,34,09,111,20,38,,,43,1*48
$GBGSV,2,1,06,40,76,176,43,33,75,105,47,43,49,082,24,28,48,338,42,4*7F
$GBGSV,2,2,06,41,38,200,45,42,28,042,33,4*72
$GNGGA,042448.000,2500.7869831,N,12132.4452044,E,2,56,0.50,15.650,M,15.25,M,1,3335*43
$GNRMC,042448.000,A,2500.7869831,N,12132.4452044,E,0.02,141.40,270623,,,D,V*08
$GPHDT,3.461,T*35
$GNGGA,042448.200,2500.7869891,N,12132.4452164,E,2,56,0.50,15.650,M,15.25,M,1,3335*48
$GNRMC,042448.200,A,2500.7869891,N,12132.4452164,E,0.02,141.40,270623,,,D,V*03
$GPHDT,3.450,T*37
$GNGGA,042448.400,2500.7869831,N,12132.4452164,E,2,56,0.50,15.651,M,15.25,M,1,3335*45
$GNRMC,042448.400,A,2500.7869831,N,12132.4452164,E,0.01,141.40,270623,,,D,V*0C
$GPHDT,3.247,T*37
$GNGGA,042448.600,2500.7869831,N,12132.4452224,E,2,57,0.47,15.654,M,15.25,M,1,3335*42
$GNRMC,042448.600,A,2500.7869831,N,12132.4452224,E,0.00,141.40,270623,,,D,V*08
$GPHDT,3.544,T*33
$GNGGA,042448.800,2500.7869831,N,12132.4452224,E,2,57,0.47,15.655,M,15.25,M,1,3335*4D
$GNRMC,042448.800,A,2500.7869831,N,12132.4452224,E,0.01,141.40,270623,,,D,V*07
$GPHDT,3.311,T*35
$GNGSA,A,3,19,196,195,199,17,06,20,09,194,11,12,14,0.80,0.47,0.64,1*03
$GNGSA,A,3,04,,,,,,,,,,,,0.80,0.47,0.64,1*0C
$GNGSA,A,3,68,83,82,67,69,,,,,,,,0.80,0.47,0.64,2*0A
$GNGSA,A,3,10,12,04,24,11,19,25,,,,,,0.80,0.47,0.64,3*05
$GNGSA,A,3,40,33,07,10,08,14,43,28,13,41,42,11,0.80,0.47,0.64,4*0E
$GPGSV,4,1,15,19,72,075,41,196,69,119,41,195,69,050,37,199,60,167,33,1*56
$GPGSV,4,2,15,50,60,167,34,17,56,112,43,06,49,007,44,20,42,247,39,1*61
$GPGSV,4,3,15,09,37,083,19,194,34,173,32,11,34,304,25,12,23,304,17,1*52
$GPGSV,4,4,15,04,18,055,16,05,17,230,14,14,10,172,16,1*5A
$GPGSV,2,1,08,196,69,119,46,195,69,050,44,199,60,167,46,06,49,007,47,8*51
$GPGSV,2,2,08,09,37,083,22,11,34,304,29,194,34,173,34,04,18,055,32,8*5D
$GLGSV,2,1,06,68,68,118,41,83,40,004,30,82,35,063,25,67,35,039,34,1*7C
$GLGSV,2,2,06,69,30,184,36,73,18,268,14,1*7E
$GAGSV,3,1,09,10,50,355,41,12,45,034,31,04,41,144,42,24,40,226,24,7*79
$GAGSV,3,2,09,11,39,317,38,19,32,069,22,25,29,292,24,33,09,077,22,7*73
$GAGSV,3,3,09,36,04,282,,7*43
$GAGSV,2,1,08,10,50,355,46,12,45,034,34,04,41,144,44,24,40,226,28,1*77
$GAGSV,2,2,08,11,39,317,36,19,32,069,21,25,29,292,27,33,09,077,18,1*72
$GBGSV,4,1,16,40,76,176,43,33,75,105,44,07,73,225,38,10,70,265,40,1*7E
$GBGSV,4,2,16,08,55,287,34,14,53,054,37,43,49,082,23,28,48,338,47,1*7F
$GBGSV,4,3,16,13,47,273,29,41,38,200,43,42,28,042,31,11,26,098,25,1*7B
$GBGSV,4,4,16,37,11,258,,23,09,209,,34,09,111,19,38,,,44,1*45
$GBGSV,2,1,06,40,76,176,42,33,75,105,47,43,49,082,25,28,48,338,42,4*7F
$GBGSV,2,2,06,41,38,200,45,42,28,042,28,4*78
$GNGGA,042449.000,2500.7869831,N,12132.4452284,E,2,57,0.47,15.657,M,15.25,M,2,3335*4F
$GNRMC,042449.000,A,2500.7869831,N,12132.4452284,E,0.02,141.40,270623,,,D,V*07
$GPHDT,3.353,T*33
$GNGGA,042449.200,2500.7869831,N,12132.4452284,E,2,57,0.47,15.660,M,15.25,M,2,3335*49
$GNRMC,042449.200,A,2500.7869831,N,12132.4452284,E,0.01,141.40,270623,,,D,V*06
$GPHDT,3.584,T*3F
$GNGGA,042449.400,2500.7869831,N,12132.4452404,E,2,58,0.47,15.665,M,15.25,M,1,3335*48
$GNRMC,042449.400,A,2500.7869831,N,12132.4452404,E,0.00,141.40,270623,,,D,V*0F
$GPHDT,3.179,T*39
$GNGGA,042449.600,2500.7869831,N,12132.4452464,E,2,58,0.47,15.666,M,15.25,M,0,3335*4E
$GNRMC,042449.600,A,2500.7869831,N,12132.4452464,E,0.01,141.40,270623,,,D,V*0A
$GPHDT,3.053,T*30
$GNGGA,042449.800,2500.7869831,N,12132.4452524,E,2,58,0.47,15.670,M,15.25,M,0,3335*42
$GNRMC,042449.800,A,2500.7869831,N,12132.4452524,E,0.01,141.40,270623,,,D,V*01
$GPHDT,3.045,T*37
$GNGSA,A,3,19,196,195,199,17,06,20,09,194,11,12,04,0.80,0.47,0.64,1*02
$GNGSA,A,3,14,,,,,,,,,,,,0.80,0.47,0.64,1*0D
$GNGSA,A,3,68,83,82,67,69,,,,,,,,0.80,0.47,0.64,2*0A
$GNGSA,A,3,10,12,04,24,11,19,25,,,,,,0.80,0.47,0.64,3*05
$GNGSA,A,3,40,33,07,10,08,14,43,28,13,41,42,11,0.80,0.47,0.64,4*0E
$GPGSV,4,1,15,19,72,075,41,196,69,119,41,195,69,050,37,199,60,167,32,1*57
$GPGSV,4,2,15,50,60,167,34,17,56,112,43,06,49,007,44,20,42,247,39,1*61
$GPGSV,4,3,15,09,37,083,18,194,34,173,34,11,34,304,26,12,23,304,16,1*57
$GPGSV,4,4,15,04,18,055,19,05,17,230,13,14,10,172,17,1*53
$GPGSV,2,1,08,196,69,119,46,195,69,050,44,199,60,167,46,06,49,007,47,8*51
$GPGSV,2,2,08,09,37,083,25,11,34,304,29,194,34,173,35,04,18,055,32,8*5B
$GLGSV,2,1,06,68,68,118,41,83,40,004,31,82,35,063,27,67,35,039,34,1*7F
$GLGSV,2,2,06,69,30,184,36,73,18,268,14,1*7E
$GAGSV,3,1,09,10,50,355,41,12,45,034,31,04,41,144,42,24,40,226,23,7*7E
$GAGSV,3,2,09,11,39,317,38,19,32,069,21,25,29,292,24,33,09,077,22,7*70
$GAGSV,3,3,09,36,04,282,,7*43
$GAGSV,2,1,08,10,50,355,46,12,45,034,34,04,41,144,44,24,40,226,28,1*77
$GAGSV,2,2,08,11,39,317,36,19,32,069,21,25,29,292,29,33,09,077,18,1*7C
$GBGSV,4,1,16,40,76,176,43,33,75,105,44,07,73,225,39,10,70,265,40,1*7F
$GBGSV,4,2,16,08,55,287,34,14,53,054,38,43,49,082,28,28,48,338,47,1*7B
$GBGSV,4,3,16,13,47,273,29,41,38,200,43,42,28,042,31,11,26,098,26,1*78
$GBGSV,4,4,16,37,11,258,,23,09,209,,34,09,111,21,38,,,44,1*4E
$GBGSV,2,1,07,40,76,176,42,33,75,105,47,43,49,082,24,28,48,338,42,4*7F
$GBGSV,2,2,07,41,38,200,45,42,28,042,28,34,09,111,19,4*4E
$GNGGA,042450.000,2500.7869771,N,12132.4452644,E,2,58,0.47,15.673,M,15.25,M,1,3335*4E
$GNRMC,042450.000,A,2500.7869771,N,12132.4452644,E,0.00,141.40,270623,,,D,V*0E
$GPHDT,3.299,T*34
$GNGGA,042450.200,2500.7869771,N,12132.4452704,E,2,58,0.47,15.677,M,15.25,M,1,3335*4D
$GNRMC,042450.200,A,2500.7869771,N,12132.4452704,E,0.02,141.40,270623,,,D,V*0B
$GPHDT,3.651,T*34
$GNGGA,042450.400,2500.7869771,N,12132.4452764,E,2,58,0.47,15.682,M,15.25,M,1,3335*47
$GNRMC,042450.400,A,2500.7869771,N,12132.4452764,E,0.01,141.40,270623,,,D,V*08
$GPHDT,3.624,T*36
$GNGGA,042450.600,2500.7869771,N,12132.4452824,E,2,58,0.47,15.686,M,15.25,M,0,3335*4B
$GNRMC,042450.600,A,2500.7869771,N,12132.4452824,E,0.01,141.40,270623,,,D,V*01
$GPHDT,3.458,T*3F
$GNGGA,042450.800,2500.7869711,N,12132.4452944,E,2,57,0.47,15.689,M,15.25,M,0,3335*44
$GNRMC,042450.800,A,2500.7869711,N,12132.4452944,E,0.00,141.40,270623,,,D,V*0F
$GPHDT,3.444,T*32
$GNGSA,A,3,19,196,195,199,17,06,20,09,194,11,12,04,0.80,0.47,0.64,1*02
$GNGSA,A,3,14,,,,,,,,,,,,0.80,0.47,0.64,1*0D
$GNGSA,A,3,68,83,82,67,69,,,,,,,,0.80,0.47,0.64,2*0A
$GNGSA,A,3,10,12,04,24,11,19,25,,,,,,0.80,0.47,0.64,3*05
$GNGSA,A,3,40,33,07,10,08,14,28,13,41,42,11,43,0.80,0.47,0.64,4*0E
$GPGSV,4,1,15,19,72,075,41,196,69,119,40,195,69,050,37,199,60,167,32,1*56
$GPGSV,4,2,15,50,60,167,34,17,56,112,43,06,49,007,44,20,42,247,40,1*6F
$GPGSV,4,3,15,09,37,083,16,194,34,173,32,11,34,304,27,12,23,304,12,1*5A
$GPGSV,4,4,15,04,18,055,20,05,17,230,15,14,10,172,17,1*5F
$GPGSV,2,1,08,196,69,119,46,195,69,050,44,199,60,167,46,06,49,007,47,8*51
$GPGSV,2,2,08,09,37,083,25,11,34,304,28,194,34,173,35,04,18,055,30,8*58
$GLGSV,2,1,06,68,68,118,41,83,40,004,31,82,35,063,25,67,35,039,34,1*7D
$GLGSV,2,2,06,69,30,184,36,73,18,268,17,1*7D
$GAGSV,3,1,09,10,50,355,41,12,45,034,31,04,41,144,42,24,40,226,24,7*79
$GAGSV,3,2,09,11,39,317,38,19,32,069,21,25,29,292,23,33,09,077,22,7*77
$GAGSV,3,3,09,36,04,282,,7*43
$GAGSV,2,1,08,10,50,355,46,12,45,034,33,04,41,144,44,24,40,226,29,1*71
$GAGSV,2,2,08,11,39,317,36,19,32,069,21,25,29,292,29,33,09,077,18,1*7C
$GBGSV,5,1,17,40,76,176,43,33,75,105,43,07,73,225,39,10,70,265,40,1*78
$GBGSV,5,2,17,08,55,287,35,14,53,054,38,43,49,082,24,28,48,338,47,1*76
$GBGSV,5,3,17,13,47,273,29,41,38,200,43,42,28,042,31,11,26,098,25,1*7B
$GBGSV,5,4,17,37,11,258,,23,09,209,,34,09,111,22,06,02,185,,1*7E
$GBGSV,5,5,17,38,,,44,1*7B
$GBGSV,2,1,07,40,76,176,42,33,75,105,46,43,49,082,21,28,48,338,42,4*7B
$GBGSV,2,2,07,41,38,200,45,42,28,042,29,34,09,111,19,4*4F
$GNGGA,042451.000,2500.7869711,N,12132.4453004,E,2,57,0.47,15.692,M,15.25,M,1,3335*4A
$GNRMC,042451.000,A,2500.7869711,N,12132.4453004,E,0.01,141.40,270623,,,D,V*0B
$GPHDT,3.927,T*3A
$GNGGA,042451.200,2500.7869711,N,12132.4453124,E,2,57,0.47,15.694,M,15.25,M,1,3335*4D
$GNRMC,042451.200,A,2500.7869711,N,12132.4453124,E,0.01,141.40,270623,,,D,V*0A
$GPHDT,3.996,T*30
$GNGGA,042451.400,2500.7869711,N,12132.4453244,E,2,57,0.47,15.696,M,15.25,M,1,3335*4C
$GNRMC,042451.400,A,2500.7869711,N,12132.4453244,E,0.02,141.40,270623,,,D,V*0A
$GPHDT,4.006,T*37
$GNGGA,042451.600,2500.7869651,N,12132.4453364,E,2,56,0.49,15.696,M,15.25,M,1,3335*47
$GNRMC,042451.600,A,2500.7869651,N,12132.4453364,E,0.02,141.40,270623,,,D,V*0E
$GPHDT,3.854,T*3F
$GNGGA,042451.800,2500.7869591,N,12132.4453484,E,2,57,0.49,15.696,M,15.25,M,1,3335*4E
$GNRMC,042451.800,A,2500.7869591,N,12132.4453484,E,0.03,141.40,270623,,,D,V*07
$GPHDT,3.899,T*3E
$GNGSA,A,3,19,196,195,199,17,06,20,09,194,11,04,14,0.82,0.49,0.66,1*0A
$GNGSA,A,3,68,83,82,67,69,,,,,,,,0.82,0.49,0.66,2*04
$GNGSA,A,3,10,12,04,24,11,19,25,,,,,,0.82,0.49,0.66,3*0B
$GNGSA,A,3,40,33,07,10,08,14,43,28,13,41,42,11,0.82,0.49,0.66,4*00
$GPGSV,4,1,15,19,72,075,41,196,69,119,40,195,69,050,37,199,60,167,32,1*56
$GPGSV,4,2,15,50,60,167,34,17,56,112,43,06,49,007,44,20,42,247,40,1*6F
$GPGSV,4,3,15,09,37,083,16,194,34,173,32,11,34,304,26,12,23,304,17,1*5E
$GPGSV,4,4,15,04,18,055,22,05,17,230,15,14,10,172,17,1*5D
$GPGSV,2,1,08,196,69,119,46,195,69,050,44,199,60,167,46,06,49,007,47,8*51
$GPGSV,2,2,08,09,37,083,25,11,34,304,29,194,34,173,36,04,18,055,32,8*58
$GLGSV,2,1,06,68,68,118,41,83,40,004,31,82,35,063,25,67,35,039,32,1*7B
$GLGSV,2,2,06,69,30,184,35,73,18,268,18,1*71
$GAGSV,3,1,09,10,50,355,41,12,45,034,31,04,41,144,42,24,40,226,24,7*79
$GAGSV,3,2,09,11,39,317,38,19,32,069,19,25,29,292,23,33,09,077,23,7*7D
$GAGSV,3,3,09,36,04,282,,7*43
$GAGSV,2,1,08,10,50,355,46,12,45,034,33,04,41,144,44,24,40,226,29,1*71
$GAGSV,2,2,08,11,39,317,36,19,32,069,21,25,29,292,29,33,09,077,18,1*7C
$GBGSV,4,1,16,40,76,176,43,33,75,105,43,07,73,225,39,10,70,265,40,1*78
$GBGSV,4,2,16,08,55,287,35,14,53,054,38,43,49,082,22,28,48,338,47,1*70
$GBGSV,4,3,16,13,47,273,26,41,38,200,42,42,28,042,31,11,26,098,27,1*77
$GBGSV,4,4,16,37,11,258,,23,09,209,,34,09,111,22,38,,,44,1*4D
$GBGSV,2,1,07,40,76,176,43,33,75,105,46,43,49,082,21,28,48,338,42,4*7A
$GBGSV,2,2,07,41,38,200,45,42,28,042,31,34,09,111,19,4*46
$GNGGA,042452.000,2500.7869591,N,12132.4453604,E,2,57,0.49,15.698,M,15.25,M,2,3335*42
$GNRMC,042452.000,A,2500.7869591,N,12132.4453604,E,0.04,141.40,270623,,,D,V*01
$GPHDT,3.746,T*33
$GNGGA,042452.200,2500.7869591,N,12132.4453784,E,2,56,0.49,15.699,M,15.25,M,1,3335*4A
$GNRMC,042452.200,A,2500.7869591,N,12132.4453784,E,0.05,141.40,270623,,,D,V*0B
$GPHDT,4.039,T*3B
$GNGGA,042452.400,2500.7869531,N,12132.4453964,E,2,56,0.49,15.701,M,15.25,M,1,3335*46
$GNRMC,042452.400,A,2500.7869531,N,12132.4453964,E,0.05,141.40,270623,,,D,V*07
$GPHDT,3.710,T*30
$GNGGA,042452.600,2500.7869531,N,12132.4454144,E,2,55,0.49,15.705,M,15.25,M,1,3335*4E
$GNRMC,042452.600,A,2500.7869531,N,12132.4454144,E,0.06,141.40,270623,,,D,V*0B
$GPHDT,3.639,T*3A
$GNGGA,042452.800,2500.7869411,N,12132.4454324,E,2,55,0.49,15.708,M,15.25,M,0,3335*4B
$GNRMC,042452.800,A,2500.7869411,N,12132.4454324,E,0.06,141.40,270623,,,D,V*02
$GPHDT,3.859,T*32
$GNGSA,A,3,19,196,195,199,17,06,20,09,194,11,04,14,0.82,0.49,0.66,1*0A
$GNGSA,A,3,68,83,82,67,69,,,,,,,,0.82,0.49,0.66,2*04
$GNGSA,A,3,10,12,04,24,11,19,25,,,,,,0.82,0.49,0.66,3*0B
$GNGSA,A,3,40,33,07,10,08,14,28,13,41,42,11,43,0.82,0.49,0.66,4*00
$GPGSV,4,1,15,19,72,075,41,196,69,119,40,195,69,050,38,199,60,167,32,1*59
$GPGSV,4,2,15,50,60,167,34,17,56,112,43,06,49,007,44,20,42,247,39,1*61
$GPGSV,4,3,15,09,37,083,15,194,34,173,35,11,34,304,26,12,23,304,14,1*59
$GPGSV,4,4,15,04,18,055,22,05,17,230,15,14,10,172,17,1*5D
$GPGSV,2,1,08,196,69,119,46,195,69,050,44,199,60,167,46,06,49,007,47,8*51
$GPGSV,2,2,08,09,37,083,26,11,34,304,28,194,34,173,34,04,18,055,31,8*5B
$GLGSV,2,1,06,68,68,117,41,83,40,004,31,82,35,063,24,67,35,038,32,1*74
$GLGSV,2,2,06,69,30,184,33,73,18,268,20,1*7C
$GAGSV,3,1,09,10,50,355,42,12,45,034,31,04,41,144,42,24,40,226,24,7*7A
$GAGSV,3,2,09,11,39,317,38,19,32,069,18,25,29,292,22,33,09,077,24,7*7A
$GAGSV,3,3,09,36,04,282,,7*43
$GAGSV,2,1,08,10,50,355,46,12,45,034,33,04,41,144,43,24,40,226,28,1*77
$GAGSV,2,2,08,11,39,317,36,19,32,069,20,25,29,292,28,33,09,077,18,1*7C
$GBGSV,4,1,16,40,76,176,43,33,75,105,43,07,73,225,39,10,70,265,40,1*78
$GBGSV,4,2,16,08,55,287,35,14,53,054,37,43,49,082,,28,48,338,47,1*7F
$GBGSV,4,3,16,13,47,273,25,41,38,200,42,42,28,042,32,11,26,098,28,1*78
$GBGSV,4,4,16,37,11,258,,23,09,209,,34,09,111,21,38,,,44,1*4E
$GBGSV,2,1,07,40,76,176,43,33,75,105,46,43,49,082,24,28,48,338,41,4*7C
$GBGSV,2,2,07,41,38,200,45,42,28,042,29,34,09,111,19,4*4F
$GNGGA,042453.000,2500.7869351,N,12132.4454444,E,2,56,0.49,15.711,M,15.25,M,1,3335*4A
$GNRMC,042453.000,A,2500.7869351,N,12132.4454444,E,0.05,141.40,270623,,,D,V*0A
$GPHDT,4.158,T*3D
$GNGGA,042453.200,2500.7869231,N,12132.4454504,E,2,55,0.49,15.712,M,15.25,M,1,3335*4A
$GNRMC,042453.200,A,2500.7869231,N,12132.4454504,E,0.04,141.40,270623,,,D,V*0B
$GPHDT,3.848,T*32
$GNGGA,042453.400,2500.7869111,N,12132.4454624,E,2,55,0.49,15.715,M,15.25,M,1,3335*4B
$GNRMC,042453.400,A,2500.7869111,N,12132.4454624,E,0.04,141.40,270623,,,D,V*0D
$GPHDT,4.492,T*3E
$GNGGA,042453.600,2500.7869051,N,12132.4454804,E,2,55,0.49,15.719,M,15.25,M,1,3335*4C
$GNRMC,042453.600,A,2500.7869051,N,12132.4454804,E,0.03,141.40,270623,,,D,V*01
$GPHDT,4.266,T*33
$GNGGA,042453.800,2500.7868931,N,12132.4454984,E,2,55,0.49,15.720,M,15.25,M,0,3335*4E
$GNRMC,042453.800,A,2500.7868931,N,12132.4454984,E,0.04,141.40,270623,,,D,V*0F
$GPHDT,4.099,T*31
$GNGSA,A,3,19,196,195,199,17,06,20,09,194,11,04,14,0.82,0.49,0.66,1*0A
$GNGSA,A,3,68,83,82,67,69,,,,,,,,0.82,0.49,0.66,2*04
$GNGSA,A,3,10,12,04,24,11,19,25,,,,,,0.82,0.49,0.66,3*0B
$GNGSA,A,3,40,33,07,10,08,14,28,13,41,42,11,43,0.82,0.49,0.66,4*00
$GPGSV,4,1,15,19,72,075,41,196,69,119,40,195,69,050,38,199,60,167,32,1*59
$GPGSV,4,2,15,50,60,167,34,17,56,112,43,06,49,007,44,20,42,247,39,1*61
$GPGSV,4,3,15,09,37,083,19,194,34,173,33,11,34,304,27,12,23,304,12,1*54
$GPGSV,4,4,15,04,18,055,23,05,17,230,14,14,10,172,17,1*5D
$GPGSV,2,1,07,195,69,050,44,196,69,119,46,199,60,167,46,06,49,007,47,8*5E
$GPGSV,2,2,07,09,37,083,24,11,34,304,29,04,18,055,31,8*5E
$GLGSV,2,1,07,68,68,117,41,83,40,004,31,82,35,063,24,67,35,038,32,1*75
$GLGSV,2,2,07,69,30,184,32,73,18,268,22,80,10,216,,1*42
$GAGSV,3,1,09,10,50,355,42,12,45,034,31,04,41,144,42,24,40,226,21,7*7F
$GAGSV,3,2,09,11,39,317,38,19,32,069,18,25,29,292,23,33,09,077,24,7*7B
$GAGSV,3,3,09,36,04,282,,7*43
$GAGSV,2,1,08,10,50,355,46,12,45,034,33,04,41,144,43,24,40,226,29,1*76
$GAGSV,2,2,08,11,39,317,36,19,32,069,20,25,29,292,28,33,09,077,18,1*7C
$GBGSV,5,1,17,40,76,176,42,33,75,105,43,07,73,225,39,10,70,265,40,1*79
$GBGSV,5,2,17,08,55,287,35,14,53,054,37,43,49,082,,28,48,338,47,1*7F
$GBGSV,5,3,17,13,47,273,27,41,38,200,42,42,28,042,32,11,26,098,27,1*75
$GBGSV,5,4,17,37,11,258,,34,09,111,21,23,09,209,,56,,,32,1*47
$GBGSV,5,5,17,38,,,44,1*7B
$GBGSV,2,1,07,40,76,176,43,33,75,105,46,43,49,082,25,28,48,338,41,4*7D
$GBGSV,2,2,07,41,38,200,45,42,28,042,30,34,09,111,19,4*47
$GNGGA,042454.000,2500.7868811,N,12132.4455104,E,2,55,0.49,15.724,M,15.25,M,1,3335*46
$GNRMC,042454.000,A,2500.7868811,N,12132.4455104,E,0.02,141.40,270623,,,D,V*04
$GPHDT,3.793,T*3B
$GNGGA,042454.200,2500.7868751,N,12132.4455164,E,2,55,0.50,15.728,M,15.25,M,1,3335*4D
$GNRMC,042454.200,A,2500.7868751,N,12132.4455164,E,0.01,141.40,270623,,,D,V*08
$GPHDT,4.039,T*3B
$GNGGA,042454.400,2500.7868631,N,12132.4455284,E,2,55,0.50,15.730,M,15.25,M,1,3335*48
$GNRMC,042454.400,A,2500.7868631,N,12132.4455284,E,0.03,141.40,270623,,,D,V*06
$GPHDT,4.000,T*31
$GNGGA,042454.600,2500.7868571,N,12132.4455344,E,2,54,0.50,15.731,M,15.25,M,0,3335*41
$GNRMC,042454.600,A,2500.7868571,N,12132.4455344,E,0.03,141.40,270623,,,D,V*0E
$GPHDT,3.957,T*3D
$GNGGA,042454.800,2500.7868511,N,12132.4455464,E,2,56,0.49,15.736,M,15.25,M,0,3335*41
$GNRMC,042454.800,A,2500.7868511,N,12132.4455464,E,0.02,141.40,270623,,,D,V*02
$GPHDT,3.704,T*35
$GNGSA,A,3,19,196,195,199,17,06,20,09,11,194,04,14,0.82,0.49,0.66,1*0A
$GNGSA,A,3,68,83,82,67,69,,,,,,,,0.82,0.49,0.66,2*04
$GNGSA,A,3,10,12,04,24,11,19,25,,,,,,0.82,0.49,0.66,3*0B
$GNGSA,A,3,40,33,07,10,08,14,28,13,41,42,11,43,0.82,0.49,0.66,4*00
$GPGSV,4,1,15,19,72,075,39,196,69,119,40,195,69,050,38,50,60,167,34,1*64
$GPGSV,4,2,15,199,60,167,32,17,56,112,42,06,49,007,44,20,42,247,41,1*5D
$GPGSV,4,3,15,09,37,083,23,11,34,304,28,194,34,173,33,12,23,304,15,1*55
$GPGSV,4,4,15,04,18,055,26,05,17,230,13,14,10,172,17,1*5F
$GPGSV,2,1,08,196,69,119,46,195,69,050,43,199,60,167,46,06,49,007,47,8*56
$GPGSV,2,2,08,09,37,083,22,11,34,304,29,194,34,173,31,04,18,055,32,8*58
$GLGSV,2,1,07,68,68,117,41,83,40,004,31,82,35,063,26,67,35,038,30,1*75
$GLGSV,2,2,07,69,30,184,31,73,18,268,21,80,10,216,,1*42
$GAGSV,3,1,10,10,50,355,42,12,45,034,31,04,41,144,42,24,40,226,21,7*77
$GAGSV,3,2,10,11,39,317,38,19,32,069,16,25,29,292,24,09,10,188,,7*7C
$GAGSV,3,3,10,33,09,077,24,36,04,282,,7*74
$GAGSV,2,1,08,10,50,355,46,12,45,034,32,04,41,144,44,24,40,226,29,1*70
$GAGSV,2,2,08,11,39,317,36,19,32,069,20,25,29,292,28,33,09,077,17,1*73
$GBGSV,4,1,16,40,76,176,42,33,75,105,43,07,73,225,38,10,70,265,39,1*76
$GBGSV,4,2,16,08,55,287,35,14,53,054,37,43,49,082,,28,48,338,47,1*7F
$GBGSV,4,3,16,13,47,273,28,41,38,200,42,42,28,042,33,11,26,098,27,1*7B
$GBGSV,4,4,16,37,11,258,,23,09,209,,34,09,111,18,38,,,44,1*44
$GBGSV,2,1,07,40,76,176,43,33,75,105,46,43,49,082,25,28,48,338,41,4*7D
$GBGSV,2,2,07,41,38,200,45,42,28,042,30,34,09,111,19,4*47
$GNGGA,042455.000,2500.7868451,N,12132.4455524,E,2,56,0.49,15.741,M,15.25,M,1,3335*49
$GNRMC,042455.000,A,2500.7868451,N,12132.4455524,E,0.01,141.40,270623,,,D,V*08
$GPHDT,3.318,T*3C
$GNGGA,042455.200,2500.7868451,N,12132.4455644,E,2,56,0.49,15.743,M,15.25,M,1,3335*4C
$GNRMC,042455.200,A,2500.7868451,N,12132.4455644,E,0.02,141.40,270623,,,D,V*0C
$GPHDT,3.090,T*3F
$GNGGA,042455.400,2500.7868391,N,12132.4455764,E,2,56,0.49,15.749,M,15.25,M,1,3335*48
$GNRMC,042455.400,A,2500.7868391,N,12132.4455764,E,0.01,141.40,270623,,,D,V*01
$GPHDT,2.130,T*35
