$FW : RTK35X,V1.1X0314AS,Lib20210517,1*54
$Tool : LOCOSYS , GNSS Firebird , v1.0.0.19*39
$---------------------------------------------------*2D
$GPHDT,,T*1B
$GNGSA,A,3,19,195,196,199,17,06,20,09,11,194,12,04,0.85,0.50,0.69,1*0C
$GNGSA,A,3,68,83,82,67,69,,,,,,,,0.85,0.50,0.69,2*04
$GNGSA,A,3,10,12,04,24,11,19,25,,,,,,0.85,0.50,0.69,3*0B
$GNGSA,A,3,40,33,07,10,08,14,28,43,13,41,42,11,0.85,0.50,0.69,4*00
$GPGSV,4,1,15,19,71,076,40,195,69,050,39,196,69,119,37,50,60,167,33,1*6C
$GPGSV,4,2,15,199,60,167,31,17,56,113,41,06,49,007,46,20,42,247,33,1*5B
$GPGSV,4,3,15,09,37,083,30,11,35,304,34,194,34,173,32,12,23,304,21,1*5D
$GPGSV,4,4,15,04,18,055,27,05,17,231,,14,10,172,14,1*5E
$GPGSV,2,1,07,196,69,119,45,195,69,050,44,199,60,167,44,06,49,007,48,8*50
$GPGSV,2,2,07,09,37,083,34,11,35,304,27,04,18,055,21,8*51
$GLGSV,2,1,07,68,68,116,40,83,40,005,35,82,35,064,21,67,34,038,27,1*77
$GLGSV,2,2,07,69,30,184,32,73,18,268,,80,09,215,,1*49
$GAGSV,3,1,09,10,50,355,41,12,45,034,38,04,41,144,43,24,40,226,25,7*70
$GAGSV,3,2,09,11,39,317,29,19,32,068,18,25,29,292,26,09,10,188,,7*79
$GAGSV,3,3,09,33,09,078,19,7*44
$GAGSV,2,1,06,10,50,355,43,12,45,034,38,04,41,144,44,24,40,226,25,1*7D
$GAGSV,2,2,06,11,39,317,32,25,29,292,30,1*7B
$GBGSV,4,1,14,40,76,177,42,33,76,103,42,07,73,225,40,10,70,265,40,1*70
$GBGSV,4,2,14,08,55,288,33,14,53,053,43,28,49,339,41,43,49,082,35,1*70
$GBGSV,4,3,14,13,47,273,30,41,38,201,41,42,28,042,32,11,26,098,22,1*76
$GBGSV,4,4,14,37,11,257,,23,09,209,,1*74
$GBGSV,2,1,06,33,76,103,44,40,76,177,45,28,49,339,39,43,49,082,21,4*77
$GBGSV,2,2,06,41,38,201,44,42,28,042,35,4*74
$GNGGA,042539.000,2500.7891100,N,12132.4472400,E,2,55,0.50,13.59,M,15.25,M,1,3335*74
$GNRMC,042539.000,A,2500.7891100,N,12132.4472400,E,0.03,141.40,270623,,,D,V*04
$GPHDT,,T*1B
$GNGGA,042539.200,2500.7891100,N,12132.4472200,E,2,56,0.50,13.59,M,15.25,M,1,3335*73
$GNRMC,042539.200,A,2500.7891100,N,12132.4472200,E,0.01,141.40,270623,,,D,V*02
$GPHDT,,T*1B
$GNGGA,042539.400,2500.7891100,N,12132.4472300,E,2,56,0.50,13.61,M,15.25,M,1,3335*7F
$GNRMC,042539.400,A,2500.7891100,N,12132.4472300,E,0.05,141.40,270623,,,D,V*01
$GPHDT,,T*1B
$GNGGA,042539.600,2500.7891100,N,12132.4472200,E,2,56,0.50,13.62,M,15.25,M,0,3335*7E
$GNRMC,042539.600,A,2500.7891100,N,12132.4472200,E,0.04,141.40,270623,,,D,V*03
$GPHDT,,T*1B
$GNGGA,042539.800,2500.7891200,N,12132.4472100,E,2,56,0.50,13.63,M,15.25,M,0,3335*71
$GNRMC,042539.800,A,2500.7891200,N,12132.4472100,E,0.03,141.40,270623,,,D,V*0A
$GPHDT,,T*1B
$GNGSA,A,3,19,195,196,199,17,06,20,09,11,194,12,04,0.87,0.51,0.70,1*07
$GNGSA,A,3,68,83,82,67,69,,,,,,,,0.87,0.51,0.70,2*0F
$GNGSA,A,3,10,12,04,24,11,19,25,,,,,,0.87,0.51,0.70,3*00
$GNGSA,A,3,40,33,07,10,08,14,28,43,13,41,42,,0.87,0.51,0.70,4*0B
$GPGSV,4,1,15,19,71,076,40,195,69,050,39,196,69,119,36,50,60,167,33,1*6D
$GPGSV,4,2,15,199,60,167,31,17,56,113,40,06,49,007,46,20,42,247,42,1*5C
$GPGSV,4,3,15,09,37,083,30,11,35,304,32,194,34,173,37,12,23,304,20,1*5F
$GPGSV,4,4,15,04,18,055,27,05,17,231,,14,10,172,15,1*5F
$GPGSV,2,1,07,196,69,119,44,195,69,050,44,199,60,167,44,06,49,007,48,8*51
$GPGSV,2,2,07,09,37,083,33,11,35,304,28,04,18,055,22,8*5A
$GLGSV,2,1,07,68,68,116,42,83,40,005,35,82,35,064,23,67,34,038,28,1*78
$GLGSV,2,2,07,69,30,184,32,73,18,268,,80,09,215,,1*49
$GAGSV,3,1,09,10,50,355,41,12,45,034,38,04,41,144,42,24,40,226,26,7*72
$GAGSV,3,2,09,11,39,317,29,19,32,068,18,25,29,292,27,09,10,188,,7*78
$GAGSV,3,3,09,33,09,078,19,7*44
$GAGSV,2,1,06,10,50,355,43,12,45,034,38,04,41,144,44,24,40,226,26,1*7E
$GAGSV,2,2,06,11,39,317,31,25,29,292,31,1*79
$GBGSV,4,1,14,40,76,177,42,33,76,103,44,07,73,225,40,10,70,265,40,1*76
$GBGSV,4,2,14,08,55,288,31,14,53,053,43,28,49,339,41,43,49,082,35,1*72
$GBGSV,4,3,14,13,47,273,31,41,38,201,41,42,28,042,31,11,26,098,,1*74
$GBGSV,4,4,14,37,11,257,,23,09,209,,1*74
$GBGSV,2,1,06,33,76,103,45,40,76,177,45,28,49,339,40,43,49,082,24,4*7D
$GBGSV,2,2,06,41,38,201,44,42,28,042,36,4*77
$GNGGA,042540.000,2500.7891300,N,12132.4472100,E,2,54,0.51,13.64,M,15.25,M,1,3335*73
$GNRMC,042540.000,A,2500.7891300,N,12132.4472100,E,0.03,141.40,270623,,,D,V*0D
$GPHDT,,T*1B
$GNGGA,042540.200,2500.7891400,N,12132.4472100,E,2,54,0.51,13.64,M,15.25,M,1,3335*76
$GNRMC,042540.200,A,2500.7891400,N,12132.4472100,E,0.02,141.40,270623,,,D,V*09
$GPHDT,,T*1B
$GNGGA,042540.400,2500.7891600,N,12132.4472100,E,2,56,0.50,13.65,M,15.25,M,1,3335*70
$GNRMC,042540.400,A,2500.7891600,N,12132.4472100,E,0.02,141.40,270623,,,D,V*0D
$GPHDT,,T*1B
$GNGGA,042540.600,2500.7891700,N,12132.4472100,E,2,57,0.50,13.66,M,15.25,M,1,3335*71
$GNRMC,042540.600,A,2500.7891700,N,12132.4472100,E,0.02,141.40,270623,,,D,V*0E
$GPHDT,,T*1B
$GNGGA,042540.800,2500.7891700,N,12132.4472000,E,2,57,0.50,13.66,M,15.25,M,0,3335*7F
$GNRMC,042540.800,A,2500.7891700,N,12132.4472000,E,0.01,141.40,270623,,,D,V*02
$GPHDT,,T*1B
$GNGSA,A,3,19,195,196,199,17,06,20,09,11,194,12,04,0.85,0.50,0.69,1*0C
$GNGSA,A,3,68,83,82,67,69,,,,,,,,0.85,0.50,0.69,2*04
$GNGSA,A,3,10,12,04,24,11,19,25,,,,,,0.85,0.50,0.69,3*0B
$GNGSA,A,3,33,40,07,10,08,14,43,28,13,41,42,11,0.85,0.50,0.69,4*00
$GPGSV,4,1,15,19,71,076,40,195,69,050,40,196,69,119,37,50,60,167,34,1*65
$GPGSV,4,2,15,199,60,167,31,17,56,113,41,06,49,007,46,20,42,247,42,1*5D
$GPGSV,4,3,15,09,37,083,28,11,35,304,34,194,34,173,36,12,23,304,22,1*53
$GPGSV,4,4,15,04,18,055,28,05,17,231,,14,10,172,15,1*50
$GPGSV,2,1,08,195,69,050,44,196,69,119,44,199,60,167,43,06,49,007,48,8*59
$GPGSV,2,2,08,09,37,083,31,11,35,304,25,194,34,173,36,04,18,055,21,8*52
$GLGSV,2,1,07,68,68,116,41,83,40,005,35,82,35,064,22,67,34,038,30,1*73
$GLGSV,2,2,07,69,30,184,31,73,18,268,,80,09,215,,1*4A
$GAGSV,3,1,09,10,50,355,42,12,45,034,38,04,41,144,43,24,40,226,26,7*70
$GAGSV,3,2,09,11,39,317,30,19,32,068,21,25,29,292,27,09,10,188,,7*7A
$GAGSV,3,3,09,33,09,078,19,7*44
$GAGSV,2,1,07,10,50,355,43,12,45,034,38,04,41,144,43,24,40,226,27,1*79
$GAGSV,2,2,07,11,39,317,33,19,32,068,21,25,29,292,31,1*4E
$GBGSV,4,1,15,33,76,103,44,40,76,177,42,07,73,225,38,10,70,265,40,1*78
$GBGSV,4,2,15,08,55,288,30,14,53,053,43,43,49,082,32,28,49,339,40,1*74
$GBGSV,4,3,15,13,47,273,33,41,38,201,42,42,28,042,31,11,26,098,24,1*72
$GBGSV,4,4,15,37,11,257,,34,09,111,,23,09,209,,1*4A
$GBGSV,2,1,06,33,76,103,45,40,76,177,45,28,49,339,39,43,49,082,24,4*73
$GBGSV,2,2,06,41,38,201,44,42,28,042,36,4*77
$GNGGA,042541.000,2500.7891800,N,12132.4472000,E,2,57,0.50,13.67,M,15.25,M,1,3335*79
$GNRMC,042541.000,A,2500.7891800,N,12132.4472000,E,0.02,141.40,270623,,,D,V*07
$GPHDT,,T*1B
$GNGGA,042541.200,2500.7891900,N,12132.4472100,E,2,57,0.50,13.68,M,15.25,M,1,3335*74
$GNRMC,042541.200,A,2500.7891900,N,12132.4472100,E,0.02,141.40,270623,,,D,V*05
$GPHDT,,T*1B
$GNGGA,042541.400,2500.7891900,N,12132.4472100,E,2,55,0.50,13.69,M,15.25,M,1,3335*71
$GNRMC,042541.400,A,2500.7891900,N,12132.4472100,E,0.01,141.40,270623,,,D,V*00
$GPHDT,,T*1B
$GNGGA,042541.600,2500.7892000,N,12132.4472200,E,2,55,0.50,13.70,M,15.25,M,1,3335*72
$GNRMC,042541.600,A,2500.7892000,N,12132.4472200,E,0.02,141.40,270623,,,D,V*08
$GPHDT,,T*1B
$GNGGA,042541.800,2500.7892100,N,12132.4472300,E,2,56,0.50,13.71,M,15.25,M,0,3335*7F
$GNRMC,042541.800,A,2500.7892100,N,12132.4472300,E,0.02,141.40,270623,,,D,V*06
$GPHDT,,T*1B
$GNGSA,A,3,19,195,196,199,17,06,20,09,11,194,12,04,0.87,0.51,0.70,1*07
$GNGSA,A,3,68,83,82,67,69,,,,,,,,0.87,0.51,0.70,2*0F
$GNGSA,A,3,10,12,04,24,11,19,25,,,,,,0.87,0.51,0.70,3*00
$GNGSA,A,3,33,40,07,10,08,14,43,28,13,41,42,,0.87,0.51,0.70,4*0B
$GPGSV,4,1,15,19,71,076,40,195,69,050,40,196,69,119,36,50,60,167,36,1*66
$GPGSV,4,2,15,199,60,167,33,17,56,113,41,06,49,007,46,20,42,247,42,1*5F
$GPGSV,4,3,15,09,37,083,29,11,35,304,32,194,34,173,35,12,23,304,22,1*57
$GPGSV,4,4,15,04,18,055,25,05,17,231,,14,10,172,17,1*5F
$GPGSV,2,1,07,196,69,119,44,195,69,050,44,199,60,167,43,06,49,007,48,8*56
$GPGSV,2,2,07,09,37,083,30,11,35,304,19,04,18,055,22,8*5B
$GLGSV,2,1,07,68,68,116,41,83,40,005,35,82,35,064,18,67,34,038,31,1*7B
$GLGSV,2,2,07,69,30,184,33,73,18,268,,80,09,215,,1*48
$GAGSV,3,1,09,10,50,355,42,12,45,034,38,04,41,144,42,24,40,226,25,7*72
$GAGSV,3,2,09,11,39,317,31,19,32,068,21,25,29,292,28,09,10,188,,7*74
$GAGSV,3,3,09,33,09,078,19,7*44
$GAGSV,2,1,06,10,50,355,44,12,45,034,39,04,41,144,43,24,40,226,26,1*7F
$GAGSV,2,2,06,11,39,317,33,25,29,292,32,1*78
$GBGSV,4,1,15,33,76,103,44,40,76,177,42,07,73,225,39,10,70,265,41,1*78
$GBGSV,4,2,15,08,55,288,30,14,53,053,43,43,49,082,30,28,49,339,43,1*75
$GBGSV,4,3,15,13,47,273,33,41,38,201,42,42,28,042,31,11,26,098,20,1*76
$GBGSV,4,4,15,37,11,257,,34,09,111,,23,09,209,,1*4A
$GBGSV,2,1,06,33,76,103,45,40,76,177,45,28,49,339,39,43,49,082,27,4*70
$GBGSV,2,2,06,41,38,201,44,42,28,042,36,4*77
$GNGGA,042542.000,2500.7892200,N,12132.4472300,E,2,54,0.51,13.72,M,15.25,M,1,3335*76
$GNRMC,042542.000,A,2500.7892200,N,12132.4472300,E,0.02,141.40,270623,,,D,V*0E
$GPHDT,,T*1B
$GNGGA,042542.200,2500.7892200,N,12132.4472300,E,2,54,0.52,13.73,M,15.25,M,1,3335*76
$GNRMC,042542.200,A,2500.7892200,N,12132.4472300,E,0.02,141.40,270623,,,D,V*0C
$GPHDT,,T*1B
$GNGGA,042542.400,2500.7892200,N,12132.4472300,E,2,54,0.52,13.74,M,15.25,M,1,3335*77
$GNRMC,042542.400,A,2500.7892200,N,12132.4472300,E,0.02,141.40,270623,,,D,V*0A
$GPHDT,,T*1B
$GNGGA,042542.600,2500.7892200,N,12132.4472400,E,2,55,0.51,13.75,M,15.25,M,0,3335*70
$GNRMC,042542.600,A,2500.7892200,N,12132.4472400,E,0.01,141.40,270623,,,D,V*0C
$GPHDT,,T*1B
$GNGGA,042542.800,2500.7892300,N,12132.4472400,E,2,55,0.51,13.77,M,15.25,M,0,3335*7D
$GNRMC,042542.800,A,2500.7892300,N,12132.4472400,E,0.02,141.40,270623,,,D,V*00
$GPHDT,,T*1B
$GNGSA,A,3,19,195,196,199,17,06,20,09,11,194,12,04,0.87,0.51,0.70,1*07
$GNGSA,A,3,68,83,82,67,69,,,,,,,,0.87,0.51,0.70,2*0F
$GNGSA,A,3,10,12,04,24,11,19,25,,,,,,0.87,0.51,0.70,3*00
$GNGSA,A,3,33,40,07,10,08,14,43,28,13,41,42,,0.87,0.51,0.70,4*0B
$GPGSV,4,1,15,19,71,076,40,195,69,050,40,196,69,119,37,50,60,167,35,1*64
$GPGSV,4,2,15,199,60,167,33,17,56,113,41,06,49,007,46,20,42,247,42,1*5F
$GPGSV,4,3,15,09,37,083,29,11,35,304,33,194,34,173,35,12,23,304,22,1*56
$GPGSV,4,4,15,05,17,231,17,04,17,055,27,14,10,172,17,1*54
$GPGSV,2,1,08,195,69,050,44,196,69,119,44,199,60,167,43,06,49,007,48,8*59
$GPGSV,2,2,08,09,37,083,30,11,35,304,15,194,34,173,32,04,17,055,22,8*58
$GLGSV,2,1,07,68,68,116,42,83,40,005,35,82,35,064,20,67,34,038,30,1*72
$GLGSV,2,2,07,69,30,184,34,73,18,268,,80,09,215,,1*4F
$GAGSV,3,1,09,10,50,355,42,12,45,034,38,04,41,144,42,24,40,226,27,7*70
$GAGSV,3,2,09,11,39,317,30,19,32,068,21,25,29,292,29,09,10,188,,7*74
$GAGSV,3,3,09,33,09,078,17,7*4A
$GAGSV,2,1,06,10,50,355,44,12,45,034,39,04,41,144,43,24,40,226,24,1*7D
$GAGSV,2,2,06,11,39,317,33,25,29,292,32,1*78
$GBGSV,4,1,15,33,76,103,43,40,76,177,42,07,73,225,39,10,70,265,41,1*7F
$GBGSV,4,2,15,08,55,288,31,14,53,053,44,43,49,082,31,28,49,339,43,1*72
$GBGSV,4,3,15,13,47,273,33,41,38,201,43,42,28,042,31,11,26,098,,1*75
$GBGSV,4,4,15,37,11,257,,34,09,111,,23,09,209,,1*4A
$GBGSV,2,1,06,33,76,103,44,40,76,177,44,28,49,339,37,43,49,082,25,4*7C
$GBGSV,2,2,06,41,38,201,44,42,28,042,35,4*74
$GNGGA,042543.000,2500.7892300,N,12132.4472500,E,2,55,0.51,13.78,M,15.25,M,1,3335*7B
$GNRMC,042543.000,A,2500.7892300,N,12132.4472500,E,0.01,141.40,270623,,,D,V*0B
$GPHDT,,T*1B
$GNGGA,042543.200,2500.7892300,N,12132.4472600,E,2,55,0.51,13.79,M,15.25,M,1,3335*7B
$GNRMC,042543.200,A,2500.7892300,N,12132.4472600,E,0.02,141.40,270623,,,D,V*09
$GPHDT,,T*1B
$GNGGA,042543.400,2500.7892200,N,12132.4472600,E,2,55,0.51,13.80,M,15.25,M,1,3335*7A
$GNRMC,042543.400,A,2500.7892200,N,12132.4472600,E,0.02,141.40,270623,,,D,V*0E
$GPHDT,,T*1B
$GNGGA,042543.600,2500.7892200,N,12132.4472700,E,2,56,0.51,13.82,M,15.25,M,1,3335*78
$GNRMC,042543.600,A,2500.7892200,N,12132.4472700,E,0.00,141.40,270623,,,D,V*0F
$GPHDT,,T*1B
$GNGGA,042543.800,2500.7892300,N,12132.4472700,E,2,56,0.51,13.83,M,15.25,M,1,3335*76
$GNRMC,042543.800,A,2500.7892300,N,12132.4472700,E,0.01,141.40,270623,,,D,V*01
$GPHDT,,T*1B
$GNGSA,A,3,19,195,196,199,17,06,20,09,11,194,12,04,0.87,0.51,0.70,1*07
$GNGSA,A,3,68,83,82,67,69,,,,,,,,0.87,0.51,0.70,2*0F
$GNGSA,A,3,10,12,04,24,11,19,25,,,,,,0.87,0.51,0.70,3*00
$GNGSA,A,3,33,40,07,10,08,14,28,43,13,41,42,,0.87,0.51,0.70,4*0B
$GPGSV,4,1,15,19,71,076,40,195,69,050,40,196,69,119,37,199,60,167,31,1*54
$GPGSV,4,2,15,50,60,167,34,17,56,113,40,06,49,007,46,20,42,247,42,1*6D
$GPGSV,4,3,15,09,37,083,28,11,35,304,33,194,34,173,35,12,23,304,21,1*54
$GPGSV,4,4,15,04,17,055,27,05,17,231,17,14,10,172,17,1*54
$GPGSV,2,1,07,196,69,119,44,195,69,050,44,199,60,167,43,06,49,007,48,8*56
$GPGSV,2,2,07,09,37,083,30,11,35,304,15,04,17,055,21,8*5B
$GLGSV,2,1,08,68,68,116,42,83,40,005,35,82,35,064,25,67,34,038,31,1*79
$GLGSV,2,2,08,69,30,184,32,80,09,215,,74,08,311,,84,06,310,,1*77
$GAGSV,3,1,09,10,50,355,42,12,45,034,37,04,41,144,42,24,40,226,26,7*7E
$GAGSV,3,2,09,11,39,317,30,19,32,068,23,25,29,292,29,09,10,188,,7*76
$GAGSV,3,3,09,33,09,078,17,7*4A
$GAGSV,2,1,07,10,50,355,44,12,45,034,39,04,41,144,43,24,40,226,27,1*7F
$GAGSV,2,2,07,11,39,317,33,19,32,068,19,25,29,292,32,1*46
$GBGSV,4,1,15,33,76,103,43,40,76,177,42,07,73,225,39,10,70,265,41,1*7F
$GBGSV,4,2,15,08,55,288,31,14,53,053,44,28,49,339,43,43,49,082,31,1*72
$GBGSV,4,3,15,13,47,273,33,41,38,201,43,42,28,042,31,11,26,098,,1*75
$GBGSV,4,4,15,37,11,257,,34,09,111,,23,09,209,,1*4A
$GBGSV,2,1,06,33,76,103,44,40,76,177,44,28,49,339,37,43,49,082,25,4*7C
$GBGSV,2,2,06,41,38,201,44,42,28,042,35,4*74
$GNGGA,042544.000,2500.7892400,N,12132.4472600,E,2,55,0.51,13.84,M,15.25,M,1,3335*7B
$GNRMC,042544.000,A,2500.7892400,N,12132.4472600,E,0.02,141.40,270623,,,D,V*0B
$GPHDT,,T*1B
$GNGGA,042544.200,2500.7892500,N,12132.4472700,E,2,55,0.51,13.85,M,15.25,M,1,3335*78
$GNRMC,042544.200,A,2500.7892500,N,12132.4472700,E,0.00,141.40,270623,,,D,V*0B
$GPHDT,,T*1B
$GNGGA,042544.400,2500.7892500,N,12132.4472900,E,2,56,0.49,13.86,M,15.25,M,1,3335*79
$GNRMC,042544.400,A,2500.7892500,N,12132.4472900,E,0.02,141.40,270623,,,D,V*01
$GPHDT,,T*1B
$GNGGA,042544.600,2500.7892600,N,12132.4472700,E,2,55,0.49,13.88,M,15.25,M,1,3335*7B
$GNRMC,042544.600,A,2500.7892600,N,12132.4472700,E,0.02,141.40,270623,,,D,V*0E
$GPHDT,,T*1B
$GNGGA,042544.800,2500.7892700,N,12132.4472700,E,2,56,0.49,13.89,M,15.25,M,0,3335*77
$GNRMC,042544.800,A,2500.7892700,N,12132.4472700,E,0.01,141.40,270623,,,D,V*02
$GPHDT,,T*1B
$GNGSA,A,3,19,195,196,199,17,06,20,09,11,194,12,04,0.81,0.49,0.65,1*0C
$GNGSA,A,3,14,,,,,,,,,,,,0.81,0.49,0.65,1*03
$GNGSA,A,3,68,83,82,67,69,,,,,,,,0.81,0.49,0.65,2*04
$GNGSA,A,3,10,12,04,24,11,19,25,,,,,,0.81,0.49,0.65,3*0B
$GNGSA,A,3,33,40,07,10,08,14,43,28,13,41,42,,0.81,0.49,0.65,4*00
$GPGSV,4,1,15,19,71,076,40,195,69,050,40,196,69,119,37,50,60,167,32,1*63
$GPGSV,4,2,15,199,60,167,31,17,56,113,40,06,49,007,46,20,42,247,42,1*5C
$GPGSV,4,3,15,09,37,083,29,11,35,304,33,194,34,173,35,12,23,304,20,1*54
$GPGSV,4,4,15,05,17,231,,04,17,055,27,14,10,171,17,1*51
$GPGSV,2,1,07,196,69,119,44,195,69,050,44,199,60,167,43,06,49,007,48,8*56
$GPGSV,2,2,07,09,37,083,30,11,35,304,13,04,17,055,21,8*5D
$GLGSV,2,1,06,68,68,116,42,83,40,005,35,82,35,064,25,67,34,038,31,1*77
$GLGSV,2,2,06,69,30,184,31,80,09,215,,1*7A
$GAGSV,3,1,10,10,50,355,42,12,45,034,37,04,41,144,42,24,40,226,28,7*78
$GAGSV,3,2,10,11,39,317,30,19,32,068,23,25,29,292,28,09,10,188,,7*7F
$GAGSV,3,3,10,33,09,078,15,36,04,282,,7*79
$GAGSV,2,1,07,10,50,355,44,12,45,034,39,04,41,144,43,24,40,226,27,1*7F
$GAGSV,2,2,07,11,39,317,33,19,32,068,18,25,29,292,32,1*47
$GBGSV,4,1,15,33,76,103,43,40,76,177,42,07,73,225,39,10,70,265,41,1*7F
$GBGSV,4,2,15,08,55,288,31,14,53,053,44,43,49,082,30,28,49,339,43,1*73
$GBGSV,4,3,15,13,47,273,34,41,38,201,43,42,28,042,30,11,26,098,15,1*77
$GBGSV,4,4,15,37,11,257,,34,09,111,,23,09,209,,1*4A
$GBGSV,2,1,06,33,76,103,44,40,76,177,44,28,49,339,37,43,49,082,23,4*7A
$GBGSV,2,2,06,41,38,201,44,42,28,042,34,4*75
$GNGGA,042545.000,2500.7892800,N,12132.4472900,E,2,56,0.49,13.90,M,15.25,M,1,3335*76
$GNRMC,042545.000,A,2500.7892800,N,12132.4472900,E,0.00,141.40,270623,,,D,V*0B
$GPHDT,,T*1B
$GNGGA,042545.200,2500.7892800,N,12132.4472900,E,2,56,0.49,13.91,M,15.25,M,1,3335*75
$GNRMC,042545.200,A,2500.7892800,N,12132.4472900,E,0.01,141.40,270623,,,D,V*08
$GPHDT,,T*1B
$GNGGA,042545.400,2500.7892900,N,12132.4473000,E,2,56,0.49,13.92,M,15.25,M,1,3335*79
$GNRMC,042545.400,A,2500.7892900,N,12132.4473000,E,0.01,141.40,270623,,,D,V*07
$GPHDT,,T*1B
$GNGGA,042545.600,2500.7893000,N,12132.4473000,E,2,56,0.49,13.93,M,15.25,M,1,3335*72
$GNRMC,042545.600,A,2500.7893000,N,12132.4473000,E,0.01,141.40,270623,,,D,V*0D
$GPHDT,,T*1B
$GNGGA,042545.800,2500.7893100,N,12132.4473000,E,2,56,0.49,13.94,M,15.25,M,0,3335*7B
$GNRMC,042545.800,A,2500.7893100,N,12132.4473000,E,0.02,141.40,270623,,,D,V*01
$GPHDT,,T*1B
$GNGSA,A,3,19,195,196,199,17,06,20,09,11,194,12,04,0.81,0.49,0.65,1*0C
$GNGSA,A,3,14,,,,,,,,,,,,0.81,0.49,0.65,1*03
$GNGSA,A,3,68,83,82,67,69,,,,,,,,0.81,0.49,0.65,2*04
$GNGSA,A,3,10,12,04,24,11,19,25,,,,,,0.81,0.49,0.65,3*0B
$GNGSA,A,3,33,40,07,10,08,14,43,28,13,41,42,,0.81,0.49,0.65,4*00
$GPGSV,4,1,15,19,71,077,40,195,69,050,38,196,69,119,37,50,60,167,31,1*6E
$GPGSV,4,2,15,199,60,167,31,17,56,113,40,06,49,007,46,20,42,247,42,1*5C
$GPGSV,4,3,15,09,37,083,29,11,35,304,33,194,34,173,35,12,23,304,17,1*50
$GPGSV,4,4,15,05,17,231,,04,17,055,27,14,10,171,17,1*51
$GPGSV,2,1,07,196,69,119,44,195,69,050,44,199,60,167,43,06,49,007,49,8*57
$GPGSV,2,2,07,09,37,083,31,11,35,304,14,04,17,055,21,8*5B
$GLGSV,2,1,07,68,68,116,42,83,40,005,35,82,35,064,27,67,34,038,31,1*74
$GLGSV,2,2,07,69,30,184,32,80,09,215,,84,06,310,,1*40
$GAGSV,3,1,09,10,50,355,42,12,45,034,37,04,41,144,42,24,40,226,29,7*71
$GAGSV,3,2,09,11,39,317,30,19,32,068,23,25,29,292,28,33,09,078,15,7*7C
$GAGSV,3,3,09,36,04,282,,7*43
$GAGSV,2,1,07,10,50,355,44,12,45,034,39,04,41,144,43,24,40,226,27,1*7F
$GAGSV,2,2,07,11,39,317,33,19,32,068,17,25,29,292,32,1*48
$GBGSV,4,1,15,33,76,103,42,40,76,177,42,07,73,225,39,10,70,265,41,1*7E
$GBGSV,4,2,15,08,55,288,30,14,53,053,44,43,49,082,29,28,49,339,43,1*7A
$GBGSV,4,3,15,13,47,273,33,41,38,201,43,42,28,042,30,11,26,098,14,1*71
$GBGSV,4,4,15,37,11,257,,34,09,111,,23,09,209,,1*4A
$GBGSV,2,1,06,33,76,103,44,40,76,177,44,28,49,339,38,43,49,082,26,4*70
$GBGSV,2,2,06,41,38,201,45,42,28,042,34,4*74
$GNGGA,042546.000,2500.7893300,N,12132.4473100,E,2,56,0.49,13.95,M,15.25,M,1,3335*73
$GNRMC,042546.000,A,2500.7893300,N,12132.4473100,E,0.03,141.40,270623,,,D,V*08
$GPHDT,,T*1B
$GNGGA,042546.200,2500.7893400,N,12132.4473200,E,2,57,0.49,13.96,M,15.25,M,1,3335*77
$GNRMC,042546.200,A,2500.7893400,N,12132.4473200,E,0.02,141.40,270623,,,D,V*0F
$GPHDT,,T*1B
$GNGGA,042546.400,2500.7893400,N,12132.4473200,E,2,57,0.49,13.96,M,15.25,M,1,3335*71
$GNRMC,042546.400,A,2500.7893400,N,12132.4473200,E,0.01,141.40,270623,,,D,V*0A
$GPHDT,,T*1B
$GNGGA,042546.600,2500.7893500,N,12132.4473300,E,2,56,0.49,13.97,M,15.25,M,1,3335*73
$GNRMC,042546.600,A,2500.7893500,N,12132.4473300,E,0.02,141.40,270623,,,D,V*0B
$GPHDT,,T*1B
$GNGGA,042546.800,2500.7893600,N,12132.4473500,E,2,56,0.49,13.98,M,15.25,M,0,3335*76
$GNRMC,042546.800,A,2500.7893600,N,12132.4473500,E,0.02,141.40,270623,,,D,V*00
$GPHDT,,T*1B
$GNGSA,A,3,19,195,196,199,17,06,20,09,11,194,12,04,0.81,0.49,0.65,1*0C
$GNGSA,A,3,14,,,,,,,,,,,,0.81,0.49,0.65,1*03
$GNGSA,A,3,68,83,82,67,69,,,,,,,,0.81,0.49,0.65,2*04
$GNGSA,A,3,10,12,04,24,11,19,25,,,,,,0.81,0.49,0.65,3*0B
$GNGSA,A,3,33,40,07,10,08,14,43,28,13,41,42,,0.81,0.49,0.65,4*00
$GPGSV,4,1,15,19,71,077,41,195,69,050,38,196,69,119,37,50,60,167,33,1*6D
$GPGSV,4,2,15,199,60,167,31,17,56,113,40,06,49,007,46,20,42,247,42,1*5C
$GPGSV,4,3,15,09,37,083,29,11,35,304,32,194,34,173,33,12,23,304,15,1*55
$GPGSV,4,4,15,05,17,231,,04,17,055,27,14,10,171,18,1*5E
$GPGSV,2,1,08,195,69,050,44,196,69,119,44,199,60,167,43,06,49,007,49,8*58
$GPGSV,2,2,08,09,37,083,31,11,35,304,12,194,34,173,31,04,17,055,20,8*5F
$GLGSV,2,1,07,68,68,116,42,83,40,005,35,82,35,064,28,67,34,038,32,1*78
$GLGSV,2,2,07,69,30,184,31,73,18,268,,80,09,215,,1*4A
$GAGSV,3,1,09,10,50,355,42,12,45,034,37,04,41,144,42,24,40,226,29,7*71
$GAGSV,3,2,09,11,39,317,30,19,32,068,23,25,29,292,26,33,09,078,16,7*71
$GAGSV,3,3,09,36,04,282,,7*43
$GAGSV,2,1,07,10,50,355,44,12,45,034,39,04,41,144,43,24,40,226,27,1*7F
$GAGSV,2,2,07,11,39,317,32,19,32,068,16,25,29,292,32,1*48
$GBGSV,4,1,15,33,76,103,42,40,76,177,43,07,73,225,39,10,70,265,41,1*7F
$GBGSV,4,2,15,08,55,288,31,14,53,053,44,43,49,082,29,28,49,339,43,1*7B
$GBGSV,4,3,15,13,47,273,34,41,38,201,43,42,28,042,31,11,26,098,16,1*75
$GBGSV,4,4,15,37,11,257,,34,09,111,,23,09,209,,1*4A
$GBGSV,2,1,06,33,76,103,44,40,76,177,44,28,49,339,38,43,49,082,24,4*72
$GBGSV,2,2,06,41,38,201,45,42,28,042,34,4*74
$GNGGA,042547.000,2500.7893700,N,12132.4473300,E,2,56,0.49,13.99,M,15.25,M,1,3335*78
$GNRMC,042547.000,A,2500.7893700,N,12132.4473300,E,0.01,141.40,270623,,,D,V*0D
$GPHDT,,T*1B
$GNGGA,042547.200,2500.7893800,N,12132.4473400,E,2,55,0.49,14.00,M,15.25,M,1,3335*76
$GNRMC,042547.200,A,2500.7893800,N,12132.4473400,E,0.00,141.40,270623,,,D,V*06
$GPHDT,,T*1B
$GNGGA,042547.400,2500.7893900,N,12132.4473400,E,2,55,0.49,14.01,M,15.25,M,1,3335*70
$GNRMC,042547.400,A,2500.7893900,N,12132.4473400,E,0.02,141.40,270623,,,D,V*03
$GPHDT,,T*1B
$GNGGA,042547.600,2500.7894000,N,12132.4473500,E,2,55,0.49,14.02,M,15.25,M,1,3335*7E
$GNRMC,042547.600,A,2500.7894000,N,12132.4473500,E,0.03,141.40,270623,,,D,V*0F
$GPHDT,,T*1B
$GNGGA,042547.800,2500.7894100,N,12132.4473600,E,2,55,0.49,14.02,M,15.25,M,0,3335*73
$GNRMC,042547.800,A,2500.7894100,N,12132.4473600,E,0.02,141.40,270623,,,D,V*02
$GPHDT,,T*1B
$GNGSA,A,3,19,195,196,199,17,06,20,09,11,194,12,04,0.81,0.49,0.65,1*0C
$GNGSA,A,3,14,,,,,,,,,,,,0.81,0.49,0.65,1*03
$GNGSA,A,3,68,83,82,67,69,,,,,,,,0.81,0.49,0.65,2*04
$GNGSA,A,3,10,12,04,24,11,19,25,,,,,,0.81,0.49,0.65,3*0B
$GNGSA,A,3,33,40,07,10,08,14,28,43,13,41,42,,0.81,0.49,0.65,4*00
$GPGSV,4,1,15,19,71,077,41,195,69,050,38,196,69,119,37,199,60,167,31,1*5B
$GPGSV,4,2,15,50,60,167,33,17,56,113,40,06,49,007,46,20,42,247,42,1*6A
$GPGSV,4,3,15,09,37,083,30,11,35,304,33,194,34,173,35,12,23,304,16,1*59
$GPGSV,4,4,15,04,17,055,29,05,17,231,,14,10,171,18,1*50
$GPGSV,2,1,07,195,69,050,44,196,69,119,44,199,60,167,43,06,49,007,49,8*57
$GPGSV,2,2,07,09,37,083,31,11,35,304,12,04,17,055,21,8*5D
$GLGSV,2,1,07,68,68,116,40,83,40,005,35,82,35,064,25,67,34,038,34,1*71
$GLGSV,2,2,07,69,30,184,30,73,18,268,,80,09,215,,1*4B
$GAGSV,3,1,10,10,50,355,42,12,45,034,37,04,41,144,42,24,40,226,29,7*79
$GAGSV,3,2,10,11,39,317,30,19,32,068,22,25,29,292,24,09,10,188,,7*72
$GAGSV,3,3,10,33,09,078,14,36,04,282,,7*78
$GAGSV,2,1,08,10,50,355,44,12,45,034,39,04,41,144,42,24,40,226,27,1*71
$GAGSV,2,2,08,11,39,317,32,19,32,068,17,25,29,292,30,33,09,078,17,1*74
$GBGSV,4,1,15,33,76,103,41,40,76,177,43,07,73,225,39,10,70,265,41,1*7C
$GBGSV,4,2,15,08,55,288,30,14,53,053,44,28,49,339,43,43,49,082,28,1*7B
$GBGSV,4,3,15,13,47,273,33,41,38,201,43,42,28,042,33,11,26,098,17,1*71
$GBGSV,4,4,15,37,11,257,,34,09,111,,23,09,209,,1*4A
$GBGSV,2,1,06,33,76,103,44,40,76,177,44,28,49,339,38,43,49,082,23,4*75
$GBGSV,2,2,06,41,38,201,45,42,28,042,34,4*74
$GNGGA,042548.000,2500.7894200,N,12132.4473800,E,2,55,0.49,14.03,M,15.25,M,1,3335*79
$GNRMC,042548.000,A,2500.7894200,N,12132.4473800,E,0.03,141.40,270623,,,D,V*09
$GPHDT,,T*1B
$GNGGA,042548.200,2500.7894300,N,12132.4473900,E,2,55,0.49,14.04,M,15.25,M,1,3335*7C
$GNRMC,042548.200,A,2500.7894300,N,12132.4473900,E,0.01,141.40,270623,,,D,V*09
$GPHDT,,T*1B
$GNGGA,042548.400,2500.7894400,N,12132.4474000,E,2,56,0.49,14.05,M,15.25,M,1,3335*71
$GNRMC,042548.400,A,2500.7894400,N,12132.4474000,E,0.02,141.40,270623,,,D,V*05
$GPHDT,,T*1B
$GNGGA,042548.600,2500.7894600,N,12132.4473900,E,2,55,0.49,14.06,M,15.25,M,0,3335*7E
$GNRMC,042548.600,A,2500.7894600,N,12132.4473900,E,0.02,141.40,270623,,,D,V*0B
$GPHDT,,T*1B
$GNGGA,042548.800,2500.7894700,N,12132.4474100,E,2,55,0.49,14.07,M,15.25,M,0,3335*7F
$GNRMC,042548.800,A,2500.7894700,N,12132.4474100,E,0.02,141.40,270623,,,D,V*0B
$GPHDT,,T*1B
$GNGSA,A,3,19,195,196,199,17,06,20,09,11,194,12,04,0.81,0.49,0.65,1*0C
$GNGSA,A,3,14,,,,,,,,,,,,0.81,0.49,0.65,1*03
$GNGSA,A,3,68,83,82,67,69,,,,,,,,0.81,0.49,0.65,2*04
$GNGSA,A,3,10,12,04,24,11,19,25,,,,,,0.81,0.49,0.65,3*0B
$GNGSA,A,3,33,40,07,10,08,14,28,13,41,42,43,,0.81,0.49,0.65,4*00
$GPGSV,4,1,15,19,71,077,41,195,69,050,38,196,69,119,37,50,60,167,32,1*6C
$GPGSV,4,2,15,199,60,167,30,17,56,113,40,06,49,007,46,20,42,247,42,1*5D
$GPGSV,4,3,15,09,37,083,29,11,35,304,32,194,34,173,36,12,23,304,16,1*53
$GPGSV,4,4,15,05,17,231,15,04,17,055,27,14,10,171,18,1*5A
$GPGSV,2,1,07,195,69,050,44,196,69,119,45,199,60,167,43,06,49,007,49,8*56
$GPGSV,2,2,07,09,37,083,30,11,35,304,12,04,17,055,21,8*5C
$GLGSV,2,1,06,68,68,116,40,83,40,005,35,82,35,064,21,67,34,038,33,1*73
$GLGSV,2,2,06,69,30,184,29,73,18,268,,1*75
$GAGSV,3,1,09,10,50,355,42,12,45,034,37,04,41,144,42,24,40,226,29,7*71
$GAGSV,3,2,09,11,39,317,28,19,32,068,21,25,29,292,24,33,09,078,15,7*7B
$GAGSV,3,3,09,36,04,282,,7*43
$GAGSV,2,1,08,10,50,355,45,12,45,034,39,04,41,144,41,24,40,226,26,1*72
$GAGSV,2,2,08,11,39,317,31,19,32,068,17,25,29,292,30,33,09,078,16,1*76
$GBGSV,4,1,15,33,76,103,41,40,76,177,43,07,73,225,39,10,70,265,41,1*7C
$GBGSV,4,2,15,08,55,288,28,14,53,053,44,28,49,339,43,43,49,082,,1*78
$GBGSV,4,3,15,13,47,273,33,41,38,201,43,42,28,042,34,11,26,098,21,1*73
$GBGSV,4,4,15,37,11,257,,34,09,111,,23,09,209,,1*4A
$GBGSV,2,1,06,33,76,103,44,40,76,177,44,28,49,339,38,43,49,082,21,4*77
$GBGSV,2,2,06,41,38,201,45,42,28,042,34,4*74
$GNGGA,042549.000,2500.7894900,N,12132.4474200,E,2,54,0.49,14.08,M,15.25,M,1,3335*74
$GNRMC,042549.000,A,2500.7894900,N,12132.4474200,E,0.03,141.40,270623,,,D,V*0E
$GPHDT,,T*1B
$GNGGA,042549.200,2500.7894900,N,12132.4474400,E,2,56,0.49,14.09,M,15.25,M,1,3335*73
$GNRMC,042549.200,A,2500.7894900,N,12132.4474400,E,0.02,141.40,270623,,,D,V*0B
$GPHDT,,T*1B
$GNGGA,042549.400,2500.7895000,N,12132.4474500,E,2,54,0.49,14.10,M,15.25,M,1,3335*76
$GNRMC,042549.400,A,2500.7895000,N,12132.4474500,E,0.01,141.40,270623,,,D,V*07
$GPHDT,,T*1B
$GNGGA,042549.600,2500.7895100,N,12132.4474700,E,2,54,0.49,14.11,M,15.25,M,0,3335*77
$GNRMC,042549.600,A,2500.7895100,N,12132.4474700,E,0.01,141.40,270623,,,D,V*06
$GPHDT,,T*1B
$GNGGA,042549.800,2500.7895200,N,12132.4474800,E,2,54,0.49,14.12,M,15.25,M,0,3335*76
$GNRMC,042549.800,A,2500.7895200,N,12132.4474800,E,0.01,141.40,270623,,,D,V*04
