$FW : RTK35X,V1.1X0314AS,Lib20210517,1*54
$Tool : LOCOSYS , GNSS Firebird , v1.0.0.19*39
$---------------------------------------------------*2D
12,23,303,16,1*5E
$GPGSV,4,4,15,05,17,231,,04,17,054,27,14,09,171,,1*5E
$GPGSV,2,1,08,195,69,051,46,196,69,118,45,199,60,167,43,06,49,008,48,8*55
$GPGSV,2,2,08,09,37,082,31,11,35,305,30,194,33,173,33,04,17,054,26,8*5D
$GLGSV,2,1,07,68,69,113,38,83,41,006,33,82,35,065,18,67,33,037,31,1*7C
$GLGSV,2,2,07,69,32,185,44,73,17,267,,80,09,215,,1*4B
$GAGSV,3,1,09,10,50,356,40,12,44,035,34,04,42,143,39,11,39,318,31,7*76
$GAGSV,3,2,09,24,39,225,28,19,32,067,21,25,29,291,30,09,11,188,,7*7E
$GAGSV,3,3,09,33,09,078,24,7*4A
$GAGSV,2,1,07,10,50,356,45,12,44,035,36,04,42,143,39,11,39,318,36,1*7F
$GAGSV,2,2,07,24,39,225,27,25,29,291,26,33,09,078,21,1*49
$GBGSV,4,1,14,33,76,099,43,40,75,177,45,07,73,224,39,10,70,264,39,1*77
$GBGSV,4,2,14,08,55,289,30,14,52,052,40,28,49,340,42,43,49,083,31,1*79
$GBGSV,4,3,14,13,47,274,26,41,39,201,36,42,27,042,29,11,25,099,27,1*75
$GBGSV,4,4,14,37,10,257,,23,09,208,,1*74
$GBGSV,2,1,06,33,76,099,47,40,75,177,46,28,49,340,41,43,49,083,27,4*70
$GBGSV,2,2,06,41,39,201,47,42,27,042,28,4*75
$GNGGA,042746.000,2500.7895100,N,12132.4461300,E,2,56,0.50,16.17,M,15.25,M,1,3335*73
$GNRMC,042746.000,A,2500.7895100,N,12132.4461300,E,0.06,141.40,270623,,,D,V*0A
$GPHDT,,T*1B
$GNGGA,042746.200,2500.7895100,N,12132.4461200,E,2,55,0.50,16.18,M,15.25,M,1,3335*7C
$GNRMC,042746.200,A,2500.7895100,N,12132.4461200,E,0.06,141.40,270623,,,D,V*09
$GPHDT,,T*1B
$GNGGA,042746.400,2500.7895000,N,12132.4461200,E,2,54,0.50,16.18,M,15.25,M,1,3335*7A
$GNRMC,042746.400,A,2500.7895000,N,12132.4461200,E,0.06,141.40,270623,,,D,V*0E
$GPHDT,,T*1B
$GNGGA,042746.600,2500.7895000,N,12132.4461200,E,2,56,0.50,16.16,M,15.25,M,1,3335*74
$GNRMC,042746.600,A,2500.7895000,N,12132.4461200,E,0.05,141.40,270623,,,D,V*0F
$GPHDT,,T*1B
$GNGGA,042746.800,2500.7895000,N,12132.4461100,E,2,56,0.50,16.17,M,15.25,M,0,3335*79
$GNRMC,042746.800,A,2500.7895000,N,12132.4461100,E,0.05,141.40,270623,,,D,V*02
$GPHDT,,T*1B
$GNGSA,A,3,19,196,195,199,17,06,20,09,11,194,04,,1.12,0.52,0.99,1*0D
$GNGSA,A,3,68,83,82,67,69,,,,,,,,1.12,0.52,0.99,2*06
$GNGSA,A,3,10,12,04,24,11,19,25,,,,,,1.12,0.52,0.99,3*09
$GNGSA,A,3,33,40,07,10,08,14,43,28,13,41,42,11,1.12,0.52,0.99,4*02
$GPGSV,4,1,15,19,71,079,41,196,69,118,42,195,69,051,40,199,60,167,31,1*58
$GPGSV,4,2,15,50,60,167,33,17,55,114,38,06,49,008,42,20,42,248,41,1*66
$GPGSV,4,3,15,09,37,082,29,11,35,305,31,194,33,173,38,12,23,303,17,1*5F
$GPGSV,4,4,15,04,17,054,22,05,17,231,,14,09,171,,1*5B
$GPGSV,2,1,08,195,69,051,45,196,69,118,46,199,60,167,43,06,49,008,48,8*55
$GPGSV,2,2,08,09,37,082,24,11,35,305,33,194,33,173,30,04,17,054,27,8*58
$GLGSV,2,1,07,68,69,113,38,83,41,006,32,82,35,065,18,67,33,037,33,1*7F
$GLGSV,2,2,07,69,32,185,43,80,09,215,,84,06,311,,1*44
$GAGSV,3,1,10,10,50,356,41,12,44,035,34,04,42,143,38,24,39,225,27,7*70
$GAGSV,3,2,10,11,39,318,39,19,32,067,20,25,29,291,29,09,11,188,,7*76
$GAGSV,3,3,10,33,09,078,22,36,04,283,,7*7C
$GAGSV,2,1,07,10,50,356,46,12,44,035,36,04,42,143,40,11,39,318,39,1*7D
$GAGSV,2,2,07,24,39,225,26,25,29,291,25,33,09,078,19,1*40
$GBGSV,4,1,14,33,76,099,43,40,75,178,44,07,73,224,34,10,70,264,34,1*79
$GBGSV,4,2,14,08,55,289,30,14,52,052,40,43,49,083,30,28,49,340,45,1*7F
$GBGSV,4,3,14,13,47,274,23,41,39,201,40,42,27,042,32,11,25,099,26,1*7A
$GBGSV,4,4,14,37,10,257,,23,09,208,,1*74
$GBGSV,2,1,06,33,76,099,47,40,75,178,44,28,49,340,42,43,49,083,29,4*70
$GBGSV,2,2,06,41,39,201,46,42,27,042,27,4*7B
$GNGGA,042747.000,2500.7894900,N,12132.4461100,E,2,55,0.52,16.18,M,15.25,M,1,3335*77
$GNRMC,042747.000,A,2500.7894900,N,12132.4461100,E,0.05,141.40,270623,,,D,V*03
$GPHDT,,T*1B
$GNGGA,042747.200,2500.7894900,N,12132.4461000,E,2,55,0.52,16.19,M,15.25,M,1,3335*75
$GNRMC,042747.200,A,2500.7894900,N,12132.4461000,E,0.05,141.40,270623,,,D,V*00
$GPHDT,,T*1B
$GNGGA,042747.400,2500.7894800,N,12132.4461000,E,2,55,0.52,16.20,M,15.25,M,1,3335*78
$GNRMC,042747.400,A,2500.7894800,N,12132.4461000,E,0.05,141.40,270623,,,D,V*07
$GPHDT,,T*1B
$GNGGA,042747.600,2500.7894800,N,12132.4461000,E,2,53,0.52,16.21,M,15.25,M,0,3335*7C
$GNRMC,042747.600,A,2500.7894800,N,12132.4461000,E,0.05,141.40,270623,,,D,V*05
$GPHDT,,T*1B
$GNGGA,042747.800,2500.7894700,N,12132.4461000,E,2,55,0.52,16.20,M,15.25,M,0,3335*7A
$GNRMC,042747.800,A,2500.7894700,N,12132.4461000,E,0.05,141.40,270623,,,D,V*04
$GPHDT,,T*1B
$GNGSA,A,3,19,196,195,199,17,06,20,09,11,194,04,,1.12,0.52,0.99,1*0D
$GNGSA,A,3,68,83,82,67,69,,,,,,,,1.12,0.52,0.99,2*06
$GNGSA,A,3,10,12,04,24,11,19,25,,,,,,1.12,0.52,0.99,3*09
$GNGSA,A,3,33,40,07,10,08,14,43,28,13,41,42,11,1.12,0.52,0.99,4*02
$GPGSV,4,1,15,19,71,079,42,196,69,118,42,195,69,051,40,199,60,167,31,1*5B
$GPGSV,4,2,15,50,60,167,34,17,55,114,39,06,49,008,42,20,42,248,43,1*62
$GPGSV,4,3,15,09,37,082,31,11,35,305,32,194,33,173,39,12,23,303,14,1*57
$GPGSV,4,4,15,04,17,054,26,05,17,231,,14,09,171,,1*5F
$GPGSV,2,1,08,195,69,051,45,196,69,118,46,199,60,167,43,06,49,008,48,8*55
$GPGSV,2,2,08,09,37,082,27,11,35,305,35,194,33,173,31,04,17,054,25,8*5E
$GLGSV,2,1,07,68,69,113,38,83,41,006,31,82,35,065,20,67,33,037,25,1*70
$GLGSV,2,2,07,69,32,185,43,80,09,215,,84,06,311,,1*44
$GAGSV,3,1,10,10,50,356,41,12,44,035,34,04,42,143,37,24,39,225,24,7*7C
$GAGSV,3,2,10,11,39,318,39,19,32,067,20,25,29,291,29,09,11,188,,7*76
$GAGSV,3,3,10,33,09,078,24,36,04,283,,7*7A
$GAGSV,2,1,07,10,50,356,46,12,44,035,36,04,42,143,40,11,39,318,41,1*72
$GAGSV,2,2,07,24,39,225,23,25,29,291,24,33,09,078,21,1*4F
$GBGSV,4,1,14,33,76,099,44,40,75,178,44,07,73,224,34,10,70,264,38,1*72
$GBGSV,4,2,14,08,55,289,32,14,52,052,40,43,49,084,29,28,49,340,46,1*71
$GBGSV,4,3,14,13,47,274,26,41,39,201,34,42,27,042,29,11,25,099,29,1*79
$GBGSV,4,4,14,37,10,257,,23,09,208,,1*74
$GBGSV,2,1,06,33,76,099,47,40,75,178,44,28,49,340,42,43,49,084,30,4*7F
$GBGSV,2,2,06,41,39,201,43,42,27,042,28,4*71
$GNGGA,042748.000,2500.7894700,N,12132.4461000,E,2,55,0.52,16.21,M,15.25,M,1,3335*7D
$GNRMC,042748.000,A,2500.7894700,N,12132.4461000,E,0.05,141.40,270623,,,D,V*03
$GPHDT,,T*1B
$GNGGA,042748.200,2500.7894700,N,12132.4461000,E,2,55,0.52,16.21,M,15.25,M,1,3335*7F
$GNRMC,042748.200,A,2500.7894700,N,12132.4461000,E,0.05,141.40,270623,,,D,V*01
$GPHDT,,T*1B
$GNGGA,042748.400,2500.7894700,N,12132.4461000,E,2,54,0.52,16.23,M,15.25,M,1,3335*7A
$GNRMC,042748.400,A,2500.7894700,N,12132.4461000,E,0.04,141.40,270623,,,D,V*06
$GPHDT,,T*1B
$GNGGA,042748.600,2500.7894600,N,12132.4461000,E,2,54,0.52,16.23,M,15.25,M,0,3335*78
$GNRMC,042748.600,A,2500.7894600,N,12132.4461000,E,0.04,141.40,270623,,,D,V*05
$GPHDT,,T*1B
$GNGGA,042748.800,2500.7894600,N,12132.4461000,E,2,54,0.52,16.24,M,15.25,M,0,3335*71
$GNRMC,042748.800,A,2500.7894600,N,12132.4461000,E,0.04,141.40,270623,,,D,V*0B
$GPHDT,,T*1B
$GNGSA,A,3,19,195,196,199,17,06,20,09,11,194,04,,1.12,0.52,0.99,1*0D
$GNGSA,A,3,68,83,82,67,69,,,,,,,,1.12,0.52,0.99,2*06
$GNGSA,A,3,10,12,04,11,24,19,25,,,,,,1.12,0.52,0.99,3*09
$GNGSA,A,3,33,40,07,10,08,14,28,43,13,41,11,42,1.12,0.52,0.99,4*02
$GPGSV,4,1,15,19,71,079,42,195,69,051,40,196,69,118,42,50,60,167,34,1*6A
$GPGSV,4,2,15,199,60,167,32,17,55,114,37,06,49,008,40,20,42,248,45,1*5A
$GPGSV,4,3,15,09,37,082,32,11,35,305,32,194,33,173,40,12,23,303,18,1*56
$GPGSV,4,4,15,05,17,231,,04,17,054,28,14,09,171,,1*51
$GPGSV,2,1,08,195,69,051,45,196,69,118,45,199,60,167,43,06,49,008,48,8*56
$GPGSV,2,2,08,09,37,082,27,11,35,305,34,194,33,173,32,04,17,054,25,8*5C
$GLGSV,2,1,06,68,69,113,38,83,41,006,30,82,35,065,22,67,33,037,30,1*76
$GLGSV,2,2,06,69,32,185,43,80,09,215,,1*7C
$GAGSV,3,1,10,10,50,356,41,12,44,035,33,04,42,143,37,11,39,318,39,7*7E
$GAGSV,3,2,10,24,39,225,21,19,32,067,19,25,29,291,29,09,11,188,,7*7C
$GAGSV,3,3,10,33,09,078,25,36,04,283,,7*7B
$GAGSV,2,1,07,10,50,356,47,12,44,035,37,04,42,143,40,11,39,318,41,1*72
$GAGSV,2,2,07,24,39,225,20,25,29,291,24,33,09,078,21,1*4C
$GBGSV,4,1,14,33,76,099,43,40,75,178,44,07,73,224,35,10,70,264,39,1*75
$GBGSV,4,2,14,08,55,289,32,14,52,052,40,28,49,340,46,43,49,084,31,1*78
$GBGSV,4,3,14,13,47,274,23,41,39,201,36,42,27,042,,11,25,099,31,1*7C
$GBGSV,4,4,14,37,10,257,,23,09,208,,1*74
$GBGSV,2,1,06,33,76,099,47,40,75,178,45,28,49,340,44,43,49,084,29,4*70
$GBGSV,2,2,06,41,39,201,43,42,27,042,29,4*70
$GNGGA,042749.000,2500.7894600,N,12132.4460900,E,2,54,0.52,16.24,M,15.25,M,1,3335*71
$GNRMC,042749.000,A,2500.7894600,N,12132.4460900,E,0.04,141.40,270623,,,D,V*0A
$GPHDT,,T*1B
$GNGGA,042749.200,2500.7894700,N,12132.4460900,E,2,53,0.52,16.25,M,15.25,M,1,3335*74
$GNRMC,042749.200,A,2500.7894700,N,12132.4460900,E,0.04,141.40,270623,,,D,V*09
$GPHDT,,T*1B
$GNGGA,042749.400,2500.7894600,N,12132.4460900,E,2,54,0.52,16.25,M,15.25,M,1,3335*74
$GNRMC,042749.400,A,2500.7894600,N,12132.4460900,E,0.04,141.40,270623,,,D,V*0E
$GPHDT,,T*1B
$GNGGA,042749.600,2500.7894600,N,12132.4460900,E,2,55,0.50,16.27,M,15.25,M,0,3335*76
$GNRMC,042749.600,A,2500.7894600,N,12132.4460900,E,0.04,141.40,270623,,,D,V*0C
$GPHDT,,T*1B
$GNGGA,042749.800,2500.7894600,N,12132.4460900,E,2,55,0.50,16.27,M,15.25,M,0,3335*78
$GNRMC,042749.800,A,2500.7894600,N,12132.4460900,E,0.04,141.40,270623,,,D,V*02
$GPHDT,,T*1B
$GNGSA,A,3,19,195,196,199,17,06,20,09,11,194,12,04,1.07,0.50,0.95,1*04
$GNGSA,A,3,68,83,82,67,69,,,,,,,,1.07,0.50,0.95,2*0C
$GNGSA,A,3,10,12,04,24,11,19,25,,,,,,1.07,0.50,0.95,3*03
$GNGSA,A,3,33,40,07,10,08,14,28,43,13,41,42,11,1.07,0.50,0.95,4*08
$GPGSV,4,1,15,19,71,079,43,195,69,051,39,196,69,118,42,50,60,167,33,1*62
$GPGSV,4,2,15,199,60,167,32,17,55,114,37,06,49,008,40,20,42,248,46,1*59
$GPGSV,4,3,15,09,37,082,31,11,35,305,33,194,33,173,40,12,23,303,19,1*55
$GPGSV,4,4,15,05,17,231,,04,17,054,28,14,09,171,,1*51
$GPGSV,2,1,08,195,69,051,44,196,69,118,45,199,60,167,44,06,49,008,48,8*50
$GPGSV,2,2,08,09,37,082,26,11,35,305,34,194,33,173,31,04,17,054,25,8*5E
$GLGSV,2,1,05,68,69,113,38,83,41,006,30,82,35,065,24,67,33,037,36,1*75
$GLGSV,2,2,05,69,32,185,43,1*48
$GAGSV,3,1,10,10,50,356,41,12,44,035,33,04,42,143,37,24,39,225,19,7*75
$GAGSV,3,2,10,11,39,318,39,19,32,067,19,25,29,291,28,09,11,188,,7*7D
$GAGSV,3,3,10,33,09,078,25,36,04,283,,7*7B
$GAGSV,2,1,07,10,50,356,47,12,44,035,38,04,42,143,40,11,39,318,41,1*7D
$GAGSV,2,2,07,24,39,225,18,25,29,291,24,33,09,078,21,1*47
$GBGSV,4,1,14,33,76,099,43,40,75,178,45,07,73,224,37,10,70,264,40,1*78
$GBGSV,4,2,14,08,55,289,32,14,52,052,41,28,49,340,46,43,49,084,31,1*79
$GBGSV,4,3,14,13,47,274,24,41,39,201,37,42,27,042,31,11,25,099,31,1*78
$GBGSV,4,4,14,37,10,257,,23,09,208,,1*74
$GBGSV,2,1,06,33,76,099,47,40,75,178,45,28,49,340,44,43,49,084,24,4*7D
$GBGSV,2,2,06,41,39,201,43,42,27,042,29,4*70
$GNGGA,042750.000,2500.7894600,N,12132.4460900,E,2,56,0.50,16.28,M,15.25,M,1,3335*75
$GNRMC,042750.000,A,2500.7894600,N,12132.4460900,E,0.04,141.40,270623,,,D,V*02
$GPHDT,,T*1B
$GNGGA,042750.200,2500.7894600,N,12132.4460900,E,2,57,0.50,16.28,M,15.25,M,1,3335*76
$GNRMC,042750.200,A,2500.7894600,N,12132.4460900,E,0.04,141.40,270623,,,D,V*00
$GPHDT,,T*1B
$GNGGA,042750.400,2500.7894700,N,12132.4460900,E,2,57,0.50,16.29,M,15.25,M,1,3335*70
$GNRMC,042750.400,A,2500.7894700,N,12132.4460900,E,0.04,141.40,270623,,,D,V*07
$GPHDT,,T*1B
$GNGGA,042750.600,2500.7894700,N,12132.4460900,E,2,57,0.50,16.26,M,15.25,M,0,3335*7C
$GNRMC,042750.600,A,2500.7894700,N,12132.4460900,E,0.04,141.40,270623,,,D,V*05
$GPHDT,,T*1B
$GNGGA,042750.800,2500.7894700,N,12132.4460900,E,2,57,0.50,16.23,M,15.25,M,0,3335*77
$GNRMC,042750.800,A,2500.7894700,N,12132.4460900,E,0.04,141.40,270623,,,D,V*0B
$GPHDT,,T*1B
$GNGSA,A,3,19,195,196,199,17,06,20,09,11,194,12,04,0.85,0.50,0.69,1*0C
$GNGSA,A,3,68,83,82,67,69,,,,,,,,0.85,0.50,0.69,2*04
$GNGSA,A,3,10,12,04,11,24,19,25,,,,,,0.85,0.50,0.69,3*0B
$GNGSA,A,3,33,40,07,10,08,14,43,28,13,41,42,11,0.85,0.50,0.69,4*00
$GPGSV,4,1,15,19,71,079,43,195,69,051,39,196,69,118,42,50,60,167,35,1*64
$GPGSV,4,2,15,199,60,167,33,17,55,114,38,06,49,008,41,20,42,248,46,1*56
$GPGSV,4,3,15,09,37,082,31,11,35,305,32,194,33,173,40,12,23,303,18,1*55
$GPGSV,4,4,15,05,17,231,,04,17,054,28,14,09,171,,1*51
$GPGSV,2,1,08,195,69,051,43,196,69,118,45,199,60,167,44,06,49,008,48,8*57
$GPGSV,2,2,08,09,37,082,26,11,35,305,32,194,33,173,31,04,17,054,27,8*5A
$GLGSV,2,1,05,68,69,113,39,83,41,006,32,82,35,065,20,67,33,037,36,1*72
$GLGSV,2,2,05,69,32,185,43,1*48
$GAGSV,3,1,09,10,50,356,41,12,44,035,33,04,42,143,37,11,39,318,38,7*77
$GAGSV,3,2,09,24,39,225,19,19,32,067,19,25,29,291,29,33,09,078,24,7*77
$GAGSV,3,3,09,36,04,283,,7*42
$GAGSV,2,1,08,10,50,356,46,12,44,035,38,04,42,143,40,11,39,318,41,1*73
$GAGSV,2,2,08,24,39,225,17,19,32,067,16,25,29,291,24,33,09,078,20,1*79
$GBGSV,4,1,15,33,76,099,43,40,75,178,45,07,73,224,37,10,70,264,40,1*79
$GBGSV,4,2,15,08,55,289,31,14,52,052,41,43,49,084,30,28,49,340,44,1*78
$GBGSV,4,3,15,13,47,274,22,41,39,201,36,42,27,042,30,11,25,099,32,1*7C
$GBGSV,4,4,15,37,10,257,,34,09,112,,23,09,208,,1*49
$GBGSV,2,1,06,33,76,099,47,40,75,178,45,28,49,340,43,43,49,084,26,4*78
$GBGSV,2,2,06,41,39,201,43,42,27,042,27,4*7E
$GNGGA,042751.000,2500.7894700,N,12132.4460900,E,2,57,0.50,16.23,M,15.25,M,1,3335*7F
$GNRMC,042751.000,A,2500.7894700,N,12132.4460900,E,0.03,141.40,270623,,,D,V*05
$GPHDT,,T*1B
$GNGGA,042751.200,2500.7894700,N,12132.4460900,E,2,57,0.50,16.23,M,15.25,M,1,3335*7D
$GNRMC,042751.200,A,2500.7894700,N,12132.4460900,E,0.03,141.40,270623,,,D,V*07
$GPHDT,,T*1B
$GNGGA,042751.400,2500.7894700,N,12132.4460900,E,2,56,0.50,16.21,M,15.25,M,1,3335*78
$GNRMC,042751.400,A,2500.7894700,N,12132.4460900,E,0.02,141.40,270623,,,D,V*00
$GPHDT,,T*1B
$GNGGA,042751.600,2500.7894700,N,12132.4460900,E,2,54,0.51,16.20,M,15.25,M,1,3335*78
$GNRMC,042751.600,A,2500.7894700,N,12132.4460900,E,0.03,141.40,270623,,,D,V*03
$GPHDT,,T*1B
$GNGGA,042751.800,2500.7894700,N,12132.4460900,E,2,54,0.51,16.18,M,15.25,M,0,3335*7C
$GNRMC,042751.800,A,2500.7894700,N,12132.4460900,E,0.04,141.40,270623,,,D,V*0A
$GPHDT,,T*1B
$GNGSA,A,3,19,195,196,199,17,06,20,09,11,194,04,,0.87,0.51,0.70,1*04
$GNGSA,A,3,68,83,82,67,69,,,,,,,,0.87,0.51,0.70,2*0F
$GNGSA,A,3,10,12,04,11,24,19,25,,,,,,0.87,0.51,0.70,3*00
$GNGSA,A,3,33,40,07,10,08,14,28,43,13,41,11,42,0.87,0.51,0.70,4*0B
$GPGSV,4,1,15,19,71,079,43,195,69,051,40,196,69,118,42,50,60,167,35,1*6A
$GPGSV,4,2,15,199,60,167,32,17,55,114,38,06,49,008,42,20,42,248,46,1*54
$GPGSV,4,3,15,09,37,082,32,11,35,305,31,194,33,173,39,12,23,303,18,1*5B
$GPGSV,4,4,15,05,17,231,,04,17,054,29,14,09,171,,1*50
$GPGSV,2,1,07,195,69,051,44,196,69,118,45,199,60,167,44,06,49,008,47,8*50
$GPGSV,2,2,07,11,35,305,32,194,33,173,31,04,17,054,28,8*69
$GLGSV,2,1,07,68,69,113,40,83,41,006,33,82,35,065,17,67,33,037,36,1*7B
$GLGSV,2,2,07,69,32,185,44,73,17,267,,80,09,215,,1*4B
$GAGSV,3,1,09,10,50,356,40,12,44,035,34,04,42,143,37,11,39,318,38,7*71
$GAGSV,3,2,09,24,39,225,20,19,32,067,19,25,29,291,29,09,11,188,,7*75
$GAGSV,3,3,09,33,09,078,24,7*4A
$GAGSV,2,1,08,10,50,356,45,12,44,035,38,04,42,143,40,11,39,318,40,1*71
$GAGSV,2,2,08,24,39,225,16,19,32,067,14,25,29,291,25,33,09,078,20,1*7B
$GBGSV,4,1,13,33,76,099,44,40,75,178,45,07,73,224,37,10,70,264,40,1*78
$GBGSV,4,2,13,08,55,289,31,14,52,052,41,28,49,340,44,43,49,084,32,1*7C
$GBGSV,4,3,13,13,47,274,24,41,39,201,35,42,27,042,,11,25,099,31,1*7F
$GBGSV,4,4,13,37,10,257,,1*41
$GBGSV,2,1,06,33,76,099,46,40,75,178,45,28,49,340,43,43,49,084,28,4*77
$GBGSV,2,2,06,41,39,201,43,42,27,042,29,4*70
$GNGGA,042752.000,2500.7894700,N,12132.4460800,E,2,54,0.51,16.18,M,15.25,M,1,3335*77
$GNRMC,042752.000,A,2500.7894700,N,12132.4460800,E,0.03,141.40,270623,,,D,V*07
$GPHDT,,T*1B
$GNGGA,042752.200,2500.7894700,N,12132.4460700,E,2,55,0.51,16.19,M,15.25,M,1,3335*7A
$GNRMC,042752.200,A,2500.7894700,N,12132.4460700,E,0.01,141.40,270623,,,D,V*08
$GPHDT,,T*1B
$GNGGA,042752.400,2500.7894700,N,12132.4460700,E,2,55,0.50,16.19,M,15.25,M,1,3335*7D
$GNRMC,042752.400,A,2500.7894700,N,12132.4460700,E,0.02,141.40,270623,,,D,V*0D
$GPHDT,,T*1B
$GNGGA,042752.600,2500.7894700,N,12132.4460600,E,2,55,0.50,16.19,M,15.25,M,0,3335*7F
$GNRMC,042752.600,A,2500.7894700,N,12132.4460600,E,0.03,141.40,270623,,,D,V*0F
$GPHDT,,T*1B
$GNGGA,042752.800,2500.7895000,N,12132.4460600,E,2,55,0.50,16.20,M,15.25,M,0,3335*7D
$GNRMC,042752.800,A,2500.7895000,N,12132.4460600,E,0.03,141.40,270623,,,D,V*07
$GPHDT,,T*1B
$GNGSA,A,3,19,195,196,199,17,06,20,09,11,194,12,04,0.85,0.50,0.69,1*0C
$GNGSA,A,3,68,83,82,67,69,,,,,,,,0.85,0.50,0.69,2*04
$GNGSA,A,3,10,12,04,11,24,19,25,,,,,,0.85,0.50,0.69,3*0B
$GNGSA,A,3,33,40,07,10,08,14,28,43,13,41,42,11,0.85,0.50,0.69,4*00
$GPGSV,4,1,15,19,71,079,43,195,69,051,40,196,69,118,42,50,60,167,34,1*6B
$GPGSV,4,2,15,199,60,167,31,17,55,114,39,06,49,009,41,20,42,248,35,1*50
$GPGSV,4,3,15,09,37,082,30,11,35,305,31,194,33,173,39,12,23,303,19,1*58
$GPGSV,4,4,15,05,18,231,,04,17,054,29,14,09,171,,1*5F
$GPGSV,2,1,06,195,69,051,45,196,69,118,46,199,60,167,44,06,49,009,48,8*5D
$GPGSV,2,2,06,11,35,305,33,04,17,054,28,8*62
$GLGSV,3,1,09,68,69,113,39,83,41,006,32,82,35,065,26,67,33,037,33,1*7C
$GLGSV,3,2,09,69,32,185,44,73,17,267,,80,09,215,,74,08,309,,1*75
$GLGSV,3,3,09,84,06,311,,1*48
$GAGSV,3,1,09,10,50,356,41,12,44,035,34,04,42,143,38,11,39,318,39,7*7E
$GAGSV,3,2,09,24,39,225,24,19,32,067,19,25,29,291,28,09,11,188,,7*70
$GAGSV,3,3,09,33,09,078,23,7*4D
$GAGSV,2,1,08,10,50,356,43,12,44,035,38,04,42,143,40,11,39,318,41,1*76
$GAGSV,2,2,08,24,39,225,18,19,32,067,11,25,29,291,27,33,09,078,20,1*72
$GBGSV,4,1,13,33,76,099,44,40,75,178,45,07,73,224,37,10,70,264,40,1*78
$GBGSV,4,2,13,08,55,289,32,14,52,052,41,28,49,340,43,43,49,084,28,1*73
$GBGSV,4,3,13,13,47,274,24,41,39,201,36,42,27,042,32,11,25,099,27,1*7A
$GBGSV,4,4,13,37,10,257,,1*41
$GBGSV,2,1,06,33,76,099,46,40,75,178,45,28,49,340,43,43,49,084,26,4*79
$GBGSV,2,2,06,41,39,201,44,42,27,042,28,4*76
$GNGGA,042753.000,2500.7895200,N,12132.4460500,E,2,55,0.50,16.21,M,15.25,M,1,3335*75
$GNRMC,042753.000,A,2500.7895200,N,12132.4460500,E,0.03,141.40,270623,,,D,V*0F
$GPHDT,,T*1B
$GNGGA,042753.200,2500.7895500,N,12132.4460500,E,2,55,0.50,16.22,M,15.25,M,1,3335*73
$GNRMC,042753.200,A,2500.7895500,N,12132.4460500,E,0.03,141.40,270623,,,D,V*0A
$GPHDT,,T*1B
$GNGGA,042753.400,2500.7895800,N,12132.4460400,E,2,55,0.50,16.23,M,15.25,M,1,3335*78
$GNRMC,042753.400,A,2500.7895800,N,12132.4460400,E,0.03,141.40,270623,,,D,V*00
$GPHDT,,T*1B
$GNGGA,042753.600,2500.7896100,N,12132.4460300,E,2,57,0.50,16.24,M,15.25,M,0,3335*73
$GNRMC,042753.600,A,2500.7896100,N,12132.4460300,E,0.05,141.40,270623,,,D,V*09
$GPHDT,,T*1B
$GNGGA,042753.800,2500.7896400,N,12132.4460300,E,2,56,0.50,16.25,M,15.25,M,0,3335*78
$GNRMC,042753.800,A,2500.7896400,N,12132.4460300,E,0.05,141.40,270623,,,D,V*02
$GPHDT,,T*1B
$GNGSA,A,3,19,195,196,199,17,06,20,09,11,194,12,04,0.85,0.50,0.69,1*0C
$GNGSA,A,3,68,83,82,67,69,,,,,,,,0.85,0.50,0.69,2*04
$GNGSA,A,3,10,12,04,24,11,19,25,,,,,,0.85,0.50,0.69,3*0B
$GNGSA,A,3,33,40,07,10,08,14,43,28,13,41,42,11,0.85,0.50,0.69,4*00
$GPGSV,4,1,15,19,71,079,40,195,69,051,40,196,69,118,41,50,60,167,34,1*6B
$GPGSV,4,2,15,199,60,167,32,17,55,114,41,06,49,009,41,20,42,248,36,1*5F
$GPGSV,4,3,15,09,37,081,33,11,35,305,30,194,33,173,40,12,24,303,22,1*58
$GPGSV,4,4,15,05,18,231,,04,17,054,26,14,09,171,,1*50
$GPGSV,2,1,07,196,69,118,46,195,69,051,46,199,60,167,44,06,49,009,46,8*51
$GPGSV,2,2,07,11,35,305,34,194,33,173,34,04,17,054,30,8*63
$GLGSV,2,1,08,68,69,113,40,83,41,006,31,82,35,065,20,67,33,037,30,1*74
$GLGSV,2,2,08,69,32,185,44,73,17,267,,80,09,215,,84,06,311,,1*7D
$GAGSV,3,1,10,10,50,356,40,12,44,035,34,04,42,143,37,24,39,225,23,7*7A
$GAGSV,3,2,10,11,39,318,39,19,32,067,18,25,29,291,27,09,11,188,,7*73
$GAGSV,3,3,10,33,09,078,22,36,04,283,,7*7C
$GAGSV,2,1,07,10,50,356,46,12,44,035,37,04,42,143,41,11,39,318,42,1*71
$GAGSV,2,2,07,24,39,225,23,25,29,291,25,33,09,078,20,1*4F
$GBGSV,4,1,13,33,76,099,42,40,75,178,45,07,73,224,39,10,70,264,39,1*7E
$GBGSV,4,2,13,08,55,289,33,14,52,052,41,43,49,084,29,28,49,340,47,1*77
$GBGSV,4,3,13,13,47,274,26,41,39,201,41,42,27,042,32,11,25,099,27,1*78
$GBGSV,4,4,13,37,10,257,,1*41
$GBGSV,2,1,06,33,76,099,46,40,75,178,46,28,49,340,44,43,49,084,26,4*7D
$GBGSV,2,2,06,41,39,201,46,42,27,042,29,4*75
$GNGGA,042754.000,2500.7896200,N,12132.4460200,E,2,55,0.50,16.26,M,15.25,M,1,3335*71
$GNRMC,042754.000,A,2500.7896200,N,12132.4460200,E,0.04,141.40,270623,,,D,V*0B
$GPHDT,,T*1B
$GNGGA,042754.200,2500.7896200,N,12132.4460200,E,2,55,0.50,16.27,M,15.25,M,1,3335*72
$GNRMC,042754.200,A,2500.7896200,N,12132.4460200,E,0.03,141.40,270623,,,D,V*0E
$GPHDT,,T*1B
$GNGGA,042754.400,2500.7896100,N,12132.4460300,E,2,55,0.50,16.27,M,15.25,M,1,3335*76
$GNRMC,042754.400,A,2500.7896100,N,12132.4460300,E,0.03,141.40,270623,,,D,V*0A
$GPHDT,,T*1B
$GNGGA,042754.600,2500.7896000,N,12132.4460200,E,2,55,0.50,16.28,M,15.25,M,0,3335*7A
$GNRMC,042754.600,A,2500.7896000,N,12132.4460200,E,0.03,141.40,270623,,,D,V*08
$GPHDT,,T*1B
$GNGGA,042754.800,2500.7895900,N,12132.4460100,E,2,55,0.50,16.29,M,15.25,M,0,3335*7C
$GNRMC,042754.800,A,2500.7895900,N,12132.4460100,E,0.02,141.40,270623,,,D,V*0E
$GPHDT,,T*1B
$GNGSA,A,3,19,196,195,199,17,06,20,09,11,194,12,04,0.85,0.50,0.69,1*0C
$GNGSA,A,3,68,83,82,67,69,,,,,,,,0.85,0.50,0.69,2*04
$GNGSA,A,3,10,12,04,24,11,19,25,,,,,,0.85,0.50,0.69,3*0B
$GNGSA,A,3,33,40,07,10,08,14,43,28,13,41,42,11,0.85,0.50,0.69,4*00
$GPGSV,4,1,15,19,71,079,40,196,69,118,41,195,69,051,40,199,60,167,32,1*59
$GPGSV,4,2,15,50,60,167,34,17,55,115,42,06,49,009,42,20,42,248,38,1*62
$GPGSV,4,3,15,09,37,081,33,11,35,305,30,194,33,173,40,12,24,303,19,1*50
$GPGSV,4,4,15,05,18,231,,04,17,054,24,14,09,171,,1*52
$GPGSV,2,1,07,196,69,118,47,195,69,051,46,199,60,167,44,06,49,009,46,8*50
$GPGSV,2,2,07,11,35,305,35,194,33,173,33,04,17,054,30,8*65
$GLGSV,2,1,07,68,69,113,41,83,41,006,31,82,35,065,19,67,33,037,31,1*71
$GLGSV,2,2,07,69,32,185,44,73,17,267,,80,09,215,,1*4B
$GAGSV,3,1,10,10,50,356,41,12,44,035,34,04,42,143,36,24,39,225,22,7*7B
$GAGSV,3,2,10,11,39,318,40,19,32,067,17,25,29,291,26,09,11,188,,7*73
$GAGSV,3,3,10,33,09,078,22,36,04,283,,7*7C
$GAGSV,2,1,07,10,50,356,46,12,44,035,37,04,42,143,41,11,39,318,42,1*71
$GAGSV,2,2,07,24,39,225,24,25,29,291,24,33,09,078,20,1*49
$GBGSV,4,1,13,33,76,099,42,40,75,178,45,07,73,224,39,10,70,264,39,1*7E
$GBGSV,4,2,13,08,55,289,30,14,52,052,41,43,49,084,28,28,49,340,47,1*75
$GBGSV,4,3,13,13,47,274,26,41,39,201,42,42,27,042,34,11,25,099,27,1*7D
$GBGSV,4,4,13,37,10,257,,1*41
$GBGSV,2,1,06,33,76,099,46,40,75,178,46,28,49,340,44,43,49,084,26,4*7D
$GBGSV,2,2,06,41,39,201,46,42,27,042,28,4*74
$GNGGA,042755.000,2500.7895900,N,12132.4460000,E,2,55,0.50,16.30,M,15.25,M,1,3335*7D
$GNRMC,042755.000,A,2500.7895900,N,12132.4460000,E,0.04,141.40,270623,,,D,V*00
$GPHDT,,T*1B
$GNGGA,042755.200,2500.7895800,N,12132.4459800,E,2,55,0.50,16.30,M,15.25,M,1,3335*7C
$GNRMC,042755.200,A,2500.7895800,N,12132.4459800,E,0.03,141.40,270623,,,D,V*06
$GPHDT,,T*1B
$GNGGA,042755.400,2500.7895800,N,12132.4459800,E,2,55,0.50,16.31,M,15.25,M,1,3335*7B
$GNRMC,042755.400,A,2500.7895800,N,12132.4459800,E,0.03,141.40,270623,,,D,V*00
$GPHDT,,T*1B
$GNGGA,042755.600,2500.7895800,N,12132.4459700,E,2,55,0.50,16.32,M,15.25,M,0,3335*74
$GNRMC,042755.600,A,2500.7895800,N,12132.4459700,E,0.02,141.40,270623,,,D,V*0C
$GPHDT,,T*1B
$GNGGA,042755.800,2500.7895700,N,12132.4459800,E,2,55,0.50,16.32,M,15.25,M,0,3335*7A
$GNRMC,042755.800,A,2500.7895700,N,12132.4459800,E,0.02,141.40,270623,,,D,V*02
$GPHDT,,T*1B
$GNGSA,A,3,19,196,195,199,17,06,20,09,11,194,12,04,0.85,0.50,0.69,1*0C
$GNGSA,A,3,68,83,82,67,69,,,,,,,,0.85,0.50,0.69,2*04
$GNGSA,A,3,10,12,04,24,11,19,25,,,,,,0.85,0.50,0.69,3*0B
$GNGSA,A,3,33,40,07,10,08,14,43,28,13,41,42,11,0.85,0.50,0.69,4*00
$GPGSV,4,1,15,19,71,080,40,196,69,118,40,195,69,051,40,199,60,167,33,1*5F
$GPGSV,4,2,15,50,60,167,34,17,55,115,42,06,49,009,42,20,43,248,38,1*63
$GPGSV,4,3,15,09,37,081,32,11,35,305,31,194,33,173,40,12,24,303,21,1*5B
$GPGSV,4,4,15,05,18,231,,04,17,054,23,14,09,171,,1*55
$GPGSV,2,1,07,196,69,118,47,195,69,051,46,199,60,167,44,06,49,009,47,8*51
$GPGSV,2,2,07,11,35,305,35,194,33,173,32,04,17,054,30,8*64
$GLGSV,2,1,07,68,69,113,41,83,41,006,31,82,35,065,20,67,33,037,29,1*72
$GLGSV,2,2,07,69,32,185,44,73,17,267,,80,09,215,,1*4B
$GAGSV,3,1,10,10,50,356,41,12,44,035,34,04,42,143,36,24,39,225,23,7*7A
$GAGSV,3,2,10,11,39,318,40,19,32,067,17,25,29,291,25,09,11,188,,7*70
$GAGSV,3,3,10,33,09,078,22,36,04,283,,7*7C
$GAGSV,2,1,07,10,50,356,45,12,44,035,37,04,42,143,41,11,39,318,42,1*72
$GAGSV,2,2,07,24,39,225,23,25,29,291,24,33,09,078,19,1*44
$GBGSV,4,1,13,33,76,099,42,40,75,178,45,07,73,224,39,10,70,264,39,1*7E
$GBGSV,4,2,13,08,55,289,31,14,52,052,41,43,49,084,29,28,49,340,47,1*75
$GBGSV,4,3,13,13,47,274,23,41,39,201,42,42,27,042,35,11,25,099,29,1*77
$GBGSV,4,4,13,37,10,257,,1*41
$GBGSV,2,1,06,33,76,099,46,40,75,178,46,28,49,340,44,43,49,084,25,4*7E
$GBGSV,2,2,06,41,39,201,46,42,27,042,29,4*75
$GNGGA,042756.000,2500.7895700,N,12132.4460000,E,2,55,0.50,16.32,M,15.25,M,1,3335*72
$GNRMC,042756.000,A,2500.7895700,N,12132.4460000,E,0.01,141.40,270623,,,D,V*08
$GPHDT,,T*1B
$GNGGA,042756.200,2500.7895600,N,12132.4460000,E,2,55,0.50,16.32,M,15.25,M,1,3335*71
$GNRMC,042756.200,A,2500.7895600,N,12132.4460000,E,0.00,141.40,270623,,,D,V*0A
$GPHDT,,T*1B
$GNGGA,042756.400,2500.7895600,N,12132.4460100,E,2,55,0.50,16.32,M,15.25,M,1,3335*76
$GNRMC,042756.400,A,2500.7895600,N,12132.4460100,E,0.01,141.40,270623,,,D,V*0C
$GPHDT,,T*1B
$GNGGA,042756.600,2500.7895600,N,12132.4460200,E,2,55,0.50,16.32,M,15.25,M,0,3335*76
$GNRMC,042756.600,A,2500.7895600,N,12132.4460200,E,0.01,141.40,270623,,,D,V*0D
$GPHDT,,T*1B
$GNGGA,042756.800,2500.7896000,N,12132.4460300,E,2,54,0.50,16.33,M,15.25,M,0,3335*7C
$GNRMC,042756.800,A,2500.7896000,N,12132.4460300,E,0.02,141.40,270623,,,D,V*04
$GPHDT,,T*1B
