$FW : RTK35X,V1.1X0314AS,Lib20210517,1*54
$Tool : LOCOSYS , GNSS Firebird , v1.0.0.19*39
$---------------------------------------------------*2D
,4*72
$GNGGA,042639.000,2500.7894600,N,12132.4464400,E,2,56,0.52,15.02,M,15.25,M,1,3335*7B
$GNRMC,042639.000,A,2500.7894600,N,12132.4464400,E,0.02,141.40,270623,,,D,V*03
$GPHDT,,T*1B
$GNGGA,042639.200,2500.7894600,N,12132.4464400,E,2,56,0.52,15.04,M,15.25,M,1,3335*7F
$GNRMC,042639.200,A,2500.7894600,N,12132.4464400,E,0.02,141.40,270623,,,D,V*01
$GPHDT,,T*1B
$GNGGA,042639.400,2500.7894500,N,12132.4464500,E,2,56,0.52,15.06,M,15.25,M,1,3335*79
$GNRMC,042639.400,A,2500.7894500,N,12132.4464500,E,0.02,141.40,270623,,,D,V*05
$GPHDT,,T*1B
$GNGGA,042639.600,2500.7894400,N,12132.4464400,E,2,56,0.52,15.08,M,15.25,M,1,3335*75
$GNRMC,042639.600,A,2500.7894400,N,12132.4464400,E,0.01,141.40,270623,,,D,V*04
$GPHDT,,T*1B
$GNGGA,042639.800,2500.7894500,N,12132.4464400,E,2,56,0.52,15.09,M,15.25,M,0,3335*7A
$GNRMC,042639.800,A,2500.7894500,N,12132.4464400,E,0.01,141.40,270623,,,D,V*0B
$GPHDT,,T*1B
$GNGSA,A,3,19,196,195,199,17,06,20,09,11,194,12,04,1.11,0.52,0.98,1*0C
$GNGSA,A,3,68,83,82,67,69,,,,,,,,1.11,0.52,0.98,2*04
$GNGSA,A,3,10,12,04,24,11,19,25,,,,,,1.11,0.52,0.98,3*0B
$GNGSA,A,3,33,40,07,10,08,14,28,43,13,41,42,,1.11,0.52,0.98,4*00
$GPGSV,4,1,15,19,71,078,41,196,69,118,39,195,69,050,36,199,60,167,34,1*50
$GPGSV,4,2,15,50,60,167,35,17,56,114,37,06,49,008,44,20,42,247,42,1*66
$GPGSV,4,3,15,09,37,082,31,11,35,305,28,194,34,173,33,12,23,304,31,1*51
$GPGSV,4,4,15,05,17,231,16,04,17,055,29,14,09,171,,1*56
$GPGSV,2,1,08,195,69,050,44,196,69,118,44,199,60,167,46,06,49,008,48,8*52
$GPGSV,2,2,08,09,37,082,21,11,35,305,33,194,34,173,41,04,17,055,21,8*5B
$GLGSV,2,1,06,68,69,115,39,83,41,006,27,82,35,065,23,67,34,038,34,1*7A
$GLGSV,2,2,06,69,31,184,39,80,09,215,,1*73
$GAGSV,3,1,10,10,50,356,37,12,44,035,35,04,41,143,33,24,40,225,20,7*71
$GAGSV,3,2,10,11,39,317,37,19,32,068,17,25,29,291,22,09,10,188,,7*76
$GAGSV,3,3,10,33,09,078,24,36,04,283,,7*7A
$GAGSV,2,1,07,10,50,356,43,12,44,035,37,04,41,143,33,24,40,225,26,1*77
$GAGSV,2,2,07,11,39,317,41,19,32,068,14,25,29,291,16,1*4B
$GBGSV,4,1,14,33,76,102,41,40,76,177,43,07,73,224,38,10,70,264,39,1*72
$GBGSV,4,2,14,08,55,288,33,14,53,053,43,28,49,339,45,43,49,083,35,1*75
$GBGSV,4,3,14,13,47,274,27,41,39,201,39,42,28,042,37,11,26,099,23,1*7C
$GBGSV,4,4,14,23,09,208,,06,03,184,,1*79
$GBGSV,2,1,06,33,76,102,46,40,76,177,45,28,49,339,44,43,49,083,26,4*78
$GBGSV,2,2,06,41,39,201,42,42,28,042,35,4*73
$GNGGA,042640.000,2500.7894500,N,12132.4464300,E,2,56,0.52,15.11,M,15.25,M,1,3335*73
$GNRMC,042640.000,A,2500.7894500,N,12132.4464300,E,0.01,141.40,270623,,,D,V*0A
$GPHDT,,T*1B
$GNGGA,042640.200,2500.7894500,N,12132.4464300,E,2,56,0.52,15.11,M,15.25,M,1,3335*71
$GNRMC,042640.200,A,2500.7894500,N,12132.4464300,E,0.00,141.40,270623,,,D,V*09
$GPHDT,,T*1B
$GNGGA,042640.400,2500.7894600,N,12132.4464300,E,2,57,0.50,15.12,M,15.25,M,1,3335*74
$GNRMC,042640.400,A,2500.7894600,N,12132.4464300,E,0.01,141.40,270623,,,D,V*0D
$GPHDT,,T*1B
$GNGGA,042640.600,2500.7894500,N,12132.4464500,E,2,57,0.50,15.13,M,15.25,M,0,3335*73
$GNRMC,042640.600,A,2500.7894500,N,12132.4464500,E,0.01,141.40,270623,,,D,V*0A
$GPHDT,,T*1B
$GNGGA,042640.800,2500.7894600,N,12132.4464400,E,2,56,0.52,15.14,M,15.25,M,0,3335*7B
$GNRMC,042640.800,A,2500.7894600,N,12132.4464400,E,0.01,141.40,270623,,,D,V*06
$GPHDT,,T*1B
$GNGSA,A,3,19,196,195,199,17,06,20,09,11,194,12,04,1.11,0.52,0.98,1*0C
$GNGSA,A,3,68,83,82,67,69,,,,,,,,1.11,0.52,0.98,2*04
$GNGSA,A,3,10,12,04,24,11,19,25,,,,,,1.11,0.52,0.98,3*0B
$GNGSA,A,3,33,40,07,10,08,14,43,28,13,41,42,,1.11,0.52,0.98,4*00
$GPGSV,4,1,15,19,71,078,41,196,69,118,38,195,69,050,37,199,60,167,34,1*50
$GPGSV,4,2,15,50,60,167,36,17,56,114,40,06,49,008,44,20,42,247,42,1*65
$GPGSV,4,3,15,09,37,082,31,11,35,305,30,194,34,173,34,12,23,304,31,1*5F
$GPGSV,4,4,15,05,17,231,13,04,17,055,31,14,09,171,,1*5A
$GPGSV,2,1,08,195,69,050,44,196,69,118,45,199,60,167,46,06,49,008,48,8*53
$GPGSV,2,2,08,09,37,082,20,11,35,305,33,194,34,173,41,04,17,055,20,8*5B
$GLGSV,2,1,07,68,69,115,40,83,41,006,28,82,35,065,22,67,34,038,35,1*7A
$GLGSV,2,2,07,69,31,184,40,80,09,215,,84,06,311,,1*45
$GAGSV,3,1,10,10,50,356,36,12,44,035,35,04,41,143,35,24,40,225,20,7*76
$GAGSV,3,2,10,11,39,317,37,19,32,068,17,25,29,291,20,09,10,188,,7*74
$GAGSV,3,3,10,33,09,078,24,36,04,283,,7*7A
$GAGSV,2,1,07,10,50,356,43,12,44,035,38,04,41,143,38,24,40,225,26,1*73
$GAGSV,2,2,07,11,39,317,41,19,32,068,16,25,29,291,16,1*49
$GBGSV,4,1,13,33,76,101,39,40,76,177,43,07,73,224,38,10,70,264,39,1*79
$GBGSV,4,2,13,08,55,288,33,14,53,053,43,43,49,083,33,28,49,339,45,1*74
$GBGSV,4,3,13,13,47,274,26,41,39,201,39,42,28,042,37,11,26,099,28,1*71
$GBGSV,4,4,13,23,09,208,,1*46
$GBGSV,2,1,06,33,76,101,46,40,76,177,45,28,49,339,44,43,49,083,26,4*7B
$GBGSV,2,2,06,41,39,201,42,42,28,042,35,4*73
$GNGGA,042641.000,2500.7894600,N,12132.4464400,E,2,56,0.52,15.14,M,15.25,M,1,3335*73
$GNRMC,042641.000,A,2500.7894600,N,12132.4464400,E,0.01,141.40,270623,,,D,V*0F
$GPHDT,,T*1B
$GNGGA,042641.200,2500.7894600,N,12132.4464500,E,2,56,0.52,15.15,M,15.25,M,1,3335*71
$GNRMC,042641.200,A,2500.7894600,N,12132.4464500,E,0.01,141.40,270623,,,D,V*0C
$GPHDT,,T*1B
$GNGGA,042641.400,2500.7894600,N,12132.4464500,E,2,56,0.52,15.17,M,15.25,M,1,3335*75
$GNRMC,042641.400,A,2500.7894600,N,12132.4464500,E,0.01,141.40,270623,,,D,V*0A
$GPHDT,,T*1B
$GNGGA,042641.600,2500.7894600,N,12132.4464400,E,2,56,0.52,15.19,M,15.25,M,0,3335*79
$GNRMC,042641.600,A,2500.7894600,N,12132.4464400,E,0.01,141.40,270623,,,D,V*09
$GPHDT,,T*1B
$GNGGA,042641.800,2500.7894500,N,12132.4464500,E,2,56,0.52,15.18,M,15.25,M,0,3335*74
$GNRMC,042641.800,A,2500.7894500,N,12132.4464500,E,0.00,141.40,270623,,,D,V*04
$GPHDT,,T*1B
$GNGSA,A,3,19,195,196,199,17,06,20,09,11,194,12,04,1.11,0.52,0.98,1*0C
$GNGSA,A,3,68,83,82,67,69,,,,,,,,1.11,0.52,0.98,2*04
$GNGSA,A,3,10,12,04,24,11,19,25,,,,,,1.11,0.52,0.98,3*0B
$GNGSA,A,3,33,40,07,10,08,14,28,43,13,41,42,,1.11,0.52,0.98,4*00
$GPGSV,4,1,15,19,71,078,41,195,69,050,37,196,69,118,39,50,60,167,35,1*64
$GPGSV,4,2,15,199,60,167,34,17,56,114,40,06,49,008,43,20,42,247,42,1*54
$GPGSV,4,3,15,09,37,082,32,11,35,305,29,194,34,173,30,12,23,304,31,1*50
$GPGSV,4,4,15,05,17,231,14,04,17,055,29,14,09,171,,1*54
$GPGSV,2,1,08,195,69,050,44,196,69,118,45,199,60,167,46,06,49,008,48,8*53
$GPGSV,2,2,08,09,37,082,23,11,35,305,32,194,34,173,41,04,17,055,20,8*59
$GLGSV,2,1,06,68,69,115,40,83,41,006,27,82,35,065,20,67,34,038,35,1*76
$GLGSV,2,2,06,69,31,184,40,73,17,267,,1*7B
$GAGSV,3,1,10,10,50,356,36,12,44,035,35,04,41,143,40,24,40,225,20,7*74
$GAGSV,3,2,10,11,39,317,37,19,32,068,17,25,29,291,19,09,10,188,,7*7E
$GAGSV,3,3,10,33,09,078,24,36,04,283,,7*7A
$GAGSV,2,1,07,10,50,356,43,12,44,035,38,04,41,143,42,24,40,225,25,1*7D
$GAGSV,2,2,07,11,39,317,41,19,32,068,16,25,29,291,16,1*49
$GBGSV,4,1,13,33,76,101,39,40,76,177,43,07,73,224,38,10,70,264,40,1*77
$GBGSV,4,2,13,08,55,288,33,14,53,053,43,28,49,339,45,43,49,083,33,1*74
$GBGSV,4,3,13,13,47,274,26,41,39,201,39,42,28,042,38,37,11,257,,1*74
$GBGSV,4,4,13,23,09,208,,1*46
$GBGSV,2,1,06,33,76,101,46,40,76,177,44,28,49,339,44,43,49,083,25,4*79
$GBGSV,2,2,06,41,39,201,41,42,28,042,34,4*71
$GNGGA,042642.000,2500.7894400,N,12132.4464500,E,2,56,0.52,15.19,M,15.25,M,1,3335*7E
$GNRMC,042642.000,A,2500.7894400,N,12132.4464500,E,0.00,141.40,270623,,,D,V*0E
$GPHDT,,T*1B
$GNGGA,042642.200,2500.7894400,N,12132.4464500,E,2,56,0.52,15.18,M,15.25,M,1,3335*7D
$GNRMC,042642.200,A,2500.7894400,N,12132.4464500,E,0.00,141.40,270623,,,D,V*0C
$GPHDT,,T*1B
$GNGGA,042642.400,2500.7894400,N,12132.4464600,E,2,56,0.52,15.19,M,15.25,M,1,3335*79
$GNRMC,042642.400,A,2500.7894400,N,12132.4464600,E,0.00,141.40,270623,,,D,V*09
$GPHDT,,T*1B
$GNGGA,042642.600,2500.7894300,N,12132.4464600,E,2,56,0.52,15.20,M,15.25,M,0,3335*77
$GNRMC,042642.600,A,2500.7894300,N,12132.4464600,E,0.01,141.40,270623,,,D,V*0D
$GPHDT,,T*1B
$GNGGA,042642.800,2500.7894300,N,12132.4464700,E,2,56,0.52,15.19,M,15.25,M,0,3335*72
$GNRMC,042642.800,A,2500.7894300,N,12132.4464700,E,0.00,141.40,270623,,,D,V*03
$GPHDT,,T*1B
$GNGSA,A,3,19,195,196,199,17,06,20,09,11,194,12,04,1.11,0.52,0.98,1*0C
$GNGSA,A,3,68,83,82,67,69,,,,,,,,1.11,0.52,0.98,2*04
$GNGSA,A,3,10,12,04,24,11,19,25,,,,,,1.11,0.52,0.98,3*0B
$GNGSA,A,3,33,40,07,10,08,14,28,43,13,41,42,,1.11,0.52,0.98,4*00
$GPGSV,4,1,15,19,71,078,41,195,69,050,38,196,69,118,39,50,60,167,35,1*6B
$GPGSV,4,2,15,199,60,167,33,17,56,114,40,06,49,008,42,20,42,247,42,1*52
$GPGSV,4,3,15,09,37,082,31,11,35,305,28,194,34,173,31,12,23,304,31,1*53
$GPGSV,4,4,15,05,17,231,15,04,17,055,29,14,09,171,,1*55
$GPGSV,2,1,08,195,69,050,44,196,69,118,45,199,60,167,46,06,49,008,47,8*5C
$GPGSV,2,2,08,09,37,082,25,11,35,305,32,194,34,173,41,04,17,055,22,8*5D
$GLGSV,2,1,06,68,69,115,39,83,41,006,27,82,35,065,21,67,34,038,35,1*79
$GLGSV,2,2,06,69,31,184,38,73,17,267,,1*74
$GAGSV,3,1,10,10,50,356,37,12,44,035,35,04,41,143,40,24,40,225,19,7*7F
$GAGSV,3,2,10,11,39,317,37,19,32,068,16,25,29,291,19,09,10,188,,7*7F
$GAGSV,3,3,10,33,09,078,24,36,04,283,,7*7A
$GAGSV,2,1,08,10,50,356,43,12,44,035,38,04,41,143,42,24,40,225,25,1*72
$GAGSV,2,2,08,11,39,317,41,19,32,068,15,25,29,291,16,33,09,078,20,1*71
$GBGSV,4,1,13,33,76,101,40,40,76,177,43,07,73,224,37,10,70,264,40,1*76
$GBGSV,4,2,13,08,55,288,33,14,53,053,43,28,49,339,45,43,49,083,34,1*73
$GBGSV,4,3,13,13,47,274,26,41,39,201,30,42,27,042,38,37,11,257,,1*72
$GBGSV,4,4,13,23,09,208,,1*46
$GBGSV,2,1,06,33,76,101,46,40,76,177,44,28,49,339,44,43,49,083,26,4*7A
$GBGSV,2,2,06,41,39,201,38,42,27,042,34,4*70
$GNGGA,042643.000,2500.7894300,N,12132.4464900,E,2,56,0.52,15.21,M,15.25,M,1,3335*7F
$GNRMC,042643.000,A,2500.7894300,N,12132.4464900,E,0.01,141.40,270623,,,D,V*05
$GPHDT,,T*1B
$GNGGA,042643.200,2500.7894200,N,12132.4464900,E,2,56,0.52,15.20,M,15.25,M,1,3335*7D
$GNRMC,042643.200,A,2500.7894200,N,12132.4464900,E,0.01,141.40,270623,,,D,V*06
$GPHDT,,T*1B
$GNGGA,042643.400,2500.7894200,N,12132.4464900,E,2,56,0.52,15.21,M,15.25,M,1,3335*7A
$GNRMC,042643.400,A,2500.7894200,N,12132.4464900,E,0.00,141.40,270623,,,D,V*01
$GPHDT,,T*1B
$GNGGA,042643.600,2500.7894100,N,12132.4465000,E,2,56,0.52,15.24,M,15.25,M,0,3335*77
$GNRMC,042643.600,A,2500.7894100,N,12132.4465000,E,0.01,141.40,270623,,,D,V*09
$GPHDT,,T*1B
$GNGGA,042643.800,2500.7894000,N,12132.4465100,E,2,55,0.52,15.24,M,15.25,M,0,3335*7A
$GNRMC,042643.800,A,2500.7894000,N,12132.4465100,E,0.01,141.40,270623,,,D,V*07
$GPHDT,,T*1B
$GNGSA,A,3,19,195,196,199,17,06,20,09,11,194,12,04,1.11,0.52,0.98,1*0C
$GNGSA,A,3,68,83,82,67,69,,,,,,,,1.11,0.52,0.98,2*04
$GNGSA,A,3,10,12,04,24,11,19,25,,,,,,1.11,0.52,0.98,3*0B
$GNGSA,A,3,33,40,07,10,08,14,28,43,13,41,42,,1.11,0.52,0.98,4*00
$GPGSV,4,1,15,19,71,078,41,195,69,050,37,196,69,118,39,50,60,167,34,1*65
$GPGSV,4,2,15,199,60,167,32,17,56,114,40,06,49,008,43,20,42,247,42,1*52
$GPGSV,4,3,15,09,37,082,31,11,35,305,29,194,34,173,32,12,23,304,31,1*51
$GPGSV,4,4,15,05,17,231,14,04,17,055,28,14,09,171,,1*55
$GPGSV,2,1,08,195,69,050,45,196,69,118,45,199,60,167,46,06,49,008,47,8*5D
$GPGSV,2,2,08,09,37,082,24,11,35,305,32,194,34,173,41,04,17,055,19,8*54
$GLGSV,2,1,06,68,69,115,40,83,41,006,28,82,35,065,16,67,34,038,35,1*7C
$GLGSV,2,2,06,69,31,184,38,73,17,267,,1*74
$GAGSV,3,1,10,10,50,356,37,12,44,035,35,04,41,143,40,24,40,225,22,7*77
$GAGSV,3,2,10,11,39,317,37,19,32,068,17,25,29,291,19,09,10,188,,7*7E
$GAGSV,3,3,10,33,09,078,24,36,04,283,,7*7A
$GAGSV,2,1,08,10,50,356,44,12,44,035,38,04,41,143,43,24,40,225,22,1*73
$GAGSV,2,2,08,11,39,317,41,19,32,068,14,25,29,291,16,33,09,078,20,1*70
$GBGSV,4,1,13,33,76,101,40,40,76,177,43,07,73,224,37,10,70,264,40,1*76
$GBGSV,4,2,13,08,55,288,34,14,53,053,43,28,49,339,44,43,49,083,33,1*72
$GBGSV,4,3,13,13,47,274,26,41,39,201,31,42,27,042,38,37,11,257,,1*73
$GBGSV,4,4,13,23,09,208,,1*46
$GBGSV,2,1,06,33,76,101,46,40,76,177,44,28,49,339,44,43,49,083,27,4*7B
$GBGSV,2,2,06,41,39,201,37,42,27,042,34,4*7F
$GNGGA,042644.000,2500.7894000,N,12132.4465200,E,2,56,0.52,15.26,M,15.25,M,1,3335*76
$GNRMC,042644.000,A,2500.7894000,N,12132.4465200,E,0.01,141.40,270623,,,D,V*0B
$GPHDT,,T*1B
$GNGGA,042644.200,2500.7893900,N,12132.4465400,E,2,56,0.52,15.29,M,15.25,M,1,3335*73
$GNRMC,042644.200,A,2500.7893900,N,12132.4465400,E,0.01,141.40,270623,,,D,V*01
$GPHDT,,T*1B
$GNGGA,042644.400,2500.7893800,N,12132.4465400,E,2,55,0.52,15.29,M,15.25,M,1,3335*77
$GNRMC,042644.400,A,2500.7893800,N,12132.4465400,E,0.01,141.40,270623,,,D,V*06
$GPHDT,,T*1B
$GNGGA,042644.600,2500.7893700,N,12132.4465400,E,2,55,0.52,15.30,M,15.25,M,0,3335*73
$GNRMC,042644.600,A,2500.7893700,N,12132.4465400,E,0.01,141.40,270623,,,D,V*0B
$GPHDT,,T*1B
$GNGGA,042644.800,2500.7893700,N,12132.4465400,E,2,55,0.52,15.32,M,15.25,M,0,3335*7F
$GNRMC,042644.800,A,2500.7893700,N,12132.4465400,E,0.01,141.40,270623,,,D,V*05
$GPHDT,,T*1B
$GNGSA,A,3,19,195,196,199,17,06,20,09,11,194,12,04,1.11,0.52,0.98,1*0C
$GNGSA,A,3,68,83,82,67,69,,,,,,,,1.11,0.52,0.98,2*04
$GNGSA,A,3,10,12,04,24,11,19,25,,,,,,1.11,0.52,0.98,3*0B
$GNGSA,A,3,40,33,07,10,08,14,28,43,13,41,42,,1.11,0.52,0.98,4*00
$GPGSV,4,1,15,19,71,078,41,195,69,050,36,196,69,118,39,50,60,167,34,1*64
$GPGSV,4,2,15,199,60,167,32,17,56,114,40,06,49,008,43,20,42,247,42,1*52
$GPGSV,4,3,15,09,37,082,32,11,35,305,28,194,34,173,31,12,23,304,30,1*51
$GPGSV,4,4,15,05,17,231,13,04,17,055,28,14,09,171,,1*52
$GPGSV,2,1,08,195,69,050,45,196,69,118,45,199,60,167,46,06,49,008,47,8*5D
$GPGSV,2,2,08,09,37,082,21,11,35,305,32,194,34,173,41,04,17,055,18,8*50
$GLGSV,2,1,06,68,69,115,39,83,41,006,29,82,35,065,16,67,34,038,35,1*73
$GLGSV,2,2,06,69,31,184,38,73,17,267,,1*74
$GAGSV,3,1,10,10,50,356,37,12,44,035,35,04,41,143,40,24,40,225,21,7*74
$GAGSV,3,2,10,11,39,317,37,19,32,068,17,25,29,291,19,09,10,188,,7*7E
$GAGSV,3,3,10,33,09,078,23,36,04,283,,7*7D
$GAGSV,2,1,07,10,50,356,44,12,44,035,38,04,41,143,43,24,40,225,21,1*7F
$GAGSV,2,2,07,11,39,317,41,25,29,291,16,33,09,078,20,1*4D
$GBGSV,4,1,14,40,76,177,43,33,76,101,40,07,73,224,37,10,70,264,40,1*71
$GBGSV,4,2,14,08,55,288,34,14,53,053,43,28,49,339,44,43,49,083,30,1*76
$GBGSV,4,3,14,13,47,274,25,41,39,201,29,42,27,042,38,37,11,257,,1*7E
$GBGSV,4,4,14,23,09,208,,34,09,112,,1*7D
$GBGSV,2,1,06,33,76,101,46,40,76,177,44,28,49,339,44,43,49,083,27,4*7B
$GBGSV,2,2,06,41,39,201,37,42,27,042,34,4*7F
$GNGGA,042645.000,2500.7893600,N,12132.4465500,E,2,55,0.52,15.33,M,15.25,M,1,3335*76
$GNRMC,042645.000,A,2500.7893600,N,12132.4465500,E,0.01,141.40,270623,,,D,V*0C
$GPHDT,,T*1B
$GNGGA,042645.200,2500.7893500,N,12132.4465500,E,2,55,0.52,15.34,M,15.25,M,1,3335*70
$GNRMC,042645.200,A,2500.7893500,N,12132.4465500,E,0.01,141.40,270623,,,D,V*0D
$GPHDT,,T*1B
$GNGGA,042645.400,2500.7893400,N,12132.4465700,E,2,55,0.52,15.38,M,15.25,M,1,3335*79
$GNRMC,042645.400,A,2500.7893400,N,12132.4465700,E,0.02,141.40,270623,,,D,V*0B
$GPHDT,,T*1B
$GNGGA,042645.600,2500.7893300,N,12132.4465800,E,2,55,0.52,15.41,M,15.25,M,1,3335*7D
$GNRMC,042645.600,A,2500.7893300,N,12132.4465800,E,0.01,141.40,270623,,,D,V*02
$GPHDT,,T*1B
$GNGGA,042645.800,2500.7893200,N,12132.4466000,E,2,55,0.52,15.45,M,15.25,M,0,3335*7C
$GNRMC,042645.800,A,2500.7893200,N,12132.4466000,E,0.02,141.40,270623,,,D,V*05
$GPHDT,,T*1B
$GNGSA,A,3,19,195,196,199,17,06,20,09,11,194,12,04,1.11,0.52,0.98,1*0C
$GNGSA,A,3,68,83,82,67,69,,,,,,,,1.11,0.52,0.98,2*04
$GNGSA,A,3,10,12,04,24,11,19,25,,,,,,1.11,0.52,0.98,3*0B
$GNGSA,A,3,40,33,07,10,08,14,28,43,13,41,42,,1.11,0.52,0.98,4*00
$GPGSV,4,1,15,19,71,078,41,195,69,050,35,196,69,118,39,50,60,167,34,1*67
$GPGSV,4,2,15,199,60,167,32,17,56,114,40,06,49,008,43,20,42,247,42,1*52
$GPGSV,4,3,15,09,37,082,32,11,35,305,26,194,34,173,31,12,23,304,31,1*5E
$GPGSV,4,4,15,05,17,231,12,04,17,055,28,14,09,171,,1*53
$GPGSV,2,1,08,195,69,050,45,196,69,118,45,199,60,167,46,06,49,008,47,8*5D
$GPGSV,2,2,08,09,37,082,24,11,35,305,33,194,34,173,41,04,17,055,18,8*54
$GLGSV,2,1,06,68,69,115,39,83,41,006,29,82,35,065,18,67,34,038,35,1*7D
$GLGSV,2,2,06,69,31,184,38,73,17,267,,1*74
$GAGSV,3,1,10,10,50,356,35,12,44,035,35,04,41,143,40,24,40,225,21,7*76
$GAGSV,3,2,10,11,39,317,37,19,32,068,17,25,29,291,19,09,10,188,,7*7E
$GAGSV,3,3,10,33,09,078,23,36,04,283,,7*7D
$GAGSV,2,1,07,10,50,356,44,12,44,035,38,04,41,143,43,24,40,225,18,1*75
$GAGSV,2,2,07,11,39,317,41,25,29,291,15,33,09,078,19,1*44
$GBGSV,4,1,14,40,76,177,43,33,76,101,40,07,73,224,37,10,70,264,40,1*71
$GBGSV,4,2,14,08,55,288,34,14,53,053,42,28,49,339,44,43,49,083,31,1*76
$GBGSV,4,3,14,13,47,274,24,41,39,201,30,42,27,042,38,37,11,257,,1*77
$GBGSV,4,4,14,23,09,208,,34,09,112,,1*7D
$GBGSV,2,1,06,33,76,101,46,40,76,177,45,28,49,339,44,43,49,083,27,4*7A
$GBGSV,2,2,06,41,39,201,37,42,27,042,34,4*7F
$GNGGA,042646.000,2500.7893100,N,12132.4466000,E,2,55,0.52,15.46,M,15.25,M,1,3335*76
$GNRMC,042646.000,A,2500.7893100,N,12132.4466000,E,0.02,141.40,270623,,,D,V*0D
$GPHDT,,T*1B
$GNGGA,042646.200,2500.7893000,N,12132.4466100,E,2,55,0.52,15.49,M,15.25,M,1,3335*7B
$GNRMC,042646.200,A,2500.7893000,N,12132.4466100,E,0.02,141.40,270623,,,D,V*0F
$GPHDT,,T*1B
$GNGGA,042646.400,2500.7892900,N,12132.4466300,E,2,55,0.52,15.53,M,15.25,M,1,3335*7C
$GNRMC,042646.400,A,2500.7892900,N,12132.4466300,E,0.02,141.40,270623,,,D,V*03
$GPHDT,,T*1B
$GNGGA,042646.600,2500.7892900,N,12132.4466400,E,2,55,0.52,15.55,M,15.25,M,1,3335*7F
$GNRMC,042646.600,A,2500.7892900,N,12132.4466400,E,0.02,141.40,270623,,,D,V*06
$GPHDT,,T*1B
$GNGGA,042646.800,2500.7892800,N,12132.4466400,E,2,55,0.52,15.57,M,15.25,M,0,3335*73
$GNRMC,042646.800,A,2500.7892800,N,12132.4466400,E,0.02,141.40,270623,,,D,V*09
$GPHDT,,T*1B
$GNGSA,A,3,19,195,196,199,17,06,20,09,11,194,12,04,1.11,0.52,0.98,1*0C
$GNGSA,A,3,68,83,82,67,69,,,,,,,,1.11,0.52,0.98,2*04
$GNGSA,A,3,10,12,04,24,11,19,25,,,,,,1.11,0.52,0.98,3*0B
$GNGSA,A,3,33,40,07,10,08,14,28,43,13,41,42,,1.11,0.52,0.98,4*00
$GPGSV,4,1,15,19,71,078,42,195,69,050,35,196,69,118,39,50,60,167,36,1*66
$GPGSV,4,2,15,199,60,167,33,17,56,114,39,06,49,008,43,20,42,247,41,1*5E
$GPGSV,4,3,15,09,37,082,30,11,35,305,28,194,34,173,31,12,23,304,29,1*5B
$GPGSV,4,4,15,05,17,231,12,04,17,055,25,14,09,171,,1*5E
$GPGSV,2,1,08,195,69,050,45,196,69,118,45,199,60,167,47,06,49,008,47,8*5C
$GPGSV,2,2,08,09,37,082,24,11,35,305,32,194,34,173,40,04,17,055,20,8*5F
$GLGSV,2,1,05,68,69,115,40,83,41,006,27,82,35,065,22,67,34,038,35,1*77
$GLGSV,2,2,05,69,31,184,39,1*47
$GAGSV,3,1,10,10,50,356,36,12,44,035,35,04,41,143,40,24,40,225,22,7*76
$GAGSV,3,2,10,11,39,317,37,19,32,068,14,25,29,291,19,09,10,188,,7*7D
$GAGSV,3,3,10,33,09,078,22,36,04,283,,7*7C
$GAGSV,2,1,07,10,50,356,44,12,44,035,38,04,41,143,43,24,40,225,19,1*74
$GAGSV,2,2,07,11,39,317,41,25,29,291,15,33,09,078,20,1*4E
$GBGSV,4,1,14,33,76,101,40,40,76,177,43,07,73,224,37,10,70,264,40,1*71
$GBGSV,4,2,14,08,55,288,34,14,53,053,42,28,49,339,43,43,49,083,31,1*71
$GBGSV,4,3,14,13,47,274,27,41,39,201,31,42,27,042,38,37,11,257,,1*75
$GBGSV,4,4,14,34,09,112,,23,09,208,,1*7D
$GBGSV,2,1,06,33,76,101,46,40,76,177,45,28,49,339,44,43,49,083,27,4*7A
$GBGSV,2,2,06,41,39,201,40,42,27,042,34,4*7F
$GNGGA,042647.000,2500.7892800,N,12132.4466400,E,2,55,0.52,15.59,M,15.25,M,1,3335*75
$GNRMC,042647.000,A,2500.7892800,N,12132.4466400,E,0.02,141.40,270623,,,D,V*00
$GPHDT,,T*1B
$GNGGA,042647.200,2500.7892800,N,12132.4466500,E,2,55,0.52,15.59,M,15.25,M,1,3335*76
$GNRMC,042647.200,A,2500.7892800,N,12132.4466500,E,0.02,141.40,270623,,,D,V*03
$GPHDT,,T*1B
$GNGGA,042647.400,2500.7892700,N,12132.4466600,E,2,55,0.52,15.59,M,15.25,M,1,3335*7C
$GNRMC,042647.400,A,2500.7892700,N,12132.4466600,E,0.02,141.40,270623,,,D,V*09
$GPHDT,,T*1B
$GNGGA,042647.600,2500.7892600,N,12132.4466600,E,2,55,0.52,15.59,M,15.25,M,1,3335*7F
$GNRMC,042647.600,A,2500.7892600,N,12132.4466600,E,0.02,141.40,270623,,,D,V*0A
$GPHDT,,T*1B
$GNGGA,042647.800,2500.7892600,N,12132.4466700,E,2,55,0.52,15.59,M,15.25,M,0,3335*71
$GNRMC,042647.800,A,2500.7892600,N,12132.4466700,E,0.02,141.40,270623,,,D,V*05
$GPHDT,,T*1B
$GNGSA,A,3,19,195,196,199,17,06,20,09,11,194,12,04,1.11,0.52,0.98,1*0C
$GNGSA,A,3,68,83,82,67,69,,,,,,,,1.11,0.52,0.98,2*04
$GNGSA,A,3,10,12,04,24,11,19,25,,,,,,1.11,0.52,0.98,3*0B
$GNGSA,A,3,40,33,07,10,08,14,43,28,13,41,42,,1.11,0.52,0.98,4*00
$GPGSV,4,1,15,19,71,078,42,195,69,050,35,196,69,118,40,50,60,167,36,1*68
$GPGSV,4,2,15,199,60,167,33,17,56,114,39,06,49,008,43,20,42,247,41,1*5E
$GPGSV,4,3,15,09,37,082,30,11,35,305,29,194,34,173,32,12,23,304,28,1*58
$GPGSV,4,4,15,05,17,231,11,04,17,054,23,14,09,171,,1*5A
$GPGSV,2,1,08,195,69,050,45,196,69,118,45,199,60,167,47,06,49,008,47,8*5C
$GPGSV,2,2,08,09,37,082,27,11,35,305,32,194,34,173,40,04,17,054,20,8*5D
$GLGSV,2,1,08,68,69,115,40,83,41,006,28,82,35,065,22,67,34,038,34,1*74
$GLGSV,2,2,08,69,31,184,39,80,09,215,,74,08,310,,84,06,311,,1*7D
$GAGSV,2,1,08,10,50,356,36,12,44,035,35,04,41,143,40,24,40,225,24,7*78
$GAGSV,2,2,08,11,39,317,37,19,32,068,16,25,29,291,20,33,09,078,21,7*71
$GAGSV,2,1,07,10,50,356,44,12,44,035,37,04,41,143,43,24,40,225,20,1*71
$GAGSV,2,2,07,11,39,317,41,25,29,291,15,33,09,078,21,1*4F
$GBGSV,4,1,15,40,76,177,43,33,76,101,41,07,73,224,37,10,70,264,40,1*71
$GBGSV,4,2,15,08,55,288,34,14,53,053,42,43,49,083,29,28,49,339,43,1*79
$GBGSV,4,3,15,13,47,274,27,41,39,201,32,42,27,042,38,37,11,257,,1*77
$GBGSV,4,4,15,27,09,309,,23,09,208,,39,06,174,,1*48
$GBGSV,2,1,06,33,76,101,46,40,76,177,45,28,49,339,44,43,49,083,28,4*75
$GBGSV,2,2,06,41,39,201,40,42,27,042,35,4*7E
$GNGGA,042648.000,2500.7892500,N,12132.4466700,E,2,55,0.52,15.61,M,15.25,M,1,3335*7F
$GNRMC,042648.000,A,2500.7892500,N,12132.4466700,E,0.02,141.40,270623,,,D,V*01
$GPHDT,,T*1B
$GNGGA,042648.200,2500.7892500,N,12132.4466700,E,2,55,0.52,15.62,M,15.25,M,1,3335*7E
$GNRMC,042648.200,A,2500.7892500,N,12132.4466700,E,0.02,141.40,270623,,,D,V*03
$GPHDT,,T*1B
$GNGGA,042648.400,2500.7892500,N,12132.4466800,E,2,55,0.52,15.62,M,15.25,M,1,3335*77
$GNRMC,042648.400,A,2500.7892500,N,12132.4466800,E,0.02,141.40,270623,,,D,V*0A
$GPHDT,,T*1B
$GNGGA,042648.600,2500.7892400,N,12132.4466900,E,2,55,0.52,15.61,M,15.25,M,1,3335*76
$GNRMC,042648.600,A,2500.7892400,N,12132.4466900,E,0.02,141.40,270623,,,D,V*08
$GPHDT,,T*1B
$GNGGA,042648.800,2500.7892400,N,12132.4466900,E,2,55,0.52,15.60,M,15.25,M,0,3335*78
$GNRMC,042648.800,A,2500.7892400,N,12132.4466900,E,0.02,141.40,270623,,,D,V*06
$GPHDT,,T*1B
$GNGSA,A,3,19,195,196,199,17,06,20,09,11,194,12,04,1.11,0.52,0.98,1*0C
$GNGSA,A,3,68,83,82,67,69,,,,,,,,1.11,0.52,0.98,2*04
$GNGSA,A,3,10,12,04,24,11,19,25,,,,,,1.11,0.52,0.98,3*0B
$GNGSA,A,3,40,33,07,10,08,14,28,43,13,41,42,,1.11,0.52,0.98,4*00
$GPGSV,4,1,15,19,71,078,42,195,69,050,35,196,69,118,40,50,60,167,36,1*68
$GPGSV,4,2,15,199,60,167,33,17,56,114,40,06,49,008,43,20,42,247,41,1*50
$GPGSV,4,3,15,09,37,082,30,11,35,305,31,194,34,173,33,12,23,304,28,1*50
$GPGSV,4,4,15,05,17,231,13,04,17,054,23,14,09,171,,1*58
$GPGSV,2,1,08,195,69,050,45,196,69,118,45,199,60,167,47,06,49,008,47,8*5C
$GPGSV,2,2,08,09,37,082,26,11,35,305,32,194,34,173,40,04,17,054,20,8*5C
$GLGSV,2,1,08,68,69,115,40,83,41,006,28,82,35,065,23,67,34,038,32,1*73
$GLGSV,2,2,08,69,31,184,39,80,09,215,,74,08,310,,84,06,311,,1*7D
$GAGSV,3,1,09,10,50,356,36,12,44,035,35,04,41,143,41,24,40,225,23,7*7E
$GAGSV,3,2,09,11,39,317,38,19,32,068,17,25,29,291,22,33,09,078,21,7*7D
$GAGSV,3,3,09,36,04,283,,7*42
$GAGSV,2,1,07,10,50,356,44,12,44,035,37,04,41,143,43,24,40,225,24,1*75
$GAGSV,2,2,07,11,39,317,41,25,29,291,13,33,09,078,21,1*49
$GBGSV,4,1,14,40,76,177,43,33,76,101,41,07,73,224,37,10,70,264,40,1*70
$GBGSV,4,2,14,08,55,288,34,14,53,053,42,28,49,339,43,43,49,083,29,1*78
$GBGSV,4,3,14,13,47,274,26,41,39,201,33,42,27,042,38,37,11,257,,1*76
$GBGSV,4,4,14,23,09,208,,27,09,309,,1*77
$GBGSV,2,1,06,33,76,101,46,40,76,177,45,28,49,339,44,43,49,083,28,4*75
$GBGSV,2,2,06,41,39,201,40,42,27,042,34,4*7F
$GNGGA,042649.000,2500.7892300,N,12132.4466900,E,2,55,0.52,15.60,M,15.25,M,1,3335*77
$GNRMC,042649.000,A,2500.7892300,N,12132.4466900,E,0.02,141.40,270623,,,D,V*08
$GPHDT,,T*1B
$GNGGA,042649.200,2500.7892400,N,12132.4466900,E,2,55,0.52,15.61,M,15.25,M,1,3335*73
$GNRMC,042649.200,A,2500.7892400,N,12132.4466900,E,0.02,141.40,270623,,,D,V*0D
$GPHDT,,T*1B
$GNGGA,042649.400,2500.7892300,N,12132.4466900,E,2,55,0.52,15.62,M,15.25,M,1,3335*71
$GNRMC,042649.400,A,2500.7892300,N,12132.4466900,E,0.05,141.40,270623,,,D,V*0B
$GPHDT,,T*1B
$GNGGA,042649.600,2500.7892300,N,12132.4466900,E,2,55,0.52,15.62,M,15.25,M,1,3335*73
$GNRMC,042649.600,A,2500.7892300,N,12132.4466900,E,0.03,141.40,270623,,,D,V*0F
$GPHDT,,T*1B
$GNGGA,042649.800,2500.7892300,N,12132.4466900,E,2,55,0.52,15.62,M,15.25,M,0,3335*7C
$GNRMC,042649.800,A,2500.7892300,N,12132.4466900,E,0.06,141.40,270623,,,D,V*04
$GPHDT,,T*1B
$GNGSA,A,3,19,195,196,199,17,06,20,09,11,194,12,04,1.11,0.52,0.98,1*0C
$GNGSA,A,3,68,83,82,67,69,,,,,,,,1.11,0.52,0.98,2*04
$GNGSA,A,3,10,12,04,24,11,19,25,,,,,,1.11,0.52,0.98,3*0B
$GNGSA,A,3,33,40,07,10,08,14,28,43,13,41,42,,1.11,0.52,0.98,4*00
$GPGSV,4,1,15,19,71,078,42,195,69,050,35,196,69,118,40,50,60,167,35,1*6B
$GPGSV,4,2,15,199,60,167,33,17,56,114,40,06,49,008,43,20,42,247,41,1*50
$GPGSV,4,3,15,09,37,082,28,11,35,305,30,194,34,173,31,12,23,304,27,1*55
$GPGSV,4,4,15,05,17,231,13,04,17,054,23,14,09,171,,1*58
$GPGSV,2,1,08,195,69,050,45,196,69,118,45,199,60,167,46,06,49,008,47,8*5D
$GPGSV,2,2,08,09,37,082,25,11,35,305,32,194,34,173,40,04,17,054,20,8*5F
$GLGSV,2,1,06,68,69,115,40,83,41,006,28,82,35,065,24,67,34,038,32,1*7A
$GLGSV,2,2,06,69,31,184,38,80,09,215,,1*72
$GAGSV,3,1,09,10,50,356,37,12,44,035,35,04,41,143,41,24,40,225,23,7*7F
$GAGSV,3,2,09,11,39,317,38,19,32,068,17,25,29,291,23,33,09,078,21,7*7C
$GAGSV,3,3,09,36,04,283,,7*42
$GAGSV,2,1,07,10,50,356,44,12,44,035,37,04,41,143,43,24,40,225,24,1*75
$GAGSV,2,2,07,11,39,317,41,25,29,291,12,33,09,078,21,1*48
$GBGSV,4,1,14,33,76,101,42,40,76,177,43,07,73,224,37,10,70,264,40,1*73
$GBGSV,4,2,14,08,55,288,33,14,53,053,42,28,49,339,43,43,49,083,29,1*7F
$GBGSV,4,3,14,13,47,274,26,41,39,201,30,42,27,042,38,37,11,257,,1*75
$GBGSV,4,4,14,34,09,112,,23,09,208,,1*7D
$GBGSV,2,1,06,33,76,101,46,40,76,177,45,28,49,339,44,43,49,083,27,4*7A
$GBGSV,2,2,06,41,39,201,37,42,27,042,33,4*78
$GNGGA,042650.000,2500.7892300,N,12132.4466900,E,2,55,0.52,15.63,M,15.25,M,1,3335*7C
$GNRMC,042650.000,A,2500.7892300,N,12132.4466900,E,0.01,141.40,270623,,,D,V*03
$GPHDT,,T*1B
$GNGGA,042650.200,2500.7892300,N,12132.4466900,E,2,55,0.52,15.63,M,15.25,M,1,3335*7E
$GNRMC,042650.200,A,2500.7892300,N,12132.4466900,E,0.03,141.40,270623,,,D,V*03
$GPHDT,,T*1B
$GNGGA,042650.400,2500.7892300,N,12132.4466900,E,2,55,0.52,15.63,M,15.25,M,1,3335*78
$GNRMC,042650.400,A,2500.7892300,N,12132.4466900,E,0.01,141.40,270623,,,D,V*07
$GPHDT,,T*1B
$GNGGA,042650.600,2500.7892300,N,12132.4466900,E,2,55,0.52,15.63,M,15.25,M,0,3335*7B
$GNRMC,042650.600,A,2500.7892300,N,12132.4466900,E,0.06,141.40,270623,,,D,V*02
$GPHDT,,T*1B
$GNGGA,042650.800,2500.7892300,N,12132.4466900,E,2,55,0.52,15.63,M,15.25,M,0,3335*75
$GNRMC,042650.800,A,2500.7892300,N,12132.4466900,E,0.05,141.40,270623,,,D,V*0F
$GPHDT,,T*1B
$GNGSA,A,3,19,195,196,199,17,06,20,09,11,194,12,04,1.11,0.52,0.98,1*0C
$GNGSA,A,3,68,83,82,67,69,,,,,,,,1.11,0.52,0.98,2*04
$GNGSA,A,3,10,12,04,24,11,19,25,,,,,,1.11,0.52,0.98,3*0B
$GNGSA,A,3,33,40,07,10,08,14,28,43,13,41,42,,1.11,0.52,0.98,4*00
$GPGSV,4,1,15,19,71,079,42,195,69,050,35,196,69,118,40,50,60,167,35,1*6A
$GPGSV,4,2,15,199,60,167,33,17,55,114,40,06,49,008,43,20,42,248,41,1*5C
$GPGSV,4,3,15,09,37,082,28,11,35,305,29,194,34,173,31,12,23,304,27,1*5D
$GPGSV,4,4,15,05,17,231,13,04,17,054,20,14,09,171,,1*5B
$GPGSV,2,1,08,195,69,050,45,196,69,118,45,199,60,167,46,06,49,008,47,8*5D
$GPGSV,2,2,08,09,37,082,26,11,35,305,32,194,34,173,40,04,17,054,20,8*5C
$GLGSV,2,1,06,68,69,115,41,83,41,006,28,82,35,065,28,67,34,038,31,1*74
$GLGSV,2,2,06,69,31,184,38,80,09,215,,1*72
$GAGSV,3,1,09,10,50,356,38,12,44,035,35,04,41,143,40,24,40,225,20,7*72
$GAGSV,3,2,09,11,39,317,38,19,32,068,15,25,29,291,25,33,09,078,21,7*78
$GAGSV,3,3,09,36,04,283,,7*42
$GAGSV,2,1,07,10,50,356,44,12,44,035,37,04,41,143,43,24,40,225,24,1*75
$GAGSV,2,2,07,11,39,317,41,25,29,291,12,33,09,078,21,1*48
$GBGSV,4,1,14,33,76,101,42,40,76,177,43,07,73,224,38,10,70,264,40,1*7C
$GBGSV,4,2,14,08,55,288,33,14,53,053,42,28,49,339,43,43,49,083,28,1*7E
$GBGSV,4,3,14,13,47,274,25,41,39,201,30,42,27,042,35,37,11,257,,1*7B
$GBGSV,4,4,14,34,09,112,,23,09,208,,1*7D
$GBGSV,2,1,06,33,76,101,46,40,76,177,45,28,49,339,44,43,49,083,27,4*7A
$GBGSV,2,2,06,41,39,201,37,42,27,042,34,4*7F
$GNGGA,042651.000,2500.7892300,N,12132.4466900,E,2,54,0.52,15.63,M,15.25,M,1,3335*7C
$GNRMC,042651.000,A,2500.7892300,N,12132.4466900,E,0.07,141.40,270623,,,D,V*04
$GPHDT,,T*1B
$GNGGA,042651.200,2500.7892300,N,12132.4466900,E,2,54,0.52,15.64,M,15.25,M,1,3335*79
$GNRMC,042651.200,A,2500.7892300,N,12132.4466900,E,0.02,141.40,270623,,,D,V*03
$GPHDT,,T*1B
$GNGGA,042651.400,2500.7892300,N,12132.4466900,E,2,54,0.52,15.64,M,15.25,M,1,3335*7F
$GNRMC,042651.400,A,2500.7892300,N,12132.4466900,E,0.01,141.40,270623,,,D,V*06
$GPHDT,,T*1B
$GNGGA,042651.600,2500.7892300,N,12132.4466900,E,2,55,0.52,15.64,M,15.25,M,0,3335*7D
$GNRMC,042651.600,A,2500.7892300,N,12132.4466900,E,0.01,141.40,270623,,,D,V*04
$GPHDT,,T*1B
$GNGGA,042651.800,2500.7892300,N,12132.4466900,E,2,55,0.52,15.64,M,15.25,M,0,3335*73
$GNRMC,042651.800,A,2500.7892300,N,12132.4466900,E,0.07,141.40,270623,,,D,V*0C
$GPHDT,,T*1B
$GNGSA,A,3,19,195,196,199,17,06,20,09,11,194,12,04,1.11,0.52,0.98,1*0C
$GNGSA,A,3,68,83,82,67,69,,,,,,,,1.11,0.52,0.98,2*04
$GNGSA,A,3,10,12,04,24,11,19,25,,,,,,1.11,0.52,0.98,3*0B
$GNGSA,A,3,33,40,07,10,08,14,28,43,13,41,42,,1.11,0.52,0.98,4*00
$GPGSV,4,1,15,19,71,079,42,195,69,050,35,196,69,118,40,50,60,167,36,1*69
$GPGSV,4,2,15,199,60,167,33,17,55,114,41,06,49,008,43,20,42,248,41,1*5D
$GPGSV,4,3,15,09,37,082,25,11,35,305,31,194,34,173,32,12,23,304,25,1*58
$GPGSV,4,4,15,05,17,231,13,04,17,054,23,14,09,171,,1*58
$GPGSV,2,1,08,195,69,050,45,196,69,118,45,199,60,167,46,06,49,008,47,8*5D
$GPGSV,2,2,08,09,37,082,26,11,35,305,33,194,34,173,40,04,17,054,20,8*5D
$GLGSV,2,1,05,68,69,115,40,83,41,006,28,82,35,065,28,67,34,038,30,1*77
$GLGSV,2,2,05,69,31,184,38,1*46
$GAGSV,3,1,09,10,50,356,38,12,44,035,35,04,41,143,40,24,40,225,21,7*73
$GAGSV,3,2,09,11,39,317,38,19,32,068,15,25,29,291,25,33,09,078,23,7*7A
$GAGSV,3,3,09,36,04,283,,7*42
$GAGSV,2,1,07,10,50,356,44,12,44,035,37,04,41,143,43,24,40,225,23,1*72
$GAGSV,2,2,07,11,39,317,41,25,29,291,13,33,09,078,21,1*49
$GBGSV,4,1,14,33,76,101,42,40,76,177,44,07,73,224,38,10,70,264,40,1*7B
$GBGSV,4,2,14,08,55,288,33,14,53,053,42,28,49,339,43,43,49,083,31,1*76
$GBGSV,4,3,14,13,47,274,25,41,39,201,32,42,27,042,36,11,26,099,,1*7A
$GBGSV,4,4,14,37,11,257,,34,09,112,,1*7B
$GBGSV,2,1,06,33,76,101,46,40,76,177,45,28,49,339,44,43,49,083,27,4*7A
$GBGSV,2,2,06,41,39,201,37,42,27,042,34,4*7F
$GNGGA,042652.000,2500.7892300,N,12132.4466900,E,2,55,0.52,15.64,M,15.25,M,1,3335*79
$GNRMC,042652.000,A,2500.7892300,N,12132.4466900,E,0.03,141.40,270623,,,D,V*03
$GPHDT,,T*1B
$GNGGA,042652.200,2500.7892300,N,12132.4466900,E,2,55,0.52,15.64,M,15.25,M,1,3335*7B
$GNRMC,042652.200,A,2500.7892300,N,12132.4466900,E,0.02,141.40,270623,,,D,V*00
$GPHDT,,T*1B
$GNGGA,042652.400,2500.7892300,N,12132.4466900,E,2,54,0.52,15.64,M,15.25,M,1,3335*7C
$GNRMC,042652.400,A,2500.7892300,N,12132.4466900,E,0.02,141.40,270623,,,D,V*06
$GPHDT,,T*1B
$GNGGA,042652.600,2500.7892300,N,12132.4466900,E,2,56,0.50,15.64,M,15.25,M,1,3335*7E
$GNRMC,042652.600,A,2500.7892300,N,12132.4466900,E,0.02,141.40,270623,,,D,V*04
$GPHDT,,T*1B
$GNGGA,042652.800,2500.7892300,N,12132.4466900,E,2,56,0.50,15.64,M,15.25,M,0,3335*71
$GNRMC,042652.800,A,2500.7892300,N,12132.4466900,E,0.05,141.40,270623,,,D,V*0D
$GPHDT,,T*1B
$GNGSA,A,3,19,195,196,199,17,06,20,09,11,194,12,04,1.07,0.50,0.95,1*04
$GNGSA,A,3,68,83,82,67,69,,,,,,,,1.07,0.50,0.95,2*0C
$GNGSA,A,3,10,12,04,24,11,19,25,,,,,,1.07,0.50,0.95,3*03
$GNGSA,A,3,33,40,07,10,08,14,28,43,13,41,42,11,1.07,0.50,0.95,4*08
$GPGSV,4,1,15,19,71,079,42,195,69,050,35,196,69,118,40,50,60,167,36,1*69
$GPGSV,4,2,15,199,60,167,33,17,55,114,41,06,49,008,43,20,42,248,41,1*5D
$GPGSV,4,3,15,09,37,082,20,11,35,305,31,194,34,173,34,12,23,304,24,1*5A
$GPGSV,4,4,15,05,17,231,13,04,17,054,22,14,09,171,,1*59
$GPGSV,2,1,08,195,69,050,45,196,69,118,45,199,60,167,46,06,49,008,47,8*5D
$GPGSV,2,2,08,09,37,082,22,11,35,305,34,194,34,173,40,04,17,054,18,8*55
$GLGSV,2,1,05,68,69,115,40,83,41,006,28,82,35,065,30,67,34,038,29,1*76
$GLGSV,2,2,05,69,31,184,38,1*46
$GAGSV,3,1,09,10,50,356,39,12,44,035,35,04,41,143,40,24,40,225,21,7*72
$GAGSV,3,2,09,11,39,317,38,19,32,068,15,25,29,291,27,33,09,078,22,7*79
$GAGSV,3,3,09,36,04,283,,7*42
$GAGSV,2,1,07,10,50,356,44,12,44,035,37,04,41,143,43,24,40,225,22,1*73
$GAGSV,2,2,07,11,39,317,41,25,29,291,14,33,09,078,20,1*4F
$GBGSV,4,1,14,33,76,101,42,40,76,177,44,07,73,224,38,10,70,264,40,1*7B
$GBGSV,4,2,14,08,55,288,34,14,53,053,42,28,49,339,43,43,49,083,29,1*78
$GBGSV,4,3,14,13,47,274,26,41,39,201,31,42,27,042,36,11,26,099,36,1*7F
$GBGSV,4,4,14,37,11,257,,23,09,208,,1*75
$GBGSV,2,1,06,33,76,101,46,40,76,177,45,28,49,339,44,43,49,083,27,4*7A
$GBGSV,2,2,06,41,39,201,36,42,27,042,34,4*7E
$GNGGA,042653.000,2500.7892300,N,12132.4466900,E,2,56,0.50,15.65,M,15.25,M,1,3335*78
$GNRMC,042653.000,A,2500.7892300,N,12132.4466900,E,0.02,141.40,270623,,,D,V*03
$GPHDT,,T*1B
$GNGGA,042653.200,2500.7892300,N,12132.4466900,E,2,56,0.50,15.65,M,15.25,M,1,3335*7A
$GNRMC,042653.200,A,2500.7892300,N,12132.4466900,E,0.01,141.40,270623,,,D,V*02
$GPHDT,,T*1B
$GNGGA,042653.400,2500.7892300,N,12132.4466900,E,2,56,0.50,15.65,M,15.25,M,1,3335*7C
$GNRMC,042653.400,A,2500.7892300,N,12132.4466900,E,0.02,141.40,270623,,,D,V*07
$GPHDT,,T*1B
$GNGGA,042653.600,2500.7892300,N,12132.4466900,E,2,55,0.50,15.65,M,15.25,M,0,3335*7C
$GNRMC,042653.600,A,2500.7892300,N,12132.4466900,E,0.00,141.40,270623,,,D,V*07
$GPHDT,,T*1B
$GNGGA,042653.800,2500.7892300,N,12132.4466900,E,2,56,0.50,15.65,M,15.25,M,0,3335*71
$GNRMC,042653.800,A,2500.7892300,N,12132.4466900,E,0.03,141.40,270623,,,D,V*0A
$GPHDT,,T*1B
$GNGSA,A,3,19,195,196,199,17,06,20,09,11,194,12,04,1.07,0.50,0.95,1*04
$GNGSA,A,3,68,83,82,67,69,,,,,,,,1.07,0.50,0.95,2*0C
$GNGSA,A,3,10,12,04,24,11,19,25,,,,,,1.07,0.50,0.95,3*03
$GNGSA,A,3,33,40,07,10,08,14,28,43,13,41,42,11,1.07,0.50,0.95,4*08
$GPGSV,4,1,15,19,71,079,42,195,69,050,35,196,69,118,39,50,60,167,35,1*64
$GPGSV,4,2,15,199,60,167,33,17,55,114,41,06,49,008,43,20,42,248,41,1*5D
$GPGSV,4,3,15,09,37,082,19,11,35,305,28,194,34,173,32,12,23,304,21,1*5B
$GPGSV,4,4,15,05,17,231,13,04,17,054,19,14,09,171,,1*51
$GPGSV,2,1,08,195,69,050,45,196,69,118,45,199,60,167,46,06,49,008,47,8*5D
$GPGSV,2,2,08,09,37,082,18,11,35,305,33,194,34,173,40,04,17,054,17,8*54
$GLGSV,2,1,06,68,69,115,41,83,41,006,28,82,35,065,32,67,34,038,29,1*76
$GLGSV,2,2,06,69,31,184,38,73,17,267,,1*74
$GAGSV,3,1,09,10,50,356,39,12,44,035,35,04,41,143,40,24,40,225,21,7*72
$GAGSV,3,2,09,11,39,317,38,19,32,068,16,25,29,291,26,09,10,188,,7*74
$GAGSV,3,3,09,33,09,078,21,7*4F
$GAGSV,2,1,07,10,50,356,44,12,44,035,37,04,41,143,43,24,40,225,24,1*75
$GAGSV,2,2,07,11,39,317,41,25,29,291,12,33,09,078,21,1*48
$GBGSV,4,1,14,33,76,101,42,40,76,177,44,07,73,224,38,10,70,264,40,1*7B
$GBGSV,4,2,14,08,55,288,34,14,53,053,42,28,49,339,43,43,49,083,28,1*79
$GBGSV,4,3,14,13,47,274,26,41,39,201,30,42,27,042,36,11,26,099,37,1*7F
$GBGSV,4,4,14,37,11,257,,23,09,208,,1*75
$GBGSV,2,1,06,33,76,101,46,40,76,177,45,28,49,339,44,43,49,083,25,4*78
$GBGSV,2,2,06,41,39,201,34,42,27,042,35,4*7D
$GNGGA,042654.000,2500.7892300,N,12132.4466900,E,2,56,0.50,15.65,M,15.25,M,1,3335*7F
$GNRMC,042654.000,A,2500.7892300,N,12132.4466900,E,0.03,141.40,270623,,,D,V*05
$GPHDT,,T*1B
$GNGGA,042654.200,2500.7892300,N,12132.4466900,E,2,56,0.50,15.65,M,15.25,M,1,3335*7D
$GNRMC,042654.200,A,2500.7892300,N,12132.4466900,E,0.03,141.40,270623,,,D,V*07
$GPHDT,,T*1B
$GNGGA,042654.400,2500.7892300,N,12132.4466900,E,2,56,0.50,15.65,M,15.25,M,1,3335*7B
$GNRMC,042654.400,A,2500.7892300,N,12132.4466900,E,0.06,141.40,270623,,,D,V*04
$GPHDT,,T*1B
$GNGGA,042654.600,2500.7892300,N,12132.4466900,E,2,54,0.50,15.65,M,15.25,M,0,3335*7A
$GNRMC,042654.600,A,2500.7892300,N,12132.4466900,E,0.01,141.40,270623,,,D,V*01
$GPHDT,,T*1B
$GNGGA,042654.800,2500.7892300,N,12132.4466900,E,2,54,0.50,15.65,M,15.25,M,0,3335*74
$GNRMC,042654.800,A,2500.7892300,N,12132.4466900,E,0.09,141.40,270623,,,D,V*07
$GPHDT,,T*1B
$GNGSA,A,3,19,195,196,199,17,06,20,09,11,194,12,,1.13,0.50,1.01,1*09
$GNGSA,A,3,68,83,82,67,69,,,,,,,,1.13,0.50,1.01,2*05
$GNGSA,A,3,10,12,04,24,11,19,25,,,,,,1.13,0.50,1.01,3*0A
$GNGSA,A,3,40,33,07,10,08,14,28,43,13,41,42,11,1.13,0.50,1.01,4*01
$GPGSV,4,1,15,19,71,079,42,195,69,050,36,196,69,118,38,50,60,167,34,1*67
$GPGSV,4,2,15,199,60,167,33,17,55,114,41,06,49,008,43,20,42,248,41,1*5D
$GPGSV,4,3,15,09,37,082,22,11,35,305,27,194,34,173,32,12,23,304,19,1*57
$GPGSV,4,4,15,05,17,231,14,04,17,054,16,14,09,171,,1*59
$GPGSV,2,1,07,196,69,118,45,195,69,050,45,199,60,167,46,06,49,008,47,8*52
$GPGSV,2,2,07,09,37,082,17,11,35,305,33,194,34,173,40,8*61
$GLGSV,2,1,07,68,69,115,41,83,41,006,28,82,35,065,32,67,34,038,25,1*7B
$GLGSV,2,2,07,69,31,184,38,73,17,267,,80,09,215,,1*42
$GAGSV,3,1,09,10,50,356,39,12,44,035,35,04,41,143,40,24,40,225,24,7*77
$GAGSV,3,2,09,11,39,317,38,19,32,068,17,25,29,291,28,09,10,188,,7*7B
$GAGSV,3,3,09,33,09,078,22,7*4C
$GAGSV,2,1,07,10,50,356,44,12,44,035,37,04,41,143,42,24,40,225,23,1*73
$GAGSV,2,2,07,11,39,317,41,25,29,291,12,33,09,078,19,1*43
$GBGSV,4,1,14,40,76,177,44,33,76,101,42,07,73,224,38,10,70,264,40,1*7B
$GBGSV,4,2,14,08,55,288,33,14,53,053,42,28,49,339,43,43,49,083,31,1*76
$GBGSV,4,3,14,13,47,274,25,41,39,201,32,42,27,042,34,11,26,099,37,1*7C
$GBGSV,4,4,14,37,11,257,,23,09,208,,1*75
$GBGSV,2,1,06,33,76,101,45,40,76,177,45,28,49,339,44,43,49,083,22,4*7C
$GBGSV,2,2,06,41,39,201,34,42,27,042,33,4*7B
$GNGGA,042655.000,2500.7892300,N,12132.4466900,E,2,54,0.50,15.65,M,15.25,M,1,3335*7C
$GNRMC,042655.000,A,2500.7892300,N,12132.4466900,E,0.01,141.40,270623,,,D,V*06
$GPHDT,,T*1B
$GNGGA,042655.200,2500.7892300,N,12132.4466900,E,2,53,0.50,15.65,M,15.25,M,1,3335*79
$GNRMC,042655.200,A,2500.7892300,N,12132.4466900,E,0.01,141.40,270623,,,D,V*04
$GPHDT,,T*1B
$GNGGA,042655.400,2500.7892300,N,12132.4466900,E,2,52,0.50,15.65,M,15.25,M,1,3335*7E
$GNRMC,042655.400,A,2500.7892300,N,12132.4466900,E,0.00,141.40,270623,,,D,V*03
$GPHDT,,T*1B
$GNGGA,042655.600,2500.7892300,N,12132.4466900,E,2,52,0.50,15.64,M,15.25,M,1,3335*7D
$GNRMC,042655.600,A,2500.7892300,N,12132.4466900,E,0.01,141.40,270623,,,D,V*00
$GPHDT,,T*1B
$GNGGA,042655.800,2500.7892300,N,12132.4466900,E,2,51,0.50,15.64,M,15.25,M,0,3335*71
$GNRMC,042655.800,A,2500.7892300,N,12132.4466900,E,0.01,141.40,270623,,,D,V*0E
