$FW : RTK35X,V1.1X0314AS,Lib20210517,1*54
$Tool : LOCOSYS , GNSS Firebird , v1.0.0.19*39
$---------------------------------------------------*2D
,1*5F
$GPGSV,4,4,16,32,15,281,20,05,10,128,19,28,04,222,,13,01,066,,1*67
$GPGSV,3,1,10,196,76,075,32,23,63,348,34,24,60,034,21,199,60,167,46,8*6F
$GPGSV,3,2,10,18,50,225,46,194,36,135,45,195,29,179,40,10,28,324,31,8*68
$GPGSV,3,3,10,25,19,169,31,32,15,281,28,8*6B
$GLGSV,2,1,06,73,54,150,41,80,44,053,25,71,28,329,37,86,27,284,34,1*72
$GLGSV,2,2,06,85,24,232,25,74,16,185,19,1*71
$GAGSV,3,1,10,13,46,219,42,07,46,318,36,08,42,038,24,26,36,295,37,7*7E
$GAGSV,3,2,10,30,35,135,38,02,27,073,17,15,13,173,,27,09,184,,7*7D
$GAGSV,3,3,10,03,06,073,18,33,01,327,,7*7D
$GAGSV,2,1,07,07,46,318,43,13,46,219,42,08,42,038,24,26,36,295,37,1*7D
$GAGSV,2,2,07,30,35,135,38,02,27,073,22,15,13,173,29,1*40
$GBGSV,4,1,15,08,86,336,41,38,80,161,44,13,73,319,43,39,68,300,44,1*7A
$GBGSV,4,2,15,16,65,275,43,06,64,270,41,46,62,084,24,19,55,001,24,1*70
$GBGSV,4,3,15,09,51,250,40,36,48,183,44,20,39,079,22,22,18,310,29,1*7E
$GBGSV,4,4,15,35,17,257,40,37,14,041,26,29,11,203,14,1*49
$GBGSV,3,1,10,38,80,161,46,39,68,300,45,46,62,084,31,19,55,001,28,4*7A
$GBGSV,3,2,10,36,48,183,44,20,39,079,12,22,18,310,17,35,17,257,41,4*7D
$GBGSV,3,3,10,37,14,041,24,29,11,203,16,4*7D
$GNACCURACY,2.5*11
$PAIRSAT,1,35,1,0,200,2,0,200,3,0,200,4,0,200,5,0,201,6,0,200,7,0,200,8,0,200,9,0,200,10,0,221,11,0,200,12,0,201,13,0,201,14,0,200,15,0,201,16,0,200,17,0,200,18,0,221,19,0,200,20,0,200,21,0,200,23,0,221,24,0,221,25,0,221,26,0,200,27,0,200,28,0,200,29,0,200,30,0,200,31,0,200,32,0,221,194,0,621,195,0,621,196,0,620,199,0,621*6B
$PAIRSAT,2,24,65,0,200,66,0,200,67,0,200,68,0,200,69,0,200,70,0,200,71,0,201,72,0,200,73,0,201,74,0,200,75,0,200,76,0,200,77,0,200,78,0,200,79,0,201,80,0,201,81,0,200,82,0,200,83,0,200,84,0,200,85,0,201,86,0,201,87,0,200,88,0,200*7A
$PAIRSAT,3,23,2,0,1221,3,0,1221,4,0,1200,5,0,200,7,0,1221,8,0,1221,9,0,1200,10,0,1200,11,0,1200,12,0,1200,13,0,1221,15,0,1221,19,0,1200,21,0,1200,24,0,1200,25,0,1200,26,0,1221,27,0,1200,30,0,1221,31,0,1200,33,0,1200,34,0,1200,36,0,1200*6A
$PAIRSAT,4,50,1,0,200,2,0,200,3,0,200,4,0,200,5,0,200,6,0,201,7,0,200,8,0,201,9,0,201,10,0,200,11,0,200,12,0,200,13,0,201,14,0,200,15,0,200,16,0,201,19,0,621,20,0,621,21,0,600,22,0,621,23,0,600,24,0,600,25,0,600,26,0,600,27,0,600,28,0,600,29,0,621,30,0,600,31,0,200,32,0,600,33,0,600,34,0,600,35,0,621,36,0,621,37,0,621,38,0,621,39,0,621,40,0,600,41,0,600,42,0,600,43,0,600,44,0,600,45,0,600,46,0,621,56,0,200,57,0,200,58,0,200,59,0,600,60,0,600,61,0,600*41
$PAIRDGP,10,5,10,12,15,18,23,24,25,28,32*45
$GNGGA,115550.200,2500.8288214,N,12132.4546099,E,2,65,0.44,15.733,M,15.25,M,3,3335*4A
$GNRMC,115550.200,A,2500.8288214,N,12132.4546099,E,0.02,314.86,260623,,,D,V*0B
$GPHDT,,T*1B
$GNACCURACY,2.5*11
$GNGGA,115550.300,2500.8285086,N,12132.4547097,E,4,65,0.44,15.964,M,15.25,M,3,3335*4A
$GNRMC,115550.300,A,2500.8285086,N,12132.4547097,E,0.02,314.86,260623,,,R,V*17
$GPHDT,,T*1B
$GNACCURACY,2.5*11
$GNGGA,115550.400,2500.8285098,N,12132.4547104,E,4,66,0.44,15.965,M,15.25,M,2,3335*4A
$GNRMC,115550.400,A,2500.8285098,N,12132.4547104,E,0.02,314.86,260623,,,R,V*14
$GPHDT,,T*1B
$GNACCURACY,2.5*11
$GNGGA,115550.500,2500.8285100,N,12132.4547093,E,4,66,0.44,15.964,M,15.25,M,2,3335*45
$GNRMC,115550.500,A,2500.8285100,N,12132.4547093,E,0.02,314.86,260623,,,R,V*1A
$GPHDT,,T*1B
$GNACCURACY,2.5*11
$GNGGA,115550.600,2500.8285081,N,12132.4547110,E,4,65,0.44,15.963,M,15.25,M,0,3335*42
$GNRMC,115550.600,A,2500.8285081,N,12132.4547110,E,0.02,314.86,260623,,,R,V*1B
$GPHDT,,T*1B
$GNACCURACY,2.6*12
$GNGGA,115550.700,2500.8285082,N,12132.4547128,E,4,65,0.44,15.961,M,15.25,M,0,3335*49
$GNRMC,115550.700,A,2500.8285082,N,12132.4547128,E,0.02,314.86,260623,,,R,V*12
$GPHDT,,T*1B
$GNACCURACY,2.5*11
$GNGGA,115550.800,2500.8285061,N,12132.4547118,E,4,65,0.44,15.967,M,15.25,M,0,3335*4E
$GNRMC,115550.800,A,2500.8285061,N,12132.4547118,E,0.02,314.86,260623,,,R,V*13
$GPHDT,,T*1B
$GNACCURACY,2.6*12
$GNGGA,115550.900,2500.8285086,N,12132.4547131,E,4,66,0.44,15.968,M,15.25,M,0,3335*41
$GNRMC,115550.900,A,2500.8285086,N,12132.4547131,E,0.02,314.86,260623,,,R,V*10
$GPHDT,,T*1B
$GNACCURACY,2.6*12
$GNGGA,115551.000,2500.8285085,N,12132.4547121,E,4,66,0.44,15.968,M,15.25,M,1,3335*4A
$GNRMC,115551.000,A,2500.8285085,N,12132.4547121,E,0.02,314.86,260623,,,R,V*1A
$GPHDT,,T*1B
$GNACCURACY,2.6*12
$GNGGA,115551.100,2500.8285095,N,12132.4547119,E,4,66,0.44,15.967,M,15.25,M,1,3335*4E
$GNRMC,115551.100,A,2500.8285095,N,12132.4547119,E,0.02,314.86,260623,,,R,V*11
$GPHDT,,T*1B
$GNGSA,A,3,196,23,24,199,18,194,15,12,195,10,25,32,0.78,0.44,0.65,1*0D
$GNGSA,A,3,05,,,,,,,,,,,,0.78,0.44,0.65,1*08
$GNGSA,A,3,73,80,71,86,85,,,,,,,,0.78,0.44,0.65,2*07
$GNGSA,A,3,13,07,08,26,30,02,15,,,,,,0.78,0.44,0.65,3*03
$GNGSA,A,3,08,38,13,39,16,06,46,19,09,36,20,22,0.78,0.44,0.65,4*06
$GNGSA,A,3,35,37,29,,,,,,,,,,0.78,0.44,0.65,4*01
$GPGSV,4,1,16,196,76,075,34,23,63,348,32,24,60,034,30,199,60,167,35,1*63
$GPGSV,4,2,16,18,50,225,45,41,38,242,42,194,36,135,44,15,30,060,28,1*54
$GPGSV,4,3,16,12,29,130,35,195,29,179,41,10,28,324,37,25,19,169,34,1*58
$GPGSV,4,4,16,32,15,281,22,05,10,128,17,28,04,222,,13,01,066,,1*6B
$GPGSV,3,1,10,196,76,075,33,23,63,348,32,24,60,034,21,199,60,167,46,8*68
$GPGSV,3,2,10,18,50,225,46,194,36,135,45,195,29,179,40,10,28,324,33,8*6A
$GPGSV,3,3,10,25,19,169,30,32,15,281,29,8*6B
$GLGSV,2,1,06,73,54,150,41,80,44,053,23,71,28,329,37,86,27,284,33,1*73
$GLGSV,2,2,06,85,24,232,24,74,16,185,19,1*70
$GAGSV,3,1,10,13,46,219,42,07,46,318,36,08,42,038,28,26,36,295,37,7*72
$GAGSV,3,2,10,30,35,135,38,02,27,073,19,15,13,173,18,27,09,184,,7*7A
$GAGSV,3,3,10,03,06,073,18,33,01,327,,7*7D
$GAGSV,2,1,07,07,46,318,43,13,46,219,42,08,42,038,24,26,36,295,36,1*7C
$GAGSV,2,2,07,30,35,135,38,02,27,073,23,15,13,173,29,1*41
$GBGSV,4,1,15,08,86,336,41,38,80,161,44,13,73,319,43,39,68,300,44,1*7A
$GBGSV,4,2,15,16,65,275,43,06,64,270,41,46,62,084,22,19,55,001,19,1*78
$GBGSV,4,3,15,09,51,250,40,36,48,183,44,20,39,079,25,22,18,310,29,1*79
$GBGSV,4,4,15,35,17,257,40,37,14,041,26,29,11,203,15,1*48
$GBGSV,3,1,10,38,80,161,46,39,68,300,45,46,62,084,33,19,55,001,28,4*78
$GBGSV,3,2,10,36,48,183,44,20,39,079,11,22,18,310,16,35,17,257,41,4*7F
$GBGSV,3,3,10,37,14,041,22,29,11,203,16,4*7B
$GNACCURACY,2.5*11
$PAIRSAT,1,35,1,0,200,2,0,200,3,0,200,4,0,200,5,0,201,6,0,200,7,0,200,8,0,200,9,0,200,10,0,221,11,0,200,12,0,201,13,0,201,14,0,200,15,0,201,16,0,200,17,0,200,18,0,221,19,0,200,20,0,200,21,0,200,23,0,221,24,0,221,25,0,221,26,0,200,27,0,200,28,0,200,29,0,200,30,0,200,31,0,200,32,0,221,194,0,621,195,0,621,196,0,620,199,0,621*6B
$PAIRSAT,2,24,65,0,200,66,0,200,67,0,200,68,0,200,69,0,200,70,0,200,71,0,201,72,0,200,73,0,201,74,0,200,75,0,200,76,0,200,77,0,200,78,0,200,79,0,201,80,0,201,81,0,200,82,0,200,83,0,200,84,0,200,85,0,201,86,0,201,87,0,200,88,0,200*7A
$PAIRSAT,3,23,2,0,1221,3,0,1221,4,0,1200,5,0,200,7,0,1221,8,0,1221,9,0,1200,10,0,1200,11,0,1200,12,0,1200,13,0,1221,15,0,1221,19,0,1200,21,0,1200,24,0,1200,25,0,1200,26,0,1221,27,0,1200,30,0,1221,31,0,1200,33,0,1200,34,0,1200,36,0,1200*6A
$PAIRSAT,4,50,1,0,200,2,0,200,3,0,200,4,0,200,5,0,200,6,0,201,7,0,200,8,0,201,9,0,201,10,0,200,11,0,200,12,0,200,13,0,201,14,0,200,15,0,200,16,0,201,19,0,621,20,0,621,21,0,600,22,0,621,23,0,600,24,0,600,25,0,600,26,0,600,27,0,600,28,0,600,29,0,621,30,0,600,31,0,200,32,0,600,33,0,600,34,0,600,35,0,621,36,0,621,37,0,621,38,0,621,39,0,621,40,0,600,41,0,600,42,0,600,43,0,600,44,0,600,45,0,600,46,0,621,56,0,200,57,0,200,58,0,200,59,0,600,60,0,600,61,0,600*41
$PAIRDGP,10,5,10,12,15,18,23,24,25,28,32*45
$GNGGA,115551.200,2500.8285101,N,12132.4547117,E,4,66,0.44,15.969,M,15.25,M,1,3335*41
$GNRMC,115551.200,A,2500.8285101,N,12132.4547117,E,0.02,314.86,260623,,,R,V*10
$GPHDT,,T*1B
$GNACCURACY,2.5*11
$GNGGA,115551.300,2500.8285118,N,12132.4547070,E,4,65,0.44,15.978,M,15.25,M,1,3335*4B
$GNRMC,115551.300,A,2500.8285118,N,12132.4547070,E,0.01,314.86,260623,,,R,V*1A
$GPHDT,,T*1B
$GNACCURACY,2.5*11
$GNGGA,115551.400,2500.8285106,N,12132.4547115,E,4,65,0.44,15.956,M,15.25,M,1,3335*4D
$GNRMC,115551.400,A,2500.8285106,N,12132.4547115,E,0.01,314.86,260623,,,R,V*10
$GPHDT,,T*1B
$GNACCURACY,2.5*11
$GNGGA,115551.500,2500.8285127,N,12132.4547111,E,4,65,0.44,15.962,M,15.25,M,1,3335*4C
$GNRMC,115551.500,A,2500.8285127,N,12132.4547111,E,0.01,314.86,260623,,,R,V*16
$GPHDT,,T*1B
$GNACCURACY,2.5*11
$GNGGA,115551.600,2500.8285102,N,12132.4547142,E,4,65,0.44,15.957,M,15.25,M,0,3335*49
$GNRMC,115551.600,A,2500.8285102,N,12132.4547142,E,0.01,314.86,260623,,,R,V*14
$GPHDT,,T*1B
$GNACCURACY,2.5*11
$GNGGA,115551.700,2500.8285090,N,12132.4547133,E,4,65,0.44,15.961,M,15.25,M,0,3335*41
$GNRMC,115551.700,A,2500.8285090,N,12132.4547133,E,0.01,314.86,260623,,,R,V*19
$GPHDT,,T*1B
$GNACCURACY,2.5*11
$GNGGA,115551.800,2500.8285094,N,12132.4547114,E,4,64,0.45,15.961,M,15.25,M,0,3335*4F
$GNRMC,115551.800,A,2500.8285094,N,12132.4547114,E,0.01,314.86,260623,,,R,V*17
$GPHDT,,T*1B
$GNACCURACY,2.5*11
$GNGGA,115551.900,2500.8285135,N,12132.4547123,E,4,65,0.44,15.942,M,15.25,M,0,3335*41
$GNRMC,115551.900,A,2500.8285135,N,12132.4547123,E,0.01,314.86,260623,,,R,V*18
$GPHDT,,T*1B
$GNACCURACY,2.5*11
$GNGGA,115552.000,2500.8285135,N,12132.4547085,E,4,64,0.45,15.967,M,15.25,M,1,3335*40
$GNRMC,115552.000,A,2500.8285135,N,12132.4547085,E,0.01,314.86,260623,,,R,V*1F
$GPHDT,,T*1B
$GNACCURACY,2.5*11
$GNGGA,115552.100,2500.8285149,N,12132.4547102,E,4,64,0.45,15.971,M,15.25,M,1,3335*43
$GNRMC,115552.100,A,2500.8285149,N,12132.4547102,E,0.01,314.86,260623,,,R,V*1B
$GPHDT,,T*1B
$GNGSA,A,3,196,23,24,199,18,194,15,12,195,10,25,32,0.81,0.45,0.68,1*07
$GNGSA,A,3,73,80,71,86,85,,,,,,,,0.81,0.45,0.68,2*0D
$GNGSA,A,3,13,07,08,26,30,02,15,,,,,,0.81,0.45,0.68,3*09
$GNGSA,A,3,08,38,13,39,16,06,46,19,09,36,20,22,0.81,0.45,0.68,4*0C
$GNGSA,A,3,35,37,29,,,,,,,,,,0.81,0.45,0.68,4*0B
$GPGSV,4,1,16,196,76,075,35,23,63,348,31,24,60,034,32,199,60,167,35,1*63
$GPGSV,4,2,16,18,50,225,45,41,38,242,42,194,36,135,44,15,30,060,28,1*54
$GPGSV,4,3,16,12,29,130,35,195,29,179,40,10,28,324,36,25,19,169,34,1*58
$GPGSV,4,4,16,32,15,281,19,05,10,128,14,28,04,222,,13,01,066,,1*60
$GPGSV,3,1,10,196,76,075,31,23,63,348,31,24,60,034,29,199,60,167,46,8*61
$GPGSV,3,2,10,18,50,225,46,194,36,135,44,195,29,179,39,10,28,324,33,8*65
$GPGSV,3,3,10,25,19,169,30,32,15,281,28,8*6A
$GLGSV,2,1,07,73,54,150,42,80,44,053,24,70,42,030,,71,28,329,35,1*73
$GLGSV,2,2,07,86,27,284,33,85,24,232,25,74,16,185,22,1*4D
$GAGSV,3,1,10,13,46,219,42,07,46,318,36,08,42,038,29,26,36,295,37,7*73
$GAGSV,3,2,10,30,35,135,38,02,27,073,19,15,13,173,18,27,09,184,,7*7A
$GAGSV,3,3,10,03,06,073,15,33,01,327,,7*70
$GAGSV,2,1,07,07,46,318,43,13,46,219,41,08,42,038,24,26,36,295,36,1*7F
$GAGSV,2,2,07,30,35,135,37,02,27,073,21,15,13,173,29,1*4C
$GBGSV,5,1,17,08,86,336,41,38,80,161,44,13,73,319,43,39,68,300,44,1*79
$GBGSV,5,2,17,16,65,275,43,06,64,270,41,46,62,084,24,19,55,001,28,1*7F
$GBGSV,5,3,17,09,51,250,40,36,48,183,44,56,47,318,,20,39,079,28,1*7D
$GBGSV,5,4,17,22,18,310,26,35,17,257,40,37,14,041,25,29,11,203,13,1*71
$GBGSV,5,5,17,45,01,207,,1*45
$GBGSV,2,1,08,38,80,161,46,39,68,300,45,46,62,084,33,19,55,001,28,4*70
$GBGSV,2,2,08,36,48,183,44,22,18,310,19,35,17,257,41,29,11,203,16,4*73
$GNACCURACY,2.5*11
$PAIRSAT,1,35,1,0,200,2,0,200,3,0,200,4,0,200,5,0,201,6,0,200,7,0,200,8,0,200,9,0,200,10,0,221,11,0,200,12,0,201,13,0,201,14,0,200,15,0,201,16,0,200,17,0,200,18,0,221,19,0,200,20,0,200,21,0,200,23,0,221,24,0,221,25,0,221,26,0,200,27,0,200,28,0,200,29,0,200,30,0,200,31,0,200,32,0,221,194,0,621,195,0,621,196,0,620,199,0,621*6B
$PAIRSAT,2,24,65,0,200,66,0,200,67,0,200,68,0,200,69,0,200,70,0,200,71,0,201,72,0,200,73,0,201,74,0,200,75,0,200,76,0,200,77,0,200,78,0,200,79,0,201,80,0,201,81,0,200,82,0,200,83,0,200,84,0,200,85,0,201,86,0,201,87,0,200,88,0,200*7A
$PAIRSAT,3,23,2,0,1221,3,0,1221,4,0,1200,5,0,200,7,0,1221,8,0,1221,9,0,1200,10,0,1200,11,0,1200,12,0,1200,13,0,1221,15,0,1221,19,0,1200,21,0,1200,24,0,1200,25,0,1200,26,0,1221,27,0,1200,30,0,1221,31,0,1200,33,0,1200,34,0,1200,36,0,1200*6A
$PAIRSAT,4,50,1,0,200,2,0,200,3,0,200,4,0,200,5,0,200,6,0,201,7,0,200,8,0,201,9,0,201,10,0,200,11,0,200,12,0,200,13,0,201,14,0,200,15,0,200,16,0,201,19,0,621,20,0,621,21,0,600,22,0,621,23,0,600,24,0,600,25,0,600,26,0,600,27,0,600,28,0,600,29,0,621,30,0,600,31,0,200,32,0,600,33,0,600,34,0,600,35,0,621,36,0,621,37,0,621,38,0,621,39,0,621,40,0,600,41,0,600,42,0,600,43,0,600,44,0,600,45,0,600,46,0,621,56,0,200,57,0,200,58,0,200,59,0,600,60,0,600,61,0,600*41
$PAIRDGP,10,5,10,12,15,18,23,24,25,28,32*45
$GNGGA,115552.200,2500.8285114,N,12132.4547083,E,4,63,0.45,15.969,M,15.25,M,1,3335*4E
$GNRMC,115552.200,A,2500.8285114,N,12132.4547083,E,0.01,314.86,260623,,,R,V*18
$GPHDT,,T*1B
$GNACCURACY,2.5*11
$GNGGA,115552.300,2500.8285094,N,12132.4547095,E,4,64,0.44,15.946,M,15.25,M,1,3335*4A
$GNRMC,115552.300,A,2500.8285094,N,12132.4547095,E,0.01,314.86,260623,,,R,V*17
$GPHDT,,T*1B
$GNACCURACY,2.5*11
$GNGGA,115552.400,2500.8285097,N,12132.4547121,E,4,63,0.45,15.959,M,15.25,M,1,3335*48
$GNRMC,115552.400,A,2500.8285097,N,12132.4547121,E,0.01,314.86,260623,,,R,V*1D
$GPHDT,,T*1B
$GNACCURACY,2.5*11
$GNGGA,115552.500,2500.8285101,N,12132.4547108,E,4,62,0.45,15.950,M,15.25,M,1,3335*44
$GNRMC,115552.500,A,2500.8285101,N,12132.4547108,E,0.01,314.86,260623,,,R,V*19
$GPHDT,,T*1B
$GNACCURACY,2.5*11
$GNGGA,115552.600,2500.8285106,N,12132.4547114,E,4,62,0.45,15.953,M,15.25,M,1,3335*4E
$GNRMC,115552.600,A,2500.8285106,N,12132.4547114,E,0.01,314.86,260623,,,R,V*10
$GPHDT,,T*1B
$GNACCURACY,2.5*11
$GNGGA,115552.700,2500.8285091,N,12132.4547102,E,4,62,0.45,15.952,M,15.25,M,1,3335*46
$GNRMC,115552.700,A,2500.8285091,N,12132.4547102,E,0.01,314.86,260623,,,R,V*19
$GPHDT,,T*1B
$GNACCURACY,2.5*11
$GNGGA,115552.800,2500.8285123,N,12132.4547070,E,4,62,0.45,15.969,M,15.25,M,1,3335*4D
$GNRMC,115552.800,A,2500.8285123,N,12132.4547070,E,0.01,314.86,260623,,,R,V*1A
$GPHDT,,T*1B
$GNACCURACY,2.5*11
$GNGGA,115552.900,2500.8285087,N,12132.4547120,E,4,62,0.45,15.954,M,15.25,M,0,3335*48
$GNRMC,115552.900,A,2500.8285087,N,12132.4547120,E,0.01,314.86,260623,,,R,V*10
$GPHDT,,T*1B
$GNACCURACY,2.5*11
$GNGGA,115553.000,2500.8285088,N,12132.4547111,E,4,63,0.45,15.951,M,15.25,M,1,3335*48
$GNRMC,115553.000,A,2500.8285088,N,12132.4547111,E,0.01,314.86,260623,,,R,V*15
$GPHDT,,T*1B
$GNACCURACY,2.5*11
$GNGGA,115553.100,2500.8285080,N,12132.4547104,E,4,63,0.45,15.961,M,15.25,M,1,3335*46
$GNRMC,115553.100,A,2500.8285080,N,12132.4547104,E,0.01,314.86,260623,,,R,V*18
$GPHDT,,T*1B
$GNGSA,A,3,196,23,24,199,18,194,15,12,195,10,25,32,0.81,0.45,0.68,1*07
$GNGSA,A,3,73,80,71,86,85,,,,,,,,0.81,0.45,0.68,2*0D
$GNGSA,A,3,07,13,08,26,30,02,15,,,,,,0.81,0.45,0.68,3*09
$GNGSA,A,3,08,38,13,39,16,06,46,19,09,36,20,22,0.81,0.45,0.68,4*0C
$GNGSA,A,3,35,37,29,,,,,,,,,,0.81,0.45,0.68,4*0B
$GPGSV,4,1,16,196,76,075,34,23,63,348,31,24,60,034,33,199,60,167,35,1*63
$GPGSV,4,2,16,18,50,225,45,41,38,242,42,194,36,135,44,15,30,060,25,1*59
$GPGSV,4,3,16,12,29,130,35,195,29,179,40,10,28,324,36,25,19,169,35,1*59
$GPGSV,4,4,16,32,15,281,18,05,10,128,14,28,04,222,,13,01,066,,1*61
$GPGSV,3,1,10,196,76,075,31,23,63,348,33,24,60,034,32,199,60,167,46,8*69
$GPGSV,3,2,10,18,50,225,46,194,36,135,44,195,29,179,39,10,28,324,33,8*65
$GPGSV,3,3,10,25,19,169,29,32,15,281,27,8*6D
$GLGSV,2,1,08,73,54,150,42,80,44,053,24,70,42,030,,71,28,329,33,1*7A
$GLGSV,2,2,08,86,27,284,33,85,24,232,25,74,16,185,21,69,08,088,,1*76
$GAGSV,3,1,10,07,46,318,37,13,46,219,42,08,42,038,29,26,36,295,37,7*72
$GAGSV,3,2,10,30,35,135,38,02,27,073,19,15,13,173,20,27,09,184,,7*71
$GAGSV,3,3,10,03,06,073,17,33,01,327,,7*72
$GAGSV,2,1,07,07,46,318,43,13,46,219,42,08,42,038,24,26,36,295,36,1*7C
$GAGSV,2,2,07,30,35,135,37,02,27,073,21,15,13,173,29,1*4C
$GBGSV,4,1,15,08,86,336,41,38,80,161,44,13,73,319,43,39,68,300,44,1*7A
$GBGSV,4,2,15,16,65,275,43,06,64,270,41,46,62,084,26,19,55,001,28,1*7E
$GBGSV,4,3,15,09,51,250,40,36,48,183,44,20,39,079,29,22,18,310,27,1*7B
$GBGSV,4,4,15,35,17,257,40,37,14,041,26,29,11,203,13,1*4E
$GBGSV,2,1,08,38,80,161,46,39,68,300,45,46,62,084,33,19,55,001,29,4*71
$GBGSV,2,2,08,36,48,183,44,22,18,310,20,35,17,257,41,29,11,203,16,4*79
$GNACCURACY,2.4*10
$PAIRSAT,1,35,1,0,200,2,0,200,3,0,200,4,0,200,5,0,201,6,0,200,7,0,200,8,0,200,9,0,200,10,0,221,11,0,200,12,0,201,13,0,201,14,0,200,15,0,201,16,0,200,17,0,200,18,0,221,19,0,200,20,0,200,21,0,200,23,0,221,24,0,221,25,0,221,26,0,200,27,0,200,28,0,200,29,0,200,30,0,200,31,0,200,32,0,221,194,0,621,195,0,621,196,0,620,199,0,621*6B
$PAIRSAT,2,24,65,0,200,66,0,200,67,0,200,68,0,200,69,0,200,70,0,200,71,0,201,72,0,200,73,0,201,74,0,200,75,0,200,76,0,200,77,0,200,78,0,200,79,0,201,80,0,201,81,0,200,82,0,200,83,0,200,84,0,200,85,0,201,86,0,201,87,0,200,88,0,200*7A
$PAIRSAT,3,23,2,0,1221,3,0,1221,4,0,1200,5,0,200,7,0,1221,8,0,1221,9,0,1200,10,0,1200,11,0,1200,12,0,1200,13,0,1221,15,0,1221,19,0,1200,21,0,1200,24,0,1200,25,0,1200,26,0,1221,27,0,1200,30,0,1221,31,0,1200,33,0,1200,34,0,1200,36,0,1200*6A
$PAIRSAT,4,50,1,0,200,2,0,200,3,0,200,4,0,200,5,0,200,6,0,201,7,0,200,8,0,201,9,0,201,10,0,200,11,0,200,12,0,200,13,0,201,14,0,200,15,0,200,16,0,201,19,0,621,20,0,621,21,0,600,22,0,621,23,0,600,24,0,600,25,0,600,26,0,600,27,0,600,28,0,600,29,0,621,30,0,600,31,0,200,32,0,600,33,0,600,34,0,600,35,0,621,36,0,621,37,0,621,38,0,621,39,0,621,40,0,600,41,0,600,42,0,600,43,0,600,44,0,600,45,0,600,46,0,621,56,0,200,57,0,200,58,0,200,59,0,600,60,0,600,61,0,600*41
$PAIRDGP,10,5,10,12,15,18,23,24,25,28,32*45
$GNGGA,115553.200,2500.8285095,N,12132.4547072,E,4,63,0.45,15.984,M,15.25,M,1,3335*4A
$GNRMC,115553.200,A,2500.8285095,N,12132.4547072,E,0.01,314.86,260623,,,R,V*1F
$GPHDT,,T*1B
$GNACCURACY,2.4*10
$GNGGA,115553.300,2500.8285092,N,12132.4547085,E,4,63,0.45,15.976,M,15.25,M,1,3335*49
$GNRMC,115553.300,A,2500.8285092,N,12132.4547085,E,0.01,314.86,260623,,,R,V*11
$GPHDT,,T*1B
$GNACCURACY,2.4*10
$GNGGA,115553.400,2500.8285110,N,12132.4547124,E,4,63,0.45,15.952,M,15.25,M,1,3335*49
$GNRMC,115553.400,A,2500.8285110,N,12132.4547124,E,0.01,314.86,260623,,,R,V*17
$GPHDT,,T*1B
$GNACCURACY,2.4*10
$GNGGA,115553.500,2500.8285094,N,12132.4547114,E,4,63,0.45,15.959,M,15.25,M,1,3335*4D
$GNRMC,115553.500,A,2500.8285094,N,12132.4547114,E,0.01,314.86,260623,,,R,V*18
$GPHDT,,T*1B
$GNACCURACY,2.4*10
$GNGGA,115553.600,2500.8285056,N,12132.4547109,E,4,64,0.45,15.962,M,15.25,M,1,3335*43
$GNRMC,115553.600,A,2500.8285056,N,12132.4547109,E,0.01,314.86,260623,,,R,V*19
$GPHDT,,T*1B
$GNACCURACY,2.4*10
$GNGGA,115553.700,2500.8285092,N,12132.4547123,E,4,64,0.45,15.958,M,15.25,M,1,3335*4B
$GNRMC,115553.700,A,2500.8285092,N,12132.4547123,E,0.01,314.86,260623,,,R,V*18
$GPHDT,,T*1B
$GNACCURACY,2.4*10
$GNGGA,115553.800,2500.8285101,N,12132.4547136,E,4,64,0.45,15.959,M,15.25,M,1,3335*4A
$GNRMC,115553.800,A,2500.8285101,N,12132.4547136,E,0.01,314.86,260623,,,R,V*18
$GPHDT,,T*1B
$GNACCURACY,2.4*10
$GNGGA,115553.900,2500.8285100,N,12132.4547138,E,4,64,0.45,15.968,M,15.25,M,1,3335*46
$GNRMC,115553.900,A,2500.8285100,N,12132.4547138,E,0.01,314.86,260623,,,R,V*16
$GPHDT,,T*1B
$GNACCURACY,2.4*10
$GNGGA,115554.000,2500.8285102,N,12132.4547124,E,4,63,0.45,15.957,M,15.25,M,2,3335*4F
$GNRMC,115554.000,A,2500.8285102,N,12132.4547124,E,0.01,314.86,260623,,,R,V*17
$GPHDT,,T*1B
$GNACCURACY,2.4*10
$GNGGA,115554.100,2500.8285086,N,12132.4547127,E,4,63,0.45,15.962,M,15.25,M,2,3335*46
$GNRMC,115554.100,A,2500.8285086,N,12132.4547127,E,0.01,314.86,260623,,,R,V*18
$GPHDT,,T*1B
$GNGSA,A,3,196,23,24,199,18,194,12,195,10,25,32,,0.82,0.45,0.68,1*00
$GNGSA,A,3,73,80,71,86,85,,,,,,,,0.82,0.45,0.68,2*0E
$GNGSA,A,3,07,13,08,26,30,02,15,,,,,,0.82,0.45,0.68,3*0A
$GNGSA,A,3,08,38,13,39,16,06,46,19,09,36,20,22,0.82,0.45,0.68,4*0F
$GNGSA,A,3,35,37,29,,,,,,,,,,0.82,0.45,0.68,4*08
$GPGSV,4,1,16,196,76,075,34,23,63,348,30,24,60,034,33,199,60,167,35,1*62
$GPGSV,4,2,16,18,50,225,45,41,38,242,42,194,36,135,44,15,30,060,24,1*58
$GPGSV,4,3,16,12,29,130,35,195,29,179,40,10,28,324,37,25,19,169,35,1*58
$GPGSV,4,4,16,32,15,281,19,05,10,128,16,28,05,222,,13,01,066,,1*63
$GPGSV,3,1,10,196,76,075,32,23,63,348,34,24,60,034,29,199,60,167,46,8*67
$GPGSV,3,2,10,18,50,225,46,194,36,135,44,195,29,179,39,10,28,324,33,8*65
$GPGSV,3,3,10,25,19,169,27,32,15,281,27,8*63
$GLGSV,2,1,08,73,54,150,42,80,44,053,22,70,42,030,,71,28,329,35,1*7A
$GLGSV,2,2,08,86,27,284,33,85,24,232,26,74,16,185,20,69,08,088,,1*74
$GAGSV,3,1,09,07,46,318,37,13,46,219,42,08,42,038,27,26,36,295,37,7*74
$GAGSV,3,2,09,30,35,135,38,02,27,073,19,15,13,173,22,27,09,184,,7*7B
$GAGSV,3,3,09,03,06,073,17,7*4D
$GAGSV,2,1,07,07,46,318,43,13,46,219,42,08,42,038,25,26,36,295,37,1*7C
$GAGSV,2,2,07,30,35,135,37,02,27,073,21,15,13,173,29,1*4C
$GBGSV,4,1,15,08,86,336,41,38,80,161,44,13,73,319,43,39,68,300,44,1*7A
$GBGSV,4,2,15,16,65,275,43,06,64,270,41,46,62,084,23,19,55,001,24,1*77
$GBGSV,4,3,15,09,51,250,39,36,48,183,44,20,39,079,29,22,18,310,27,1*75
$GBGSV,4,4,15,35,17,257,41,37,14,041,29,29,11,203,13,1*40
$GBGSV,3,1,09,38,80,161,46,39,68,300,45,46,62,084,33,19,55,001,30,4*79
$GBGSV,3,2,09,36,48,183,44,22,18,310,19,35,17,257,41,37,14,041,25,4*7D
$GBGSV,3,3,09,29,11,203,16,4*47
$GNACCURACY,2.4*10
$PAIRSAT,1,35,1,0,200,2,0,200,3,0,200,4,0,200,5,0,201,6,0,200,7,0,200,8,0,200,9,0,200,10,0,221,11,0,200,12,0,201,13,0,201,14,0,200,15,0,201,16,0,200,17,0,200,18,0,221,19,0,200,20,0,200,21,0,200,23,0,221,24,0,221,25,0,221,26,0,200,27,0,200,28,0,200,29,0,200,30,0,200,31,0,200,32,0,221,194,0,621,195,0,621,196,0,620,199,0,621*6B
$PAIRSAT,2,24,65,0,200,66,0,200,67,0,200,68,0,200,69,0,200,70,0,200,71,0,201,72,0,200,73,0,201,74,0,200,75,0,200,76,0,200,77,0,200,78,0,200,79,0,201,80,0,201,81,0,200,82,0,200,83,0,200,84,0,200,85,0,201,86,0,201,87,0,200,88,0,200*7A
$PAIRSAT,3,23,2,0,1221,3,0,1221,4,0,1200,5,0,200,7,0,1221,8,0,1221,9,0,1200,10,0,1200,11,0,1200,12,0,1200,13,0,1221,15,0,1221,19,0,1200,21,0,1200,24,0,1200,25,0,1200,26,0,1221,27,0,1200,30,0,1221,31,0,1200,33,0,1200,34,0,1200,36,0,1200*6A
$PAIRSAT,4,50,1,0,200,2,0,200,3,0,200,4,0,200,5,0,200,6,0,201,7,0,200,8,0,201,9,0,201,10,0,200,11,0,200,12,0,200,13,0,201,14,0,200,15,0,200,16,0,201,19,0,621,20,0,621,21,0,600,22,0,621,23,0,600,24,0,600,25,0,600,26,0,600,27,0,600,28,0,600,29,0,621,30,0,600,31,0,200,32,0,600,33,0,600,34,0,600,35,0,621,36,0,621,37,0,621,38,0,621,39,0,621,40,0,600,41,0,600,42,0,600,43,0,600,44,0,600,45,0,600,46,0,621,56,0,200,57,0,200,58,0,200,59,0,600,60,0,600,61,0,600*41
$PAIRDGP,10,5,10,12,15,18,23,24,25,28,32*45
$GNGGA,115554.200,2500.8285093,N,12132.4547136,E,4,63,0.45,15.962,M,15.25,M,2,3335*41
$GNRMC,115554.200,A,2500.8285093,N,12132.4547136,E,0.01,314.86,260623,,,R,V*1F
$GPHDT,,T*1B
$GNACCURACY,2.4*10
$GNGGA,115554.300,2500.8285103,N,12132.4547111,E,4,63,0.45,15.970,M,15.25,M,2,3335*4E
$GNRMC,115554.300,A,2500.8285103,N,12132.4547111,E,0.01,314.86,260623,,,R,V*13
$GPHDT,,T*1B
$GNACCURACY,2.4*10
$GNGGA,115554.400,2500.8285118,N,12132.4547118,E,4,64,0.45,15.953,M,15.25,M,2,3335*4C
$GNRMC,115554.400,A,2500.8285118,N,12132.4547118,E,0.01,314.86,260623,,,R,V*17
$GPHDT,,T*1B
$GNACCURACY,2.4*10
$GNGGA,115554.500,2500.8285114,N,12132.4547047,E,4,64,0.45,15.979,M,15.25,M,2,3335*42
$GNRMC,115554.500,A,2500.8285114,N,12132.4547047,E,0.01,314.86,260623,,,R,V*11
$GPHDT,,T*1B
$GNACCURACY,2.4*10
$GNGGA,115554.600,2500.8285095,N,12132.4547049,E,4,64,0.45,15.981,M,15.25,M,2,3335*40
$GNRMC,115554.600,A,2500.8285095,N,12132.4547049,E,0.01,314.86,260623,,,R,V*14
$GPHDT,,T*1B
$GNACCURACY,2.4*10
$GNGGA,115554.700,2500.8285102,N,12132.4547082,E,4,63,0.45,15.981,M,15.25,M,2,3335*4E
$GNRMC,115554.700,A,2500.8285102,N,12132.4547082,E,0.01,314.86,260623,,,R,V*1D
$GPHDT,,T*1B
$GNACCURACY,2.4*10
$GNGGA,115554.800,2500.8285095,N,12132.4547040,E,4,62,0.45,15.986,M,15.25,M,2,3335*46
$GNRMC,115554.800,A,2500.8285095,N,12132.4547040,E,0.01,314.86,260623,,,R,V*13
$GPHDT,,T*1B
$GNACCURACY,2.4*10
$GNGGA,115554.900,2500.8285084,N,12132.4547013,E,4,62,0.45,15.987,M,15.25,M,2,3335*40
$GNRMC,115554.900,A,2500.8285084,N,12132.4547013,E,0.01,314.86,260623,,,R,V*14
$GPHDT,,T*1B
$GNACCURACY,2.4*10
$GNGGA,115555.000,2500.8285096,N,12132.4547031,E,4,62,0.45,15.979,M,15.25,M,3,3335*4B
$GNRMC,115555.000,A,2500.8285096,N,12132.4547031,E,0.01,314.86,260623,,,R,V*1F
$GPHDT,,T*1B
$GNACCURACY,2.4*10
$GNGGA,115555.100,2500.8285106,N,12132.4547050,E,4,62,0.45,15.986,M,15.25,M,3,3335*45
$GNRMC,115555.100,A,2500.8285106,N,12132.4547050,E,0.01,314.86,260623,,,R,V*11
$GPHDT,,T*1B
$GNGSA,A,3,196,23,24,199,18,194,15,12,195,10,25,32,0.82,0.45,0.68,1*04
$GNGSA,A,3,73,80,71,86,85,,,,,,,,0.82,0.45,0.68,2*0E
$GNGSA,A,3,07,13,08,26,30,02,15,,,,,,0.82,0.45,0.68,3*0A
$GNGSA,A,3,08,38,13,39,16,06,46,19,09,36,22,35,0.82,0.45,0.68,4*0B
$GNGSA,A,3,37,29,,,,,,,,,,,0.82,0.45,0.68,4*0E
$GPGSV,4,1,16,196,76,075,34,23,63,348,31,24,60,034,34,199,60,167,36,1*67
$GPGSV,4,2,16,18,50,225,45,41,38,242,42,194,36,135,44,15,30,060,28,1*54
$GPGSV,4,3,16,12,29,130,36,195,29,179,42,10,28,324,38,25,19,169,34,1*57
$GPGSV,4,4,16,32,15,281,21,05,10,128,19,28,05,222,,13,01,066,,1*67
$GPGSV,3,1,10,196,76,075,31,23,63,348,32,24,60,034,32,199,60,167,46,8*68
$GPGSV,3,2,10,18,50,225,46,194,36,135,43,195,29,179,39,10,28,324,34,8*65
$GPGSV,3,3,10,25,19,169,28,32,15,281,26,8*6D
$GLGSV,2,1,08,73,54,150,42,80,44,053,20,70,42,030,,71,28,329,35,1*78
$GLGSV,2,2,08,86,27,284,31,85,24,232,28,74,16,185,15,69,08,088,,1*7E
$GAGSV,3,1,09,07,46,318,37,13,46,219,42,08,42,038,25,26,36,295,37,7*76
$GAGSV,3,2,09,30,35,135,38,02,27,073,19,15,13,173,22,27,09,184,,7*7B
$GAGSV,3,3,09,03,06,073,19,7*43
$GAGSV,2,1,07,07,46,318,43,13,46,219,42,08,42,038,28,26,36,295,36,1*70
$GAGSV,2,2,07,30,35,135,35,02,27,073,22,15,13,173,29,1*4D
$GBGSV,4,1,15,08,86,336,40,38,80,161,44,13,73,319,43,39,68,300,44,1*7B
$GBGSV,4,2,15,16,65,275,43,06,64,270,41,46,62,084,21,19,55,001,28,1*79
$GBGSV,4,3,15,09,51,250,39,36,48,183,44,20,39,079,20,22,18,310,27,1*7C
$GBGSV,4,4,15,35,17,257,41,37,14,041,27,29,11,203,14,1*49
$GBGSV,2,1,08,38,80,161,46,39,68,300,44,46,62,084,30,19,55,001,29,4*73
$GBGSV,2,2,08,36,48,183,44,35,17,257,40,37,14,041,21,29,11,203,17,4*77
$GNACCURACY,2.4*10
$PAIRSAT,1,35,1,0,200,2,0,200,3,0,200,4,0,200,5,0,201,6,0,200,7,0,200,8,0,200,9,0,200,10,0,221,11,0,200,12,0,201,13,0,201,14,0,200,15,0,201,16,0,200,17,0,200,18,0,221,19,0,200,20,0,200,21,0,200,23,0,221,24,0,221,25,0,221,26,0,200,27,0,200,28,0,200,29,0,200,30,0,200,31,0,200,32,0,221,194,0,621,195,0,621,196,0,620,199,0,621*6B
$PAIRSAT,2,24,65,0,200,66,0,200,67,0,200,68,0,200,69,0,200,70,0,200,71,0,201,72,0,200,73,0,201,74,0,200,75,0,200,76,0,200,77,0,200,78,0,200,79,0,201,80,0,201,81,0,200,82,0,200,83,0,200,84,0,200,85,0,201,86,0,201,87,0,200,88,0,200*7A
$PAIRSAT,3,23,2,0,1221,3,0,1221,4,0,1200,5,0,200,7,0,1221,8,0,1221,9,0,1200,10,0,1200,11,0,1200,12,0,1200,13,0,1221,15,0,1221,19,0,1200,21,0,1200,24,0,1200,25,0,1200,26,0,1221,27,0,1200,30,0,1221,31,0,1200,33,0,1200,34,0,1200,36,0,1200*6A
$PAIRSAT,4,50,1,0,200,2,0,200,3,0,200,4,0,200,5,0,200,6,0,201,7,0,200,8,0,201,9,0,201,10,0,200,11,0,200,12,0,200,13,0,201,14,0,200,15,0,200,16,0,201,19,0,621,20,0,621,21,0,600,22,0,621,23,0,600,24,0,600,25,0,600,26,0,600,27,0,600,28,0,600,29,0,621,30,0,600,31,0,200,32,0,600,33,0,600,34,0,600,35,0,621,36,0,621,37,0,621,38,0,621,39,0,621,40,0,600,41,0,600,42,0,600,43,0,600,44,0,600,45,0,600,46,0,621,56,0,200,57,0,200,58,0,200,59,0,600,60,0,600,61,0,600*41
$PAIRDGP,10,5,10,12,15,18,23,24,25,28,32*45
$GNGGA,115555.200,2500.8285094,N,12132.4547017,E,4,62,0.45,15.988,M,15.25,M,3,3335*41
$GNRMC,115555.200,A,2500.8285094,N,12132.4547017,E,0.01,314.86,260623,,,R,V*1B
$GPHDT,,T*1B
$GNACCURACY,2.4*10
$GNGGA,115555.300,2500.8285113,N,12132.4547062,E,4,62,0.45,15.972,M,15.25,M,3,3335*49
$GNRMC,115555.300,A,2500.8285113,N,12132.4547062,E,0.01,314.86,260623,,,R,V*16
$GPHDT,,T*1B
$GNACCURACY,2.4*10
$GNGGA,115555.400,2500.8285111,N,12132.4547052,E,4,62,0.45,15.974,M,15.25,M,3,3335*49
$GNRMC,115555.400,A,2500.8285111,N,12132.4547052,E,0.01,314.86,260623,,,R,V*10
$GPHDT,,T*1B
$GNACCURACY,2.4*10
$GNGGA,115555.500,2500.8285109,N,12132.4547041,E,4,60,0.47,15.990,M,15.25,M,3,3335*49
$GNRMC,115555.500,A,2500.8285109,N,12132.4547041,E,0.01,314.86,260623,,,R,V*1A
$GPHDT,,T*1B
$GNACCURACY,2.4*10
$GNGGA,115555.600,2500.8285100,N,12132.4547061,E,4,61,0.45,15.981,M,15.25,M,3,3335*42
$GNRMC,115555.600,A,2500.8285100,N,12132.4547061,E,0.01,314.86,260623,,,R,V*12
$GPHDT,,T*1B
$GNACCURACY,2.4*10
$GNGGA,115555.700,2500.8285094,N,12132.4547027,E,4,62,0.45,15.978,M,15.25,M,3,3335*48
$GNRMC,115555.700,A,2500.8285094,N,12132.4547027,E,0.01,314.86,260623,,,R,V*1D
$GPHDT,,T*1B
$GNACCURACY,2.4*10
$GNGGA,115555.800,2500.8285101,N,12132.4547043,E,4,61,0.47,15.985,M,15.25,M,3,3335*4B
$GNRMC,115555.800,A,2500.8285101,N,12132.4547043,E,0.01,314.86,260623,,,R,V*1D
$GPHDT,,T*1B
$GNACCURACY,2.4*10
$GNGGA,115555.900,2500.8285123,N,12132.4547033,E,4,62,0.45,15.971,M,15.25,M,2,3335*46
$GNRMC,115555.900,A,2500.8285123,N,12132.4547033,E,0.01,314.86,260623,,,R,V*1B
$GPHDT,,T*1B
$GNACCURACY,2.4*10
$GNGGA,115556.000,2500.8285118,N,12132.4547035,E,4,62,0.45,15.986,M,15.25,M,3,3335*4B
$GNRMC,115556.000,A,2500.8285118,N,12132.4547035,E,0.01,314.86,260623,,,R,V*1F
$GPHDT,,T*1B
$GNACCURACY,2.4*10
$GNGGA,115556.100,2500.8285100,N,12132.4547023,E,4,61,0.47,15.995,M,15.25,M,3,3335*47
$GNRMC,115556.100,A,2500.8285100,N,12132.4547023,E,0.01,314.86,260623,,,R,V*10
$GPHDT,,T*1B
$GNGSA,A,3,196,23,24,199,18,194,15,12,195,10,25,32,0.82,0.45,0.68,1*04
$GNGSA,A,3,73,80,71,86,85,,,,,,,,0.82,0.45,0.68,2*0E
$GNGSA,A,3,13,07,08,26,30,02,15,,,,,,0.82,0.45,0.68,3*0A
$GNGSA,A,3,08,38,13,39,16,06,46,19,09,36,22,35,0.82,0.45,0.68,4*0B
$GNGSA,A,3,37,29,,,,,,,,,,,0.82,0.45,0.68,4*0E
$GPGSV,4,1,16,196,76,075,33,23,63,348,29,24,60,034,33,199,60,167,35,1*6D
$GPGSV,4,2,16,18,50,225,45,41,38,242,42,194,36,135,43,15,30,060,26,1*5D
$GPGSV,4,3,16,12,29,130,36,195,29,179,41,10,28,324,37,25,19,169,34,1*5B
$GPGSV,4,4,16,32,15,281,22,05,10,128,17,28,05,222,,13,01,066,,1*6A
$GPGSV,3,1,10,196,76,075,30,23,63,348,31,24,60,034,33,199,60,167,46,8*6B
$GPGSV,3,2,10,18,50,225,46,194,36,135,45,195,29,179,39,10,28,324,35,8*62
$GPGSV,3,3,10,25,19,169,33,32,15,281,25,8*64
$GLGSV,2,1,07,73,54,150,43,80,44,053,21,70,42,030,,71,28,329,34,1*76
$GLGSV,2,2,07,86,27,284,31,85,24,232,24,74,16,185,15,1*4A
$GAGSV,3,1,09,13,46,219,42,07,46,318,38,08,42,038,24,26,36,295,37,7*78
$GAGSV,3,2,09,30,35,135,37,02,27,073,19,15,13,173,19,27,09,184,,7*7C
$GAGSV,3,3,09,03,06,073,19,7*43
$GAGSV,2,1,08,07,46,318,43,13,46,219,43,08,42,038,26,26,36,295,37,1*71
$GAGSV,2,2,08,30,35,135,40,02,27,073,23,15,13,173,29,03,06,073,22,1*70
$GBGSV,4,1,15,08,86,336,40,38,80,161,44,13,73,319,43,39,68,300,44,1*7B
$GBGSV,4,2,15,16,65,275,43,06,64,270,41,46,62,084,26,19,55,001,28,1*7E
$GBGSV,4,3,15,09,51,250,39,36,48,183,45,20,39,079,22,22,18,310,26,1*7E
$GBGSV,4,4,15,35,17,257,42,37,14,041,33,29,11,203,14,1*4F
$GBGSV,2,1,08,38,80,161,46,39,68,300,44,46,62,084,27,19,55,001,29,4*75
$GBGSV,2,2,08,36,48,183,44,35,17,257,40,37,14,041,24,29,11,203,17,4*72
$GNACCURACY,2.4*10
$PAIRSAT,1,35,1,0,200,2,0,200,3,0,200,4,0,200,5,0,201,6,0,200,7,0,200,8,0,200,9,0,200,10,0,221,11,0,200,12,0,201,13,0,201,14,0,200,15,0,201,16,0,200,17,0,200,18,0,221,19,0,200,20,0,200,21,0,200,23,0,221,24,0,221,25,0,221,26,0,200,27,0,200,28,0,200,29,0,200,30,0,200,31,0,200,32,0,221,194,0,621,195,0,621,196,0,620,199,0,621*6B
$PAIRSAT,2,24,65,0,200,66,0,200,67,0,200,68,0,200,69,0,200,70,0,200,71,0,201,72,0,200,73,0,201,74,0,200,75,0,200,76,0,200,77,0,200,78,0,200,79,0,201,80,0,201,81,0,200,82,0,200,83,0,200,84,0,200,85,0,201,86,0,201,87,0,200,88,0,200*7A
$PAIRSAT,3,23,2,0,1221,3,0,1221,4,0,1200,5,0,200,7,0,1221,8,0,1221,9,0,1200,10,0,1200,11,0,1200,12,0,1200,13,0,1221,15,0,1221,19,0,1200,21,0,1200,24,0,1200,25,0,1200,26,0,1221,27,0,1200,30,0,1221,31,0,1200,33,0,1200,34,0,1200,36,0,1200*6A
$PAIRSAT,4,50,1,0,200,2,0,200,3,0,200,4,0,200,5,0,200,6,0,201,7,0,200,8,0,201,9,0,201,10,0,200,11,0,200,12,0,200,13,0,201,14,0,200,15,0,200,16,0,201,19,0,621,20,0,621,21,0,600,22,0,621,23,0,600,24,0,600,25,0,600,26,0,600,27,0,600,28,0,600,29,0,621,30,0,600,31,0,200,32,0,600,33,0,600,34,0,600,35,0,621,36,0,621,37,0,621,38,0,621,39,0,621,40,0,600,41,0,600,42,0,600,43,0,600,44,0,600,45,0,600,46,0,621,56,0,200,57,0,200,58,0,200,59,0,600,60,0,600,61,0,600*41
$PAIRDGP,10,5,10,12,15,18,23,24,25,28,32*45
$GNGGA,115556.200,2500.8285078,N,12132.4546985,E,4,62,0.45,15.985,M,15.25,M,3,3335*4E
$GNRMC,115556.200,A,2500.8285078,N,12132.4546985,E,0.00,314.86,260623,,,R,V*18
$GPHDT,,T*1B
$GNACCURACY,2.4*10
$GNGGA,115556.300,2500.8285092,N,12132.4547014,E,4,62,0.45,15.985,M,15.25,M,3,3335*4B
$GNRMC,115556.300,A,2500.8285092,N,12132.4547014,E,0.01,314.86,260623,,,R,V*1C
$GPHDT,,T*1B
$GNACCURACY,2.4*10
$GNGGA,115556.400,2500.8285064,N,12132.4546966,E,4,62,0.45,15.996,M,15.25,M,3,3335*4A
$GNRMC,115556.400,A,2500.8285064,N,12132.4546966,E,0.00,314.86,260623,,,R,V*1E
$GPHDT,,T*1B
$GNACCURACY,2.4*10
$GNGGA,115556.500,2500.8285093,N,12132.4547008,E,4,62,0.45,15.994,M,15.25,M,3,3335*41
$GNRMC,115556.500,A,2500.8285093,N,12132.4547008,E,0.00,314.86,260623,,,R,V*17
$GPHDT,,T*1B
