$FW : RTK35X,V1.1X0314AS,Lib20210517,1*54
$Tool : LOCOSYS , GNSS Firebird , v1.0.0.19*39
$---------------------------------------------------*2D
$GPHDT,,T*1B
$GNACCURACY,2.6*12
$GNGGA,115533.600,2500.8263235,N,12132.4553872,E,2,63,0.46,15.204,M,15.25,M,41,3335*77
$GNRMC,115533.600,A,2500.8263235,N,12132.4553872,E,0.03,314.86,260623,,,D,V*04
$GPHDT,,T*1B
$GNACCURACY,2.6*12
$GNGGA,115533.700,2500.8263115,N,12132.4553992,E,2,63,0.46,15.191,M,15.25,M,41,3335*77
$GNRMC,115533.700,A,2500.8263115,N,12132.4553992,E,0.03,314.86,260623,,,D,V*0B
$GPHDT,,T*1B
$GNACCURACY,2.6*12
$GNGGA,115533.800,2500.8262935,N,12132.4554112,E,2,63,0.46,15.181,M,15.25,M,41,3335*75
$GNRMC,115533.800,A,2500.8262935,N,12132.4554112,E,0.03,314.86,260623,,,D,V*08
$GPHDT,,T*1B
$GNACCURACY,2.6*12
$GNGGA,115533.900,2500.8262815,N,12132.4554232,E,2,63,0.46,15.177,M,15.25,M,41,3335*7F
$GNRMC,115533.900,A,2500.8262815,N,12132.4554232,E,0.03,314.86,260623,,,D,V*0B
$GPHDT,,T*1B
$GNACCURACY,2.6*12
$GNGGA,115534.000,2500.8262755,N,12132.4554352,E,2,63,0.46,15.170,M,15.25,M,42,3335*79
$GNRMC,115534.000,A,2500.8262755,N,12132.4554352,E,0.03,314.86,260623,,,D,V*09
$GPHDT,,T*1B
$GNACCURACY,2.6*12
$GNGGA,115534.100,2500.8262635,N,12132.4554472,E,2,63,0.46,15.167,M,15.25,M,42,3335*7C
$GNRMC,115534.100,A,2500.8262635,N,12132.4554472,E,0.03,314.86,260623,,,D,V*0A
$GPHDT,,T*1B
$GNGSA,A,3,196,23,24,199,18,194,15,12,195,10,25,32,0.83,0.46,0.69,1*07
$GNGSA,A,3,73,80,71,86,85,,,,,,,,0.83,0.46,0.69,2*0D
$GNGSA,A,3,07,13,08,26,30,15,,,,,,,0.83,0.46,0.69,3*0B
$GNGSA,A,3,08,38,13,39,16,06,46,19,09,36,20,22,0.83,0.46,0.69,4*0C
$GNGSA,A,3,35,37,29,,,,,,,,,,0.83,0.46,0.69,4*0B
$GPGSV,4,1,16,196,76,075,34,23,63,348,36,24,60,034,37,199,60,167,37,1*62
$GPGSV,4,2,16,18,50,225,40,41,38,242,33,194,36,135,42,15,30,060,28,1*51
$GPGSV,4,3,16,12,29,130,35,195,29,179,43,10,28,324,37,25,18,169,33,1*5C
$GPGSV,4,4,16,32,15,280,29,05,10,128,16,28,04,222,,13,01,066,,1*60
$GPGSV,3,1,10,196,76,075,34,23,63,348,31,24,60,034,35,199,60,167,47,8*68
$GPGSV,3,2,10,18,50,225,43,194,36,135,46,195,29,179,38,10,28,324,20,8*61
$GPGSV,3,3,10,25,18,169,33,32,15,280,28,8*69
$GLGSV,2,1,06,73,54,150,41,80,44,053,21,71,28,328,36,86,27,284,29,1*7A
$GLGSV,2,2,06,85,24,232,34,74,16,185,22,1*79
$GAGSV,3,1,09,07,46,318,37,13,46,219,40,08,42,038,26,26,36,295,36,7*76
$GAGSV,3,2,09,30,35,135,37,02,27,073,,15,13,173,25,03,06,073,22,7*7B
$GAGSV,3,3,09,33,01,327,,7*4D
$GAGSV,2,1,07,07,46,318,41,13,46,219,41,08,42,038,13,26,36,295,38,1*77
$GAGSV,2,2,07,30,35,135,41,15,13,173,27,03,06,073,23,1*43
$GBGSV,4,1,16,08,86,336,41,38,80,161,43,13,72,320,42,39,68,299,45,1*74
$GBGSV,4,2,16,16,65,275,34,06,64,270,34,46,62,084,33,19,55,001,37,1*75
$GBGSV,4,3,16,09,51,250,30,36,48,183,42,20,39,079,28,22,18,310,30,1*7E
$GBGSV,4,4,16,35,17,257,37,37,14,041,28,29,11,203,14,45,01,207,,1*71
$GBGSV,3,1,10,38,80,161,46,39,68,299,42,46,62,084,29,19,55,001,18,4*76
$GBGSV,3,2,10,36,48,183,44,20,39,079,23,22,18,310,20,35,17,257,33,4*7E
$GBGSV,3,3,10,37,14,041,24,29,11,203,18,4*73
$GNACCURACY,2.6*12
$PAIRSAT,1,35,1,0,200,2,0,200,3,0,200,4,0,200,5,0,201,6,0,200,7,0,200,8,0,200,9,0,200,10,0,221,11,0,200,12,0,201,13,0,201,14,0,200,15,0,201,16,0,200,17,0,200,18,0,221,19,0,200,20,0,200,21,0,200,23,0,221,24,0,221,25,0,221,26,0,200,27,0,200,28,0,200,29,0,200,30,0,200,31,0,200,32,0,221,194,0,621,195,0,621,196,0,620,199,0,621*6B
$PAIRSAT,2,24,65,0,200,66,0,200,67,0,200,68,0,200,69,0,200,70,0,200,71,0,201,72,0,200,73,0,201,74,0,200,75,0,200,76,0,200,77,0,200,78,0,200,79,0,201,80,0,201,81,0,200,82,0,200,83,0,200,84,0,200,85,0,201,86,0,201,87,0,200,88,0,200*7A
$PAIRSAT,3,23,2,0,1221,3,0,1221,4,0,1200,5,0,200,7,0,1221,8,0,1221,9,0,1200,10,0,1200,11,0,1200,12,0,1200,13,0,1221,15,0,1221,19,0,1200,21,0,1200,24,0,1200,25,0,1200,26,0,1221,27,0,1200,30,0,1221,31,0,1200,33,0,1200,34,0,1200,36,0,1200*6A
$PAIRSAT,4,50,1,0,200,2,0,200,3,0,200,4,0,200,5,0,200,6,0,201,7,0,200,8,0,201,9,0,201,10,0,200,11,0,200,12,0,200,13,0,201,14,0,200,15,0,200,16,0,201,19,0,621,20,0,621,21,0,600,22,0,621,23,0,600,24,0,600,25,0,600,26,0,600,27,0,600,28,0,600,29,0,621,30,0,600,31,0,200,32,0,600,33,0,600,34,0,600,35,0,621,36,0,621,37,0,621,38,0,621,39,0,621,40,0,600,41,0,600,42,0,600,43,0,600,44,0,600,45,0,600,46,0,621,56,0,200,57,0,200,58,0,200,59,0,600,60,0,600,61,0,600*41
$PAIRDGP,10,5,10,12,15,18,23,24,25,28,32*45
$GNGGA,115534.200,2500.8262515,N,12132.4554532,E,2,63,0.46,15.159,M,15.25,M,42,3335*76
$GNRMC,115534.200,A,2500.8262515,N,12132.4554532,E,0.03,314.86,260623,,,D,V*0D
$GPHDT,,T*1B
$GNACCURACY,2.6*12
$GNGGA,115534.300,2500.8262335,N,12132.4554652,E,2,63,0.46,15.148,M,15.25,M,42,3335*76
$GNRMC,115534.300,A,2500.8262335,N,12132.4554652,E,0.02,314.86,260623,,,D,V*0C
$GPHDT,,T*1B
$GNACCURACY,2.6*12
$GNGGA,115534.400,2500.8262215,N,12132.4554712,E,2,63,0.46,15.137,M,15.25,M,42,3335*7F
$GNRMC,115534.400,A,2500.8262215,N,12132.4554712,E,0.03,314.86,260623,,,D,V*0C
$GPHDT,,T*1B
$GNACCURACY,2.6*12
$GNGGA,115534.500,2500.8262035,N,12132.4554832,E,2,63,0.46,15.126,M,15.25,M,42,3335*73
$GNRMC,115534.500,A,2500.8262035,N,12132.4554832,E,0.03,314.86,260623,,,D,V*00
$GPHDT,,T*1B
$GNACCURACY,2.6*12
$GNGGA,115534.600,2500.8261915,N,12132.4554832,E,2,63,0.46,15.110,M,15.25,M,42,3335*7D
$GNRMC,115534.600,A,2500.8261915,N,12132.4554832,E,0.02,314.86,260623,,,D,V*0A
$GPHDT,,T*1B
$GNACCURACY,2.6*12
$GNGGA,115534.700,2500.8261735,N,12132.4554952,E,2,63,0.46,15.098,M,15.25,M,42,3335*76
$GNRMC,115534.700,A,2500.8261735,N,12132.4554952,E,0.03,314.86,260623,,,D,V*01
$GPHDT,,T*1B
$GNACCURACY,2.6*12
$GNGGA,115534.800,2500.8261615,N,12132.4555012,E,2,63,0.46,15.089,M,15.25,M,42,3335*76
$GNRMC,115534.800,A,2500.8261615,N,12132.4555012,E,0.02,314.86,260623,,,D,V*00
$GPHDT,,T*1B
$GNACCURACY,2.6*12
$GNGGA,115534.900,2500.8261555,N,12132.4555132,E,2,62,0.46,15.077,M,15.25,M,42,3335*73
$GNRMC,115534.900,A,2500.8261555,N,12132.4555132,E,0.03,314.86,260623,,,D,V*04
$GPHDT,,T*1B
$GNACCURACY,2.6*12
$GNGGA,115535.000,2500.8261495,N,12132.4555192,E,2,62,0.46,15.061,M,15.25,M,43,3335*7A
$GNRMC,115535.000,A,2500.8261495,N,12132.4555192,E,0.02,314.86,260623,,,D,V*0A
$GPHDT,,T*1B
$GNACCURACY,2.6*12
$GNGGA,115535.100,2500.8261435,N,12132.4555312,E,2,62,0.46,15.051,M,15.25,M,43,3335*78
$GNRMC,115535.100,A,2500.8261435,N,12132.4555312,E,0.03,314.86,260623,,,D,V*0A
$GPHDT,,T*1B
$GNGSA,A,3,196,23,24,199,18,194,15,12,195,10,25,32,0.83,0.46,0.69,1*07
$GNGSA,A,3,73,80,71,86,85,,,,,,,,0.83,0.46,0.69,2*0D
$GNGSA,A,3,13,07,08,26,30,15,,,,,,,0.83,0.46,0.69,3*0B
$GNGSA,A,3,08,38,13,39,16,06,46,19,09,36,20,22,0.83,0.46,0.69,4*0C
$GNGSA,A,3,35,37,29,,,,,,,,,,0.83,0.46,0.69,4*0B
$GPGSV,4,1,16,196,76,075,33,23,63,348,36,24,60,034,37,199,60,167,33,1*61
$GPGSV,4,2,16,18,50,225,41,41,38,242,43,194,36,135,44,15,30,060,29,1*50
$GPGSV,4,3,16,12,29,130,33,195,29,179,39,10,28,324,36,25,18,169,33,1*56
$GPGSV,4,4,16,32,15,280,27,05,10,128,16,28,04,222,,13,01,066,,1*6E
$GPGSV,3,1,10,196,76,075,35,23,63,348,34,24,60,034,36,199,60,167,44,8*6C
$GPGSV,3,2,10,18,50,225,44,194,36,135,47,195,29,179,36,10,28,324,17,8*6D
$GPGSV,3,3,10,25,18,169,32,32,15,280,29,8*69
$GLGSV,2,1,06,73,54,150,43,80,44,053,23,71,28,328,33,86,27,284,30,1*77
$GLGSV,2,2,06,85,24,232,35,74,16,185,21,1*7B
$GAGSV,3,1,09,13,46,219,37,07,46,318,37,08,42,038,27,26,36,295,35,7*74
$GAGSV,3,2,09,30,35,135,39,02,27,073,,15,13,173,25,03,06,073,20,7*77
$GAGSV,3,3,09,33,01,327,,7*4D
$GAGSV,2,1,06,07,46,318,42,13,46,219,32,26,36,295,38,30,35,135,42,1*72
$GAGSV,2,2,06,15,13,173,26,03,06,073,18,1*7C
$GBGSV,4,1,15,08,86,336,41,38,80,161,43,13,72,320,42,39,68,299,46,1*74
$GBGSV,4,2,15,16,65,275,40,06,64,270,40,46,62,084,32,19,55,001,37,1*77
$GBGSV,4,3,15,09,51,250,38,36,48,183,38,20,39,079,28,22,18,310,29,1*70
$GBGSV,4,4,15,35,17,257,40,37,14,041,24,29,11,203,13,1*4C
$GBGSV,3,1,10,38,80,161,46,39,68,299,45,46,62,084,29,19,55,001,18,4*71
$GBGSV,3,2,10,36,48,183,37,20,39,079,23,22,18,310,20,35,17,257,39,4*70
$GBGSV,3,3,10,37,14,041,24,29,11,203,19,4*72
$GNACCURACY,2.6*12
$PAIRSAT,1,35,1,0,200,2,0,200,3,0,200,4,0,200,5,0,201,6,0,200,7,0,200,8,0,200,9,0,200,10,0,221,11,0,200,12,0,201,13,0,201,14,0,200,15,0,201,16,0,200,17,0,200,18,0,221,19,0,200,20,0,200,21,0,200,23,0,221,24,0,221,25,0,221,26,0,200,27,0,200,28,0,200,29,0,200,30,0,200,31,0,200,32,0,221,194,0,621,195,0,621,196,0,620,199,0,621*6B
$PAIRSAT,2,24,65,0,200,66,0,200,67,0,200,68,0,200,69,0,200,70,0,200,71,0,201,72,0,200,73,0,201,74,0,200,75,0,200,76,0,200,77,0,200,78,0,200,79,0,201,80,0,201,81,0,200,82,0,200,83,0,200,84,0,200,85,0,201,86,0,201,87,0,200,88,0,200*7A
$PAIRSAT,3,23,2,0,1221,3,0,1221,4,0,1200,5,0,200,7,0,1221,8,0,1221,9,0,1200,10,0,1200,11,0,1200,12,0,1200,13,0,1221,15,0,1221,19,0,1200,21,0,1200,24,0,1200,25,0,1200,26,0,1221,27,0,1200,30,0,1221,31,0,1200,33,0,1200,34,0,1200,36,0,1200*6A
$PAIRSAT,4,50,1,0,200,2,0,200,3,0,200,4,0,200,5,0,200,6,0,201,7,0,200,8,0,201,9,0,201,10,0,200,11,0,200,12,0,200,13,0,201,14,0,200,15,0,200,16,0,201,19,0,621,20,0,621,21,0,600,22,0,621,23,0,600,24,0,600,25,0,600,26,0,600,27,0,600,28,0,600,29,0,621,30,0,600,31,0,200,32,0,600,33,0,600,34,0,600,35,0,621,36,0,621,37,0,621,38,0,621,39,0,621,40,0,600,41,0,600,42,0,600,43,0,600,44,0,600,45,0,600,46,0,621,56,0,200,57,0,200,58,0,200,59,0,600,60,0,600,61,0,600*41
$PAIRDGP,10,5,10,12,15,18,23,24,25,28,32*45
$GNGGA,115535.200,2500.8261315,N,12132.4555432,E,2,62,0.46,15.043,M,15.25,M,43,3335*78
$GNRMC,115535.200,A,2500.8261315,N,12132.4555432,E,0.03,314.86,260623,,,D,V*09
$GPHDT,,T*1B
$GNACCURACY,2.6*12
$GNGGA,115535.300,2500.8261315,N,12132.4555492,E,2,62,0.46,15.035,M,15.25,M,43,3335*72
$GNRMC,115535.300,A,2500.8261315,N,12132.4555492,E,0.03,314.86,260623,,,D,V*02
$GPHDT,,T*1B
$GNACCURACY,2.6*12
$GNGGA,115535.400,2500.8261315,N,12132.4555732,E,2,62,0.46,15.019,M,15.25,M,43,3335*72
$GNRMC,115535.400,A,2500.8261315,N,12132.4555732,E,0.04,314.86,260623,,,D,V*0B
$GPHDT,,T*1B
$GNACCURACY,2.5*11
$GNGGA,115535.500,2500.8261255,N,12132.4555852,E,2,60,0.46,14.992,M,15.25,M,43,3335*76
$GNRMC,115535.500,A,2500.8261255,N,12132.4555852,E,0.04,314.86,260623,,,D,V*06
$GPHDT,,T*1B
$GNACCURACY,2.5*11
$GNGGA,115535.600,2500.8261195,N,12132.4555852,E,2,60,0.46,14.962,M,15.25,M,43,3335*75
$GNRMC,115535.600,A,2500.8261195,N,12132.4555852,E,0.04,314.86,260623,,,D,V*0A
$GPHDT,,T*1B
$GNACCURACY,2.5*11
$GNGGA,115535.700,2500.8261075,N,12132.4555852,E,2,60,0.46,14.938,M,15.25,M,43,3335*74
$GNRMC,115535.700,A,2500.8261075,N,12132.4555852,E,0.04,314.86,260623,,,D,V*04
$GPHDT,,T*1B
$GNACCURACY,2.5*11
$GNGGA,115535.800,2500.8260955,N,12132.4555852,E,2,60,0.46,14.921,M,15.25,M,43,3335*79
$GNRMC,115535.800,A,2500.8260955,N,12132.4555852,E,0.03,314.86,260623,,,D,V*06
$GPHDT,,T*1B
$GNACCURACY,2.5*11
$GNGGA,115535.900,2500.8260775,N,12132.4555912,E,2,61,0.46,14.904,M,15.25,M,43,3335*77
$GNRMC,115535.900,A,2500.8260775,N,12132.4555912,E,0.03,314.86,260623,,,D,V*0E
$GPHDT,,T*1B
$GNACCURACY,2.6*12
$GNGGA,115536.000,2500.8260595,N,12132.4555912,E,2,61,0.46,14.887,M,15.25,M,41,3335*79
$GNRMC,115536.000,A,2500.8260595,N,12132.4555912,E,0.03,314.86,260623,,,D,V*08
$GPHDT,,T*1B
$GNACCURACY,2.6*12
$GNGGA,115536.100,2500.8260415,N,12132.4555972,E,2,61,0.46,14.866,M,15.25,M,41,3335*78
$GNRMC,115536.100,A,2500.8260415,N,12132.4555972,E,0.03,314.86,260623,,,D,V*06
$GPHDT,,T*1B
$GNGSA,A,3,196,23,24,199,18,194,15,12,195,10,25,32,0.83,0.46,0.69,1*07
$GNGSA,A,3,73,80,71,86,85,,,,,,,,0.83,0.46,0.69,2*0D
$GNGSA,A,3,13,07,08,26,30,15,,,,,,,0.83,0.46,0.69,3*0B
$GNGSA,A,3,08,38,13,39,16,06,46,19,09,36,20,22,0.83,0.46,0.69,4*0C
$GNGSA,A,3,35,37,29,,,,,,,,,,0.83,0.46,0.69,4*0B
$GPGSV,4,1,16,196,76,075,34,23,63,348,35,24,60,034,37,199,60,167,33,1*65
$GPGSV,4,2,16,18,50,225,43,41,38,242,43,194,36,135,37,15,30,060,28,1*57
$GPGSV,4,3,16,12,29,130,29,195,29,179,42,10,28,324,38,25,18,169,33,1*5F
$GPGSV,4,4,16,32,15,280,28,05,10,128,16,28,04,222,,13,01,066,,1*61
$GPGSV,3,1,09,196,76,075,35,23,63,348,35,24,60,034,35,199,60,167,44,8*66
$GPGSV,3,2,09,18,50,225,48,194,36,135,43,195,29,179,40,25,18,169,29,8*6F
$GPGSV,3,3,09,32,15,280,29,8*50
$GLGSV,2,1,07,73,54,150,39,80,44,053,23,70,42,030,,71,28,328,35,1*79
$GLGSV,2,2,07,86,27,284,32,85,24,232,36,74,16,185,21,1*4D
$GAGSV,3,1,09,13,46,219,42,07,46,318,37,08,42,038,27,26,36,295,35,7*76
$GAGSV,3,2,09,30,35,135,30,02,27,073,,15,13,173,25,03,06,073,20,7*7E
$GAGSV,3,3,09,33,01,327,,7*4D
$GAGSV,2,1,06,07,46,318,42,13,46,219,42,26,36,295,38,30,35,135,37,1*77
$GAGSV,2,2,06,15,13,173,25,03,06,073,19,1*7E
$GBGSV,4,1,15,08,86,336,41,38,80,161,41,13,72,320,41,39,68,299,46,1*75
$GBGSV,4,2,15,16,65,275,41,06,64,270,41,46,62,084,29,19,55,001,37,1*7D
$GBGSV,4,3,15,09,51,250,40,36,48,183,44,20,39,079,25,22,18,310,29,1*79
$GBGSV,4,4,15,35,17,257,41,37,14,041,31,29,11,203,14,1*4E
$GBGSV,3,1,10,38,80,161,45,39,68,299,44,46,62,084,30,19,55,001,18,4*7B
$GBGSV,3,2,10,36,48,183,44,20,39,079,21,22,18,310,19,35,17,257,39,4*7C
$GBGSV,3,3,10,37,14,041,27,29,11,203,19,4*71
$GNACCURACY,2.6*12
$PAIRSAT,1,35,1,0,200,2,0,200,3,0,200,4,0,200,5,0,201,6,0,200,7,0,200,8,0,200,9,0,200,10,0,221,11,0,200,12,0,201,13,0,201,14,0,200,15,0,201,16,0,200,17,0,200,18,0,221,19,0,200,20,0,200,21,0,200,23,0,221,24,0,221,25,0,221,26,0,200,27,0,200,28,0,200,29,0,200,30,0,200,31,0,200,32,0,221,194,0,621,195,0,621,196,0,620,199,0,621*6B
$PAIRSAT,2,24,65,0,200,66,0,200,67,0,200,68,0,200,69,0,200,70,0,200,71,0,201,72,0,200,73,0,201,74,0,200,75,0,200,76,0,200,77,0,200,78,0,200,79,0,201,80,0,201,81,0,200,82,0,200,83,0,200,84,0,200,85,0,201,86,0,201,87,0,200,88,0,200*7A
$PAIRSAT,3,23,2,0,1221,3,0,1221,4,0,1200,5,0,200,7,0,1221,8,0,1221,9,0,1200,10,0,1200,11,0,1200,12,0,1200,13,0,1221,15,0,1221,19,0,1200,21,0,1200,24,0,1200,25,0,1200,26,0,1221,27,0,1200,30,0,1221,31,0,1200,33,0,1200,34,0,1200,36,0,1200*6A
$PAIRSAT,4,50,1,0,200,2,0,200,3,0,200,4,0,200,5,0,200,6,0,201,7,0,200,8,0,201,9,0,201,10,0,200,11,0,200,12,0,200,13,0,201,14,0,200,15,0,200,16,0,201,19,0,621,20,0,621,21,0,600,22,0,621,23,0,600,24,0,600,25,0,600,26,0,600,27,0,600,28,0,600,29,0,621,30,0,600,31,0,200,32,0,600,33,0,600,34,0,600,35,0,621,36,0,621,37,0,621,38,0,621,39,0,621,40,0,600,41,0,600,42,0,600,43,0,600,44,0,600,45,0,600,46,0,621,56,0,200,57,0,200,58,0,200,59,0,600,60,0,600,61,0,600*41
$PAIRDGP,10,5,10,12,15,18,23,24,25,28,32*45
$GNGGA,115536.200,2500.8260235,N,12132.4555972,E,2,61,0.46,14.849,M,15.25,M,41,3335*72
$GNRMC,115536.200,A,2500.8260235,N,12132.4555972,E,0.03,314.86,260623,,,D,V*01
$GPHDT,,T*1B
$GNACCURACY,2.6*12
$GNGGA,115536.300,2500.8259995,N,12132.4555912,E,2,61,0.46,14.822,M,15.25,M,41,3335*73
$GNRMC,115536.300,A,2500.8259995,N,12132.4555912,E,0.03,314.86,260623,,,D,V*0D
$GPHDT,,T*1B
$GNACCURACY,2.6*12
$GNGGA,115536.400,2500.8259815,N,12132.4555912,E,2,61,0.46,14.805,M,15.25,M,41,3335*78
$GNRMC,115536.400,A,2500.8259815,N,12132.4555912,E,0.03,314.86,260623,,,D,V*03
$GPHDT,,T*1B
$GNACCURACY,2.5*11
$GNGGA,115536.500,2500.8259635,N,12132.4555852,E,2,61,0.46,14.788,M,15.25,M,41,3335*7A
$GNRMC,115536.500,A,2500.8259635,N,12132.4555852,E,0.03,314.86,260623,,,D,V*0B
$GPHDT,,T*1B
$GNACCURACY,2.6*12
$GNGGA,115536.600,2500.8259515,N,12132.4555792,E,2,60,0.46,14.771,M,15.25,M,41,3335*7C
$GNRMC,115536.600,A,2500.8259515,N,12132.4555792,E,0.02,314.86,260623,,,D,V*0B
$GPHDT,,T*1B
$GNACCURACY,2.6*12
$GNGGA,115536.700,2500.8259395,N,12132.4555852,E,2,60,0.46,14.746,M,15.25,M,40,3335*75
$GNRMC,115536.700,A,2500.8259395,N,12132.4555852,E,0.02,314.86,260623,,,D,V*07
$GPHDT,,T*1B
$GNACCURACY,2.6*12
$GNGGA,115536.800,2500.8259275,N,12132.4555852,E,2,60,0.46,14.725,M,15.25,M,40,3335*70
$GNRMC,115536.800,A,2500.8259275,N,12132.4555852,E,0.02,314.86,260623,,,D,V*07
$GPHDT,,T*1B
$GNACCURACY,2.6*12
$GNGGA,115536.900,2500.8259155,N,12132.4555852,E,2,61,0.46,14.704,M,15.25,M,40,3335*72
$GNRMC,115536.900,A,2500.8259155,N,12132.4555852,E,0.02,314.86,260623,,,D,V*07
$GPHDT,,T*1B
$GNACCURACY,2.6*12
$GNGGA,115537.000,2500.8259095,N,12132.4555912,E,2,60,0.47,14.689,M,15.25,M,41,3335*77
$GNRMC,115537.000,A,2500.8259095,N,12132.4555912,E,0.02,314.86,260623,,,D,V*07
$GPHDT,,T*1B
$GNACCURACY,2.6*12
$GNGGA,115537.100,2500.8258975,N,12132.4555972,E,2,60,0.47,14.671,M,15.25,M,41,3335*71
$GNRMC,115537.100,A,2500.8258975,N,12132.4555972,E,0.02,314.86,260623,,,D,V*06
$GPHDT,,T*1B
$GNGSA,A,3,196,23,24,199,18,194,12,195,10,25,32,,0.85,0.47,0.70,1*0C
$GNGSA,A,3,73,80,71,86,85,,,,,,,,0.85,0.47,0.70,2*02
$GNGSA,A,3,07,13,08,26,30,15,,,,,,,0.85,0.47,0.70,3*04
$GNGSA,A,3,08,38,13,39,16,06,46,19,09,36,20,22,0.85,0.47,0.70,4*03
$GNGSA,A,3,35,37,29,,,,,,,,,,0.85,0.47,0.70,4*04
$GPGSV,4,1,15,196,76,075,33,23,63,348,34,24,60,034,37,199,60,167,35,1*66
$GPGSV,4,2,15,18,50,225,43,41,38,242,43,194,36,135,44,15,30,060,27,1*5F
$GPGSV,4,3,15,12,29,130,34,195,29,179,43,10,28,324,38,25,18,169,31,1*53
$GPGSV,4,4,15,32,15,280,25,05,10,128,17,13,01,066,,1*52
$GPGSV,3,1,09,196,76,075,34,23,63,348,34,24,60,034,36,199,60,167,47,8*66
$GPGSV,3,2,09,18,50,225,48,194,36,135,46,195,29,179,42,25,18,169,34,8*64
$GPGSV,3,3,09,32,15,280,29,8*50
$GLGSV,2,1,07,73,54,150,41,80,44,053,27,70,42,030,,71,28,328,35,1*72
$GLGSV,2,2,07,86,27,284,33,85,24,232,36,74,16,185,21,1*4C
$GAGSV,3,1,10,07,46,318,36,13,46,219,43,08,42,038,25,26,36,295,35,7*7C
$GAGSV,3,2,10,30,35,135,39,02,27,073,,15,13,173,25,27,09,184,,7*7D
$GAGSV,3,3,10,03,06,073,19,33,01,327,,7*7C
$GAGSV,2,1,06,07,46,318,42,13,46,219,42,26,36,295,38,30,35,135,43,1*74
$GAGSV,2,2,06,15,13,173,25,03,06,073,18,1*7F
$GBGSV,4,1,15,08,86,336,41,38,80,161,42,13,72,320,41,39,68,299,46,1*76
$GBGSV,4,2,15,16,65,275,40,06,64,270,41,46,62,084,31,19,55,001,36,1*74
$GBGSV,4,3,15,09,51,250,40,36,48,183,44,20,39,079,23,22,18,310,24,1*72
$GBGSV,4,4,15,35,17,257,41,37,14,041,28,29,11,203,14,1*46
$GBGSV,3,1,10,38,80,161,46,39,68,299,44,46,62,084,27,19,55,001,17,4*71
$GBGSV,3,2,10,36,48,183,45,20,39,079,16,22,18,310,22,35,17,257,36,4*7E
$GBGSV,3,3,10,37,14,041,30,29,11,203,15,4*7B
$GNACCURACY,2.6*12
$PAIRSAT,1,35,1,0,200,2,0,200,3,0,200,4,0,200,5,0,201,6,0,200,7,0,200,8,0,200,9,0,200,10,0,221,11,0,200,12,0,201,13,0,201,14,0,200,15,0,201,16,0,200,17,0,200,18,0,221,19,0,200,20,0,200,21,0,200,23,0,221,24,0,221,25,0,221,26,0,200,27,0,200,28,0,200,29,0,200,30,0,200,31,0,200,32,0,221,194,0,621,195,0,621,196,0,620,199,0,621*6B
$PAIRSAT,2,24,65,0,200,66,0,200,67,0,200,68,0,200,69,0,200,70,0,200,71,0,201,72,0,200,73,0,201,74,0,200,75,0,200,76,0,200,77,0,200,78,0,200,79,0,201,80,0,201,81,0,200,82,0,200,83,0,200,84,0,200,85,0,201,86,0,201,87,0,200,88,0,200*7A
$PAIRSAT,3,23,2,0,1221,3,0,1221,4,0,1200,5,0,200,7,0,1221,8,0,1221,9,0,1200,10,0,1200,11,0,1200,12,0,1200,13,0,1221,15,0,1221,19,0,1200,21,0,1200,24,0,1200,25,0,1200,26,0,1221,27,0,1200,30,0,1221,31,0,1200,33,0,1200,34,0,1200,36,0,1200*6A
$PAIRSAT,4,50,1,0,200,2,0,200,3,0,200,4,0,200,5,0,200,6,0,201,7,0,200,8,0,201,9,0,201,10,0,200,11,0,200,12,0,200,13,0,201,14,0,200,15,0,200,16,0,201,19,0,621,20,0,621,21,0,600,22,0,621,23,0,600,24,0,600,25,0,600,26,0,600,27,0,600,28,0,600,29,0,621,30,0,600,31,0,200,32,0,600,33,0,600,34,0,600,35,0,621,36,0,621,37,0,621,38,0,621,39,0,621,40,0,600,41,0,600,42,0,600,43,0,600,44,0,600,45,0,600,46,0,621,56,0,200,57,0,200,58,0,200,59,0,600,60,0,600,61,0,600*41
$PAIRDGP,9,5,10,12,15,18,23,24,25,32*5B
$GNGGA,115537.200,2500.8258855,N,12132.4555972,E,2,60,0.47,14.650,M,15.25,M,41,3335*72
$GNRMC,115537.200,A,2500.8258855,N,12132.4555972,E,0.02,314.86,260623,,,D,V*06
$GPHDT,,T*1B
$GNACCURACY,2.6*12
$GNGGA,115537.300,2500.8258795,N,12132.4555972,E,2,60,0.47,14.628,M,15.25,M,41,3335*7F
$GNRMC,115537.300,A,2500.8258795,N,12132.4555972,E,0.02,314.86,260623,,,D,V*04
$GPHDT,,T*1B
$GNACCURACY,2.6*12
$GNGGA,115537.400,2500.8258735,N,12132.4555972,E,2,60,0.47,14.607,M,15.25,M,41,3335*7F
$GNRMC,115537.400,A,2500.8258735,N,12132.4555972,E,0.01,314.86,260623,,,D,V*0A
$GPHDT,,T*1B
$GNACCURACY,2.6*12
$GNGGA,115537.500,2500.8258615,N,12132.4556032,E,2,61,0.46,14.583,M,15.25,M,41,3335*7C
$GNRMC,115537.500,A,2500.8258615,N,12132.4556032,E,0.01,314.86,260623,,,D,V*06
$GPHDT,,T*1B
$GNACCURACY,2.6*12
$GNGGA,115537.600,2500.8258495,N,12132.4555972,E,2,60,0.46,14.561,M,15.25,M,41,3335*76
$GNRMC,115537.600,A,2500.8258495,N,12132.4555972,E,0.01,314.86,260623,,,D,V*01
$GPHDT,,T*1B
$GNACCURACY,2.6*12
$GNGGA,115537.700,2500.8258375,N,12132.4556032,E,2,60,0.46,14.545,M,15.25,M,41,3335*76
$GNRMC,115537.700,A,2500.8258375,N,12132.4556032,E,0.01,314.86,260623,,,D,V*07
$GPHDT,,T*1B
$GNACCURACY,2.6*12
$GNGGA,115537.800,2500.8258255,N,12132.4556092,E,2,60,0.46,14.527,M,15.25,M,41,3335*74
$GNRMC,115537.800,A,2500.8258255,N,12132.4556092,E,0.01,314.86,260623,,,D,V*01
$GPHDT,,T*1B
$GNACCURACY,2.6*12
$GNGGA,115537.900,2500.8258135,N,12132.4556092,E,2,60,0.46,14.507,M,15.25,M,41,3335*72
$GNRMC,115537.900,A,2500.8258135,N,12132.4556092,E,0.01,314.86,260623,,,D,V*05
$GPHDT,,T*1B
$GNACCURACY,2.6*12
$GNGGA,115538.000,2500.8258015,N,12132.4556032,E,2,60,0.46,14.484,M,15.25,M,42,3335*74
$GNRMC,115538.000,A,2500.8258015,N,12132.4556032,E,0.01,314.86,260623,,,D,V*0A
$GPHDT,,T*1B
$GNACCURACY,2.6*12
$GNGGA,115538.100,2500.8257895,N,12132.4556032,E,2,60,0.46,14.454,M,15.25,M,42,3335*77
$GNRMC,115538.100,A,2500.8257895,N,12132.4556032,E,0.01,314.86,260623,,,D,V*04
$GPHDT,,T*1B
$GNGSA,A,3,196,23,24,199,18,194,15,12,195,10,25,32,0.83,0.46,0.69,1*07
$GNGSA,A,3,73,80,71,86,85,,,,,,,,0.83,0.46,0.69,2*0D
$GNGSA,A,3,13,07,08,26,30,15,,,,,,,0.83,0.46,0.69,3*0B
$GNGSA,A,3,08,38,13,39,16,06,46,19,09,36,20,22,0.83,0.46,0.69,4*0C
$GNGSA,A,3,35,37,29,,,,,,,,,,0.83,0.46,0.69,4*0B
$GPGSV,4,1,16,196,76,075,33,23,63,348,34,24,60,034,37,199,60,167,35,1*65
$GPGSV,4,2,16,18,50,225,43,41,38,242,43,194,36,135,44,15,30,060,30,1*5A
$GPGSV,4,3,16,12,29,130,35,195,29,179,42,10,28,324,39,25,19,169,30,1*51
$GPGSV,4,4,16,32,15,281,25,05,10,128,17,28,04,222,,13,01,066,,1*6C
$GPGSV,3,1,09,196,76,075,33,23,63,348,33,24,60,034,36,199,60,167,47,8*66
$GPGSV,3,2,09,18,50,225,48,194,36,135,46,195,29,179,42,25,19,169,33,8*62
$GPGSV,3,3,09,32,15,281,29,8*51
$GLGSV,2,1,07,73,54,150,41,80,44,053,29,70,42,030,,71,28,328,35,1*7C
$GLGSV,2,2,07,86,27,284,34,85,24,232,35,74,16,185,21,1*48
$GAGSV,3,1,10,13,46,219,43,07,46,318,36,08,42,038,24,26,36,295,35,7*7D
$GAGSV,3,2,10,30,35,135,39,02,27,073,,15,13,173,25,27,09,184,,7*7D
$GAGSV,3,3,10,03,06,073,19,33,01,327,,7*7C
$GAGSV,2,1,06,07,46,318,42,13,46,219,42,26,36,295,38,30,35,135,43,1*74
$GAGSV,2,2,06,15,13,173,25,03,06,073,16,1*71
$GBGSV,4,1,15,08,86,336,41,38,80,161,42,13,72,320,41,39,68,299,46,1*76
$GBGSV,4,2,15,16,65,275,40,06,64,270,40,46,62,084,28,19,55,001,36,1*7D
$GBGSV,4,3,15,09,51,250,39,36,48,183,44,20,39,079,23,22,18,310,24,1*7C
$GBGSV,4,4,15,35,17,257,41,37,14,041,28,29,11,203,13,1*41
$GBGSV,3,1,10,38,80,161,46,39,68,299,44,46,62,084,25,19,55,001,15,4*71
$GBGSV,3,2,10,36,48,183,44,20,39,079,14,22,18,310,23,35,17,257,37,4*7D
$GBGSV,3,3,10,37,14,041,28,29,11,203,15,4*72
$GNACCURACY,2.6*12
$PAIRSAT,1,35,1,0,200,2,0,200,3,0,200,4,0,200,5,0,201,6,0,200,7,0,200,8,0,200,9,0,200,10,0,221,11,0,200,12,0,201,13,0,201,14,0,200,15,0,201,16,0,200,17,0,200,18,0,221,19,0,200,20,0,200,21,0,200,23,0,221,24,0,221,25,0,221,26,0,200,27,0,200,28,0,200,29,0,200,30,0,200,31,0,200,32,0,221,194,0,621,195,0,621,196,0,620,199,0,621*6B
$PAIRSAT,2,24,65,0,200,66,0,200,67,0,200,68,0,200,69,0,200,70,0,200,71,0,201,72,0,200,73,0,201,74,0,200,75,0,200,76,0,200,77,0,200,78,0,200,79,0,201,80,0,201,81,0,200,82,0,200,83,0,200,84,0,200,85,0,201,86,0,201,87,0,200,88,0,200*7A
$PAIRSAT,3,23,2,0,1221,3,0,1221,4,0,1200,5,0,200,7,0,1221,8,0,1221,9,0,1200,10,0,1200,11,0,1200,12,0,1200,13,0,1221,15,0,1221,19,0,1200,21,0,1200,24,0,1200,25,0,1200,26,0,1221,27,0,1200,30,0,1221,31,0,1200,33,0,1200,34,0,1200,36,0,1200*6A
$PAIRSAT,4,50,1,0,200,2,0,200,3,0,200,4,0,200,5,0,200,6,0,201,7,0,200,8,0,201,9,0,201,10,0,200,11,0,200,12,0,200,13,0,201,14,0,200,15,0,200,16,0,201,19,0,621,20,0,621,21,0,600,22,0,621,23,0,600,24,0,600,25,0,600,26,0,600,27,0,600,28,0,600,29,0,621,30,0,600,31,0,200,32,0,600,33,0,600,34,0,600,35,0,621,36,0,621,37,0,621,38,0,621,39,0,621,40,0,600,41,0,600,42,0,600,43,0,600,44,0,600,45,0,600,46,0,621,56,0,200,57,0,200,58,0,200,59,0,600,60,0,600,61,0,600*41
$PAIRDGP,10,5,10,12,15,18,23,24,25,28,32*45
$GNGGA,115538.200,2500.8257775,N,12132.4555972,E,2,61,0.46,14.432,M,15.25,M,42,3335*7A
$GNRMC,115538.200,A,2500.8257775,N,12132.4555972,E,0.01,314.86,260623,,,D,V*08
$GPHDT,,T*1B
$GNACCURACY,2.6*12
$GNGGA,115538.300,2500.8257655,N,12132.4555972,E,2,61,0.46,14.411,M,15.25,M,42,3335*79
$GNRMC,115538.300,A,2500.8257655,N,12132.4555972,E,0.01,314.86,260623,,,D,V*0A
$GPHDT,,T*1B
$GNACCURACY,2.6*12
$GNGGA,115538.400,2500.8257595,N,12132.4555972,E,2,61,0.46,14.393,M,15.25,M,42,3335*7C
$GNRMC,115538.400,A,2500.8257595,N,12132.4555972,E,0.01,314.86,260623,,,D,V*02
$GPHDT,,T*1B
$GNACCURACY,2.6*12
$GNGGA,115538.500,2500.8257475,N,12132.4555912,E,2,61,0.46,14.367,M,15.25,M,42,3335*7F
$GNRMC,115538.500,A,2500.8257475,N,12132.4555912,E,0.01,314.86,260623,,,D,V*0A
$GPHDT,,T*1B
$GNACCURACY,2.6*12
$GNGGA,115538.600,2500.8257295,N,12132.4555912,E,2,61,0.46,14.340,M,15.25,M,42,3335*71
$GNRMC,115538.600,A,2500.8257295,N,12132.4555912,E,0.01,314.86,260623,,,D,V*01
$GPHDT,,T*1B
$GNACCURACY,2.6*12
$GNGGA,115538.700,2500.8257175,N,12132.4555912,E,2,60,0.46,14.320,M,15.25,M,42,3335*7A
$GNRMC,115538.700,A,2500.8257175,N,12132.4555912,E,0.01,314.86,260623,,,D,V*0D
$GPHDT,,T*1B
$GNACCURACY,2.6*12
$GNGGA,115538.800,2500.8257055,N,12132.4555972,E,2,60,0.46,14.297,M,15.25,M,1,3335*4A
$GNRMC,115538.800,A,2500.8257055,N,12132.4555972,E,0.01,314.86,260623,,,D,V*07
$GPHDT,,T*1B
$GNACCURACY,2.6*12
$GNGGA,115538.900,2500.8256935,N,12132.4555912,E,2,59,0.46,14.269,M,15.25,M,1,3335*48
$GNRMC,115538.900,A,2500.8256935,N,12132.4555912,E,0.01,314.86,260623,,,D,V*0E
$GPHDT,,T*1B
$GNACCURACY,2.6*12
$GNGGA,115539.000,2500.8256815,N,12132.4555912,E,2,59,0.46,14.250,M,15.25,M,2,3335*4A
$GNRMC,115539.000,A,2500.8256815,N,12132.4555912,E,0.01,314.86,260623,,,D,V*05
$GPHDT,,T*1B
$GNACCURACY,2.6*12
$GNGGA,115539.100,2500.8256755,N,12132.4555912,E,2,60,0.46,14.225,M,15.25,M,2,3335*48
$GNRMC,115539.100,A,2500.8256755,N,12132.4555912,E,0.01,314.86,260623,,,D,V*0F
$GPHDT,,T*1B
$GNGSA,A,3,196,23,24,199,18,194,15,12,195,10,25,32,0.83,0.47,0.69,1*06
$GNGSA,A,3,73,80,71,86,85,,,,,,,,0.83,0.47,0.69,2*0C
$GNGSA,A,3,13,07,08,26,30,15,,,,,,,0.83,0.47,0.69,3*0A
$GNGSA,A,3,08,38,13,39,16,06,46,19,09,36,22,35,0.83,0.47,0.69,4*09
$GNGSA,A,3,37,29,,,,,,,,,,,0.83,0.47,0.69,4*0C
$GPGSV,4,1,16,196,76,075,32,23,63,348,36,24,60,034,37,199,60,167,35,1*66
$GPGSV,4,2,16,18,50,225,43,41,38,242,43,194,36,135,45,15,30,060,31,1*5A
$GPGSV,4,3,16,12,29,130,36,195,29,179,41,10,28,324,39,25,19,169,30,1*51
$GPGSV,4,4,16,32,15,281,22,05,10,128,16,28,04,222,,13,01,066,,1*6A
$GPGSV,3,1,09,196,76,075,33,23,63,348,33,24,60,034,36,199,60,167,47,8*66
$GPGSV,3,2,09,18,50,225,48,194,36,135,47,195,29,179,42,25,19,169,34,8*64
$GPGSV,3,3,09,32,15,281,29,8*51
$GLGSV,2,1,07,73,54,150,41,80,44,053,29,70,42,030,,71,28,328,36,1*7F
$GLGSV,2,2,07,86,27,284,34,85,24,232,35,74,16,185,21,1*48
$GAGSV,3,1,09,13,46,219,43,07,46,318,37,08,42,038,24,26,36,295,35,7*74
$GAGSV,3,2,09,30,35,135,39,02,27,073,,15,13,173,23,27,09,184,,7*73
$GAGSV,3,3,09,03,06,073,19,7*43
$GAGSV,2,1,05,07,46,318,42,13,46,219,42,26,36,295,38,30,35,135,44,1*70
$GAGSV,2,2,05,03,06,073,18,1*48
$GBGSV,4,1,15,08,86,336,41,38,80,161,42,13,72,320,41,39,68,299,45,1*75
$GBGSV,4,2,15,16,65,275,40,06,64,270,40,46,62,084,28,19,55,001,37,1*7C
$GBGSV,4,3,15,09,51,250,39,36,48,183,44,20,39,079,24,22,18,310,24,1*7B
$GBGSV,4,4,15,35,17,257,41,37,14,041,28,29,11,203,14,1*46
$GBGSV,3,1,09,38,80,161,46,39,68,299,44,46,62,084,25,19,55,001,16,4*7A
$GBGSV,3,2,09,36,48,183,44,22,18,310,23,35,17,257,37,37,14,041,27,4*77
$GBGSV,3,3,09,29,11,203,16,4*47
$GNACCURACY,2.6*12
$PAIRSAT,1,35,1,0,200,2,0,200,3,0,200,4,0,200,5,0,201,6,0,200,7,0,200,8,0,200,9,0,200,10,0,221,11,0,200,12,0,201,13,0,201,14,0,200,15,0,201,16,0,200,17,0,200,18,0,221,19,0,200,20,0,200,21,0,200,23,0,221,24,0,221,25,0,221,26,0,200,27,0,200,28,0,200,29,0,200,30,0,200,31,0,200,32,0,221,194,0,621,195,0,621,196,0,620,199,0,621*6B
$PAIRSAT,2,24,65,0,200,66,0,200,67,0,200,68,0,200,69,0,200,70,0,200,71,0,201,72,0,200,73,0,201,74,0,200,75,0,200,76,0,200,77,0,200,78,0,200,79,0,201,80,0,201,81,0,200,82,0,200,83,0,200,84,0,200,85,0,201,86,0,201,87,0,200,88,0,200*7A
$PAIRSAT,3,23,2,0,1221,3,0,1221,4,0,1200,5,0,200,7,0,1221,8,0,1221,9,0,1200,10,0,1200,11,0,1200,12,0,1200,13,0,1221,15,0,1221,19,0,1200,21,0,1200,24,0,1200,25,0,1200,26,0,1221,27,0,1200,30,0,1221,31,0,1200,33,0,1200,34,0,1200,36,0,1200*6A
$PAIRSAT,4,50,1,0,200,2,0,200,3,0,200,4,0,200,5,0,200,6,0,201,7,0,200,8,0,201,9,0,201,10,0,200,11,0,200,12,0,200,13,0,201,14,0,200,15,0,200,16,0,201,19,0,621,20,0,621,21,0,600,22,0,621,23,0,600,24,0,600,25,0,600,26,0,600,27,0,600,28,0,600,29,0,621,30,0,600,31,0,200,32,0,600,33,0,600,34,0,600,35,0,621,36,0,621,37,0,621,38,0,621,39,0,621,40,0,600,41,0,600,42,0,600,43,0,600,44,0,600,45,0,600,46,0,621,56,0,200,57,0,200,58,0,200,59,0,600,60,0,600,61,0,600*41
$PAIRDGP,10,5,10,12,15,18,23,24,25,28,32*45
$GNGGA,115539.200,2500.8256635,N,12132.4555852,E,2,58,0.47,14.197,M,15.25,M,2,3335*49
$GNRMC,115539.200,A,2500.8256635,N,12132.4555852,E,0.01,314.86,260623,,,D,V*0E
$GPHDT,,T*1B
$GNACCURACY,2.6*12
$GNGGA,115539.300,2500.8256515,N,12132.4555852,E,2,60,0.45,14.176,M,15.25,M,2,3335*4F
$GNRMC,115539.300,A,2500.8256515,N,12132.4555852,E,0.01,314.86,260623,,,D,V*0E
$GPHDT,,T*1B
$GNACCURACY,2.6*12
$GNGGA,115539.400,2500.8256395,N,12132.4555852,E,2,60,0.45,14.159,M,15.25,M,2,3335*4B
$GNRMC,115539.400,A,2500.8256395,N,12132.4555852,E,0.01,314.86,260623,,,D,V*07
$GPHDT,,T*1B
$GNACCURACY,2.6*12
$GNGGA,115539.500,2500.8284944,N,12132.4547053,E,4,60,0.45,15.998,M,15.25,M,1,3335*48
$GNRMC,115539.500,A,2500.8284944,N,12132.4547053,E,0.01,314.86,260623,,,R,V*13
$GPHDT,,T*1B
$GNACCURACY,2.6*12
$GNGGA,115539.600,2500.8285005,N,12132.4547021,E,4,60,0.45,15.972,M,15.25,M,1,3335*47
$GNRMC,115539.600,A,2500.8285005,N,12132.4547021,E,0.01,314.86,260623,,,R,V*18
$GPHDT,,T*1B
$GNACCURACY,2.6*12
$GNGGA,115539.700,2500.8285007,N,12132.4547044,E,4,60,0.45,15.968,M,15.25,M,1,3335*4C
$GNRMC,115539.700,A,2500.8285007,N,12132.4547044,E,0.01,314.86,260623,,,R,V*18
$GPHDT,,T*1B
$GNACCURACY,2.6*12
$GNGGA,115539.800,2500.8285006,N,12132.4547020,E,4,60,0.45,15.975,M,15.25,M,1,3335*4C
$GNRMC,115539.800,A,2500.8285006,N,12132.4547020,E,0.01,314.86,260623,,,R,V*14
$GPHDT,,T*1B
$GNACCURACY,2.6*12
$GNGGA,115539.900,2500.8285020,N,12132.4547025,E,4,60,0.45,15.973,M,15.25,M,1,3335*4A
$GNRMC,115539.900,A,2500.8285020,N,12132.4547025,E,0.01,314.86,260623,,,R,V*14
$GPHDT,,T*1B
