$FW : RTK35X,V1.1X0314AS,Lib20210517,1*54
$Tool : LOCOSYS , GNSS Firebird , v1.0.0.19*39
$---------------------------------------------------*2D
$GPHDT,,T*1B
$GNGSA,A,3,196,23,24,199,18,194,15,12,195,10,25,32,0.83,0.45,0.70,1*0C
$GNGSA,A,3,73,80,71,86,85,,,,,,,,0.83,0.45,0.70,2*06
$GNGSA,A,3,13,07,08,26,30,02,15,,,,,,0.83,0.45,0.70,3*02
$GNGSA,A,3,08,38,13,39,16,06,46,19,09,36,22,35,0.83,0.45,0.70,4*03
$GNGSA,A,3,37,20,,,,,,,,,,,0.83,0.45,0.70,4*0F
$GPGSV,4,1,16,196,76,075,34,23,63,348,34,24,60,034,31,199,60,167,35,1*64
$GPGSV,4,2,16,18,50,225,45,41,38,242,43,194,36,135,44,15,30,060,29,1*54
$GPGSV,4,3,16,12,29,130,33,195,29,179,39,10,28,324,29,25,19,169,33,1*59
$GPGSV,4,4,16,32,15,281,27,05,10,128,17,28,05,222,,13,01,066,,1*6F
$GPGSV,3,1,10,196,76,075,35,23,63,348,30,24,60,034,32,199,60,167,47,8*6F
$GPGSV,3,2,10,18,50,225,46,194,36,135,44,195,29,179,43,10,28,324,25,8*6F
$GPGSV,3,3,10,25,19,169,29,32,15,281,26,8*6C
$GLGSV,2,1,07,73,54,150,42,80,44,053,27,70,42,031,,71,28,329,30,1*74
$GLGSV,2,2,07,86,27,284,26,85,24,232,28,74,16,185,18,1*4D
$GAGSV,3,1,09,13,46,219,40,07,46,318,34,08,42,038,22,26,36,294,35,7*73
$GAGSV,3,2,09,30,35,135,38,02,27,073,22,15,12,173,26,03,06,073,14,7*73
$GAGSV,3,3,09,33,01,327,,7*4D
$GAGSV,2,1,05,07,46,318,33,13,46,219,44,26,36,294,36,30,35,135,39,1*75
$GAGSV,2,2,05,03,06,073,23,1*40
$GBGSV,4,1,15,08,86,335,40,38,80,162,43,13,73,319,41,39,68,300,44,1*7E
$GBGSV,4,2,15,16,65,275,44,06,64,270,43,46,62,083,28,19,55,002,36,1*7E
$GBGSV,4,3,15,09,51,250,40,36,48,183,45,20,39,079,,22,18,310,19,1*7C
$GBGSV,4,4,15,35,17,257,35,37,14,041,25,29,11,203,16,1*4A
$GBGSV,2,1,08,38,80,162,45,39,68,300,42,46,62,083,32,36,48,183,46,4*73
$GBGSV,2,2,08,20,39,079,17,22,18,310,21,35,17,257,39,37,14,041,19,4*75
$GNACCURACY,2.5*11
$PAIRSAT,1,35,1,0,200,2,0,200,3,0,200,4,0,200,5,0,201,6,0,200,7,0,200,8,0,200,9,0,200,10,0,221,11,0,200,12,0,201,13,0,201,14,0,200,15,0,201,16,0,200,17,0,200,18,0,221,19,0,200,20,0,200,21,0,200,23,0,221,24,0,221,25,0,221,26,0,200,27,0,200,28,0,200,29,0,200,30,0,200,31,0,200,32,0,221,194,0,621,195,0,621,196,0,620,199,0,621*6B
$PAIRSAT,2,24,65,0,200,66,0,200,67,0,200,68,0,200,69,0,200,70,0,200,71,0,201,72,0,200,73,0,201,74,0,200,75,0,200,76,0,200,77,0,200,78,0,200,79,0,201,80,0,201,81,0,200,82,0,200,83,0,200,84,0,200,85,0,201,86,0,201,87,0,200,88,0,200*7A
$PAIRSAT,3,23,2,0,1221,3,0,1221,4,0,1200,5,0,200,7,0,1221,8,0,1221,9,0,1200,10,0,1200,11,0,1200,12,0,1200,13,0,1221,15,0,1221,19,0,1200,21,0,1200,24,0,1200,25,0,1200,26,0,1221,27,0,1200,30,0,1221,31,0,1200,33,0,1200,34,0,1200,36,0,1200*6A
$PAIRSAT,4,50,1,0,200,2,0,200,3,0,200,4,0,200,5,0,200,6,0,201,7,0,200,8,0,201,9,0,201,10,0,200,11,0,200,12,0,200,13,0,201,14,0,200,15,0,200,16,0,201,19,0,621,20,0,621,21,0,600,22,0,621,23,0,600,24,0,600,25,0,600,26,0,600,27,0,600,28,0,600,29,0,621,30,0,600,31,0,200,32,0,600,33,0,600,34,0,600,35,0,621,36,0,621,37,0,621,38,0,621,39,0,621,40,0,600,41,0,600,42,0,600,43,0,600,44,0,600,45,0,600,46,0,621,56,0,200,57,0,200,58,0,200,59,0,600,60,0,600,61,0,600*41
$PAIRDGP,10,5,10,12,15,18,23,24,25,28,32*45
$GNGGA,115608.200,2500.8284993,N,12132.4547076,E,4,59,0.45,16.038,M,15.25,M,8,3335*40
$GNRMC,115608.200,A,2500.8284993,N,12132.4547076,E,0.00,314.86,260623,,,R,V*19
$GPHDT,,T*1B
$GNACCURACY,2.5*11
$GNGGA,115608.300,2500.8284939,N,12132.4547097,E,4,58,0.45,16.004,M,15.25,M,4,3335*4C
$GNRMC,115608.300,A,2500.8284939,N,12132.4547097,E,0.00,314.86,260623,,,R,V*17
$GPHDT,,T*1B
$GNACCURACY,2.5*11
$GNGGA,115608.400,2500.8284961,N,12132.4547097,E,4,59,0.45,15.997,M,15.25,M,4,3335*47
$GNRMC,115608.400,A,2500.8284961,N,12132.4547097,E,0.00,314.86,260623,,,R,V*1D
$GPHDT,,T*1B
$GNACCURACY,2.5*11
$GNGGA,115608.500,2500.8284924,N,12132.4547116,E,4,59,0.45,15.961,M,15.25,M,0,3335*42
$GNRMC,115608.500,A,2500.8284924,N,12132.4547116,E,0.00,314.86,260623,,,R,V*15
$GPHDT,,T*1B
$GNACCURACY,2.5*11
$GNGGA,115608.600,2500.8284891,N,12132.4547102,E,4,59,0.45,15.958,M,15.25,M,0,3335*41
$GNRMC,115608.600,A,2500.8284891,N,12132.4547102,E,0.00,314.86,260623,,,R,V*1C
$GPHDT,,T*1B
$GNACCURACY,2.5*11
$GNGGA,115608.700,2500.8284913,N,12132.4547106,E,4,59,0.45,15.967,M,15.25,M,0,3335*43
$GNRMC,115608.700,A,2500.8284913,N,12132.4547106,E,0.00,314.86,260623,,,R,V*12
$GPHDT,,T*1B
$GNACCURACY,2.5*11
$GNGGA,115608.800,2500.8284943,N,12132.4547098,E,4,58,0.45,15.952,M,15.25,M,0,3335*48
$GNRMC,115608.800,A,2500.8284943,N,12132.4547098,E,0.01,314.86,260623,,,R,V*1F
$GPHDT,,T*1B
$GNACCURACY,2.5*11
$GNGGA,115608.900,2500.8284937,N,12132.4547086,E,4,58,0.45,15.955,M,15.25,M,0,3335*42
$GNRMC,115608.900,A,2500.8284937,N,12132.4547086,E,0.01,314.86,260623,,,R,V*12
$GPHDT,,T*1B
$GNACCURACY,2.5*11
$GNGGA,115609.000,2500.8284927,N,12132.4547083,E,4,58,0.45,15.948,M,15.25,M,1,3335*43
$GNRMC,115609.000,A,2500.8284927,N,12132.4547083,E,0.01,314.86,260623,,,R,V*1E
$PAIR010,0,1,2268,129387*32
$GPHDT,,T*1B
$GNACCURACY,2.5*11
$GNGGA,115609.100,2500.8284951,N,12132.4547125,E,4,59,0.45,15.955,M,15.25,M,1,3335*43
$GNRMC,115609.100,A,2500.8284951,N,12132.4547125,E,0.01,314.86,260623,,,R,V*13
$GPHDT,,T*1B
$GNGSA,A,3,196,23,199,24,18,194,15,12,10,195,25,32,0.83,0.45,0.70,1*0C
$GNGSA,A,3,73,80,71,86,85,,,,,,,,0.83,0.45,0.70,2*06
$GNGSA,A,3,13,07,08,26,30,02,15,,,,,,0.83,0.45,0.70,3*02
$GNGSA,A,3,08,38,13,39,16,06,46,19,09,36,20,22,0.83,0.45,0.70,4*07
$GNGSA,A,3,35,37,,,,,,,,,,,0.83,0.45,0.70,4*0B
$GPGSV,4,1,16,196,76,075,34,23,63,348,34,199,60,167,35,24,60,034,31,1*64
$GPGSV,4,2,16,18,49,225,44,41,38,242,43,194,36,135,44,15,30,060,27,1*53
$GPGSV,4,3,16,12,29,130,33,10,29,324,28,195,29,179,39,25,19,169,33,1*59
$GPGSV,4,4,16,32,15,281,26,05,10,128,16,28,05,222,,13,01,066,,1*6F
$GPGSV,3,1,09,196,76,075,35,23,63,348,32,24,60,034,32,199,60,167,47,8*65
$GPGSV,3,2,09,18,49,225,45,194,36,135,44,195,29,179,43,25,19,169,28,8*6E
$GPGSV,3,3,09,32,15,281,26,8*5E
$GLGSV,2,1,07,73,54,150,41,80,44,053,29,70,42,031,,71,28,329,27,1*7F
$GLGSV,2,2,07,86,27,284,25,85,24,232,28,74,16,185,18,1*4E
$GAGSV,3,1,09,13,46,219,40,07,46,318,33,08,42,038,19,26,36,294,35,7*7C
$GAGSV,3,2,09,30,35,135,38,02,27,073,22,15,12,173,26,03,06,073,17,7*70
$GAGSV,3,3,09,33,01,327,,7*4D
$GAGSV,2,1,07,07,46,318,35,13,46,219,43,08,42,038,30,26,36,294,36,1*78
$GAGSV,2,2,07,30,35,135,39,15,12,173,28,03,06,073,23,1*42
$GBGSV,4,1,15,08,86,335,40,38,80,162,43,13,73,319,41,39,68,300,44,1*7E
$GBGSV,4,2,15,16,65,275,44,06,64,270,43,46,62,083,22,19,55,002,36,1*74
$GBGSV,4,3,15,09,51,250,40,36,48,183,45,20,39,079,27,22,18,310,17,1*77
$GBGSV,4,4,15,35,17,257,34,37,14,041,27,29,11,203,14,1*4B
$GBGSV,2,1,07,38,80,162,44,39,68,300,42,46,62,083,32,36,48,183,45,4*7E
$GBGSV,2,2,07,20,39,079,16,22,18,310,20,35,17,257,39,4*46
$GNACCURACY,2.5*11
$PAIRSAT,1,35,1,0,200,2,0,200,3,0,200,4,0,200,5,0,201,6,0,200,7,0,200,8,0,200,9,0,200,10,0,221,11,0,200,12,0,201,13,0,201,14,0,200,15,0,201,16,0,200,17,0,200,18,0,221,19,0,200,20,0,200,21,0,200,23,0,221,24,0,221,25,0,221,26,0,200,27,0,200,28,0,200,29,0,200,30,0,200,31,0,200,32,0,221,194,0,621,195,0,621,196,0,620,199,0,621*6B
$PAIRSAT,2,24,65,0,200,66,0,200,67,0,200,68,0,200,69,0,200,70,0,200,71,0,201,72,0,200,73,0,201,74,0,200,75,0,200,76,0,200,77,0,200,78,0,200,79,0,201,80,0,201,81,0,200,82,0,200,83,0,200,84,0,200,85,0,201,86,0,201,87,0,200,88,0,200*7A
$PAIRSAT,3,23,2,0,1221,3,0,1221,4,0,1200,5,0,200,7,0,1221,8,0,1221,9,0,1200,10,0,1200,11,0,1200,12,0,1200,13,0,1221,15,0,1221,19,0,1200,21,0,1200,24,0,1200,25,0,1200,26,0,1221,27,0,1200,30,0,1221,31,0,1200,33,0,1200,34,0,1200,36,0,1200*6A
$PAIRSAT,4,50,1,0,200,2,0,200,3,0,200,4,0,200,5,0,200,6,0,201,7,0,200,8,0,201,9,0,201,10,0,200,11,0,200,12,0,200,13,0,201,14,0,200,15,0,200,16,0,201,19,0,621,20,0,621,21,0,600,22,0,621,23,0,600,24,0,600,25,0,600,26,0,600,27,0,600,28,0,600,29,0,621,30,0,600,31,0,200,32,0,600,33,0,600,34,0,600,35,0,621,36,0,621,37,0,621,38,0,621,39,0,621,40,0,600,41,0,600,42,0,600,43,0,600,44,0,600,45,0,600,46,0,621,56,0,200,57,0,200,58,0,200,59,0,600,60,0,600,61,0,600*41
$PAIRDGP,10,5,10,12,15,18,23,24,25,28,32*45
$GNGGA,115609.200,2500.8284917,N,12132.4547085,E,4,60,0.45,15.952,M,15.25,M,1,3335*44
$GNRMC,115609.200,A,2500.8284917,N,12132.4547085,E,0.01,314.86,260623,,,R,V*19
$GPHDT,,T*1B
$GNACCURACY,2.5*11
$GNGGA,115609.300,2500.8284939,N,12132.4547086,E,4,60,0.45,15.952,M,15.25,M,1,3335*4A
$GNRMC,115609.300,A,2500.8284939,N,12132.4547086,E,0.01,314.86,260623,,,R,V*17
$GPHDT,,T*1B
$GNACCURACY,2.5*11
$GNGGA,115609.400,2500.8284942,N,12132.4547106,E,4,60,0.45,15.948,M,15.25,M,1,3335*43
$GNRMC,115609.400,A,2500.8284942,N,12132.4547106,E,0.01,314.86,260623,,,R,V*15
$GPHDT,,T*1B
$GNACCURACY,2.5*11
$GNGGA,115609.500,2500.8284935,N,12132.4547048,E,4,59,0.45,15.952,M,15.25,M,1,3335*48
$GNRMC,115609.500,A,2500.8284935,N,12132.4547048,E,0.01,314.86,260623,,,R,V*1F
$GPHDT,,T*1B
$GNACCURACY,2.5*11
$GNGGA,115609.600,2500.8284903,N,12132.4547078,E,4,60,0.45,15.951,M,15.25,M,1,3335*44
$GNRMC,115609.600,A,2500.8284903,N,12132.4547078,E,0.01,314.86,260623,,,R,V*1A
$GPHDT,,T*1B
$GNACCURACY,2.5*11
$GNGGA,115609.700,2500.8284933,N,12132.4547080,E,4,59,0.45,15.946,M,15.25,M,1,3335*4D
$GNRMC,115609.700,A,2500.8284933,N,12132.4547080,E,0.01,314.86,260623,,,R,V*1F
$GPHDT,,T*1B
$GNACCURACY,2.5*11
$GNGGA,115609.800,2500.8284890,N,12132.4547059,E,4,60,0.45,15.948,M,15.25,M,1,3335*4A
$GNRMC,115609.800,A,2500.8284890,N,12132.4547059,E,0.01,314.86,260623,,,R,V*1C
$GPHDT,,T*1B
$GNACCURACY,2.5*11
$GNGGA,115609.900,2500.8284902,N,12132.4547048,E,4,59,0.46,15.957,M,15.25,M,1,3335*46
$GNRMC,115609.900,A,2500.8284902,N,12132.4547048,E,0.01,314.86,260623,,,R,V*17
$GPHDT,,T*1B
$GNACCURACY,2.5*11
$GNGGA,115610.000,2500.8284854,N,12132.4547082,E,4,59,0.46,15.961,M,15.25,M,2,3335*45
$GNRMC,115610.000,A,2500.8284854,N,12132.4547082,E,0.01,314.86,260623,,,R,V*12
$GPHDT,,T*1B
$GNACCURACY,2.5*11
$GNGGA,115610.100,2500.8284883,N,12132.4547079,E,4,59,0.46,15.960,M,15.25,M,2,3335*4B
$GNRMC,115610.100,A,2500.8284883,N,12132.4547079,E,0.01,314.86,260623,,,R,V*1D
$GPHDT,,T*1B
$GNGSA,A,3,196,23,199,24,18,194,15,12,10,195,25,32,0.84,0.46,0.70,1*08
$GNGSA,A,3,73,80,71,86,85,,,,,,,,0.84,0.46,0.70,2*02
$GNGSA,A,3,13,07,08,26,30,02,15,,,,,,0.84,0.46,0.70,3*06
$GNGSA,A,3,08,38,13,39,16,06,46,19,09,36,22,35,0.84,0.46,0.70,4*07
$GNGSA,A,3,37,,,,,,,,,,,,0.84,0.46,0.70,4*09
$GPGSV,4,1,16,196,76,075,34,23,63,348,35,199,60,167,35,24,59,034,31,1*6F
$GPGSV,4,2,16,18,49,225,44,41,38,242,43,194,36,135,44,15,30,060,27,1*53
$GPGSV,4,3,16,12,29,130,33,10,29,324,31,195,29,179,39,25,19,169,34,1*56
$GPGSV,4,4,16,32,15,281,26,05,10,128,14,28,05,222,,13,01,066,,1*6D
$GPGSV,3,1,10,196,76,075,35,23,63,348,31,199,60,167,47,24,59,034,31,8*67
$GPGSV,3,2,10,18,49,225,45,194,36,135,44,10,29,324,22,195,29,179,43,8*62
$GPGSV,3,3,10,25,19,169,26,32,15,281,27,8*62
$GLGSV,2,1,06,73,54,150,41,80,44,053,29,71,28,329,31,86,27,284,25,1*78
$GLGSV,2,2,06,85,24,232,28,74,16,185,15,1*70
$GAGSV,3,1,09,13,46,219,40,07,46,318,31,08,42,038,19,26,36,294,35,7*7E
$GAGSV,3,2,09,30,35,135,38,02,27,073,22,15,12,173,25,03,06,073,17,7*73
$GAGSV,3,3,09,33,01,327,,7*4D
$GAGSV,2,1,07,07,46,318,34,13,46,219,43,08,42,038,29,26,36,294,36,1*71
$GAGSV,2,2,07,30,35,135,39,15,12,173,29,03,06,073,24,1*44
$GBGSV,4,1,15,08,86,335,40,38,80,162,43,13,73,319,41,39,68,300,44,1*7E
$GBGSV,4,2,15,16,65,275,44,06,64,270,43,46,62,083,23,19,55,002,36,1*75
$GBGSV,4,3,15,09,51,250,40,36,48,183,45,20,39,079,26,22,18,310,14,1*75
$GBGSV,4,4,15,35,17,257,35,37,14,041,26,29,11,203,14,1*4B
$GBGSV,2,1,06,38,80,162,44,39,68,300,42,46,62,083,32,36,48,183,45,4*7F
$GBGSV,2,2,06,22,18,310,20,35,17,257,39,4*76
$GNACCURACY,2.5*11
$PAIRSAT,1,35,1,0,200,2,0,200,3,0,200,4,0,200,5,0,201,6,0,200,7,0,200,8,0,200,9,0,200,10,0,221,11,0,200,12,0,201,13,0,201,14,0,200,15,0,201,16,0,200,17,0,200,18,0,221,19,0,200,20,0,200,21,0,200,23,0,221,24,0,221,25,0,221,26,0,200,27,0,200,28,0,200,29,0,200,30,0,200,31,0,200,32,0,221,194,0,621,195,0,621,196,0,620,199,0,621*6B
$PAIRSAT,2,24,65,0,200,66,0,200,67,0,200,68,0,200,69,0,200,70,0,200,71,0,201,72,0,200,73,0,201,74,0,200,75,0,200,76,0,200,77,0,200,78,0,200,79,0,201,80,0,201,81,0,200,82,0,200,83,0,200,84,0,200,85,0,201,86,0,201,87,0,200,88,0,200*7A
$PAIRSAT,3,23,2,0,1221,3,0,1221,4,0,1200,5,0,200,7,0,1221,8,0,1221,9,0,1200,10,0,1200,11,0,1200,12,0,1200,13,0,1221,15,0,1221,19,0,1200,21,0,1200,24,0,1200,25,0,1200,26,0,1221,27,0,1200,30,0,1221,31,0,1200,33,0,1200,34,0,1200,36,0,1200*6A
$PAIRSAT,4,50,1,0,200,2,0,200,3,0,200,4,0,200,5,0,200,6,0,201,7,0,200,8,0,201,9,0,201,10,0,200,11,0,200,12,0,200,13,0,201,14,0,200,15,0,200,16,0,201,19,0,621,20,0,621,21,0,600,22,0,621,23,0,600,24,0,600,25,0,600,26,0,600,27,0,600,28,0,600,29,0,621,30,0,600,31,0,200,32,0,600,33,0,600,34,0,600,35,0,621,36,0,621,37,0,621,38,0,621,39,0,621,40,0,600,41,0,600,42,0,600,43,0,600,44,0,600,45,0,600,46,0,621,56,0,200,57,0,200,58,0,200,59,0,600,60,0,600,61,0,600*41
$PAIRDGP,10,5,10,12,15,18,23,24,25,28,32*45
$GNGGA,115610.200,2500.8284881,N,12132.4547056,E,4,59,0.46,15.952,M,15.25,M,2,3335*46
$GNRMC,115610.200,A,2500.8284881,N,12132.4547056,E,0.01,314.86,260623,,,R,V*11
$GPHDT,,T*1B
$GNACCURACY,2.5*11
$GNGGA,115610.300,2500.8284920,N,12132.4547005,E,4,59,0.46,15.968,M,15.25,M,2,3335*42
$GNRMC,115610.300,A,2500.8284920,N,12132.4547005,E,0.01,314.86,260623,,,R,V*1C
$GPHDT,,T*1B
$GNACCURACY,2.5*11
$GNGGA,115610.400,2500.8284914,N,12132.4547043,E,4,61,0.46,15.969,M,15.25,M,2,3335*4A
$GNRMC,115610.400,A,2500.8284914,N,12132.4547043,E,0.01,314.86,260623,,,R,V*1E
$GPHDT,,T*1B
$GNACCURACY,2.5*11
$GNGGA,115610.500,2500.8284907,N,12132.4547045,E,4,61,0.46,15.972,M,15.25,M,2,3335*45
$GNRMC,115610.500,A,2500.8284907,N,12132.4547045,E,0.01,314.86,260623,,,R,V*1B
$GPHDT,,T*1B
$GNACCURACY,2.5*11
$GNGGA,115610.600,2500.8284923,N,12132.4547039,E,4,61,0.46,15.964,M,15.25,M,2,3335*4C
$GNRMC,115610.600,A,2500.8284923,N,12132.4547039,E,0.01,314.86,260623,,,R,V*15
$GPHDT,,T*1B
$GNACCURACY,2.5*11
$GNGGA,115610.700,2500.8284901,N,12132.4547027,E,4,62,0.45,15.987,M,15.25,M,2,3335*4F
$GNRMC,115610.700,A,2500.8284901,N,12132.4547027,E,0.01,314.86,260623,,,R,V*1B
$GPHDT,,T*1B
$GNACCURACY,2.5*11
$GNGGA,115610.800,2500.8284927,N,12132.4547039,E,4,62,0.45,15.969,M,15.25,M,2,3335*4B
$GNRMC,115610.800,A,2500.8284927,N,12132.4547039,E,0.01,314.86,260623,,,R,V*1F
$GPHDT,,T*1B
$GNACCURACY,2.5*11
$GNGGA,115610.900,2500.8284912,N,12132.4547027,E,4,62,0.45,15.980,M,15.25,M,2,3335*44
$GNRMC,115610.900,A,2500.8284912,N,12132.4547027,E,0.01,314.86,260623,,,R,V*17
$GPHDT,,T*1B
$GNACCURACY,2.5*11
$GNGGA,115611.000,2500.8284866,N,12132.4547019,E,4,62,0.45,15.975,M,15.25,M,3,3335*48
$GNRMC,115611.000,A,2500.8284866,N,12132.4547019,E,0.01,314.86,260623,,,R,V*10
$GPHDT,,T*1B
$GNACCURACY,2.5*11
$GNGGA,115611.100,2500.8284897,N,12132.4547041,E,4,62,0.45,15.977,M,15.25,M,3,3335*48
$GNRMC,115611.100,A,2500.8284897,N,12132.4547041,E,0.01,314.86,260623,,,R,V*12
$GPHDT,,T*1B
$GNGSA,A,3,196,23,199,24,18,194,15,12,10,195,25,32,0.81,0.45,0.68,1*07
$GNGSA,A,3,73,80,71,86,85,,,,,,,,0.81,0.45,0.68,2*0D
$GNGSA,A,3,07,13,08,26,30,02,15,,,,,,0.81,0.45,0.68,3*09
$GNGSA,A,3,08,38,13,39,16,06,46,19,09,36,20,35,0.81,0.45,0.68,4*0A
$GNGSA,A,3,37,22,29,,,,,,,,,,0.81,0.45,0.68,4*0D
$GPGSV,4,1,16,196,76,075,34,23,63,348,35,199,60,167,35,24,59,034,31,1*6F
$GPGSV,4,2,16,18,49,225,44,41,38,242,43,194,36,135,44,15,30,060,28,1*5C
$GPGSV,4,3,16,12,29,130,33,10,29,324,31,195,29,179,39,25,19,169,35,1*57
$GPGSV,4,4,16,32,15,281,25,05,10,128,15,28,05,222,,13,01,066,,1*6F
$GPGSV,3,1,10,196,76,075,35,23,63,348,32,199,60,167,47,24,59,034,31,8*64
$GPGSV,3,2,10,18,49,225,45,194,36,135,44,10,29,324,23,195,29,179,43,8*63
$GPGSV,3,3,10,25,19,169,25,32,15,281,26,8*60
$GLGSV,2,1,07,73,54,150,41,80,44,053,29,71,28,329,32,86,27,284,28,1*77
$GLGSV,2,2,07,85,24,232,27,74,16,185,16,87,02,332,,1*42
$GAGSV,3,1,09,07,46,318,30,13,46,219,40,08,42,038,21,26,36,294,34,7*75
$GAGSV,3,2,09,30,35,135,38,02,27,073,22,15,12,173,25,03,06,073,16,7*72
$GAGSV,3,3,09,33,01,327,,7*4D
$GAGSV,2,1,08,07,46,318,34,13,46,219,43,08,42,038,29,26,36,294,36,1*7E
$GAGSV,2,2,08,30,35,135,39,02,27,073,24,15,12,173,28,03,06,073,24,1*7F
$GBGSV,4,1,16,08,86,335,40,38,80,162,43,13,73,319,40,39,68,300,44,1*7C
$GBGSV,4,2,16,16,65,275,44,06,64,270,43,46,62,083,25,19,55,002,36,1*70
$GBGSV,4,3,16,09,51,250,40,36,48,183,45,20,39,079,28,22,18,310,16,1*7A
$GBGSV,4,4,16,35,17,257,36,37,14,041,26,29,11,203,16,45,01,207,,1*7C
$GBGSV,2,1,08,38,80,162,44,39,68,300,42,46,62,083,33,36,48,183,45,4*70
$GBGSV,2,2,08,22,18,310,20,35,17,257,39,37,14,041,25,29,11,203,19,4*79
$GNACCURACY,2.5*11
$PAIRSAT,1,35,1,0,200,2,0,200,3,0,200,4,0,200,5,0,201,6,0,200,7,0,200,8,0,200,9,0,200,10,0,221,11,0,200,12,0,201,13,0,201,14,0,200,15,0,201,16,0,200,17,0,200,18,0,221,19,0,200,20,0,200,21,0,200,23,0,221,24,0,221,25,0,221,26,0,200,27,0,200,28,0,200,29,0,200,30,0,200,31,0,200,32,0,221,194,0,621,195,0,621,196,0,620,199,0,621*6B
$PAIRSAT,2,24,65,0,200,66,0,200,67,0,200,68,0,200,69,0,200,70,0,200,71,0,201,72,0,200,73,0,201,74,0,200,75,0,200,76,0,200,77,0,200,78,0,200,79,0,201,80,0,201,81,0,200,82,0,200,83,0,200,84,0,200,85,0,201,86,0,201,87,0,200,88,0,200*7A
$PAIRSAT,3,23,2,0,1221,3,0,1221,4,0,1200,5,0,200,7,0,1221,8,0,1221,9,0,1200,10,0,1200,11,0,1200,12,0,1200,13,0,1221,15,0,1221,19,0,1200,21,0,1200,24,0,1200,25,0,1200,26,0,1221,27,0,1200,30,0,1221,31,0,1200,33,0,1200,34,0,1200,36,0,1200*6A
$PAIRSAT,4,50,1,0,200,2,0,200,3,0,200,4,0,200,5,0,200,6,0,201,7,0,200,8,0,201,9,0,201,10,0,200,11,0,200,12,0,200,13,0,201,14,0,200,15,0,200,16,0,201,19,0,621,20,0,621,21,0,600,22,0,621,23,0,600,24,0,600,25,0,600,26,0,600,27,0,600,28,0,600,29,0,621,30,0,600,31,0,200,32,0,600,33,0,600,34,0,600,35,0,621,36,0,621,37,0,621,38,0,621,39,0,621,40,0,600,41,0,600,42,0,600,43,0,600,44,0,600,45,0,600,46,0,621,56,0,200,57,0,200,58,0,200,59,0,600,60,0,600,61,0,600*41
$PAIRDGP,10,5,10,12,15,18,23,24,25,28,32*45
$GNGGA,115611.200,2500.8284881,N,12132.4546983,E,4,62,0.45,15.988,M,15.25,M,3,3335*4A
$GNRMC,115611.200,A,2500.8284881,N,12132.4546983,E,0.01,314.86,260623,,,R,V*10
$GPHDT,273.367,T*31
$GNACCURACY,2.5*11
$GNGGA,115611.300,2500.8284882,N,12132.4546998,E,4,62,0.45,15.973,M,15.25,M,3,3335*46
$GNRMC,115611.300,A,2500.8284882,N,12132.4546998,E,0.01,314.86,260623,,,R,V*18
$GPHDT,,T*1B
$GNACCURACY,2.5*11
$GNGGA,115611.400,2500.8284895,N,12132.4547022,E,4,62,0.45,15.987,M,15.25,M,3,3335*45
$GNRMC,115611.400,A,2500.8284895,N,12132.4547022,E,0.01,314.86,260623,,,R,V*10
$GPHDT,271.969,T*37
$GNACCURACY,2.5*11
$GNGGA,115611.500,2500.8284894,N,12132.4547035,E,4,62,0.45,15.986,M,15.25,M,3,3335*42
$GNRMC,115611.500,A,2500.8284894,N,12132.4547035,E,0.01,314.86,260623,,,R,V*16
$GPHDT,,T*1B
$GNACCURACY,2.5*11
$GNGGA,115611.600,2500.8284898,N,12132.4547024,E,4,62,0.45,15.975,M,15.25,M,3,3335*41
$GNRMC,115611.600,A,2500.8284898,N,12132.4547024,E,0.01,314.86,260623,,,R,V*19
$GPHDT,272.887,T*35
$GNACCURACY,2.5*11
$GNGGA,115611.700,2500.8284887,N,12132.4546991,E,4,61,0.45,16.000,M,15.25,M,3,3335*43
$GNRMC,115611.700,A,2500.8284887,N,12132.4546991,E,0.01,314.86,260623,,,R,V*10
$GPHDT,,T*1B
$GNACCURACY,2.5*11
$GNGGA,115611.800,2500.8284890,N,12132.4546947,E,4,62,0.45,15.993,M,15.25,M,3,3335*42
$GNRMC,115611.800,A,2500.8284890,N,12132.4546947,E,0.01,314.86,260623,,,R,V*12
$GPHDT,273.419,T*3F
$GNACCURACY,2.5*11
$GNGGA,115611.900,2500.8284896,N,12132.4546966,E,4,61,0.45,15.980,M,15.25,M,3,3335*47
$GNRMC,115611.900,A,2500.8284896,N,12132.4546966,E,0.01,314.86,260623,,,R,V*16
$GPHDT,,T*1B
$GNACCURACY,2.5*11
$GNGGA,115612.000,2500.8284907,N,12132.4546941,E,4,61,0.45,15.984,M,15.25,M,4,3335*42
$GNRMC,115612.000,A,2500.8284907,N,12132.4546941,E,0.01,314.86,260623,,,R,V*10
$GPHDT,273.390,T*39
$GNACCURACY,2.5*11
$GNGGA,115612.100,2500.8284855,N,12132.4546912,E,4,61,0.45,16.008,M,15.25,M,4,3335*4D
$GNRMC,115612.100,A,2500.8284855,N,12132.4546912,E,0.01,314.86,260623,,,R,V*11
$GPHDT,,T*1B
$GNGSA,A,3,196,23,199,24,18,194,15,12,10,195,25,32,0.81,0.45,0.68,1*07
$GNGSA,A,3,73,80,71,86,85,,,,,,,,0.81,0.45,0.68,2*0D
$GNGSA,A,3,13,07,08,26,30,02,15,,,,,,0.81,0.45,0.68,3*09
$GNGSA,A,3,08,38,13,39,16,06,46,19,09,36,20,35,0.81,0.45,0.68,4*0A
$GNGSA,A,3,37,22,29,,,,,,,,,,0.81,0.45,0.68,4*0D
$GPGSV,4,1,16,196,76,075,34,23,63,348,35,199,60,167,35,24,59,034,31,1*6F
$GPGSV,4,2,16,18,49,225,44,41,38,242,43,194,36,135,44,15,30,060,28,1*5C
$GPGSV,4,3,16,12,29,130,34,10,29,324,33,195,29,179,39,25,19,169,35,1*52
$GPGSV,4,4,16,32,15,281,25,05,10,128,17,28,05,222,,13,01,066,,1*6D
$GPGSV,3,1,10,196,76,075,35,23,63,348,32,199,60,167,47,24,59,034,31,8*64
$GPGSV,3,2,10,18,49,225,45,194,36,135,44,10,29,324,22,195,29,179,43,8*62
$GPGSV,3,3,10,25,19,169,26,32,15,281,27,8*62
$GLGSV,2,1,06,73,54,150,42,80,44,053,29,71,28,329,33,86,27,284,27,1*7B
$GLGSV,2,2,06,85,24,232,28,74,16,185,17,1*72
$GAGSV,3,1,09,13,46,219,40,07,46,318,31,08,42,038,20,26,36,294,34,7*75
$GAGSV,3,2,09,30,35,135,38,02,27,073,22,15,12,173,26,03,06,073,16,7*71
$GAGSV,3,3,09,33,01,327,,7*4D
$GAGSV,2,1,07,07,46,318,34,13,46,219,43,08,42,038,29,26,36,294,35,1*72
$GAGSV,2,2,07,30,35,135,39,02,27,073,23,03,06,073,24,1*4F
$GBGSV,4,1,15,08,86,335,40,38,80,162,44,13,73,319,40,39,68,300,44,1*78
$GBGSV,4,2,15,16,65,275,44,06,64,270,43,46,62,083,26,19,55,002,36,1*70
$GBGSV,4,3,15,09,51,250,40,36,48,183,45,20,39,079,29,22,18,310,15,1*7B
$GBGSV,4,4,15,35,17,257,35,37,14,041,27,29,11,203,16,1*48
$GBGSV,2,1,08,38,80,162,44,39,68,300,42,46,62,083,33,36,48,183,45,4*70
$GBGSV,2,2,08,22,18,310,18,35,17,257,39,37,14,041,26,29,11,203,18,4*70
$GNACCURACY,2.5*11
$PAIRSAT,1,35,1,0,200,2,0,200,3,0,200,4,0,200,5,0,201,6,0,200,7,0,200,8,0,200,9,0,200,10,0,221,11,0,200,12,0,201,13,0,201,14,0,200,15,0,201,16,0,200,17,0,200,18,0,221,19,0,200,20,0,200,21,0,200,23,0,221,24,0,221,25,0,221,26,0,200,27,0,200,28,0,200,29,0,200,30,0,200,31,0,200,32,0,221,194,0,621,195,0,621,196,0,620,199,0,621*6B
$PAIRSAT,2,24,65,0,200,66,0,200,67,0,200,68,0,200,69,0,200,70,0,200,71,0,201,72,0,200,73,0,201,74,0,200,75,0,200,76,0,200,77,0,200,78,0,200,79,0,201,80,0,201,81,0,200,82,0,200,83,0,200,84,0,200,85,0,201,86,0,201,87,0,200,88,0,200*7A
$PAIRSAT,3,23,2,0,1221,3,0,1221,4,0,1200,5,0,200,7,0,1221,8,0,1221,9,0,1200,10,0,1200,11,0,1200,12,0,1200,13,0,1221,15,0,1221,19,0,1200,21,0,1200,24,0,1200,25,0,1200,26,0,1221,27,0,1200,30,0,1221,31,0,1200,33,0,1200,34,0,1200,36,0,1200*6A
$PAIRSAT,4,50,1,0,200,2,0,200,3,0,200,4,0,200,5,0,200,6,0,201,7,0,200,8,0,201,9,0,201,10,0,200,11,0,200,12,0,200,13,0,201,14,0,200,15,0,200,16,0,201,19,0,621,20,0,621,21,0,600,22,0,621,23,0,600,24,0,600,25,0,600,26,0,600,27,0,600,28,0,600,29,0,621,30,0,600,31,0,200,32,0,600,33,0,600,34,0,600,35,0,621,36,0,621,37,0,621,38,0,621,39,0,621,40,0,600,41,0,600,42,0,600,43,0,600,44,0,600,45,0,600,46,0,621,56,0,200,57,0,200,58,0,200,59,0,600,60,0,600,61,0,600*41
$PAIRDGP,10,5,10,12,15,18,23,24,25,28,32*45
$GNGGA,115612.200,2500.8284860,N,12132.4546955,E,4,61,0.45,15.998,M,15.25,M,4,3335*48
$GNRMC,115612.200,A,2500.8284860,N,12132.4546955,E,0.01,314.86,260623,,,R,V*17
$GPHDT,273.759,T*38
$GNACCURACY,2.5*11
$GNGGA,115612.300,2500.8284887,N,12132.4546953,E,4,61,0.45,15.990,M,15.25,M,4,3335*4E
$GNRMC,115612.300,A,2500.8284887,N,12132.4546953,E,0.01,314.86,260623,,,R,V*19
$GPHDT,,T*1B
$GNACCURACY,2.5*11
$GNGGA,115612.400,2500.8284843,N,12132.4546924,E,4,61,0.45,15.998,M,15.25,M,4,3335*49
$GNRMC,115612.400,A,2500.8284843,N,12132.4546924,E,0.01,314.86,260623,,,R,V*16
$GPHDT,273.946,T*38
$GNACCURACY,2.5*11
$GNGGA,115612.500,2500.8284831,N,12132.4546962,E,4,61,0.45,15.999,M,15.25,M,4,3335*4E
$GNRMC,115612.500,A,2500.8284831,N,12132.4546962,E,0.01,314.86,260623,,,R,V*10
$GPHDT,,T*1B
$GNACCURACY,2.5*11
$GNGGA,115612.600,2500.8284884,N,12132.4546986,E,4,61,0.45,15.984,M,15.25,M,4,3335*45
$GNRMC,115612.600,A,2500.8284884,N,12132.4546986,E,0.01,314.86,260623,,,R,V*17
$GPHDT,273.218,T*38
$GNACCURACY,2.5*11
$GNGGA,115612.700,2500.8284868,N,12132.4547021,E,4,61,0.45,15.992,M,15.25,M,4,3335*44
$GNRMC,115612.700,A,2500.8284868,N,12132.4547021,E,0.01,314.86,260623,,,R,V*11
$GPHDT,,T*1B
$GNACCURACY,2.5*11
$GNGGA,115612.800,2500.8284837,N,12132.4547003,E,4,61,0.45,15.993,M,15.25,M,4,3335*40
$GNRMC,115612.800,A,2500.8284837,N,12132.4547003,E,0.01,314.86,260623,,,R,V*14
$GPHDT,274.009,T*3D
$GNACCURACY,2.5*11
$GNGGA,115612.900,2500.8284859,N,12132.4547009,E,4,61,0.45,15.993,M,15.25,M,4,3335*43
$GNRMC,115612.900,A,2500.8284859,N,12132.4547009,E,0.01,314.86,260623,,,R,V*17
$GPHDT,,T*1B
$GNACCURACY,2.5*11
$GNGGA,115613.000,2500.8284913,N,12132.4547025,E,4,61,0.45,15.973,M,15.25,M,5,3335*45
$GNRMC,115613.000,A,2500.8284913,N,12132.4547025,E,0.01,314.86,260623,,,R,V*1E
$GPHDT,272.141,T*36
$GNACCURACY,2.5*11
$GNGGA,115613.100,2500.8284929,N,12132.4547028,E,4,61,0.45,15.974,M,15.25,M,5,3335*47
$GNRMC,115613.100,A,2500.8284929,N,12132.4547028,E,0.01,314.86,260623,,,R,V*1B
$GPHDT,,T*1B
$GNGSA,A,3,196,23,199,24,18,194,15,12,10,195,25,32,0.82,0.45,0.68,1*04
$GNGSA,A,3,73,80,71,86,85,,,,,,,,0.82,0.45,0.68,2*0E
$GNGSA,A,3,13,07,08,26,30,02,15,,,,,,0.82,0.45,0.68,3*0A
$GNGSA,A,3,08,38,13,39,16,06,46,19,09,36,35,37,0.82,0.45,0.68,4*0F
$GNGSA,A,3,22,29,,,,,,,,,,,0.82,0.45,0.68,4*0A
$GPGSV,4,1,16,196,76,075,34,23,63,348,35,199,60,167,36,24,59,034,31,1*6C
$GPGSV,4,2,16,18,49,225,44,41,38,242,43,194,36,135,44,15,30,060,32,1*57
$GPGSV,4,3,16,12,29,130,34,10,29,324,24,195,29,179,39,25,19,169,35,1*54
$GPGSV,4,4,16,32,15,281,27,05,10,128,17,28,05,222,,13,01,066,,1*6F
$GPGSV,3,1,10,196,76,075,35,23,63,348,33,199,60,167,47,24,59,034,26,8*63
$GPGSV,3,2,10,18,49,225,45,194,36,135,44,10,29,324,26,195,29,179,43,8*66
$GPGSV,3,3,10,25,19,169,29,32,15,281,28,8*62
$GLGSV,2,1,06,73,54,150,42,80,44,053,26,71,28,329,28,86,27,284,27,1*7E
$GLGSV,2,2,06,85,24,232,28,74,16,185,17,1*72
$GAGSV,3,1,09,13,46,219,41,07,46,318,33,08,42,038,20,26,36,294,35,7*77
$GAGSV,3,2,09,30,35,135,37,02,27,073,20,15,12,173,25,03,06,073,15,7*7C
$GAGSV,3,3,09,33,01,327,,7*4D
$GAGSV,2,1,06,07,46,318,33,13,46,219,44,08,42,038,30,26,36,294,36,1*78
$GAGSV,2,2,06,30,35,135,39,02,27,073,24,1*7E
$GBGSV,4,1,15,08,86,335,40,38,80,162,44,13,73,319,40,39,68,300,44,1*78
$GBGSV,4,2,15,16,65,275,44,06,64,270,43,46,62,083,25,19,55,002,36,1*73
$GBGSV,4,3,15,09,51,250,40,36,48,183,45,20,39,079,27,22,18,310,18,1*78
$GBGSV,4,4,15,35,17,257,36,37,14,041,26,29,11,203,16,1*4A
$GBGSV,3,1,09,38,80,162,45,39,68,300,42,46,62,083,34,19,55,002,27,4*7B
$GBGSV,3,2,09,36,48,183,46,22,18,310,23,35,17,257,39,37,14,041,22,4*7E
$GBGSV,3,3,09,29,11,203,18,4*49
$GNACCURACY,2.5*11
$PAIRSAT,1,35,1,0,200,2,0,200,3,0,200,4,0,200,5,0,201,6,0,200,7,0,200,8,0,200,9,0,200,10,0,221,11,0,200,12,0,201,13,0,201,14,0,200,15,0,201,16,0,200,17,0,200,18,0,221,19,0,200,20,0,200,21,0,200,23,0,221,24,0,221,25,0,221,26,0,200,27,0,200,28,0,200,29,0,200,30,0,200,31,0,200,32,0,221,194,0,621,195,0,621,196,0,620,199,0,621*6B
$PAIRSAT,2,24,65,0,200,66,0,200,67,0,200,68,0,200,69,0,200,70,0,200,71,0,201,72,0,200,73,0,201,74,0,200,75,0,200,76,0,200,77,0,200,78,0,200,79,0,201,80,0,201,81,0,200,82,0,200,83,0,200,84,0,200,85,0,201,86,0,201,87,0,200,88,0,200*7A
$PAIRSAT,3,23,2,0,1221,3,0,1221,4,0,1200,5,0,200,7,0,1221,8,0,1221,9,0,1200,10,0,1200,11,0,1200,12,0,1200,13,0,1221,15,0,1221,19,0,1200,21,0,1200,24,0,1200,25,0,1200,26,0,1221,27,0,1200,30,0,1221,31,0,1200,33,0,1200,34,0,1200,36,0,1200*6A
$PAIRSAT,4,50,1,0,200,2,0,200,3,0,200,4,0,200,5,0,200,6,0,201,7,0,200,8,0,201,9,0,201,10,0,200,11,0,200,12,0,200,13,0,201,14,0,200,15,0,200,16,0,201,19,0,621,20,0,621,21,0,600,22,0,621,23,0,600,24,0,600,25,0,600,26,0,600,27,0,600,28,0,600,29,0,621,30,0,600,31,0,200,32,0,600,33,0,600,34,0,600,35,0,621,36,0,621,37,0,621,38,0,621,39,0,621,40,0,600,41,0,600,42,0,600,43,0,600,44,0,600,45,0,600,46,0,621,56,0,200,57,0,200,58,0,200,59,0,600,60,0,600,61,0,600*41
$PAIRDGP,10,5,10,12,15,18,23,24,25,28,32*45
$GNGGA,115613.200,2500.8284895,N,12132.4547009,E,4,61,0.45,15.966,M,15.25,M,5,3335*42
$GNRMC,115613.200,A,2500.8284895,N,12132.4547009,E,0.01,314.86,260623,,,R,V*1D
$GPHDT,272.196,T*3C
$GNACCURACY,2.5*11
$GNGGA,115613.300,2500.8284888,N,12132.4547035,E,4,62,0.45,15.965,M,15.25,M,5,3335*40
$GNRMC,115613.300,A,2500.8284888,N,12132.4547035,E,0.01,314.86,260623,,,R,V*1F
$GPHDT,,T*1B
$GNACCURACY,2.5*11
$GNGGA,115613.400,2500.8284827,N,12132.4547004,E,4,62,0.45,15.986,M,15.25,M,5,3335*4D
$GNRMC,115613.400,A,2500.8284827,N,12132.4547004,E,0.01,314.86,260623,,,R,V*1F
$GPHDT,273.453,T*31
$GNACCURACY,2.5*11
$GNGGA,115613.500,2500.8284841,N,12132.4546972,E,4,62,0.45,15.991,M,15.25,M,5,3335*43
$GNRMC,115613.500,A,2500.8284841,N,12132.4546972,E,0.01,314.86,260623,,,R,V*17
$GPHDT,,T*1B
$GNACCURACY,2.5*11
$GNGGA,115613.600,2500.8284951,N,12132.4546925,E,4,62,0.45,15.975,M,15.25,M,5,3335*48
$GNRMC,115613.600,A,2500.8284951,N,12132.4546925,E,0.01,314.86,260623,,,R,V*16
$GPHDT,273.398,T*31
$GNACCURACY,2.5*11
$GNGGA,115613.700,2500.8284851,N,12132.4546980,E,4,63,0.45,15.961,M,15.25,M,5,3335*43
$GNRMC,115613.700,A,2500.8284851,N,12132.4546980,E,0.01,314.86,260623,,,R,V*19
$GPHDT,,T*1B
$GNACCURACY,2.5*11
$GNGGA,115613.800,2500.8284893,N,12132.4547004,E,4,63,0.45,15.983,M,15.25,M,5,3335*4A
$GNRMC,115613.800,A,2500.8284893,N,12132.4547004,E,0.01,314.86,260623,,,R,V*1C
$GPHDT,271.618,T*3E
$GNACCURACY,2.5*11
$GNGGA,115613.900,2500.8284993,N,12132.4547028,E,4,63,0.45,15.970,M,15.25,M,5,3335*48
$GNRMC,115613.900,A,2500.8284993,N,12132.4547028,E,0.01,314.86,260623,,,R,V*12
$GPHDT,,T*1B
$GNACCURACY,2.5*11
$GNGGA,115614.000,2500.8284884,N,12132.4547001,E,4,61,0.47,15.980,M,15.25,M,6,3335*46
$GNRMC,115614.000,A,2500.8284884,N,12132.4547001,E,0.01,314.86,260623,,,R,V*10
