$FW : RTK35X,V1.1X0314AS,Lib20210517,1*54
$Tool : LOCOSYS , GNSS Firebird , v1.0.0.19*39
$---------------------------------------------------*2D
$GNACCURACY,2.4*10
$GNGGA,115641.000,2500.8284908,N,12132.4546965,E,4,60,0.45,15.986,M,15.25,M,3,3335*49
$GNRMC,115641.000,A,2500.8284908,N,12132.4546965,E,0.01,314.86,260623,,,R,V*1F
$GPHDT,179.752,T*3A
$GNACCURACY,2.4*10
$GNGGA,115641.100,2500.8284901,N,12132.4546971,E,4,60,0.45,15.999,M,15.25,M,3,3335*4A
$GNRMC,115641.100,A,2500.8284901,N,12132.4546971,E,0.01,314.86,260623,,,R,V*12
$GPHDT,,T*1B
$GNGSA,A,3,196,23,199,24,18,194,12,10,195,25,32,,0.82,0.45,0.68,1*00
$GNGSA,A,3,73,80,71,86,85,,,,,,,,0.82,0.45,0.68,2*0E
$GNGSA,A,3,13,07,08,26,30,02,15,,,,,,0.82,0.45,0.68,3*0A
$GNGSA,A,3,08,38,13,39,16,06,46,19,09,36,20,22,0.82,0.45,0.68,4*0F
$GNGSA,A,3,35,37,29,,,,,,,,,,0.82,0.45,0.68,4*08
$GPGSV,4,1,16,196,76,075,32,23,64,348,35,199,60,167,37,24,59,034,38,1*65
$GPGSV,4,2,16,18,49,224,37,41,38,242,36,194,36,135,43,15,30,061,20,1*55
$GPGSV,4,3,16,12,29,130,34,10,29,324,32,195,29,179,42,25,19,169,30,1*5A
$GPGSV,4,4,16,32,15,281,24,05,10,128,17,28,05,222,,13,01,067,,1*6D
$GPGSV,3,1,10,196,76,075,33,23,64,348,33,199,60,167,46,24,59,034,33,8*67
$GPGSV,3,2,10,18,49,224,34,194,36,135,46,10,29,324,32,195,29,179,37,8*65
$GPGSV,3,3,10,25,19,169,29,32,15,281,32,8*69
$GLGSV,2,1,06,73,54,149,42,80,44,053,22,71,28,329,32,86,27,284,28,1*76
$GLGSV,2,2,06,85,24,231,36,74,17,185,15,1*7D
$GAGSV,3,1,10,13,46,219,39,07,46,318,26,08,42,038,16,26,36,294,36,7*72
$GAGSV,3,2,10,30,35,135,37,02,27,073,19,15,12,173,19,27,09,183,18,7*7B
$GAGSV,3,3,10,03,06,074,15,33,01,327,,7*77
$GAGSV,2,1,05,13,46,219,39,07,46,318,38,26,36,294,40,30,35,135,43,1*78
$GAGSV,2,2,05,02,27,073,16,1*44
$GBGSV,4,1,15,08,86,334,37,38,80,162,44,13,73,319,41,39,68,300,35,1*7E
$GBGSV,4,2,15,16,65,275,40,06,64,270,42,46,62,083,28,19,55,002,34,1*79
$GBGSV,4,3,15,09,51,250,35,36,48,183,44,20,39,079,29,22,18,310,31,1*7E
$GBGSV,4,4,15,35,17,256,40,37,14,041,25,29,11,203,14,1*4B
$GBGSV,2,1,08,38,80,162,45,39,68,300,39,46,62,083,36,36,48,183,45,4*78
$GBGSV,2,2,08,22,18,310,22,35,17,256,39,37,14,041,28,29,11,203,15,4*7B
$GNACCURACY,2.4*10
$PAIRSAT,1,35,1,0,200,2,0,200,3,0,200,4,0,200,5,0,201,6,0,200,7,0,200,8,0,200,9,0,200,10,0,221,11,0,200,12,0,201,13,0,201,14,0,200,15,0,201,16,0,200,17,0,200,18,0,221,19,0,200,20,0,200,21,0,200,23,0,221,24,0,221,25,0,221,26,0,200,27,0,200,28,0,200,29,0,200,30,0,200,31,0,200,32,0,221,194,0,621,195,0,621,196,0,620,199,0,621*6B
$PAIRSAT,2,24,65,0,200,66,0,200,67,0,200,68,0,200,69,0,200,70,0,200,71,0,201,72,0,200,73,0,201,74,0,200,75,0,200,76,0,200,77,0,200,78,0,200,79,0,201,80,0,201,81,0,200,82,0,200,83,0,200,84,0,200,85,0,201,86,0,201,87,0,200,88,0,200*7A
$PAIRSAT,3,23,2,0,1221,3,0,1221,4,0,1200,5,0,200,7,0,1221,8,0,1221,9,0,1200,10,0,1200,11,0,1200,12,0,1200,13,0,1221,15,0,1221,19,0,1200,21,0,1200,24,0,1200,25,0,1200,26,0,1221,27,0,1200,30,0,1221,31,0,1200,33,0,1200,34,0,1200,36,0,1200*6A
$PAIRSAT,4,50,1,0,200,2,0,200,3,0,200,4,0,200,5,0,200,6,0,201,7,0,200,8,0,201,9,0,201,10,0,200,11,0,200,12,0,200,13,0,201,14,0,200,15,0,200,16,0,201,19,0,621,20,0,621,21,0,600,22,0,621,23,0,600,24,0,600,25,0,600,26,0,600,27,0,600,28,0,600,29,0,621,30,0,600,31,0,200,32,0,600,33,0,600,34,0,600,35,0,621,36,0,621,37,0,621,38,0,621,39,0,621,40,0,600,41,0,600,42,0,600,43,0,600,44,0,600,45,0,600,46,0,621,56,0,200,57,0,200,58,0,200,59,0,600,60,0,600,61,0,600*41
$PAIRDGP,10,5,10,12,15,18,23,24,25,28,32*45
$GNGGA,115641.200,2500.8284907,N,12132.4546953,E,4,60,0.45,16.002,M,15.25,M,3,3335*47
$GNRMC,115641.200,A,2500.8284907,N,12132.4546953,E,0.01,314.86,260623,,,R,V*17
$GPHDT,179.634,T*3B
$GNACCURACY,2.4*10
$GNGGA,115641.300,2500.8284873,N,12132.4546942,E,4,61,0.45,15.991,M,15.25,M,3,3335*45
$GNRMC,115641.300,A,2500.8284873,N,12132.4546942,E,0.01,314.86,260623,,,R,V*14
$GPHDT,,T*1B
$GNACCURACY,2.4*10
$GNGGA,115641.400,2500.8284896,N,12132.4546950,E,4,62,0.45,15.998,M,15.25,M,3,3335*40
$GNRMC,115641.400,A,2500.8284896,N,12132.4546950,E,0.01,314.86,260623,,,R,V*1B
$GPHDT,179.622,T*3C
$GNACCURACY,2.4*10
$GNGGA,115641.500,2500.8284901,N,12132.4546945,E,4,62,0.45,15.998,M,15.25,M,3,3335*4A
$GNRMC,115641.500,A,2500.8284901,N,12132.4546945,E,0.01,314.86,260623,,,R,V*11
$GPHDT,,T*1B
$GNACCURACY,2.4*10
$GNGGA,115641.600,2500.8284921,N,12132.4546944,E,4,62,0.45,16.000,M,15.25,M,3,3335*41
$GNRMC,115641.600,A,2500.8284921,N,12132.4546944,E,0.00,314.86,260623,,,R,V*10
$GPHDT,179.623,T*3D
$GNACCURACY,2.4*10
$GNGGA,115641.700,2500.8284930,N,12132.4546981,E,4,62,0.45,15.979,M,15.25,M,3,3335*4D
$GNRMC,115641.700,A,2500.8284930,N,12132.4546981,E,0.01,314.86,260623,,,R,V*19
$GPHDT,,T*1B
$GNACCURACY,2.4*10
$GNGGA,115641.800,2500.8284950,N,12132.4547018,E,4,62,0.45,15.975,M,15.25,M,3,3335*40
$GNRMC,115641.800,A,2500.8284950,N,12132.4547018,E,0.01,314.86,260623,,,R,V*18
$GPHDT,180.295,T*32
$GNACCURACY,2.4*10
$GNGGA,115641.900,2500.8284939,N,12132.4547022,E,4,62,0.45,15.985,M,15.25,M,3,3335*48
$GNRMC,115641.900,A,2500.8284939,N,12132.4547022,E,0.00,314.86,260623,,,R,V*1E
$GPHDT,,T*1B
$GNACCURACY,2.4*10
$GNGGA,115642.000,2500.8284921,N,12132.4547003,E,4,62,0.45,15.985,M,15.25,M,4,3335*4F
$GNRMC,115642.000,A,2500.8284921,N,12132.4547003,E,0.00,314.86,260623,,,R,V*1E
$GPHDT,180.015,T*38
$GNACCURACY,2.4*10
$GNGGA,115642.100,2500.8284938,N,12132.4546954,E,4,62,0.45,15.992,M,15.25,M,4,3335*4A
$GNRMC,115642.100,A,2500.8284938,N,12132.4546954,E,0.00,314.86,260623,,,R,V*1D
$GPHDT,,T*1B
$GNGSA,A,3,196,23,199,24,18,194,12,10,195,25,32,,0.82,0.45,0.68,1*00
$GNGSA,A,3,73,80,71,86,85,,,,,,,,0.82,0.45,0.68,2*0E
$GNGSA,A,3,13,07,08,26,30,02,15,,,,,,0.82,0.45,0.68,3*0A
$GNGSA,A,3,08,38,13,39,16,06,46,19,09,36,20,22,0.82,0.45,0.68,4*0F
$GNGSA,A,3,35,37,29,,,,,,,,,,0.82,0.45,0.68,4*08
$GPGSV,4,1,16,196,76,075,32,23,64,348,36,199,60,167,37,24,59,034,38,1*66
$GPGSV,4,2,16,18,49,224,37,41,38,242,37,194,36,135,43,15,30,061,22,1*56
$GPGSV,4,3,16,12,29,130,35,10,29,324,32,195,29,179,42,25,19,169,31,1*5A
$GPGSV,4,4,16,32,15,281,24,05,10,128,17,28,05,222,,13,01,067,,1*6D
$GPGSV,3,1,10,196,76,075,33,23,64,348,33,199,60,167,46,24,59,034,33,8*67
$GPGSV,3,2,10,18,49,224,34,194,36,135,46,10,29,324,31,195,29,179,37,8*66
$GPGSV,3,3,10,25,19,169,28,32,15,281,30,8*6A
$GLGSV,2,1,06,73,54,149,41,80,44,053,24,71,28,329,32,86,27,284,29,1*72
$GLGSV,2,2,06,85,24,231,36,74,17,185,14,1*7C
$GAGSV,3,1,10,13,46,219,39,07,46,318,29,08,42,038,16,26,36,294,36,7*7D
$GAGSV,3,2,10,30,35,135,37,02,27,073,19,15,12,173,19,27,09,183,19,7*7A
$GAGSV,3,3,10,03,06,074,17,33,01,327,,7*75
$GAGSV,2,1,07,07,46,318,39,13,46,219,38,08,42,038,33,26,36,294,39,1*74
$GAGSV,2,2,07,30,35,135,43,02,27,073,15,03,06,074,17,1*40
$GBGSV,4,1,15,08,86,334,37,38,80,162,43,13,73,319,41,39,68,300,37,1*7B
$GBGSV,4,2,15,16,65,275,41,06,64,270,42,46,62,083,28,19,55,002,34,1*78
$GBGSV,4,3,15,09,51,250,32,36,48,183,44,20,39,079,29,22,18,310,32,1*7A
$GBGSV,4,4,15,35,17,256,40,37,14,041,25,29,11,203,11,1*4E
$GBGSV,2,1,08,38,80,162,45,39,68,300,40,46,62,083,36,36,48,183,45,4*76
$GBGSV,2,2,08,22,18,310,22,35,17,256,38,37,14,041,27,29,11,203,13,4*73
$GNACCURACY,2.4*10
$PAIRSAT,1,35,1,0,200,2,0,200,3,0,200,4,0,200,5,0,201,6,0,200,7,0,200,8,0,200,9,0,200,10,0,221,11,0,200,12,0,201,13,0,201,14,0,200,15,0,201,16,0,200,17,0,200,18,0,221,19,0,200,20,0,200,21,0,200,23,0,221,24,0,221,25,0,221,26,0,200,27,0,200,28,0,200,29,0,200,30,0,200,31,0,200,32,0,221,194,0,621,195,0,621,196,0,620,199,0,621*6B
$PAIRSAT,2,24,65,0,200,66,0,200,67,0,200,68,0,200,69,0,200,70,0,200,71,0,201,72,0,200,73,0,201,74,0,200,75,0,200,76,0,200,77,0,200,78,0,200,79,0,201,80,0,201,81,0,200,82,0,200,83,0,200,84,0,200,85,0,201,86,0,201,87,0,200,88,0,200*7A
$PAIRSAT,3,23,2,0,1221,3,0,1221,4,0,1200,5,0,200,7,0,1221,8,0,1221,9,0,1200,10,0,1200,11,0,1200,12,0,1200,13,0,1221,15,0,1221,19,0,1200,21,0,1200,24,0,1200,25,0,1200,26,0,1221,27,0,1200,30,0,1221,31,0,1200,33,0,1200,34,0,1200,36,0,1200*6A
$PAIRSAT,4,50,1,0,200,2,0,200,3,0,200,4,0,200,5,0,200,6,0,201,7,0,200,8,0,201,9,0,201,10,0,200,11,0,200,12,0,200,13,0,201,14,0,200,15,0,200,16,0,201,19,0,621,20,0,621,21,0,600,22,0,621,23,0,600,24,0,600,25,0,600,26,0,600,27,0,600,28,0,600,29,0,621,30,0,600,31,0,200,32,0,600,33,0,600,34,0,600,35,0,621,36,0,621,37,0,621,38,0,621,39,0,621,40,0,600,41,0,600,42,0,600,43,0,600,44,0,600,45,0,600,46,0,621,56,0,200,57,0,200,58,0,200,59,0,600,60,0,600,61,0,600*41
$PAIRDGP,10,5,10,12,15,18,23,24,25,28,32*45
$GNGGA,115642.200,2500.8284926,N,12132.4546995,E,4,61,0.45,15.979,M,15.25,M,4,3335*4D
$GNRMC,115642.200,A,2500.8284926,N,12132.4546995,E,0.01,314.86,260623,,,R,V*1D
$GPHDT,180.061,T*3B
$GNACCURACY,2.4*10
$GNGGA,115642.300,2500.8284924,N,12132.4546999,E,4,61,0.45,15.985,M,15.25,M,4,3335*41
$GNRMC,115642.300,A,2500.8284924,N,12132.4546999,E,0.00,314.86,260623,,,R,V*13
$GPHDT,,T*1B
$GNACCURACY,2.4*10
$GNGGA,115642.400,2500.8284910,N,12132.4547007,E,4,61,0.45,15.955,M,15.25,M,1,3335*46
$GNRMC,115642.400,A,2500.8284910,N,12132.4547007,E,0.01,314.86,260623,,,R,V*1D
$GPHDT,180.101,T*3C
$GNACCURACY,2.4*10
$GNGGA,115642.500,2500.8284884,N,12132.4547014,E,4,61,0.45,15.964,M,15.25,M,1,3335*4B
$GNRMC,115642.500,A,2500.8284884,N,12132.4547014,E,0.00,314.86,260623,,,R,V*13
$GPHDT,,T*1B
$GNACCURACY,2.4*10
$GNGGA,115642.600,2500.8284877,N,12132.4547019,E,4,63,0.45,15.966,M,15.25,M,1,3335*49
$GNRMC,115642.600,A,2500.8284877,N,12132.4547019,E,0.01,314.86,260623,,,R,V*10
$GPHDT,180.040,T*38
$GNACCURACY,2.4*10
$GNGGA,115642.700,2500.8284899,N,12132.4546992,E,4,63,0.45,15.966,M,15.25,M,1,3335*43
$GNRMC,115642.700,A,2500.8284899,N,12132.4546992,E,0.01,314.86,260623,,,R,V*1A
$GPHDT,,T*1B
$GNACCURACY,2.4*10
$GNGGA,115642.800,2500.8284876,N,12132.4546993,E,4,63,0.45,15.968,M,15.25,M,1,3335*42
$GNRMC,115642.800,A,2500.8284876,N,12132.4546993,E,0.01,314.86,260623,,,R,V*15
$GPHDT,179.726,T*39
$GNACCURACY,2.4*10
$GNGGA,115642.900,2500.8284897,N,12132.4547022,E,4,63,0.45,15.962,M,15.25,M,1,3335*44
$GNRMC,115642.900,A,2500.8284897,N,12132.4547022,E,0.01,314.86,260623,,,R,V*19
$GPHDT,,T*1B
$GNACCURACY,2.4*10
$GNGGA,115643.000,2500.8284884,N,12132.4546992,E,4,63,0.45,15.973,M,15.25,M,2,3335*4E
$GNRMC,115643.000,A,2500.8284884,N,12132.4546992,E,0.01,314.86,260623,,,R,V*10
$GPHDT,179.839,T*38
$GNACCURACY,2.4*10
$GNGGA,115643.100,2500.8284903,N,12132.4547036,E,4,63,0.45,15.959,M,15.25,M,2,3335*4F
$GNRMC,115643.100,A,2500.8284903,N,12132.4547036,E,0.01,314.86,260623,,,R,V*19
$GPHDT,,T*1B
$GNGSA,A,3,196,23,199,24,18,194,15,10,12,195,25,32,0.80,0.45,0.67,1*09
$GNGSA,A,3,73,80,71,86,85,,,,,,,,0.80,0.45,0.67,2*03
$GNGSA,A,3,07,13,08,26,30,02,15,,,,,,0.80,0.45,0.67,3*07
$GNGSA,A,3,08,38,13,39,16,06,46,19,09,36,20,22,0.80,0.45,0.67,4*02
$GNGSA,A,3,35,37,29,,,,,,,,,,0.80,0.45,0.67,4*05
$GPGSV,4,1,15,196,76,075,33,23,64,348,36,199,60,167,37,24,59,034,38,1*64
$GPGSV,4,2,15,18,49,224,37,41,38,242,37,194,36,135,43,15,30,061,23,1*54
$GPGSV,4,3,15,10,29,324,31,12,29,130,35,195,29,179,42,25,19,169,33,1*58
$GPGSV,4,4,15,32,15,281,24,05,10,128,17,28,05,223,,1*5D
$GPGSV,3,1,10,196,76,075,34,23,64,348,33,199,60,167,46,24,59,034,32,8*61
$GPGSV,3,2,10,18,49,224,35,194,36,135,46,10,29,324,32,195,29,179,37,8*64
$GPGSV,3,3,10,25,19,169,28,32,15,281,30,8*6A
$GLGSV,2,1,06,73,54,149,41,80,44,053,26,71,28,329,32,86,27,284,30,1*78
$GLGSV,2,2,06,85,24,231,36,74,17,185,13,1*7B
$GAGSV,3,1,10,07,46,318,30,13,46,219,39,08,42,038,13,26,36,294,36,7*70
$GAGSV,3,2,10,30,35,135,37,02,27,073,18,15,12,173,19,27,09,183,19,7*7B
$GAGSV,3,3,10,03,06,074,17,33,01,327,,7*75
$GAGSV,2,1,08,07,46,318,40,13,46,219,38,08,42,038,33,26,36,294,39,1*75
$GAGSV,2,2,08,30,35,135,43,02,27,073,15,15,12,173,24,03,06,074,17,1*7B
$GBGSV,4,1,15,08,86,334,37,38,80,162,43,13,73,319,42,39,68,300,38,1*77
$GBGSV,4,2,15,16,65,275,41,06,64,270,42,46,62,083,28,19,55,002,34,1*78
$GBGSV,4,3,15,09,51,250,31,36,48,183,44,20,39,079,29,22,18,310,32,1*79
$GBGSV,4,4,15,35,17,256,41,37,14,041,24,29,11,203,13,1*4C
$GBGSV,2,1,08,38,80,162,45,39,68,300,40,46,62,083,36,36,48,183,45,4*76
$GBGSV,2,2,08,22,18,310,21,35,17,256,38,37,14,041,27,29,11,203,12,4*71
$GNACCURACY,2.4*10
$PAIRSAT,1,35,1,0,200,2,0,200,3,0,200,4,0,200,5,0,201,6,0,200,7,0,200,8,0,200,9,0,200,10,0,221,11,0,200,12,0,201,13,0,201,14,0,200,15,0,201,16,0,200,17,0,200,18,0,221,19,0,200,20,0,200,21,0,200,23,0,221,24,0,221,25,0,221,26,0,200,27,0,200,28,0,200,29,0,200,30,0,200,31,0,200,32,0,221,194,0,621,195,0,621,196,0,620,199,0,621*6B
$PAIRSAT,2,24,65,0,200,66,0,200,67,0,200,68,0,200,69,0,200,70,0,200,71,0,201,72,0,200,73,0,201,74,0,200,75,0,200,76,0,200,77,0,200,78,0,200,79,0,201,80,0,201,81,0,200,82,0,200,83,0,200,84,0,200,85,0,201,86,0,201,87,0,200,88,0,200*7A
$PAIRSAT,3,23,2,0,1221,3,0,1221,4,0,1200,5,0,200,7,0,1221,8,0,1221,9,0,1200,10,0,1200,11,0,1200,12,0,1200,13,0,1221,15,0,1221,19,0,1200,21,0,1200,24,0,1200,25,0,1200,26,0,1221,27,0,1200,30,0,1221,31,0,1200,33,0,1200,34,0,1200,36,0,1200*6A
$PAIRSAT,4,50,1,0,200,2,0,200,3,0,200,4,0,200,5,0,200,6,0,201,7,0,200,8,0,201,9,0,201,10,0,200,11,0,200,12,0,200,13,0,201,14,0,200,15,0,200,16,0,201,19,0,621,20,0,621,21,0,600,22,0,621,23,0,600,24,0,600,25,0,600,26,0,600,27,0,600,28,0,600,29,0,621,30,0,600,31,0,200,32,0,600,33,0,600,34,0,600,35,0,621,36,0,621,37,0,621,38,0,621,39,0,621,40,0,600,41,0,600,42,0,600,43,0,600,44,0,600,45,0,600,46,0,621,56,0,200,57,0,200,58,0,200,59,0,600,60,0,600,61,0,600*41
$PAIRDGP,10,5,10,12,15,18,23,24,25,28,32*45
$GNGGA,115643.200,2500.8284894,N,12132.4546999,E,4,63,0.45,15.978,M,15.25,M,2,3335*4D
$GNRMC,115643.200,A,2500.8284894,N,12132.4546999,E,0.01,314.86,260623,,,R,V*18
$GPHDT,180.239,T*34
$GNACCURACY,2.4*10
$GNGGA,115643.300,2500.8284898,N,12132.4547019,E,4,64,0.44,15.974,M,15.25,M,2,3335*4A
$GNRMC,115643.300,A,2500.8284898,N,12132.4547019,E,0.01,314.86,260623,,,R,V*15
$GPHDT,,T*1B
$GNACCURACY,2.4*10
$GNGGA,115643.400,2500.8284894,N,12132.4546989,E,4,64,0.44,15.977,M,15.25,M,2,3335*43
$GNRMC,115643.400,A,2500.8284894,N,12132.4546989,E,0.01,314.86,260623,,,R,V*1F
$GPHDT,179.964,T*31
$GNACCURACY,2.4*10
$GNGGA,115643.500,2500.8284866,N,12132.4547024,E,4,64,0.44,15.991,M,15.25,M,2,3335*48
$GNRMC,115643.500,A,2500.8284866,N,12132.4547024,E,0.01,314.86,260623,,,R,V*1C
$GPHDT,,T*1B
$GNACCURACY,2.4*10
$GNGGA,115643.600,2500.8284852,N,12132.4547052,E,4,63,0.45,15.995,M,15.25,M,2,3335*4F
$GNRMC,115643.600,A,2500.8284852,N,12132.4547052,E,0.01,314.86,260623,,,R,V*19
$GPHDT,180.112,T*3E
$GNACCURACY,2.4*10
$GNGGA,115643.700,2500.8284830,N,12132.4547037,E,4,63,0.45,15.999,M,15.25,M,2,3335*45
$GNRMC,115643.700,A,2500.8284830,N,12132.4547037,E,0.01,314.86,260623,,,R,V*1F
$GPHDT,,T*1B
$GNACCURACY,2.4*10
$GNGGA,115643.800,2500.8284842,N,12132.4547037,E,4,63,0.45,15.992,M,15.25,M,2,3335*44
$GNRMC,115643.800,A,2500.8284842,N,12132.4547037,E,0.01,314.86,260623,,,R,V*15
$GPHDT,180.049,T*31
$GNACCURACY,2.4*10
$GNGGA,115643.900,2500.8284843,N,12132.4547089,E,4,62,0.45,15.984,M,15.25,M,2,3335*47
$GNRMC,115643.900,A,2500.8284843,N,12132.4547089,E,0.01,314.86,260623,,,R,V*10
$GPHDT,,T*1B
$GNACCURACY,2.4*10
$GNGGA,115644.000,2500.8284812,N,12132.4547011,E,4,63,0.45,15.993,M,15.25,M,3,3335*4A
$GNRMC,115644.000,A,2500.8284812,N,12132.4547011,E,0.01,314.86,260623,,,R,V*1B
$GPHDT,179.953,T*35
$GNACCURACY,2.4*10
$GNGGA,115644.100,2500.8284824,N,12132.4547014,E,4,63,0.45,15.985,M,15.25,M,3,3335*4C
$GNRMC,115644.100,A,2500.8284824,N,12132.4547014,E,0.01,314.86,260623,,,R,V*1A
$GPHDT,,T*1B
$GNGSA,A,3,196,23,199,24,18,194,12,10,195,25,32,,0.82,0.45,0.68,1*00
$GNGSA,A,3,73,80,71,86,85,,,,,,,,0.82,0.45,0.68,2*0E
$GNGSA,A,3,13,07,08,26,30,02,15,,,,,,0.82,0.45,0.68,3*0A
$GNGSA,A,3,08,38,13,39,16,06,46,19,09,36,20,22,0.82,0.45,0.68,4*0F
$GNGSA,A,3,35,37,29,,,,,,,,,,0.82,0.45,0.68,4*08
$GPGSV,4,1,16,196,76,075,33,23,64,348,35,199,60,167,38,24,59,034,38,1*6B
$GPGSV,4,2,16,18,49,224,37,41,38,242,35,194,36,135,44,15,30,061,22,1*53
$GPGSV,4,3,16,12,29,130,35,10,29,324,32,195,29,179,42,25,19,169,32,1*59
$GPGSV,4,4,16,32,15,281,27,05,10,128,18,28,05,223,,13,01,067,,1*60
$GPGSV,3,1,10,196,76,075,33,23,64,348,33,199,60,167,46,24,59,034,33,8*67
$GPGSV,3,2,10,18,49,224,27,194,36,135,46,10,29,324,34,195,29,179,37,8*61
$GPGSV,3,3,10,25,19,169,31,32,15,281,30,8*62
$GLGSV,2,1,06,73,54,149,41,80,44,053,26,71,28,329,35,86,27,284,30,1*7F
$GLGSV,2,2,06,85,24,231,36,74,17,185,14,1*7C
$GAGSV,3,1,10,13,46,219,39,07,46,318,22,08,42,038,15,26,36,294,35,7*76
$GAGSV,3,2,10,30,35,135,38,02,27,073,18,15,12,173,19,27,09,183,19,7*74
$GAGSV,3,3,10,03,06,074,16,33,01,327,,7*74
$GAGSV,2,1,07,07,46,318,37,13,46,219,40,08,42,038,34,26,36,294,39,1*72
$GAGSV,2,2,07,30,35,135,43,02,27,073,14,15,12,173,24,1*45
$GBGSV,4,1,15,08,86,334,37,38,80,162,43,13,73,319,41,39,68,300,36,1*7A
$GBGSV,4,2,15,16,65,275,40,06,64,270,41,46,62,083,29,19,55,002,34,1*7B
$GBGSV,4,3,15,09,51,250,34,36,48,183,44,20,39,079,29,22,18,310,32,1*7C
$GBGSV,4,4,15,35,17,256,40,37,14,041,23,29,11,203,17,1*4E
$GBGSV,2,1,08,38,80,162,45,39,68,300,37,46,62,083,36,36,48,183,45,4*76
$GBGSV,2,2,08,22,18,310,20,35,17,256,38,37,14,041,26,29,11,203,11,4*72
$GNACCURACY,2.4*10
$PAIRSAT,1,35,1,0,200,2,0,200,3,0,200,4,0,200,5,0,201,6,0,200,7,0,200,8,0,200,9,0,200,10,0,221,11,0,200,12,0,201,13,0,201,14,0,200,15,0,201,16,0,200,17,0,200,18,0,221,19,0,200,20,0,200,21,0,200,23,0,221,24,0,221,25,0,221,26,0,200,27,0,200,28,0,200,29,0,200,30,0,200,31,0,200,32,0,221,194,0,621,195,0,621,196,0,620,199,0,621*6B
$PAIRSAT,2,24,65,0,200,66,0,200,67,0,200,68,0,200,69,0,200,70,0,200,71,0,201,72,0,200,73,0,201,74,0,200,75,0,200,76,0,200,77,0,200,78,0,200,79,0,201,80,0,201,81,0,200,82,0,200,83,0,200,84,0,200,85,0,201,86,0,201,87,0,200,88,0,200*7A
$PAIRSAT,3,23,2,0,1221,3,0,1221,4,0,1200,5,0,200,7,0,1221,8,0,1221,9,0,1200,10,0,1200,11,0,1200,12,0,1200,13,0,1221,15,0,1221,19,0,1200,21,0,1200,24,0,1200,25,0,1200,26,0,1221,27,0,1200,30,0,1221,31,0,1200,33,0,1200,34,0,1200,36,0,1200*6A
$PAIRSAT,4,50,1,0,200,2,0,200,3,0,200,4,0,200,5,0,200,6,0,201,7,0,200,8,0,201,9,0,201,10,0,200,11,0,200,12,0,200,13,0,201,14,0,200,15,0,200,16,0,201,19,0,621,20,0,621,21,0,600,22,0,621,23,0,600,24,0,600,25,0,600,26,0,600,27,0,600,28,0,600,29,0,621,30,0,600,31,0,200,32,0,600,33,0,600,34,0,600,35,0,621,36,0,621,37,0,621,38,0,621,39,0,621,40,0,600,41,0,600,42,0,600,43,0,600,44,0,600,45,0,600,46,0,621,56,0,200,57,0,200,58,0,200,59,0,600,60,0,600,61,0,600*41
$PAIRDGP,10,5,10,12,15,18,23,24,25,28,32*45
$GNGGA,115644.200,2500.8284842,N,12132.4547086,E,4,62,0.45,15.983,M,15.25,M,3,3335*43
$GNRMC,115644.200,A,2500.8284842,N,12132.4547086,E,0.01,314.86,260623,,,R,V*12
$GPHDT,180.198,T*3C
$GNACCURACY,2.4*10
$GNGGA,115644.300,2500.8284830,N,12132.4547073,E,4,62,0.45,15.999,M,15.25,M,3,3335*46
$GNRMC,115644.300,A,2500.8284830,N,12132.4547073,E,0.01,314.86,260623,,,R,V*1C
$GPHDT,,T*1B
$GNACCURACY,2.4*10
$GNGGA,115644.400,2500.8284848,N,12132.4547069,E,4,63,0.45,15.984,M,15.25,M,3,3335*48
$GNRMC,115644.400,A,2500.8284848,N,12132.4547069,E,0.01,314.86,260623,,,R,V*1F
$GPHDT,180.705,T*3E
$GNACCURACY,2.4*10
$GNGGA,115644.500,2500.8284849,N,12132.4547023,E,4,63,0.45,15.979,M,15.25,M,3,3335*44
$GNRMC,115644.500,A,2500.8284849,N,12132.4547023,E,0.01,314.86,260623,,,R,V*11
$GPHDT,,T*1B
$GNACCURACY,2.4*10
$GNGGA,115644.600,2500.8284857,N,12132.4546993,E,4,62,0.45,15.974,M,15.25,M,3,3335*47
$GNRMC,115644.600,A,2500.8284857,N,12132.4546993,E,0.01,314.86,260623,,,R,V*1E
$GPHDT,180.125,T*3A
$GNACCURACY,2.4*10
$GNGGA,115644.700,2500.8284820,N,12132.4546957,E,4,62,0.45,15.992,M,15.25,M,3,3335*46
$GNRMC,115644.700,A,2500.8284820,N,12132.4546957,E,0.01,314.86,260623,,,R,V*17
$GPHDT,,T*1B
$GNACCURACY,2.4*10
$GNGGA,115644.800,2500.8284848,N,12132.4546981,E,4,62,0.45,15.988,M,15.25,M,3,3335*47
$GNRMC,115644.800,A,2500.8284848,N,12132.4546981,E,0.01,314.86,260623,,,R,V*1D
$GPHDT,180.204,T*3A
$GNACCURACY,2.4*10
$GNGGA,115644.900,2500.8284840,N,12132.4546943,E,4,62,0.45,15.996,M,15.25,M,3,3335*4F
$GNRMC,115644.900,A,2500.8284840,N,12132.4546943,E,0.01,314.86,260623,,,R,V*1A
$GPHDT,,T*1B
$GNACCURACY,2.4*10
$GNGGA,115645.000,2500.8284885,N,12132.4546981,E,4,61,0.46,15.974,M,15.25,M,4,3335*4B
$GNRMC,115645.000,A,2500.8284885,N,12132.4546981,E,0.01,314.86,260623,,,R,V*15
$GPHDT,180.161,T*3A
$GNACCURACY,2.4*10
$GNGGA,115645.100,2500.8284815,N,12132.4546955,E,4,62,0.45,16.002,M,15.25,M,3,3335*46
$GNRMC,115645.100,A,2500.8284815,N,12132.4546955,E,0.01,314.86,260623,,,R,V*14
$GPHDT,,T*1B
$GNGSA,A,3,196,23,199,24,18,194,15,12,10,195,25,32,0.83,0.45,0.70,1*0C
$GNGSA,A,3,73,80,71,86,85,,,,,,,,0.83,0.45,0.70,2*06
$GNGSA,A,3,13,07,08,26,30,02,15,,,,,,0.83,0.45,0.70,3*02
$GNGSA,A,3,08,38,13,39,16,06,46,19,09,36,20,22,0.83,0.45,0.70,4*07
$GNGSA,A,3,35,37,,,,,,,,,,,0.83,0.45,0.70,4*0B
$GPGSV,4,1,16,196,76,075,33,23,64,348,34,199,60,167,38,24,59,034,38,1*6A
$GPGSV,4,2,16,18,49,224,36,41,38,242,37,194,36,135,44,15,30,061,24,1*56
$GPGSV,4,3,16,12,29,130,35,10,29,324,32,195,29,179,43,25,19,169,31,1*5B
$GPGSV,4,4,16,32,15,281,25,05,10,128,20,28,05,223,,13,01,067,,1*69
$GPGSV,3,1,10,196,76,075,33,23,64,348,34,199,60,167,46,24,59,034,33,8*60
$GPGSV,3,2,10,18,49,224,34,194,36,135,46,10,29,324,32,195,29,179,37,8*65
$GPGSV,3,3,10,25,19,169,29,32,15,281,28,8*62
$GLGSV,2,1,06,73,54,149,41,80,44,053,25,71,28,329,34,86,27,284,30,1*7D
$GLGSV,2,2,06,85,24,231,36,74,17,185,16,1*7E
$GAGSV,3,1,10,13,46,219,39,07,46,318,29,08,42,038,15,26,36,294,35,7*7D
$GAGSV,3,2,10,30,35,135,38,02,27,073,18,15,12,173,19,27,09,183,19,7*74
$GAGSV,3,3,10,03,06,074,16,33,01,327,,7*74
$GAGSV,2,1,08,07,46,318,39,13,46,219,37,08,42,038,32,26,36,294,39,1*75
$GAGSV,2,2,08,30,35,135,43,02,27,073,14,15,12,173,24,03,06,074,16,1*7B
$GBGSV,4,1,15,08,86,334,37,38,80,162,43,13,73,319,41,39,68,300,38,1*74
$GBGSV,4,2,15,16,65,275,41,06,64,270,41,46,62,083,31,19,55,002,34,1*73
$GBGSV,4,3,15,09,51,250,32,36,48,183,45,20,39,079,28,22,18,310,33,1*7B
$GBGSV,4,4,15,35,17,256,41,37,14,041,23,29,11,203,17,1*4F
$GBGSV,3,1,09,38,80,162,45,39,68,300,38,46,62,083,35,19,55,002,27,4*77
$GBGSV,3,2,09,36,48,183,45,22,18,310,21,35,17,256,38,37,14,041,26,4*7B
$GBGSV,3,3,09,29,11,203,08,4*48
$GNACCURACY,2.4*10
$PAIRSAT,1,35,1,0,200,2,0,200,3,0,200,4,0,200,5,0,201,6,0,200,7,0,200,8,0,200,9,0,200,10,0,221,11,0,200,12,0,201,13,0,201,14,0,200,15,0,201,16,0,200,17,0,200,18,0,221,19,0,200,20,0,200,21,0,200,23,0,221,24,0,221,25,0,221,26,0,200,27,0,200,28,0,200,29,0,200,30,0,200,31,0,200,32,0,221,194,0,621,195,0,621,196,0,620,199,0,621*6B
$PAIRSAT,2,24,65,0,200,66,0,200,67,0,200,68,0,200,69,0,200,70,0,200,71,0,201,72,0,200,73,0,201,74,0,200,75,0,200,76,0,200,77,0,200,78,0,200,79,0,201,80,0,201,81,0,200,82,0,200,83,0,200,84,0,200,85,0,201,86,0,201,87,0,200,88,0,200*7A
$PAIRSAT,3,23,2,0,1221,3,0,1221,4,0,1200,5,0,200,7,0,1221,8,0,1221,9,0,1200,10,0,1200,11,0,1200,12,0,1200,13,0,1221,15,0,1221,19,0,1200,21,0,1200,24,0,1200,25,0,1200,26,0,1221,27,0,1200,30,0,1221,31,0,1200,33,0,1200,34,0,1200,36,0,1200*6A
$PAIRSAT,4,50,1,0,200,2,0,200,3,0,200,4,0,200,5,0,200,6,0,201,7,0,200,8,0,201,9,0,201,10,0,200,11,0,200,12,0,200,13,0,201,14,0,200,15,0,200,16,0,201,19,0,621,20,0,621,21,0,600,22,0,621,23,0,600,24,0,600,25,0,600,26,0,600,27,0,600,28,0,600,29,0,621,30,0,600,31,0,200,32,0,600,33,0,600,34,0,600,35,0,621,36,0,621,37,0,621,38,0,621,39,0,621,40,0,600,41,0,600,42,0,600,43,0,600,44,0,600,45,0,600,46,0,621,56,0,200,57,0,200,58,0,200,59,0,600,60,0,600,61,0,600*41
$PAIRDGP,10,5,10,12,15,18,23,24,25,28,32*45
$GNGGA,115645.200,2500.8284895,N,12132.4546931,E,4,62,0.45,16.009,M,15.25,M,3,3335*44
$GNRMC,115645.200,A,2500.8284895,N,12132.4546931,E,0.01,314.86,260623,,,R,V*1D
$GPHDT,179.703,T*3E
$GNACCURACY,2.4*10
$GNGGA,115645.300,2500.8284952,N,12132.4546962,E,4,63,0.45,15.987,M,15.25,M,1,3335*46
$GNRMC,115645.300,A,2500.8284952,N,12132.4546962,E,0.01,314.86,260623,,,R,V*10
$GPHDT,,T*1B
$GNACCURACY,2.4*10
$GNGGA,115645.400,2500.8284867,N,12132.4546915,E,4,63,0.45,16.021,M,15.25,M,1,3335*40
$GNRMC,115645.400,A,2500.8284867,N,12132.4546915,E,0.01,314.86,260623,,,R,V*10
$GPHDT,179.823,T*33
$GNACCURACY,2.4*10
$GNGGA,115645.500,2500.8284829,N,12132.4547003,E,4,63,0.45,15.982,M,15.25,M,1,3335*47
$GNRMC,115645.500,A,2500.8284829,N,12132.4547003,E,0.01,314.86,260623,,,R,V*14
$GPHDT,,T*1B
$GNACCURACY,2.4*10
$GNGGA,115645.600,2500.8284801,N,12132.4546993,E,4,63,0.44,16.005,M,15.25,M,0,3335*4A
$GNRMC,115645.600,A,2500.8284801,N,12132.4546993,E,0.01,314.86,260623,,,R,V*1C
$GPHDT,180.043,T*3B
$GNACCURACY,2.4*10
$GNGGA,115645.700,2500.8284827,N,12132.4547031,E,4,62,0.44,15.985,M,15.25,M,0,3335*4C
$GNRMC,115645.700,A,2500.8284827,N,12132.4547031,E,0.01,314.86,260623,,,R,V*19
$GPHDT,,T*1B
$GNACCURACY,2.4*10
$GNGGA,115645.800,2500.8284807,N,12132.4547005,E,4,62,0.44,15.998,M,15.25,M,0,3335*4A
$GNRMC,115645.800,A,2500.8284807,N,12132.4547005,E,0.01,314.86,260623,,,R,V*13
$GPHDT,180.013,T*3E
$GNACCURACY,2.4*10
$GNGGA,115645.900,2500.8284854,N,12132.4547043,E,4,62,0.44,15.980,M,15.25,M,0,3335*46
$GNRMC,115645.900,A,2500.8284854,N,12132.4547043,E,0.01,314.86,260623,,,R,V*16
$GPHDT,,T*1B
$GNACCURACY,2.4*10
$GNGGA,115646.000,2500.8284908,N,12132.4547058,E,4,62,0.44,15.983,M,15.25,M,1,3335*4C
$GNRMC,115646.000,A,2500.8284908,N,12132.4547058,E,0.01,314.86,260623,,,R,V*1E
$GPHDT,180.088,T*3C
$GNACCURACY,2.4*10
$GNGGA,115646.100,2500.8284892,N,12132.4547029,E,4,61,0.45,15.986,M,15.25,M,1,3335*4E
$GNRMC,115646.100,A,2500.8284892,N,12132.4547029,E,0.01,314.86,260623,,,R,V*1B
$GPHDT,,T*1B
$GNGSA,A,3,196,23,199,24,18,194,15,12,10,195,25,32,0.79,0.44,0.66,1*0F
$GNGSA,A,3,05,,,,,,,,,,,,0.79,0.44,0.66,1*0A
$GNGSA,A,3,73,80,71,86,85,,,,,,,,0.79,0.44,0.66,2*05
$GNGSA,A,3,13,07,08,26,30,02,15,,,,,,0.79,0.44,0.66,3*01
$GNGSA,A,3,08,38,13,39,16,06,46,19,09,36,20,22,0.79,0.44,0.66,4*04
$GNGSA,A,3,35,37,,,,,,,,,,,0.79,0.44,0.66,4*08
$GPGSV,4,1,16,196,76,075,33,23,64,348,33,199,60,167,38,24,59,034,37,1*62
$GPGSV,4,2,16,18,49,224,37,41,38,242,34,194,36,135,44,15,30,061,23,1*53
$GPGSV,4,3,16,12,29,130,33,10,29,324,36,195,29,179,43,25,19,169,29,1*50
$GPGSV,4,4,16,32,15,281,27,05,10,128,18,28,05,223,,13,01,067,,1*60
$GPGSV,3,1,10,196,76,075,33,23,64,348,36,199,60,167,46,24,59,034,35,8*64
$GPGSV,3,2,10,18,49,224,29,194,36,135,46,10,29,324,30,195,29,179,37,8*6B
$GPGSV,3,3,10,25,19,169,30,32,15,281,27,8*65
$GLGSV,2,1,06,73,54,149,40,80,44,053,27,71,28,329,34,86,27,284,31,1*7F
$GLGSV,2,2,06,85,24,231,36,74,17,185,15,1*7D
$GAGSV,3,1,10,13,46,219,39,07,46,318,26,08,42,038,14,26,36,294,38,7*7E
$GAGSV,3,2,10,30,35,135,39,02,27,073,18,15,12,173,21,27,09,183,17,7*70
$GAGSV,3,3,10,03,06,074,16,33,01,327,,7*74
$GAGSV,2,1,06,07,46,318,38,13,46,219,38,08,42,038,32,26,36,294,40,1*7B
$GAGSV,2,2,06,30,35,135,44,02,27,073,13,1*70
$GBGSV,4,1,15,08,86,334,37,38,80,162,43,13,73,319,42,39,68,300,40,1*78
$GBGSV,4,2,15,16,65,275,41,06,64,270,41,46,62,083,31,19,55,002,34,1*73
$GBGSV,4,3,15,09,51,250,32,36,48,183,45,20,39,079,29,22,18,310,34,1*7D
$GBGSV,4,4,15,35,17,256,42,37,14,041,24,29,11,203,17,1*4B
$GBGSV,2,1,08,38,80,162,45,39,68,300,39,46,62,083,35,19,55,002,33,4*73
$GBGSV,2,2,08,36,48,183,45,22,18,310,19,35,17,256,40,37,14,041,27,4*7E
$GNACCURACY,2.4*10
$PAIRSAT,1,35,1,0,200,2,0,200,3,0,200,4,0,200,5,0,201,6,0,200,7,0,200,8,0,200,9,0,200,10,0,221,11,0,200,12,0,201,13,0,201,14,0,200,15,0,201,16,0,200,17,0,200,18,0,221,19,0,200,20,0,200,21,0,200,23,0,221,24,0,221,25,0,221,26,0,200,27,0,200,28,0,200,29,0,200,30,0,200,31,0,200,32,0,221,194,0,621,195,0,621,196,0,620,199,0,621*6B
$PAIRSAT,2,24,65,0,200,66,0,200,67,0,200,68,0,200,69,0,200,70,0,200,71,0,201,72,0,200,73,0,201,74,0,200,75,0,200,76,0,200,77,0,200,78,0,200,79,0,201,80,0,201,81,0,200,82,0,200,83,0,200,84,0,200,85,0,201,86,0,201,87,0,200,88,0,200*7A
$PAIRSAT,3,23,2,0,1221,3,0,1221,4,0,1200,5,0,200,7,0,1221,8,0,1221,9,0,1200,10,0,1200,11,0,1200,12,0,1200,13,0,1221,15,0,1221,19,0,1200,21,0,1200,24,0,1200,25,0,1200,26,0,1221,27,0,1200,30,0,1221,31,0,1200,33,0,1200,34,0,1200,36,0,1200*6A
$PAIRSAT,4,50,1,0,200,2,0,200,3,0,200,4,0,200,5,0,200,6,0,201,7,0,200,8,0,201,9,0,201,10,0,200,11,0,200,12,0,200,13,0,201,14,0,200,15,0,200,16,0,201,19,0,621,20,0,621,21,0,600,22,0,621,23,0,600,24,0,600,25,0,600,26,0,600,27,0,600,28,0,600,29,0,621,30,0,600,31,0,200,32,0,600,33,0,600,34,0,600,35,0,621,36,0,621,37,0,621,38,0,621,39,0,621,40,0,600,41,0,600,42,0,600,43,0,600,44,0,600,45,0,600,46,0,621,56,0,200,57,0,200,58,0,200,59,0,600,60,0,600,61,0,600*41
$PAIRDGP,10,5,10,12,15,18,23,24,25,28,32*45
$GNGGA,115646.200,2500.8284894,N,12132.4547028,E,4,62,0.44,15.974,M,15.25,M,1,3335*45
$GNRMC,115646.200,A,2500.8284894,N,12132.4547028,E,0.01,314.86,260623,,,R,V*1F
$GPHDT,180.162,T*39
$GNACCURACY,2.4*10
$GNGGA,115646.300,2500.8284903,N,12132.4547036,E,4,62,0.44,15.972,M,15.25,M,1,3335*42
$GNRMC,115646.300,A,2500.8284903,N,12132.4547036,E,0.01,314.86,260623,,,R,V*1E
$GPHDT,,T*1B
$GNACCURACY,2.4*10
$GNGGA,115646.400,2500.8284937,N,12132.4547047,E,4,62,0.44,15.974,M,15.25,M,1,3335*42
$GNRMC,115646.400,A,2500.8284937,N,12132.4547047,E,0.01,314.86,260623,,,R,V*18
$GPHDT,180.218,T*37
$GNACCURACY,2.4*10
$GNGGA,115646.500,2500.8284938,N,12132.4547053,E,4,62,0.44,15.975,M,15.25,M,1,3335*48
$GNRMC,115646.500,A,2500.8284938,N,12132.4547053,E,0.01,314.86,260623,,,R,V*13
$GPHDT,,T*1B
$GNACCURACY,2.4*10
$GNGGA,115646.600,2500.8284946,N,12132.4547084,E,4,62,0.44,15.967,M,15.25,M,1,3335*4B
$GNRMC,115646.600,A,2500.8284946,N,12132.4547084,E,0.01,314.86,260623,,,R,V*13
$GPHDT,180.796,T*34
$GNACCURACY,2.4*10
$GNGGA,115646.700,2500.8284960,N,12132.4547028,E,4,62,0.44,15.976,M,15.25,M,1,3335*48
$GNRMC,115646.700,A,2500.8284960,N,12132.4547028,E,0.01,314.86,260623,,,R,V*10
$GPHDT,,T*1B
$GNACCURACY,2.4*10
$GNGGA,115646.800,2500.8284917,N,12132.4547043,E,4,62,0.44,15.983,M,15.25,M,1,3335*40
$GNRMC,115646.800,A,2500.8284917,N,12132.4547043,E,0.01,314.86,260623,,,R,V*12
$GPHDT,180.299,T*3E
$GNACCURACY,2.4*10
$GNGGA,115646.900,2500.8284932,N,12132.4547049,E,4,62,0.44,15.979,M,15.25,M,1,3335*49
$GNRMC,115646.900,A,2500.8284932,N,12132.4547049,E,0.01,314.86,260623,,,R,V*1E
$GPHDT,,T*1B
$GNACCURACY,2.4*10
$GNGGA,115647.000,2500.8284938,N,12132.4547070,E,4,63,0.44,15.978,M,15.25,M,2,3335*42