$FW : RTK35X,V1.1X0314AS,Lib20210517,1*54
$Tool : LOCOSYS , GNSS Firebird , v1.0.0.19*39
$---------------------------------------------------*2D
$GNACCURACY,2.4*10
$GNGGA,115625.900,2500.8285129,N,12132.4547129,E,4,59,0.47,15.913,M,15.25,M,2,3335*4C
$GNRMC,115625.900,A,2500.8285129,N,12132.4547129,E,0.03,314.86,260623,,,R,V*1D
$GPHDT,,T*1B
$GNACCURACY,2.4*10
$GNGGA,115626.000,2500.8285133,N,12132.4547151,E,4,59,0.47,15.918,M,15.25,M,3,3335*48
$GNRMC,115626.000,A,2500.8285133,N,12132.4547151,E,0.03,314.86,260623,,,R,V*13
$GPHDT,225.970,T*3E
$GNACCURACY,2.4*10
$GNGGA,115626.100,2500.8285116,N,12132.4547175,E,4,59,0.47,15.903,M,15.25,M,2,3335*43
$GNRMC,115626.100,A,2500.8285116,N,12132.4547175,E,0.03,314.86,260623,,,R,V*13
$GPHDT,,T*1B
$GNGSA,A,3,196,23,199,24,18,194,15,12,10,195,25,32,0.80,0.45,0.67,1*09
$GNGSA,A,3,73,80,71,86,85,,,,,,,,0.80,0.45,0.67,2*03
$GNGSA,A,3,13,07,08,26,30,02,15,,,,,,0.80,0.45,0.67,3*07
$GNGSA,A,3,08,38,13,39,16,06,46,19,09,36,20,35,0.80,0.45,0.67,4*04
$GNGSA,A,3,37,22,29,,,,,,,,,,0.80,0.45,0.67,4*03
$GPGSV,4,1,16,196,76,075,34,23,64,348,30,199,60,167,38,24,59,034,38,1*69
$GPGSV,4,2,16,18,49,224,44,41,38,242,41,194,36,135,42,15,30,061,26,1*56
$GPGSV,4,3,16,12,29,130,33,10,29,324,37,195,29,179,39,25,19,169,30,1*54
$GPGSV,4,4,16,32,15,281,29,05,10,128,,28,05,222,,13,01,067,,1*66
$GPGSV,3,1,10,196,76,075,33,23,64,348,23,199,60,167,47,24,59,034,38,8*6C
$GPGSV,3,2,10,18,49,224,45,194,36,135,46,10,29,324,35,195,29,179,44,8*60
$GPGSV,3,3,10,25,19,169,27,32,15,281,31,8*64
$GLGSV,2,1,06,73,54,149,42,80,44,053,20,71,28,329,33,86,27,284,19,1*77
$GLGSV,2,2,06,85,24,232,35,74,17,185,17,1*7F
$GAGSV,3,1,10,13,46,219,42,07,46,318,36,08,42,038,15,26,36,294,22,7*79
$GAGSV,3,2,10,30,35,135,35,02,27,073,20,15,12,173,18,27,09,183,,7*7B
$GAGSV,3,3,10,03,06,073,16,33,01,327,,7*73
$GAGSV,2,1,06,07,46,318,33,13,46,219,42,08,42,038,33,26,36,294,34,1*7F
$GAGSV,2,2,06,30,35,135,43,03,06,073,16,1*70
$GBGSV,4,1,15,08,86,334,41,38,80,162,43,13,73,319,41,39,68,300,41,1*7B
$GBGSV,4,2,15,16,65,275,39,06,64,270,39,46,62,083,28,19,55,002,29,1*77
$GBGSV,4,3,15,09,51,250,42,36,48,183,44,20,39,079,29,22,18,310,,1*7C
$GBGSV,4,4,15,35,17,256,42,37,14,041,31,29,11,203,15,1*4D
$GBGSV,2,1,08,38,80,162,46,39,68,300,41,46,62,083,33,19,55,002,29,4*72
$GBGSV,2,2,08,36,48,183,44,22,18,310,17,35,17,256,31,29,11,203,19,4*74
$GNACCURACY,2.4*10
$PAIRSAT,1,35,1,0,200,2,0,200,3,0,200,4,0,200,5,0,201,6,0,200,7,0,200,8,0,200,9,0,200,10,0,221,11,0,200,12,0,201,13,0,201,14,0,200,15,0,201,16,0,200,17,0,200,18,0,221,19,0,200,20,0,200,21,0,200,23,0,221,24,0,221,25,0,221,26,0,200,27,0,200,28,0,200,29,0,200,30,0,200,31,0,200,32,0,221,194,0,621,195,0,621,196,0,620,199,0,621*6B
$PAIRSAT,2,24,65,0,200,66,0,200,67,0,200,68,0,200,69,0,200,70,0,200,71,0,201,72,0,200,73,0,201,74,0,200,75,0,200,76,0,200,77,0,200,78,0,200,79,0,201,80,0,201,81,0,200,82,0,200,83,0,200,84,0,200,85,0,201,86,0,201,87,0,200,88,0,200*7A
$PAIRSAT,3,23,2,0,1221,3,0,1221,4,0,1200,5,0,200,7,0,1221,8,0,1221,9,0,1200,10,0,1200,11,0,1200,12,0,1200,13,0,1221,15,0,1221,19,0,1200,21,0,1200,24,0,1200,25,0,1200,26,0,1221,27,0,1200,30,0,1221,31,0,1200,33,0,1200,34,0,1200,36,0,1200*6A
$PAIRSAT,4,50,1,0,200,2,0,200,3,0,200,4,0,200,5,0,200,6,0,201,7,0,200,8,0,201,9,0,201,10,0,200,11,0,200,12,0,200,13,0,201,14,0,200,15,0,200,16,0,201,19,0,621,20,0,621,21,0,600,22,0,621,23,0,600,24,0,600,25,0,600,26,0,600,27,0,600,28,0,600,29,0,621,30,0,600,31,0,200,32,0,600,33,0,600,34,0,600,35,0,621,36,0,621,37,0,621,38,0,621,39,0,621,40,0,600,41,0,600,42,0,600,43,0,600,44,0,600,45,0,600,46,0,621,56,0,200,57,0,200,58,0,200,59,0,600,60,0,600,61,0,600*41
$PAIRDGP,10,5,10,12,15,18,23,24,25,28,32*45
$GNGGA,115626.200,2500.8285086,N,12132.4547101,E,4,60,0.45,15.926,M,15.25,M,2,3335*44
$GNRMC,115626.200,A,2500.8285086,N,12132.4547101,E,0.03,314.86,260623,,,R,V*1B
$GPHDT,226.383,T*3B
$GNACCURACY,2.4*10
$GNGGA,115626.300,2500.8285106,N,12132.4547144,E,4,60,0.45,15.915,M,15.25,M,1,3335*4E
$GNRMC,115626.300,A,2500.8285106,N,12132.4547144,E,0.03,314.86,260623,,,R,V*12
$GPHDT,,T*1B
$GNACCURACY,2.4*10
$GNGGA,115626.400,2500.8285095,N,12132.4547131,E,4,60,0.45,15.921,M,15.25,M,1,3335*47
$GNRMC,115626.400,A,2500.8285095,N,12132.4547131,E,0.03,314.86,260623,,,R,V*1C
$GPHDT,226.382,T*3A
$GNACCURACY,2.4*10
$GNGGA,115626.500,2500.8285109,N,12132.4547117,E,4,59,0.45,15.911,M,15.25,M,1,3335*4F
$GNRMC,115626.500,A,2500.8285109,N,12132.4547117,E,0.03,314.86,260623,,,R,V*1D
$GPHDT,,T*1B
$GNACCURACY,2.4*10
$GNGGA,115626.600,2500.8285093,N,12132.4547121,E,4,58,0.47,15.917,M,15.25,M,1,3335*4E
$GNRMC,115626.600,A,2500.8285093,N,12132.4547121,E,0.03,314.86,260623,,,R,V*19
$GPHDT,226.151,T*36
$GNACCURACY,2.4*10
$GNGGA,115626.700,2500.8285101,N,12132.4547120,E,4,59,0.45,15.907,M,15.25,M,1,3335*46
$GNRMC,115626.700,A,2500.8285101,N,12132.4547120,E,0.03,314.86,260623,,,R,V*13
$GPHDT,,T*1B
$GNACCURACY,2.4*10
$GNGGA,115626.800,2500.8285086,N,12132.4547156,E,4,59,0.45,15.910,M,15.25,M,1,3335*40
$GNRMC,115626.800,A,2500.8285086,N,12132.4547156,E,0.03,314.86,260623,,,R,V*13
$GPHDT,226.422,T*37
$GNACCURACY,2.4*10
$GNGGA,115626.900,2500.8285090,N,12132.4547108,E,4,59,0.45,15.916,M,15.25,M,1,3335*4B
$GNRMC,115626.900,A,2500.8285090,N,12132.4547108,E,0.03,314.86,260623,,,R,V*1E
$GPHDT,,T*1B
$GNACCURACY,2.4*10
$GNGGA,115627.000,2500.8285102,N,12132.4547109,E,4,59,0.45,15.916,M,15.25,M,2,3335*4B
$GNRMC,115627.000,A,2500.8285102,N,12132.4547109,E,0.03,314.86,260623,,,R,V*1D
$GPHDT,225.915,T*3D
$GNACCURACY,2.4*10
$GNGGA,115627.100,2500.8285107,N,12132.4547120,E,4,58,0.47,15.907,M,15.25,M,2,3335*47
$GNRMC,115627.100,A,2500.8285107,N,12132.4547120,E,0.03,314.86,260623,,,R,V*12
$GPHDT,,T*1B
$GNGSA,A,3,196,23,199,24,18,194,15,12,10,195,25,32,0.80,0.45,0.67,1*09
$GNGSA,A,3,73,80,71,86,85,,,,,,,,0.80,0.45,0.67,2*03
$GNGSA,A,3,13,07,08,26,30,02,15,,,,,,0.80,0.45,0.67,3*07
$GNGSA,A,3,08,38,13,39,16,06,46,19,09,36,20,35,0.80,0.45,0.67,4*04
$GNGSA,A,3,37,22,29,,,,,,,,,,0.80,0.45,0.67,4*03
$GPGSV,4,1,16,196,76,075,32,23,64,348,30,199,60,167,38,24,59,034,38,1*6F
$GPGSV,4,2,16,18,49,224,45,41,38,242,41,194,36,135,43,15,30,061,24,1*54
$GPGSV,4,3,16,12,29,130,32,10,29,324,35,195,29,179,39,25,19,169,31,1*56
$GPGSV,4,4,16,32,15,281,29,05,10,128,,28,05,222,,13,01,067,,1*66
$GPGSV,3,1,10,196,76,075,34,23,64,348,24,199,60,167,47,24,59,034,40,8*63
$GPGSV,3,2,10,18,49,224,45,194,36,135,46,10,29,324,36,195,29,179,44,8*63
$GPGSV,3,3,10,25,19,169,27,32,15,281,30,8*65
$GLGSV,2,1,06,73,54,149,42,80,44,053,24,71,28,329,33,86,27,284,24,1*7D
$GLGSV,2,2,06,85,24,232,35,74,17,185,17,1*7F
$GAGSV,3,1,10,13,46,219,42,07,46,318,34,08,42,038,15,26,36,294,26,7*7F
$GAGSV,3,2,10,30,35,135,36,02,27,073,20,15,12,173,18,27,09,183,,7*78
$GAGSV,3,3,10,03,06,073,13,33,01,327,,7*76
$GAGSV,2,1,06,07,46,318,34,13,46,219,42,08,42,038,33,26,36,294,34,1*78
$GAGSV,2,2,06,30,35,135,43,03,06,073,13,1*75
$GBGSV,4,1,15,08,86,334,41,38,80,162,43,13,73,319,41,39,68,300,41,1*7B
$GBGSV,4,2,15,16,65,275,39,06,64,270,39,46,62,083,28,19,55,002,31,1*7E
$GBGSV,4,3,15,09,51,250,42,36,48,183,44,20,39,079,30,22,18,310,,1*74
$GBGSV,4,4,15,35,17,256,42,37,14,041,30,29,11,203,18,1*41
$GBGSV,2,1,08,38,80,162,46,39,68,300,41,46,62,083,33,19,55,002,28,4*73
$GBGSV,2,2,08,36,48,183,44,22,18,310,17,35,17,256,31,29,11,203,19,4*74
$GNACCURACY,2.4*10
$PAIRSAT,1,35,1,0,200,2,0,200,3,0,200,4,0,200,5,0,201,6,0,200,7,0,200,8,0,200,9,0,200,10,0,221,11,0,200,12,0,201,13,0,201,14,0,200,15,0,201,16,0,200,17,0,200,18,0,221,19,0,200,20,0,200,21,0,200,23,0,221,24,0,221,25,0,221,26,0,200,27,0,200,28,0,200,29,0,200,30,0,200,31,0,200,32,0,221,194,0,621,195,0,621,196,0,620,199,0,621*6B
$PAIRSAT,2,24,65,0,200,66,0,200,67,0,200,68,0,200,69,0,200,70,0,200,71,0,201,72,0,200,73,0,201,74,0,200,75,0,200,76,0,200,77,0,200,78,0,200,79,0,201,80,0,201,81,0,200,82,0,200,83,0,200,84,0,200,85,0,201,86,0,201,87,0,200,88,0,200*7A
$PAIRSAT,3,23,2,0,1221,3,0,1221,4,0,1200,5,0,200,7,0,1221,8,0,1221,9,0,1200,10,0,1200,11,0,1200,12,0,1200,13,0,1221,15,0,1221,19,0,1200,21,0,1200,24,0,1200,25,0,1200,26,0,1221,27,0,1200,30,0,1221,31,0,1200,33,0,1200,34,0,1200,36,0,1200*6A
$PAIRSAT,4,50,1,0,200,2,0,200,3,0,200,4,0,200,5,0,200,6,0,201,7,0,200,8,0,201,9,0,201,10,0,200,11,0,200,12,0,200,13,0,201,14,0,200,15,0,200,16,0,201,19,0,621,20,0,621,21,0,600,22,0,621,23,0,600,24,0,600,25,0,600,26,0,600,27,0,600,28,0,600,29,0,621,30,0,600,31,0,200,32,0,600,33,0,600,34,0,600,35,0,621,36,0,621,37,0,621,38,0,621,39,0,621,40,0,600,41,0,600,42,0,600,43,0,600,44,0,600,45,0,600,46,0,621,56,0,200,57,0,200,58,0,200,59,0,600,60,0,600,61,0,600*41
$PAIRDGP,10,5,10,12,15,18,23,24,25,28,32*45
$GNGGA,115627.200,2500.8285102,N,12132.4547122,E,4,60,0.45,15.911,M,15.25,M,2,3335*4D
$GNRMC,115627.200,A,2500.8285102,N,12132.4547122,E,0.03,314.86,260623,,,R,V*16
$GPHDT,226.084,T*3F
$GNACCURACY,2.4*10
$GNGGA,115627.300,2500.8285100,N,12132.4547119,E,4,60,0.45,15.918,M,15.25,M,2,3335*4F
$GNRMC,115627.300,A,2500.8285100,N,12132.4547119,E,0.02,314.86,260623,,,R,V*1C
$GPHDT,,T*1B
$GNACCURACY,2.5*11
$GNGGA,115627.400,2500.8285118,N,12132.4547119,E,4,60,0.45,15.914,M,15.25,M,2,3335*4D
$GNRMC,115627.400,A,2500.8285118,N,12132.4547119,E,0.02,314.86,260623,,,R,V*12
$GPHDT,226.022,T*33
$GNACCURACY,2.5*11
$GNGGA,115627.500,2500.8285130,N,12132.4547123,E,4,59,0.47,15.909,M,15.25,M,2,3335*4B
$GNRMC,115627.500,A,2500.8285130,N,12132.4547123,E,0.02,314.86,260623,,,R,V*10
$GPHDT,,T*1B
$GNACCURACY,2.5*11
$GNGGA,115627.600,2500.8285090,N,12132.4547101,E,4,60,0.45,15.915,M,15.25,M,2,3335*46
$GNRMC,115627.600,A,2500.8285090,N,12132.4547101,E,0.02,314.86,260623,,,R,V*18
$GPHDT,226.240,T*35
$GNACCURACY,2.5*11
$GNGGA,115627.700,2500.8285105,N,12132.4547123,E,4,59,0.47,15.913,M,15.25,M,2,3335*44
$GNRMC,115627.700,A,2500.8285105,N,12132.4547123,E,0.02,314.86,260623,,,R,V*14
$GPHDT,,T*1B
$GNACCURACY,2.5*11
$GNGGA,115627.800,2500.8285078,N,12132.4547111,E,4,59,0.47,15.908,M,15.25,M,2,3335*4B
$GNRMC,115627.800,A,2500.8285078,N,12132.4547111,E,0.02,314.86,260623,,,R,V*11
$GPHDT,226.286,T*3F
$GNACCURACY,2.5*11
$GNGGA,115627.900,2500.8285137,N,12132.4547136,E,4,59,0.47,15.914,M,15.25,M,2,3335*48
$GNRMC,115627.900,A,2500.8285137,N,12132.4547136,E,0.02,314.86,260623,,,R,V*1F
$GPHDT,,T*1B
$GNACCURACY,2.5*11
$GNGGA,115628.000,2500.8285112,N,12132.4547124,E,4,60,0.45,15.906,M,15.25,M,1,3335*42
$GNRMC,115628.000,A,2500.8285112,N,12132.4547124,E,0.02,314.86,260623,,,R,V*1D
$GPHDT,226.211,T*31
$GNACCURACY,2.5*11
$GNGGA,115628.100,2500.8285108,N,12132.4547119,E,4,59,0.47,15.908,M,15.25,M,1,3335*40
$GNRMC,115628.100,A,2500.8285108,N,12132.4547119,E,0.02,314.86,260623,,,R,V*19
$GPHDT,,T*1B
$GNGSA,A,3,196,23,199,24,18,194,15,12,10,195,25,32,0.80,0.45,0.67,1*09
$GNGSA,A,3,73,80,71,86,85,,,,,,,,0.80,0.45,0.67,2*03
$GNGSA,A,3,13,07,08,26,30,02,15,,,,,,0.80,0.45,0.67,3*07
$GNGSA,A,3,08,38,13,39,16,06,46,19,09,36,20,35,0.80,0.45,0.67,4*04
$GNGSA,A,3,37,22,29,,,,,,,,,,0.80,0.45,0.67,4*03
$GPGSV,4,1,16,196,76,075,31,23,64,348,31,199,60,167,38,24,59,034,38,1*6D
$GPGSV,4,2,16,18,49,224,45,41,38,242,41,194,36,135,43,15,30,061,27,1*57
$GPGSV,4,3,16,12,29,130,32,10,29,324,35,195,29,179,39,25,19,169,31,1*56
$GPGSV,4,4,16,32,15,281,28,05,10,128,,28,05,222,,13,01,067,,1*67
$GPGSV,3,1,10,196,76,075,34,23,64,348,22,199,60,167,47,24,59,034,40,8*65
$GPGSV,3,2,10,18,49,224,45,194,36,135,46,10,29,324,36,195,29,179,44,8*63
$GPGSV,3,3,10,25,19,169,28,32,15,281,30,8*6A
$GLGSV,2,1,06,73,54,149,42,80,44,053,23,71,28,329,33,86,27,284,24,1*7A
$GLGSV,2,2,06,85,24,232,35,74,17,185,17,1*7F
$GAGSV,3,1,09,13,46,219,42,07,46,318,34,08,42,038,17,26,36,294,27,7*74
$GAGSV,3,2,09,30,35,135,35,02,27,073,20,15,12,173,17,03,06,074,12,7*7F
$GAGSV,3,3,09,33,01,327,,7*4D
$GAGSV,2,1,06,07,46,318,34,13,46,219,42,08,42,038,33,26,36,294,34,1*78
$GAGSV,2,2,06,30,35,135,43,03,06,074,13,1*72
$GBGSV,4,1,15,08,86,334,41,38,80,162,43,13,73,319,41,39,68,300,41,1*7B
$GBGSV,4,2,15,16,65,275,39,06,64,270,39,46,62,083,28,19,55,002,31,1*7E
$GBGSV,4,3,15,09,51,250,42,36,48,183,44,20,39,079,28,22,18,310,,1*7D
$GBGSV,4,4,15,35,17,256,42,37,14,041,30,29,11,203,17,1*4E
$GBGSV,2,1,08,38,80,162,45,39,68,300,40,46,62,083,34,19,55,002,27,4*79
$GBGSV,2,2,08,36,48,183,44,22,18,310,15,35,17,256,30,29,11,203,19,4*77
$GNACCURACY,2.5*11
$PAIRSAT,1,35,1,0,200,2,0,200,3,0,200,4,0,200,5,0,201,6,0,200,7,0,200,8,0,200,9,0,200,10,0,221,11,0,200,12,0,201,13,0,201,14,0,200,15,0,201,16,0,200,17,0,200,18,0,221,19,0,200,20,0,200,21,0,200,23,0,221,24,0,221,25,0,221,26,0,200,27,0,200,28,0,200,29,0,200,30,0,200,31,0,200,32,0,221,194,0,621,195,0,621,196,0,620,199,0,621*6B
$PAIRSAT,2,24,65,0,200,66,0,200,67,0,200,68,0,200,69,0,200,70,0,200,71,0,201,72,0,200,73,0,201,74,0,200,75,0,200,76,0,200,77,0,200,78,0,200,79,0,201,80,0,201,81,0,200,82,0,200,83,0,200,84,0,200,85,0,201,86,0,201,87,0,200,88,0,200*7A
$PAIRSAT,3,23,2,0,1221,3,0,1221,4,0,1200,5,0,200,7,0,1221,8,0,1221,9,0,1200,10,0,1200,11,0,1200,12,0,1200,13,0,1221,15,0,1221,19,0,1200,21,0,1200,24,0,1200,25,0,1200,26,0,1221,27,0,1200,30,0,1221,31,0,1200,33,0,1200,34,0,1200,36,0,1200*6A
$PAIRSAT,4,50,1,0,200,2,0,200,3,0,200,4,0,200,5,0,200,6,0,201,7,0,200,8,0,201,9,0,201,10,0,200,11,0,200,12,0,200,13,0,201,14,0,200,15,0,200,16,0,201,19,0,621,20,0,621,21,0,600,22,0,621,23,0,600,24,0,600,25,0,600,26,0,600,27,0,600,28,0,600,29,0,621,30,0,600,31,0,200,32,0,600,33,0,600,34,0,600,35,0,621,36,0,621,37,0,621,38,0,621,39,0,621,40,0,600,41,0,600,42,0,600,43,0,600,44,0,600,45,0,600,46,0,621,56,0,200,57,0,200,58,0,200,59,0,600,60,0,600,61,0,600*41
$PAIRDGP,10,5,10,12,15,18,23,24,25,28,32*45
$GNGGA,115628.200,2500.8285125,N,12132.4547148,E,4,60,0.45,15.911,M,15.25,M,1,3335*48
$GNRMC,115628.200,A,2500.8285125,N,12132.4547148,E,0.02,314.86,260623,,,R,V*11
$GPHDT,226.174,T*31
$GNACCURACY,2.4*10
$GNGGA,115628.300,2500.8285125,N,12132.4547136,E,4,59,0.47,15.908,M,15.25,M,1,3335*40
$GNRMC,115628.300,A,2500.8285125,N,12132.4547136,E,0.02,314.86,260623,,,R,V*19
$GPHDT,,T*1B
$GNACCURACY,2.4*10
$GNGGA,115628.400,2500.8285120,N,12132.4547126,E,4,60,0.45,15.908,M,15.25,M,1,3335*4B
$GNRMC,115628.400,A,2500.8285120,N,12132.4547126,E,0.02,314.86,260623,,,R,V*1A
$GPHDT,226.252,T*36
$GNACCURACY,2.4*10
$GNGGA,115628.500,2500.8285108,N,12132.4547127,E,4,60,0.45,15.914,M,15.25,M,1,3335*4C
$GNRMC,115628.500,A,2500.8285108,N,12132.4547127,E,0.02,314.86,260623,,,R,V*10
$GPHDT,,T*1B
$GNACCURACY,2.4*10
$GNGGA,115628.600,2500.8285140,N,12132.4547167,E,4,61,0.45,15.915,M,15.25,M,0,3335*46
$GNRMC,115628.600,A,2500.8285140,N,12132.4547167,E,0.02,314.86,260623,,,R,V*1B
$GPHDT,226.078,T*3C
$GNACCURACY,2.4*10
$GNGGA,115628.700,2500.8285130,N,12132.4547122,E,4,61,0.45,15.922,M,15.25,M,0,3335*45
$GNRMC,115628.700,A,2500.8285130,N,12132.4547122,E,0.02,314.86,260623,,,R,V*1C
$GPHDT,,T*1B
$GNACCURACY,2.4*10
$GNGGA,115628.800,2500.8285133,N,12132.4547132,E,4,61,0.45,15.919,M,15.25,M,0,3335*40
$GNRMC,115628.800,A,2500.8285133,N,12132.4547132,E,0.02,314.86,260623,,,R,V*11
$GPHDT,225.896,T*37
$GNACCURACY,2.4*10
$GNGGA,115628.900,2500.8285078,N,12132.4547107,E,4,61,0.45,15.925,M,15.25,M,0,3335*46
$GNRMC,115628.900,A,2500.8285078,N,12132.4547107,E,0.02,314.86,260623,,,R,V*18
$GPHDT,,T*1B
$GNACCURACY,2.4*10
$GNGGA,115629.000,2500.8285099,N,12132.4547121,E,4,60,0.45,15.921,M,15.25,M,1,3335*41
$GNRMC,115629.000,A,2500.8285099,N,12132.4547121,E,0.02,314.86,260623,,,R,V*1B
$GPHDT,226.112,T*31
$GNACCURACY,2.4*10
$GNGGA,115629.100,2500.8285106,N,12132.4547117,E,4,60,0.45,15.915,M,15.25,M,1,3335*45
$GNRMC,115629.100,A,2500.8285106,N,12132.4547117,E,0.02,314.86,260623,,,R,V*18
$GPHDT,,T*1B
$GNGSA,A,3,196,23,199,24,18,194,10,12,195,25,32,,0.82,0.45,0.68,1*00
$GNGSA,A,3,73,80,71,86,85,,,,,,,,0.82,0.45,0.68,2*0E
$GNGSA,A,3,07,13,08,26,30,02,15,,,,,,0.82,0.45,0.68,3*0A
$GNGSA,A,3,08,38,13,39,16,06,46,19,09,36,20,35,0.82,0.45,0.68,4*09
$GNGSA,A,3,37,22,29,,,,,,,,,,0.82,0.45,0.68,4*0E
$GPGSV,4,1,15,196,76,075,33,23,64,348,31,199,60,167,38,24,59,034,38,1*6C
$GPGSV,4,2,15,18,49,224,45,41,38,242,41,194,36,135,43,15,30,061,21,1*52
$GPGSV,4,3,15,10,29,324,35,12,29,130,32,195,29,179,39,25,19,169,31,1*55
$GPGSV,4,4,15,32,15,281,28,05,10,128,,13,01,067,,1*59
$GPGSV,3,1,10,196,76,075,33,23,64,348,27,199,60,167,47,24,59,034,40,8*67
$GPGSV,3,2,10,18,49,224,45,194,36,135,46,10,29,324,36,195,29,179,44,8*63
$GPGSV,3,3,10,25,19,169,26,32,15,281,30,8*64
$GLGSV,2,1,08,73,54,149,41,80,44,053,22,70,42,031,,71,28,329,31,1*74
$GLGSV,2,2,08,86,27,284,20,85,24,232,34,74,17,185,17,69,08,088,,1*70
$GAGSV,3,1,10,07,46,318,33,13,46,219,42,08,42,038,17,26,36,294,25,7*79
$GAGSV,3,2,10,30,35,135,35,02,27,073,20,15,12,173,17,27,09,183,,7*74
$GAGSV,3,3,10,03,06,074,,33,01,327,,7*73
$GAGSV,2,1,06,07,46,318,35,13,46,219,42,08,42,038,33,26,36,294,34,1*79
$GAGSV,2,2,06,30,35,135,43,03,06,074,11,1*70
$GBGSV,4,1,15,08,86,334,40,38,80,162,43,13,73,319,41,39,68,300,40,1*7B
$GBGSV,4,2,15,16,65,275,40,06,64,270,40,46,62,083,27,19,55,002,31,1*71
$GBGSV,4,3,15,09,51,250,42,36,48,183,45,20,39,079,29,22,18,310,,1*7D
$GBGSV,4,4,15,35,17,256,42,37,14,041,29,29,11,203,17,1*46
$GBGSV,3,1,09,38,80,162,45,39,68,300,41,46,62,083,34,19,55,002,28,4*77
$GBGSV,3,2,09,36,48,183,44,22,18,310,16,35,17,256,30,37,14,041,27,4*77
$GBGSV,3,3,09,29,11,203,19,4*48
$GNACCURACY,2.4*10
$PAIRSAT,1,35,1,0,200,2,0,200,3,0,200,4,0,200,5,0,201,6,0,200,7,0,200,8,0,200,9,0,200,10,0,221,11,0,200,12,0,201,13,0,201,14,0,200,15,0,201,16,0,200,17,0,200,18,0,221,19,0,200,20,0,200,21,0,200,23,0,221,24,0,221,25,0,221,26,0,200,27,0,200,28,0,200,29,0,200,30,0,200,31,0,200,32,0,221,194,0,621,195,0,621,196,0,620,199,0,621*6B
$PAIRSAT,2,24,65,0,200,66,0,200,67,0,200,68,0,200,69,0,200,70,0,200,71,0,201,72,0,200,73,0,201,74,0,200,75,0,200,76,0,200,77,0,200,78,0,200,79,0,201,80,0,201,81,0,200,82,0,200,83,0,200,84,0,200,85,0,201,86,0,201,87,0,200,88,0,200*7A
$PAIRSAT,3,23,2,0,1221,3,0,1221,4,0,1200,5,0,200,7,0,1221,8,0,1221,9,0,1200,10,0,1200,11,0,1200,12,0,1200,13,0,1221,15,0,1221,19,0,1200,21,0,1200,24,0,1200,25,0,1200,26,0,1221,27,0,1200,30,0,1221,31,0,1200,33,0,1200,34,0,1200,36,0,1200*6A
$PAIRSAT,4,50,1,0,200,2,0,200,3,0,200,4,0,200,5,0,200,6,0,201,7,0,200,8,0,201,9,0,201,10,0,200,11,0,200,12,0,200,13,0,201,14,0,200,15,0,200,16,0,201,19,0,621,20,0,621,21,0,600,22,0,621,23,0,600,24,0,600,25,0,600,26,0,600,27,0,600,28,0,600,29,0,621,30,0,600,31,0,200,32,0,600,33,0,600,34,0,600,35,0,621,36,0,621,37,0,621,38,0,621,39,0,621,40,0,600,41,0,600,42,0,600,43,0,600,44,0,600,45,0,600,46,0,621,56,0,200,57,0,200,58,0,200,59,0,600,60,0,600,61,0,600*41
$PAIRDGP,9,5,10,12,15,18,23,24,25,32*5B
$GNGGA,115629.200,2500.8285069,N,12132.4547087,E,4,60,0.45,15.934,M,15.25,M,1,3335*45
$GNRMC,115629.200,A,2500.8285069,N,12132.4547087,E,0.02,314.86,260623,,,R,V*1B
$GPHDT,225.881,T*31
$GNACCURACY,2.4*10
$GNGGA,115629.300,2500.8285101,N,12132.4547124,E,4,60,0.45,15.920,M,15.25,M,1,3335*46
$GNRMC,115629.300,A,2500.8285101,N,12132.4547124,E,0.02,314.86,260623,,,R,V*1D
$GPHDT,,T*1B
$GNACCURACY,2.4*10
$GNGGA,115629.400,2500.8285084,N,12132.4547096,E,4,60,0.45,15.933,M,15.25,M,1,3335*47
$GNRMC,115629.400,A,2500.8285084,N,12132.4547096,E,0.02,314.86,260623,,,R,V*1E
$GPHDT,225.846,T*3A
$GNACCURACY,2.4*10
$GNGGA,115629.500,2500.8285125,N,12132.4547159,E,4,60,0.45,15.909,M,15.25,M,1,3335*47
$GNRMC,115629.500,A,2500.8285125,N,12132.4547159,E,0.02,314.86,260623,,,R,V*17
$GPHDT,,T*1B
$GNACCURACY,2.4*10
$GNGGA,115629.600,2500.8285087,N,12132.4547146,E,4,60,0.45,15.925,M,15.25,M,1,3335*4D
$GNRMC,115629.600,A,2500.8285087,N,12132.4547146,E,0.02,314.86,260623,,,R,V*13
$GPHDT,226.455,T*37
$GNACCURACY,2.4*10
$GNGGA,115629.700,2500.8285125,N,12132.4547132,E,4,60,0.45,15.919,M,15.25,M,1,3335*49
$GNRMC,115629.700,A,2500.8285125,N,12132.4547132,E,0.02,314.86,260623,,,R,V*18
$GPHDT,,T*1B
$GNACCURACY,2.4*10
$GNGGA,115629.800,2500.8285088,N,12132.4547099,E,4,60,0.45,15.937,M,15.25,M,1,3335*4C
$GNRMC,115629.800,A,2500.8285088,N,12132.4547099,E,0.02,314.86,260623,,,R,V*11
$GPHDT,226.979,T*34
$GNACCURACY,2.4*10
$GNGGA,115629.900,2500.8285140,N,12132.4547134,E,4,60,0.45,15.914,M,15.25,M,1,3335*4F
$GNRMC,115629.900,A,2500.8285140,N,12132.4547134,E,0.02,314.86,260623,,,R,V*13
$GPHDT,,T*1B
$GNACCURACY,2.4*10
$GNGGA,115630.000,2500.8285110,N,12132.4547122,E,4,60,0.45,15.913,M,15.25,M,2,3335*48
$GNRMC,115630.000,A,2500.8285110,N,12132.4547122,E,0.01,314.86,260623,,,R,V*13
$GPHDT,226.441,T*32
$GNACCURACY,2.4*10
$GNGGA,115630.100,2500.8285092,N,12132.4547088,E,4,60,0.45,15.915,M,15.25,M,2,3335*45
$GNRMC,115630.100,A,2500.8285092,N,12132.4547088,E,0.01,314.86,260623,,,R,V*18
$GPHDT,,T*1B
$GNGSA,A,3,196,23,199,24,18,194,12,10,195,25,32,,0.82,0.45,0.68,1*00
$GNGSA,A,3,73,80,71,86,85,,,,,,,,0.82,0.45,0.68,2*0E
$GNGSA,A,3,07,13,08,26,30,02,15,,,,,,0.82,0.45,0.68,3*0A
$GNGSA,A,3,08,38,13,39,16,06,46,19,09,36,20,35,0.82,0.45,0.68,4*09
$GNGSA,A,3,37,22,29,,,,,,,,,,0.82,0.45,0.68,4*0E
$GPGSV,4,1,16,196,76,075,33,23,64,348,30,199,60,167,38,24,59,034,38,1*6E
$GPGSV,4,2,16,18,49,224,45,41,38,242,41,194,36,135,43,15,30,061,25,1*55
$GPGSV,4,3,16,12,29,130,33,10,29,324,36,195,29,179,39,25,19,169,30,1*55
$GPGSV,4,4,16,32,15,281,28,05,10,128,17,28,05,222,,13,01,067,,1*61
$GPGSV,3,1,10,196,76,075,33,23,64,348,23,199,60,167,47,24,59,034,39,8*6D
$GPGSV,3,2,10,18,49,224,45,194,36,135,46,10,29,324,36,195,29,179,44,8*63
$GPGSV,3,3,10,25,19,169,29,32,15,281,30,8*6B
$GLGSV,2,1,08,73,54,149,41,80,44,053,21,70,42,031,,71,28,329,33,1*75
$GLGSV,2,2,08,86,27,284,23,85,24,232,34,74,17,185,15,69,08,088,,1*71
$GAGSV,3,1,10,07,46,318,34,13,46,219,42,08,42,038,16,26,36,294,24,7*7E
$GAGSV,3,2,10,30,35,135,35,02,27,073,19,15,12,173,17,27,09,183,,7*7E
$GAGSV,3,3,10,03,06,074,,33,01,327,,7*73
$GAGSV,2,1,05,07,46,318,35,13,46,219,42,08,42,038,33,26,36,294,34,1*7A
$GAGSV,2,2,05,30,35,135,43,1*45
$GBGSV,4,1,15,08,86,334,40,38,80,162,43,13,73,319,41,39,68,300,40,1*7B
$GBGSV,4,2,15,16,65,275,39,06,64,270,40,46,62,083,26,19,55,002,30,1*7F
$GBGSV,4,3,15,09,51,250,42,36,48,183,45,20,39,079,29,22,18,310,,1*7D
$GBGSV,4,4,15,35,17,256,42,37,14,041,29,29,11,203,17,1*46
$GBGSV,3,1,09,38,80,162,45,39,68,300,41,46,62,083,34,19,55,002,27,4*78
$GBGSV,3,2,09,36,48,183,44,22,18,310,12,35,17,256,30,37,14,041,25,4*71
$GBGSV,3,3,09,29,11,203,19,4*48
$GNACCURACY,2.4*10
$PAIRSAT,1,35,1,0,200,2,0,200,3,0,200,4,0,200,5,0,201,6,0,200,7,0,200,8,0,200,9,0,200,10,0,221,11,0,200,12,0,201,13,0,201,14,0,200,15,0,201,16,0,200,17,0,200,18,0,221,19,0,200,20,0,200,21,0,200,23,0,221,24,0,221,25,0,221,26,0,200,27,0,200,28,0,200,29,0,200,30,0,200,31,0,200,32,0,221,194,0,621,195,0,621,196,0,620,199,0,621*6B
$PAIRSAT,2,24,65,0,200,66,0,200,67,0,200,68,0,200,69,0,200,70,0,200,71,0,201,72,0,200,73,0,201,74,0,200,75,0,200,76,0,200,77,0,200,78,0,200,79,0,201,80,0,201,81,0,200,82,0,200,83,0,200,84,0,200,85,0,201,86,0,201,87,0,200,88,0,200*7A
$PAIRSAT,3,23,2,0,1221,3,0,1221,4,0,1200,5,0,200,7,0,1221,8,0,1221,9,0,1200,10,0,1200,11,0,1200,12,0,1200,13,0,1221,15,0,1221,19,0,1200,21,0,1200,24,0,1200,25,0,1200,26,0,1221,27,0,1200,30,0,1221,31,0,1200,33,0,1200,34,0,1200,36,0,1200*6A
$PAIRSAT,4,50,1,0,200,2,0,200,3,0,200,4,0,200,5,0,200,6,0,201,7,0,200,8,0,201,9,0,201,10,0,200,11,0,200,12,0,200,13,0,201,14,0,200,15,0,200,16,0,201,19,0,621,20,0,621,21,0,600,22,0,621,23,0,600,24,0,600,25,0,600,26,0,600,27,0,600,28,0,600,29,0,621,30,0,600,31,0,200,32,0,600,33,0,600,34,0,600,35,0,621,36,0,621,37,0,621,38,0,621,39,0,621,40,0,600,41,0,600,42,0,600,43,0,600,44,0,600,45,0,600,46,0,621,56,0,200,57,0,200,58,0,200,59,0,600,60,0,600,61,0,600*41
$PAIRDGP,10,5,10,12,15,18,23,24,25,28,32*45
$GNGGA,115630.200,2500.8285136,N,12132.4547096,E,4,60,0.45,15.911,M,15.25,M,2,3335*42
$GNRMC,115630.200,A,2500.8285136,N,12132.4547096,E,0.01,314.86,260623,,,R,V*1B
$GPHDT,226.134,T*35
$GNACCURACY,2.4*10
$GNGGA,115630.300,2500.8285124,N,12132.4547100,E,4,61,0.45,15.921,M,15.25,M,2,3335*4C
$GNRMC,115630.300,A,2500.8285124,N,12132.4547100,E,0.01,314.86,260623,,,R,V*17
$GPHDT,,T*1B
$GNACCURACY,2.4*10
$GNGGA,115630.400,2500.8285121,N,12132.4547020,E,4,61,0.45,15.946,M,15.25,M,2,3335*4C
$GNRMC,115630.400,A,2500.8285121,N,12132.4547020,E,0.01,314.86,260623,,,R,V*16
$GPHDT,226.137,T*36
$GNACCURACY,2.4*10
$GNGGA,115630.500,2500.8285122,N,12132.4547111,E,4,62,0.45,15.926,M,15.25,M,2,3335*48
$GNRMC,115630.500,A,2500.8285122,N,12132.4547111,E,0.01,314.86,260623,,,R,V*17
$GPHDT,,T*1B
$GNACCURACY,2.4*10
$GNGGA,115630.600,2500.8285123,N,12132.4547100,E,4,62,0.45,15.934,M,15.25,M,2,3335*49
$GNRMC,115630.600,A,2500.8285123,N,12132.4547100,E,0.01,314.86,260623,,,R,V*15
$GPHDT,226.242,T*37
$GNACCURACY,2.4*10
$GNGGA,115630.700,2500.8285126,N,12132.4547117,E,4,62,0.45,15.923,M,15.25,M,2,3335*4D
$GNRMC,115630.700,A,2500.8285126,N,12132.4547117,E,0.01,314.86,260623,,,R,V*17
$GPHDT,,T*1B
$GNACCURACY,2.4*10
$GNGGA,115630.800,2500.8285090,N,12132.4547069,E,4,62,0.45,15.941,M,15.25,M,2,3335*42
$GNRMC,115630.800,A,2500.8285090,N,12132.4547069,E,0.01,314.86,260623,,,R,V*1C
$GPHDT,225.895,T*34
$GNACCURACY,2.4*10
$GNGGA,115630.900,2500.8285092,N,12132.4547082,E,4,63,0.44,15.928,M,15.25,M,2,3335*4B
$GNRMC,115630.900,A,2500.8285092,N,12132.4547082,E,0.01,314.86,260623,,,R,V*1A
$GPHDT,,T*1B
$GNACCURACY,2.4*10
$GNGGA,115631.000,2500.8285054,N,12132.4547053,E,4,63,0.44,15.935,M,15.25,M,3,3335*48
$GNRMC,115631.000,A,2500.8285054,N,12132.4547053,E,0.01,314.86,260623,,,R,V*14
$GPHDT,225.933,T*39
$GNACCURACY,2.4*10
$GNGGA,115631.100,2500.8285082,N,12132.4547108,E,4,63,0.44,15.927,M,15.25,M,3,3335*4E
$GNRMC,115631.100,A,2500.8285082,N,12132.4547108,E,0.01,314.86,260623,,,R,V*11
$GPHDT,,T*1B
$GNGSA,A,3,196,23,199,24,18,194,15,12,10,195,25,32,0.80,0.45,0.67,1*09
$GNGSA,A,3,73,80,71,86,85,,,,,,,,0.80,0.45,0.67,2*03
$GNGSA,A,3,07,13,08,26,30,02,15,,,,,,0.80,0.45,0.67,3*07
$GNGSA,A,3,08,38,13,39,16,06,46,19,09,36,20,35,0.80,0.45,0.67,4*04
$GNGSA,A,3,37,22,29,,,,,,,,,,0.80,0.45,0.67,4*03
$GPGSV,4,1,16,196,76,075,33,23,64,348,30,199,60,167,38,24,59,034,35,1*63
$GPGSV,4,2,16,18,49,224,45,41,38,242,41,194,36,135,43,15,30,061,25,1*55
$GPGSV,4,3,16,12,29,130,33,10,29,324,40,195,29,179,39,25,19,169,31,1*55
$GPGSV,4,4,16,32,15,281,25,05,10,128,17,28,05,222,,13,01,067,,1*6C
$GPGSV,3,1,10,196,76,075,32,23,64,348,25,199,60,167,47,24,59,034,37,8*64
$GPGSV,3,2,10,18,49,224,45,194,36,135,46,10,29,324,36,195,29,179,43,8*64
$GPGSV,3,3,10,25,19,169,27,32,15,281,29,8*6D
$GLGSV,2,1,08,73,54,149,41,80,44,053,21,70,42,031,,71,28,329,37,1*71
$GLGSV,2,2,08,86,27,284,22,85,24,232,35,74,17,185,15,69,08,088,,1*71
$GAGSV,3,1,10,07,46,318,31,13,46,219,42,08,42,038,17,26,36,294,25,7*7B
$GAGSV,3,2,10,30,35,135,35,02,27,073,19,15,12,173,16,27,09,183,,7*7F
$GAGSV,3,3,10,03,06,074,,33,01,327,,7*73
$GAGSV,2,1,06,07,46,318,38,13,46,219,42,08,42,038,33,26,36,294,32,1*72
$GAGSV,2,2,06,30,35,135,43,02,27,073,20,1*77
$GBGSV,4,1,15,08,86,334,40,38,80,162,43,13,73,319,41,39,68,300,40,1*7B
$GBGSV,4,2,15,16,65,275,39,06,64,270,40,46,62,083,27,19,55,002,26,1*79
$GBGSV,4,3,15,09,51,250,42,36,48,183,45,20,39,079,27,22,18,310,,1*73
$GBGSV,4,4,15,35,17,256,42,37,14,041,29,29,11,203,18,1*49
$GBGSV,3,1,09,38,80,162,45,39,68,300,41,46,62,083,33,19,55,002,27,4*7F
$GBGSV,3,2,09,36,48,183,44,22,18,310,09,35,17,256,31,37,14,041,24,4*7B
$GBGSV,3,3,09,29,11,203,19,4*48
$GNACCURACY,2.4*10
$PAIRSAT,1,35,1,0,200,2,0,200,3,0,200,4,0,200,5,0,201,6,0,200,7,0,200,8,0,200,9,0,200,10,0,221,11,0,200,12,0,201,13,0,201,14,0,200,15,0,201,16,0,200,17,0,200,18,0,221,19,0,200,20,0,200,21,0,200,23,0,221,24,0,221,25,0,221,26,0,200,27,0,200,28,0,200,29,0,200,30,0,200,31,0,200,32,0,221,194,0,621,195,0,621,196,0,620,199,0,621*6B
$PAIRSAT,2,24,65,0,200,66,0,200,67,0,200,68,0,200,69,0,200,70,0,200,71,0,201,72,0,200,73,0,201,74,0,200,75,0,200,76,0,200,77,0,200,78,0,200,79,0,201,80,0,201,81,0,200,82,0,200,83,0,200,84,0,200,85,0,201,86,0,201,87,0,200,88,0,200*7A
$PAIRSAT,3,23,2,0,1221,3,0,1221,4,0,1200,5,0,200,7,0,1221,8,0,1221,9,0,1200,10,0,1200,11,0,1200,12,0,1200,13,0,1221,15,0,1221,19,0,1200,21,0,1200,24,0,1200,25,0,1200,26,0,1221,27,0,1200,30,0,1221,31,0,1200,33,0,1200,34,0,1200,36,0,1200*6A
$PAIRSAT,4,50,1,0,200,2,0,200,3,0,200,4,0,200,5,0,200,6,0,201,7,0,200,8,0,201,9,0,201,10,0,200,11,0,200,12,0,200,13,0,201,14,0,200,15,0,200,16,0,201,19,0,621,20,0,621,21,0,600,22,0,621,23,0,600,24,0,600,25,0,600,26,0,600,27,0,600,28,0,600,29,0,621,30,0,600,31,0,200,32,0,600,33,0,600,34,0,600,35,0,621,36,0,621,37,0,621,38,0,621,39,0,621,40,0,600,41,0,600,42,0,600,43,0,600,44,0,600,45,0,600,46,0,621,56,0,200,57,0,200,58,0,200,59,0,600,60,0,600,61,0,600*41
$PAIRDGP,10,5,10,12,15,18,23,24,25,28,32*45
$GNGGA,115631.200,2500.8285072,N,12132.4547094,E,4,62,0.45,15.932,M,15.25,M,3,3335*42
$GNRMC,115631.200,A,2500.8285072,N,12132.4547094,E,0.00,314.86,260623,,,R,V*18
$GPHDT,226.754,T*35
$GNACCURACY,2.4*10
$GNGGA,115631.300,2500.8285101,N,12132.4547098,E,4,64,0.44,15.931,M,15.25,M,3,3335*4E
$GNRMC,115631.300,A,2500.8285101,N,12132.4547098,E,0.00,314.86,260623,,,R,V*10
$GPHDT,,T*1B
$GNACCURACY,2.4*10
$GNGGA,115631.400,2500.8285085,N,12132.4547104,E,4,63,0.45,15.938,M,15.25,M,3,3335*4F
$GNRMC,115631.400,A,2500.8285085,N,12132.4547104,E,0.00,314.86,260623,,,R,V*1E
$GPHDT,226.859,T*37
$GNACCURACY,2.4*10
$GNGGA,115631.500,2500.8285080,N,12132.4547078,E,4,63,0.45,15.932,M,15.25,M,3,3335*4B
$GNRMC,115631.500,A,2500.8285080,N,12132.4547078,E,0.00,314.86,260623,,,R,V*10
$GPHDT,,T*1B
$GNACCURACY,2.4*10
$GNGGA,115631.600,2500.8285095,N,12132.4547110,E,4,63,0.45,15.920,M,15.25,M,3,3335*40
$GNRMC,115631.600,A,2500.8285095,N,12132.4547110,E,0.00,314.86,260623,,,R,V*18
$GPHDT,226.207,T*36
$GNACCURACY,2.4*10
$GNGGA,115631.700,2500.8285089,N,12132.4547139,E,4,63,0.45,15.923,M,15.25,M,3,3335*44
$GNRMC,115631.700,A,2500.8285089,N,12132.4547139,E,0.00,314.86,260623,,,R,V*1F
$GPHDT,,T*1B
