$FW : RTK35X,V1.1X0314AS,Lib20210517,1*54
$Tool : LOCOSYS , GNSS Firebird , v1.0.0.19*39
$---------------------------------------------------*2D
,0,200,82,0,200,83,0,200,84,0,200,85,0,201,86,0,201,87,0,200,88,0,200*7A
$PAIRSAT,3,23,2,0,1221,3,0,1221,4,0,1200,5,0,200,7,0,1221,8,0,1221,9,0,1200,10,0,1200,11,0,1200,12,0,1200,13,0,1221,15,0,1221,19,0,1200,21,0,1200,24,0,1200,25,0,1200,26,0,1221,27,0,1200,30,0,1221,31,0,1200,33,0,1200,34,0,1200,36,0,1200*6A
$PAIRSAT,4,50,1,0,200,2,0,200,3,0,200,4,0,200,5,0,200,6,0,201,7,0,200,8,0,201,9,0,201,10,0,200,11,0,200,12,0,200,13,0,201,14,0,200,15,0,200,16,0,201,19,0,621,20,0,621,21,0,600,22,0,621,23,0,600,24,0,600,25,0,600,26,0,600,27,0,600,28,0,600,29,0,621,30,0,600,31,0,200,32,0,600,33,0,600,34,0,600,35,0,621,36,0,621,37,0,621,38,0,621,39,0,621,40,0,600,41,0,600,42,0,600,43,0,600,44,0,600,45,0,600,46,0,621,56,0,200,57,0,200,58,0,200,59,0,600,60,0,600,61,0,600*41
$PAIRDGP,10,5,10,12,15,18,23,24,25,28,32*45
$GNGGA,115715.200,2500.8273195,N,12132.4536203,E,2,60,0.47,17.396,M,15.25,M,7,3335*4A
$GNRMC,115715.200,A,2500.8273195,N,12132.4536203,E,0.03,314.86,260623,,,D,V*01
$GPHDT,,T*1B
$GNACCURACY,2.5*11
$GNGGA,115715.300,2500.8273255,N,12132.4536143,E,2,60,0.47,17.401,M,15.25,M,7,3335*4A
$GNRMC,115715.300,A,2500.8273255,N,12132.4536143,E,0.03,314.86,260623,,,D,V*08
$GPHDT,,T*1B
$GNACCURACY,2.5*11
$GNGGA,115715.400,2500.8273255,N,12132.4536023,E,2,60,0.47,17.407,M,15.25,M,7,3335*4C
$GNRMC,115715.400,A,2500.8273255,N,12132.4536023,E,0.03,314.86,260623,,,D,V*08
$GPHDT,,T*1B
$GNACCURACY,2.5*11
$GNGGA,115715.500,2500.8273315,N,12132.4535963,E,2,61,0.45,17.415,M,15.25,M,7,3335*46
$GNRMC,115715.500,A,2500.8273315,N,12132.4535963,E,0.03,314.86,260623,,,D,V*02
$GPHDT,,T*1B
$GNACCURACY,2.5*11
$GNGGA,115715.600,2500.8273315,N,12132.4535843,E,2,61,0.45,17.421,M,15.25,M,7,3335*41
$GNRMC,115715.600,A,2500.8273315,N,12132.4535843,E,0.03,314.86,260623,,,D,V*02
$GPHDT,,T*1B
$GNACCURACY,2.5*11
$GNGGA,115715.700,2500.8273375,N,12132.4535723,E,2,61,0.45,17.426,M,15.25,M,7,3335*48
$GNRMC,115715.700,A,2500.8273375,N,12132.4535723,E,0.03,314.86,260623,,,D,V*0C
$GPHDT,,T*1B
$GNACCURACY,2.5*11
$GNGGA,115715.800,2500.8273375,N,12132.4535663,E,2,60,0.45,17.430,M,15.25,M,7,3335*44
$GNRMC,115715.800,A,2500.8273375,N,12132.4535663,E,0.03,314.86,260623,,,D,V*06
$GPHDT,,T*1B
$GNACCURACY,2.5*11
$GNGGA,115715.900,2500.8273375,N,12132.4535603,E,2,60,0.45,17.434,M,15.25,M,7,3335*47
$GNRMC,115715.900,A,2500.8273375,N,12132.4535603,E,0.03,314.86,260623,,,D,V*01
$GPHDT,,T*1B
$GNACCURACY,2.5*11
$GNGGA,115716.000,2500.8273375,N,12132.4535543,E,2,60,0.45,17.438,M,15.25,M,8,3335*49
$GNRMC,115716.000,A,2500.8273375,N,12132.4535543,E,0.03,314.86,260623,,,D,V*0C
$GPHDT,,T*1B
$GNACCURACY,2.5*11
$GNGGA,115716.100,2500.8273375,N,12132.4535483,E,2,60,0.45,17.442,M,15.25,M,8,3335*48
$GNRMC,115716.100,A,2500.8273375,N,12132.4535483,E,0.03,314.86,260623,,,D,V*00
$GPHDT,,T*1B
$GNGSA,A,3,196,23,199,24,18,194,15,12,10,195,25,32,0.83,0.45,0.70,1*0C
$GNGSA,A,3,73,80,71,86,85,,,,,,,,0.83,0.45,0.70,2*06
$GNGSA,A,3,13,07,08,26,30,02,15,,,,,,0.83,0.45,0.70,3*02
$GNGSA,A,3,08,38,13,39,16,06,46,19,09,36,20,22,0.83,0.45,0.70,4*07
$GNGSA,A,3,35,37,,,,,,,,,,,0.83,0.45,0.70,4*0B
$GPGSV,4,1,16,196,76,075,35,23,64,348,30,199,60,167,32,24,59,034,36,1*6C
$GPGSV,4,2,16,18,49,224,43,41,38,242,37,194,36,135,38,15,30,061,28,1*53
$GPGSV,4,3,16,12,29,129,30,10,29,324,39,195,29,179,41,25,19,169,28,1*57
$GPGSV,4,4,16,32,15,281,17,05,09,128,16,28,05,223,,13,01,067,,1*65
$GPGSV,3,1,10,196,76,075,33,23,64,348,36,199,60,167,42,24,59,034,38,8*6D
$GPGSV,3,2,10,18,49,224,45,194,36,135,38,10,29,324,35,195,29,179,41,8*6C
$GPGSV,3,3,10,25,19,169,29,32,15,281,28,8*62
$GLGSV,2,1,05,73,55,149,37,80,44,052,28,71,28,329,36,86,27,283,20,1*76
$GLGSV,2,2,05,85,24,231,31,1*44
$GAGSV,3,1,09,13,46,219,45,07,46,318,35,08,42,038,21,26,36,294,35,7*74
$GAGSV,3,2,09,30,35,135,35,02,27,073,25,15,12,173,23,27,09,183,16,7*79
$GAGSV,3,3,09,03,05,074,,7*4F
$GAGSV,2,1,06,13,46,219,46,07,46,318,41,08,42,038,32,26,36,294,33,1*78
$GAGSV,2,2,06,30,35,135,36,15,12,173,18,1*7F
$GBGSV,4,1,15,08,86,332,39,38,80,163,41,13,73,319,44,39,68,300,44,1*71
$GBGSV,4,2,15,16,65,276,32,06,64,271,36,46,62,082,28,19,55,002,37,1*7F
$GBGSV,4,3,15,09,51,250,29,36,48,183,34,20,39,080,29,22,18,311,20,1*73
$GBGSV,4,4,15,35,16,256,28,37,14,041,24,29,11,203,14,1*45
$GBGSV,2,1,07,38,80,163,43,39,68,300,41,46,62,082,37,19,55,002,33,4*77
$GBGSV,2,2,07,36,48,183,39,20,39,080,13,35,16,256,37,4*4B
$GNACCURACY,2.5*11
$PAIRSAT,1,35,1,0,200,2,0,200,3,0,200,4,0,200,5,0,201,6,0,200,7,0,200,8,0,200,9,0,200,10,0,221,11,0,200,12,0,201,13,0,201,14,0,200,15,0,201,16,0,200,17,0,200,18,0,221,19,0,200,20,0,200,21,0,200,23,0,221,24,0,221,25,0,221,26,0,200,27,0,200,28,0,200,29,0,200,30,0,200,31,0,200,32,0,221,194,0,621,195,0,621,196,0,620,199,0,621*6B
$PAIRSAT,2,24,65,0,200,66,0,200,67,0,200,68,0,200,69,0,200,70,0,200,71,0,201,72,0,200,73,0,201,74,0,200,75,0,200,76,0,200,77,0,200,78,0,200,79,0,201,80,0,201,81,0,200,82,0,200,83,0,200,84,0,200,85,0,201,86,0,201,87,0,200,88,0,200*7A
$PAIRSAT,3,23,2,0,1221,3,0,1221,4,0,1200,5,0,200,7,0,1221,8,0,1221,9,0,1200,10,0,1200,11,0,1200,12,0,1200,13,0,1221,15,0,1221,19,0,1200,21,0,1200,24,0,1200,25,0,1200,26,0,1221,27,0,1200,30,0,1221,31,0,1200,33,0,1200,34,0,1200,36,0,1200*6A
$PAIRSAT,4,50,1,0,200,2,0,200,3,0,200,4,0,200,5,0,200,6,0,201,7,0,200,8,0,201,9,0,201,10,0,200,11,0,200,12,0,200,13,0,201,14,0,200,15,0,200,16,0,201,19,0,621,20,0,621,21,0,600,22,0,621,23,0,600,24,0,600,25,0,600,26,0,600,27,0,600,28,0,600,29,0,621,30,0,600,31,0,200,32,0,600,33,0,600,34,0,600,35,0,621,36,0,621,37,0,621,38,0,621,39,0,621,40,0,600,41,0,600,42,0,600,43,0,600,44,0,600,45,0,600,46,0,621,56,0,200,57,0,200,58,0,200,59,0,600,60,0,600,61,0,600*41
$PAIRDGP,10,5,10,12,15,18,23,24,25,28,32*45
$GNGGA,115716.200,2500.8273375,N,12132.4535363,E,2,60,0.45,17.450,M,15.25,M,8,3335*41
$GNRMC,115716.200,A,2500.8273375,N,12132.4535363,E,0.03,314.86,260623,,,D,V*0A
$GPHDT,,T*1B
$GNACCURACY,2.5*11
$GNGGA,115716.300,2500.8273375,N,12132.4535303,E,2,61,0.45,17.453,M,15.25,M,8,3335*44
$GNRMC,115716.300,A,2500.8273375,N,12132.4535303,E,0.04,314.86,260623,,,D,V*0A
$GPHDT,,T*1B
$GNACCURACY,2.5*11
$GNGGA,115716.400,2500.8273435,N,12132.4535303,E,2,61,0.45,17.464,M,15.25,M,8,3335*44
$GNRMC,115716.400,A,2500.8273435,N,12132.4535303,E,0.03,314.86,260623,,,D,V*09
$GPHDT,,T*1B
$GNACCURACY,2.5*11
$GNGGA,115716.500,2500.8273435,N,12132.4535303,E,2,61,0.45,17.472,M,15.25,M,8,3335*42
$GNRMC,115716.500,A,2500.8273435,N,12132.4535303,E,0.03,314.86,260623,,,D,V*08
$GPHDT,,T*1B
$GNACCURACY,2.5*11
$GNGGA,115716.600,2500.8273435,N,12132.4535243,E,2,62,0.45,17.483,M,15.25,M,8,3335*49
$GNRMC,115716.600,A,2500.8273435,N,12132.4535243,E,0.03,314.86,260623,,,D,V*0E
$GPHDT,,T*1B
$GNACCURACY,2.5*11
$GNGGA,115716.700,2500.8273435,N,12132.4535243,E,2,62,0.45,17.496,M,15.25,M,8,3335*4C
$GNRMC,115716.700,A,2500.8273435,N,12132.4535243,E,0.03,314.86,260623,,,D,V*0F
$GPHDT,,T*1B
$GNACCURACY,2.5*11
$GNGGA,115716.800,2500.8273435,N,12132.4535183,E,2,61,0.45,17.501,M,15.25,M,8,3335*40
$GNRMC,115716.800,A,2500.8273435,N,12132.4535183,E,0.03,314.86,260623,,,D,V*0F
$GPHDT,,T*1B
$GNACCURACY,2.5*11
$GNGGA,115716.900,2500.8273435,N,12132.4535063,E,2,61,0.45,17.505,M,15.25,M,8,3335*4A
$GNRMC,115716.900,A,2500.8273435,N,12132.4535063,E,0.03,314.86,260623,,,D,V*01
$GPHDT,,T*1B
$GNACCURACY,2.5*11
$GNGGA,115717.000,2500.8273435,N,12132.4535063,E,2,61,0.45,17.517,M,15.25,M,9,3335*40
$GNRMC,115717.000,A,2500.8273435,N,12132.4535063,E,0.03,314.86,260623,,,D,V*09
$GPHDT,,T*1B
$GNACCURACY,2.5*11
$GNGGA,115717.100,2500.8273495,N,12132.4535063,E,2,61,0.45,17.527,M,15.25,M,9,3335*48
$GNRMC,115717.100,A,2500.8273495,N,12132.4535063,E,0.03,314.86,260623,,,D,V*02
$GPHDT,,T*1B
$GNGSA,A,3,196,23,199,24,18,194,15,12,195,10,25,32,0.83,0.45,0.70,1*0C
$GNGSA,A,3,73,80,71,86,85,,,,,,,,0.83,0.45,0.70,2*06
$GNGSA,A,3,07,13,08,26,30,02,15,,,,,,0.83,0.45,0.70,3*02
$GNGSA,A,3,08,38,13,39,16,06,46,19,09,36,20,22,0.83,0.45,0.70,4*07
$GNGSA,A,3,35,37,,,,,,,,,,,0.83,0.45,0.70,4*0B
$GPGSV,4,1,16,196,76,075,35,23,64,348,30,199,60,167,32,24,59,034,36,1*6C
$GPGSV,4,2,16,18,49,224,43,41,38,242,36,194,36,135,38,15,30,061,30,1*5B
$GPGSV,4,3,16,12,29,129,30,195,29,179,41,10,29,324,40,25,19,169,25,1*54
$GPGSV,4,4,16,32,15,281,17,05,09,128,17,28,05,223,,13,01,067,,1*64
$GPGSV,3,1,10,196,76,075,34,23,64,348,36,199,60,167,43,24,59,034,39,8*6A
$GPGSV,3,2,10,18,49,224,44,194,36,135,40,10,29,324,35,195,29,179,41,8*62
$GPGSV,3,3,10,25,19,169,31,32,15,281,30,8*62
$GLGSV,2,1,05,73,55,149,36,80,44,052,29,71,28,329,36,86,27,283,19,1*7C
$GLGSV,2,2,05,85,24,231,31,1*44
$GAGSV,3,1,10,07,46,318,36,13,46,219,45,08,42,038,20,26,36,294,35,7*7E
$GAGSV,3,2,10,30,35,135,35,02,27,072,25,15,12,173,21,27,09,183,17,7*73
$GAGSV,3,3,10,03,05,074,,33,01,327,,7*70
$GAGSV,2,1,06,07,46,318,42,13,46,219,46,08,42,038,32,26,36,294,35,1*7D
$GAGSV,2,2,06,30,35,135,37,02,27,072,22,1*77
$GBGSV,4,1,15,08,86,332,40,38,80,163,41,13,73,319,44,39,68,300,44,1*7F
$GBGSV,4,2,15,16,65,276,34,06,64,271,36,46,62,082,29,19,55,002,37,1*78
$GBGSV,4,3,15,09,51,250,28,36,48,183,34,20,39,080,29,22,18,311,18,1*79
$GBGSV,4,4,15,35,16,256,28,37,14,041,23,29,11,203,13,1*45
$GBGSV,2,1,08,38,80,163,44,39,68,300,43,46,62,082,37,19,55,002,34,4*7A
$GBGSV,2,2,08,36,48,183,38,20,39,080,14,35,16,256,37,37,14,041,18,4*7F
$GNACCURACY,2.5*11
$PAIRSAT,1,35,1,0,200,2,0,200,3,0,200,4,0,200,5,0,201,6,0,200,7,0,200,8,0,200,9,0,200,10,0,221,11,0,200,12,0,201,13,0,201,14,0,200,15,0,201,16,0,200,17,0,200,18,0,221,19,0,200,20,0,200,21,0,200,23,0,221,24,0,221,25,0,221,26,0,200,27,0,200,28,0,200,29,0,200,30,0,200,31,0,200,32,0,221,194,0,621,195,0,621,196,0,620,199,0,621*6B
$PAIRSAT,2,24,65,0,200,66,0,200,67,0,200,68,0,200,69,0,200,70,0,200,71,0,201,72,0,200,73,0,201,74,0,200,75,0,200,76,0,200,77,0,200,78,0,200,79,0,201,80,0,201,81,0,200,82,0,200,83,0,200,84,0,200,85,0,201,86,0,201,87,0,200,88,0,200*7A
$PAIRSAT,3,23,2,0,1221,3,0,1221,4,0,1200,5,0,200,7,0,1221,8,0,1221,9,0,1200,10,0,1200,11,0,1200,12,0,1200,13,0,1221,15,0,1221,19,0,1200,21,0,1200,24,0,1200,25,0,1200,26,0,1221,27,0,1200,30,0,1221,31,0,1200,33,0,1200,34,0,1200,36,0,1200*6A
$PAIRSAT,4,50,1,0,200,2,0,200,3,0,200,4,0,200,5,0,200,6,0,201,7,0,200,8,0,201,9,0,201,10,0,200,11,0,200,12,0,200,13,0,201,14,0,200,15,0,200,16,0,201,19,0,621,20,0,621,21,0,600,22,0,621,23,0,600,24,0,600,25,0,600,26,0,600,27,0,600,28,0,600,29,0,621,30,0,600,31,0,200,32,0,600,33,0,600,34,0,600,35,0,621,36,0,621,37,0,621,38,0,621,39,0,621,40,0,600,41,0,600,42,0,600,43,0,600,44,0,600,45,0,600,46,0,621,56,0,200,57,0,200,58,0,200,59,0,600,60,0,600,61,0,600*41
$PAIRDGP,10,5,10,12,15,18,23,24,25,28,32*45
$GNGGA,115717.200,2500.8273435,N,12132.4535003,E,2,61,0.45,17.539,M,15.25,M,9,3335*48
$GNRMC,115717.200,A,2500.8273435,N,12132.4535003,E,0.03,314.86,260623,,,D,V*0D
$GPHDT,,T*1B
$GNACCURACY,2.5*11
$GNGGA,115717.300,2500.8273435,N,12132.4535003,E,2,61,0.45,17.549,M,15.25,M,9,3335*4E
$GNRMC,115717.300,A,2500.8273435,N,12132.4535003,E,0.03,314.86,260623,,,D,V*0C
$GPHDT,,T*1B
$GNACCURACY,2.5*11
$GNGGA,115717.400,2500.8273495,N,12132.4534883,E,2,61,0.45,17.553,M,15.25,M,9,3335*49
$GNRMC,115717.400,A,2500.8273495,N,12132.4534883,E,0.03,314.86,260623,,,D,V*00
$GPHDT,,T*1B
$GNACCURACY,2.5*11
$GNGGA,115717.500,2500.8273495,N,12132.4534883,E,2,61,0.45,17.564,M,15.25,M,9,3335*4C
$GNRMC,115717.500,A,2500.8273495,N,12132.4534883,E,0.03,314.86,260623,,,D,V*01
$GPHDT,,T*1B
$GNACCURACY,2.5*11
$GNGGA,115717.600,2500.8273495,N,12132.4534823,E,2,61,0.45,17.570,M,15.25,M,9,3335*40
$GNRMC,115717.600,A,2500.8273495,N,12132.4534823,E,0.04,314.86,260623,,,D,V*0F
$GPHDT,,T*1B
$GNACCURACY,2.5*11
$GNGGA,115717.700,2500.8273495,N,12132.4534763,E,2,60,0.45,17.579,M,15.25,M,9,3335*42
$GNRMC,115717.700,A,2500.8273495,N,12132.4534763,E,0.04,314.86,260623,,,D,V*05
$GPHDT,,T*1B
$GNACCURACY,2.5*11
$GNGGA,115717.800,2500.8273495,N,12132.4534703,E,2,61,0.45,17.583,M,15.25,M,9,3335*4F
$GNRMC,115717.800,A,2500.8273495,N,12132.4534703,E,0.04,314.86,260623,,,D,V*0C
$GPHDT,,T*1B
$GNACCURACY,2.5*11
$GNGGA,115717.900,2500.8273495,N,12132.4534643,E,2,60,0.45,17.596,M,15.25,M,9,3335*4E
$GNRMC,115717.900,A,2500.8273495,N,12132.4534643,E,0.04,314.86,260623,,,D,V*08
$GPHDT,,T*1B
$GNACCURACY,2.5*11
$GNGGA,115718.000,2500.8273435,N,12132.4534583,E,2,59,0.45,17.607,M,15.25,M,10,3335*74
$GNRMC,115718.000,A,2500.8273435,N,12132.4534583,E,0.04,314.86,260623,,,D,V*0B
$GPHDT,,T*1B
$GNACCURACY,2.5*11
$GNGGA,115718.100,2500.8273435,N,12132.4534523,E,2,59,0.45,17.615,M,15.25,M,10,3335*7C
$GNRMC,115718.100,A,2500.8273435,N,12132.4534523,E,0.04,314.86,260623,,,D,V*00
$GPHDT,,T*1B
$GNGSA,A,3,196,23,199,24,18,194,15,12,195,10,25,32,0.83,0.45,0.70,1*0C
$GNGSA,A,3,73,80,71,86,85,,,,,,,,0.83,0.45,0.70,2*06
$GNGSA,A,3,07,13,08,26,30,15,02,,,,,,0.83,0.45,0.70,3*02
$GNGSA,A,3,08,38,13,39,16,06,46,19,09,36,20,22,0.83,0.45,0.70,4*07
$GNGSA,A,3,35,37,,,,,,,,,,,0.83,0.45,0.70,4*0B
$GPGSV,4,1,16,196,76,075,35,23,64,348,30,199,60,167,32,24,59,034,36,1*6C
$GPGSV,4,2,16,18,49,224,43,41,38,242,36,194,36,135,38,15,30,061,29,1*53
$GPGSV,4,3,16,12,29,129,30,195,29,179,41,10,29,324,40,25,19,169,24,1*55
$GPGSV,4,4,16,32,15,281,17,05,09,128,18,28,05,223,,13,01,067,,1*6B
$GPGSV,3,1,10,196,76,075,34,23,64,348,36,199,60,167,43,24,59,034,39,8*6A
$GPGSV,3,2,10,18,49,224,44,194,36,135,40,10,29,324,35,195,29,179,41,8*62
$GPGSV,3,3,10,25,19,169,30,32,15,281,30,8*63
$GLGSV,2,1,05,73,55,149,36,80,44,052,30,71,28,329,35,86,27,283,23,1*7E
$GLGSV,2,2,05,85,24,231,31,1*44
$GAGSV,3,1,10,07,46,318,36,13,46,219,45,08,42,038,18,26,36,294,35,7*75
$GAGSV,3,2,10,30,35,135,34,02,27,072,,15,12,173,19,27,09,183,17,7*7E
$GAGSV,3,3,10,03,05,074,,33,01,327,,7*70
$GAGSV,2,1,06,13,46,219,46,07,46,318,42,08,42,038,32,26,36,294,35,1*7D
$GAGSV,2,2,06,30,35,135,37,02,27,072,23,1*76
$GBGSV,4,1,15,08,86,332,40,38,80,163,41,13,73,319,44,39,68,300,44,1*7F
$GBGSV,4,2,15,16,65,276,33,06,64,271,36,46,62,082,28,19,55,002,37,1*7E
$GBGSV,4,3,15,09,51,250,28,36,48,183,33,20,39,080,29,22,18,311,17,1*71
$GBGSV,4,4,15,35,16,256,29,37,14,041,23,29,11,203,14,1*43
$GBGSV,2,1,07,38,80,163,44,39,68,300,43,46,62,082,37,19,55,002,34,4*75
$GBGSV,2,2,07,36,48,183,37,20,39,080,13,35,16,256,37,4*45
$GNACCURACY,2.5*11
$PAIRSAT,1,35,1,0,200,2,0,200,3,0,200,4,0,200,5,0,201,6,0,200,7,0,200,8,0,200,9,0,200,10,0,221,11,0,200,12,0,201,13,0,201,14,0,200,15,0,201,16,0,200,17,0,200,18,0,221,19,0,200,20,0,200,21,0,200,23,0,221,24,0,221,25,0,221,26,0,200,27,0,200,28,0,200,29,0,200,30,0,200,31,0,200,32,0,221,194,0,621,195,0,621,196,0,620,199,0,621*6B
$PAIRSAT,2,24,65,0,200,66,0,200,67,0,200,68,0,200,69,0,200,70,0,200,71,0,201,72,0,200,73,0,201,74,0,200,75,0,200,76,0,200,77,0,200,78,0,200,79,0,201,80,0,201,81,0,200,82,0,200,83,0,200,84,0,200,85,0,201,86,0,201,87,0,200,88,0,200*7A
$PAIRSAT,3,23,2,0,1221,3,0,1221,4,0,1200,5,0,200,7,0,1221,8,0,1221,9,0,1200,10,0,1200,11,0,1200,12,0,1200,13,0,1221,15,0,1221,19,0,1200,21,0,1200,24,0,1200,25,0,1200,26,0,1221,27,0,1200,30,0,1221,31,0,1200,33,0,1200,34,0,1200,36,0,1200*6A
$PAIRSAT,4,50,1,0,200,2,0,200,3,0,200,4,0,200,5,0,200,6,0,201,7,0,200,8,0,201,9,0,201,10,0,200,11,0,200,12,0,200,13,0,201,14,0,200,15,0,200,16,0,201,19,0,621,20,0,621,21,0,600,22,0,621,23,0,600,24,0,600,25,0,600,26,0,600,27,0,600,28,0,600,29,0,621,30,0,600,31,0,200,32,0,600,33,0,600,34,0,600,35,0,621,36,0,621,37,0,621,38,0,621,39,0,621,40,0,600,41,0,600,42,0,600,43,0,600,44,0,600,45,0,600,46,0,621,56,0,200,57,0,200,58,0,200,59,0,600,60,0,600,61,0,600*41
$PAIRDGP,10,5,10,12,15,18,23,24,25,28,32*45
$GNGGA,115718.200,2500.8273435,N,12132.4534463,E,2,59,0.45,17.618,M,15.25,M,10,3335*77
$GNRMC,115718.200,A,2500.8273435,N,12132.4534463,E,0.04,314.86,260623,,,D,V*06
$GPHDT,,T*1B
$GNACCURACY,2.5*11
$GNGGA,115718.300,2500.8273435,N,12132.4534343,E,2,61,0.45,17.620,M,15.25,M,10,3335*73
$GNRMC,115718.300,A,2500.8273435,N,12132.4534343,E,0.04,314.86,260623,,,D,V*02
$GPHDT,,T*1B
$GNACCURACY,2.5*11
$GNGGA,115718.400,2500.8273435,N,12132.4534343,E,2,61,0.45,17.627,M,15.25,M,10,3335*73
$GNRMC,115718.400,A,2500.8273435,N,12132.4534343,E,0.04,314.86,260623,,,D,V*05
$GPHDT,,T*1B
$GNACCURACY,2.5*11
$GNGGA,115718.500,2500.8273435,N,12132.4534283,E,2,60,0.45,17.638,M,15.25,M,10,3335*70
$GNRMC,115718.500,A,2500.8273435,N,12132.4534283,E,0.04,314.86,260623,,,D,V*09
$GPHDT,,T*1B
$GNACCURACY,2.5*11
$GNGGA,115718.600,2500.8273435,N,12132.4534223,E,2,60,0.45,17.647,M,15.25,M,10,3335*71
$GNRMC,115718.600,A,2500.8273435,N,12132.4534223,E,0.04,314.86,260623,,,D,V*00
$GPHDT,,T*1B
$GNACCURACY,2.5*11
$GNGGA,115718.700,2500.8273435,N,12132.4534103,E,2,59,0.45,17.652,M,15.25,M,10,3335*7F
$GNRMC,115718.700,A,2500.8273435,N,12132.4534103,E,0.04,314.86,260623,,,D,V*00
$GPHDT,,T*1B
$GNACCURACY,2.5*11
$GNGGA,115718.800,2500.8273435,N,12132.4534043,E,2,59,0.45,17.656,M,15.25,M,10,3335*71
$GNRMC,115718.800,A,2500.8273435,N,12132.4534043,E,0.04,314.86,260623,,,D,V*0A
$GPHDT,,T*1B
$GNACCURACY,2.5*11
$GNGGA,115718.900,2500.8273435,N,12132.4533983,E,2,59,0.45,17.667,M,15.25,M,10,3335*70
$GNRMC,115718.900,A,2500.8273435,N,12132.4533983,E,0.04,314.86,260623,,,D,V*09
$GPHDT,,T*1B
$GNACCURACY,2.5*11
$GNGGA,115719.000,2500.8273435,N,12132.4533923,E,2,59,0.45,17.674,M,15.25,M,11,3335*71
$GNRMC,115719.000,A,2500.8273435,N,12132.4533923,E,0.04,314.86,260623,,,D,V*0B
$GPHDT,,T*1B
$GNACCURACY,2.5*11
$GNGGA,115719.100,2500.8273435,N,12132.4533863,E,2,59,0.45,17.682,M,15.25,M,11,3335*7C
$GNRMC,115719.100,A,2500.8273435,N,12132.4533863,E,0.04,314.86,260623,,,D,V*0F
$GPHDT,,T*1B
$GNGSA,A,3,196,23,199,24,18,194,15,12,195,10,25,32,0.83,0.45,0.70,1*0C
$GNGSA,A,3,73,80,71,86,85,,,,,,,,0.83,0.45,0.70,2*06
$GNGSA,A,3,07,13,08,26,30,15,02,,,,,,0.83,0.45,0.70,3*02
$GNGSA,A,3,08,38,13,39,16,06,46,19,09,36,20,35,0.83,0.45,0.70,4*01
$GNGSA,A,3,37,22,,,,,,,,,,,0.83,0.45,0.70,4*0D
$GPGSV,4,1,16,196,76,075,35,23,64,348,30,199,60,167,32,24,59,034,36,1*6C
$GPGSV,4,2,16,18,49,224,43,41,38,242,36,194,36,135,38,15,30,061,30,1*5B
$GPGSV,4,3,16,12,29,129,30,195,29,179,41,10,29,324,40,25,19,169,24,1*55
$GPGSV,4,4,16,32,15,281,15,05,09,128,18,28,05,223,,13,01,067,,1*69
$GPGSV,3,1,10,196,76,075,33,23,64,348,36,199,60,167,43,24,59,034,39,8*6D
$GPGSV,3,2,10,18,49,224,44,194,36,135,39,10,29,324,35,195,29,179,40,8*6D
$GPGSV,3,3,10,25,19,169,28,32,15,281,30,8*6A
$GLGSV,2,1,05,73,55,149,38,80,44,052,30,71,28,329,35,86,27,283,25,1*76
$GLGSV,2,2,05,85,24,231,31,1*44
$GAGSV,3,1,10,07,46,318,36,13,46,219,45,08,42,038,17,26,36,294,35,7*7A
$GAGSV,3,2,10,30,35,135,34,02,27,072,,15,12,173,19,27,09,183,17,7*7E
$GAGSV,3,3,10,03,05,074,,33,01,327,,7*70
$GAGSV,2,1,06,13,46,219,45,07,46,318,42,08,42,038,30,26,36,294,34,1*7D
$GAGSV,2,2,06,30,35,135,36,02,27,072,22,1*76
$GBGSV,4,1,15,08,86,332,40,38,80,163,41,13,73,319,45,39,68,300,44,1*7E
$GBGSV,4,2,15,16,65,276,33,06,64,271,36,46,62,082,27,19,55,002,37,1*71
$GBGSV,4,3,15,09,51,250,28,36,48,183,33,20,39,080,28,22,18,311,18,1*7F
$GBGSV,4,4,15,35,16,256,30,37,14,041,23,29,11,203,14,1*4B
$GBGSV,2,1,07,38,80,163,44,39,68,300,43,46,62,082,37,19,55,002,34,4*75
$GBGSV,2,2,07,36,48,183,37,22,18,311,18,35,16,256,37,4*44
$GNACCURACY,2.5*11
$PAIRSAT,1,35,1,0,200,2,0,200,3,0,200,4,0,200,5,0,201,6,0,200,7,0,200,8,0,200,9,0,200,10,0,221,11,0,200,12,0,201,13,0,201,14,0,200,15,0,201,16,0,200,17,0,200,18,0,221,19,0,200,20,0,200,21,0,200,23,0,221,24,0,221,25,0,221,26,0,200,27,0,200,28,0,200,29,0,200,30,0,200,31,0,200,32,0,221,194,0,621,195,0,621,196,0,620,199,0,621*6B
$PAIRSAT,2,24,65,0,200,66,0,200,67,0,200,68,0,200,69,0,200,70,0,200,71,0,201,72,0,200,73,0,201,74,0,200,75,0,200,76,0,200,77,0,200,78,0,200,79,0,201,80,0,201,81,0,200,82,0,200,83,0,200,84,0,200,85,0,201,86,0,201,87,0,200,88,0,200*7A
$PAIRSAT,3,23,2,0,1221,3,0,1221,4,0,1200,5,0,200,7,0,1221,8,0,1221,9,0,1200,10,0,1200,11,0,1200,12,0,1200,13,0,1221,15,0,1221,19,0,1200,21,0,1200,24,0,1200,25,0,1200,26,0,1221,27,0,1200,30,0,1221,31,0,1200,33,0,1200,34,0,1200,36,0,1200*6A
$PAIRSAT,4,50,1,0,200,2,0,200,3,0,200,4,0,200,5,0,200,6,0,201,7,0,200,8,0,201,9,0,201,10,0,200,11,0,200,12,0,200,13,0,201,14,0,200,15,0,200,16,0,201,19,0,621,20,0,621,21,0,600,22,0,621,23,0,600,24,0,600,25,0,600,26,0,600,27,0,600,28,0,600,29,0,621,30,0,600,31,0,200,32,0,600,33,0,600,34,0,600,35,0,621,36,0,621,37,0,621,38,0,621,39,0,621,40,0,600,41,0,600,42,0,600,43,0,600,44,0,600,45,0,600,46,0,621,56,0,200,57,0,200,58,0,200,59,0,600,60,0,600,61,0,600*41
$PAIRDGP,10,5,10,12,15,18,23,24,25,28,32*45
$GNGGA,115719.200,2500.8273435,N,12132.4533803,E,2,59,0.45,17.690,M,15.25,M,11,3335*7A
$GNRMC,115719.200,A,2500.8273435,N,12132.4533803,E,0.04,314.86,260623,,,D,V*0A
$GPHDT,,T*1B
$GNACCURACY,2.5*11
$GNGGA,115719.300,2500.8273435,N,12132.4533683,E,2,59,0.45,17.692,M,15.25,M,11,3335*7F
$GNRMC,115719.300,A,2500.8273435,N,12132.4533683,E,0.04,314.86,260623,,,D,V*0D
$GPHDT,,T*1B
$GNACCURACY,2.5*11
$GNGGA,115719.400,2500.8273435,N,12132.4533623,E,2,59,0.45,17.693,M,15.25,M,11,3335*73
$GNRMC,115719.400,A,2500.8273435,N,12132.4533623,E,0.04,314.86,260623,,,D,V*00
$GPHDT,,T*1B
$GNACCURACY,2.5*11
$GNGGA,115719.500,2500.8273495,N,12132.4533503,E,2,59,0.45,17.690,M,15.25,M,11,3335*7A
$GNRMC,115719.500,A,2500.8273495,N,12132.4533503,E,0.04,314.86,260623,,,D,V*0A
$GPHDT,,T*1B
$GNACCURACY,2.5*11
$GNGGA,115719.600,2500.8273435,N,12132.4533443,E,2,59,0.45,17.693,M,15.25,M,11,3335*75
$GNRMC,115719.600,A,2500.8273435,N,12132.4533443,E,0.04,314.86,260623,,,D,V*06
$GPHDT,,T*1B
$GNACCURACY,2.5*11
$GNGGA,115719.700,2500.8273435,N,12132.4533323,E,2,59,0.45,17.698,M,15.25,M,11,3335*7E
$GNRMC,115719.700,A,2500.8273435,N,12132.4533323,E,0.04,314.86,260623,,,D,V*06
$GPHDT,,T*1B
$GNACCURACY,2.4*10
$GNGGA,115719.800,2500.8273435,N,12132.4533203,E,2,60,0.45,17.703,M,15.25,M,11,3335*7B
$GNRMC,115719.800,A,2500.8273435,N,12132.4533203,E,0.04,314.86,260623,,,D,V*0A
$GPHDT,,T*1B
$GNACCURACY,2.4*10
$GNGGA,115719.900,2500.8273435,N,12132.4533143,E,2,60,0.45,17.711,M,15.25,M,11,3335*7E
$GNRMC,115719.900,A,2500.8273435,N,12132.4533143,E,0.04,314.86,260623,,,D,V*0C
$GPHDT,,T*1B
$GNACCURACY,2.4*10
$GNGGA,115720.000,2500.8273435,N,12132.4533023,E,2,61,0.45,17.717,M,15.25,M,12,3335*7E
$GNRMC,115720.000,A,2500.8273435,N,12132.4533023,E,0.04,314.86,260623,,,D,V*08
$GPHDT,,T*1B
$GNACCURACY,2.4*10
$GNGGA,115720.100,2500.8273435,N,12132.4532963,E,2,59,0.46,17.720,M,15.25,M,12,3335*7F
$GNRMC,115720.100,A,2500.8273435,N,12132.4532963,E,0.04,314.86,260623,,,D,V*05
$GPHDT,,T*1B
$GNGSA,A,3,196,23,199,24,18,194,12,195,10,25,32,,0.85,0.46,0.71,1*0C
$GNGSA,A,3,73,80,71,86,85,,,,,,,,0.85,0.46,0.71,2*02
$GNGSA,A,3,07,13,08,26,30,02,15,,,,,,0.85,0.46,0.71,3*06
$GNGSA,A,3,08,38,13,39,16,06,46,19,09,36,20,22,0.85,0.46,0.71,4*03
$GNGSA,A,3,35,37,,,,,,,,,,,0.85,0.46,0.71,4*0F
$GPGSV,4,1,16,196,76,075,35,23,64,348,33,199,60,167,31,24,59,034,35,1*6F
$GPGSV,4,2,16,18,49,224,46,41,38,242,42,194,36,135,37,15,30,061,27,1*54
$GPGSV,4,3,16,12,29,129,26,195,29,179,40,10,29,324,40,25,19,169,28,1*5F
$GPGSV,4,4,16,32,15,281,16,05,09,128,18,28,05,223,,13,01,067,,1*6A
$GPGSV,3,1,10,196,76,075,33,23,64,348,33,199,60,167,43,24,59,034,39,8*68
$GPGSV,3,2,10,18,49,224,48,194,36,135,40,10,29,324,35,195,29,179,40,8*6F
$GPGSV,3,3,10,25,19,169,25,32,15,281,28,8*6E
$GLGSV,2,1,05,73,55,149,36,80,44,052,31,71,28,329,33,86,27,283,26,1*7C
$GLGSV,2,2,05,85,24,231,30,1*45
$GAGSV,3,1,10,07,46,318,29,13,46,219,46,08,42,038,17,26,36,294,38,7*7A
$GAGSV,3,2,10,30,35,135,34,02,27,072,27,15,12,173,20,27,09,183,17,7*71
$GAGSV,3,3,10,03,05,074,,33,01,327,,7*70
$GAGSV,2,1,06,07,46,318,42,13,46,219,46,08,42,038,31,26,36,294,34,1*7F
$GAGSV,2,2,06,30,35,135,37,02,27,072,22,1*77
$GBGSV,4,1,15,08,86,332,40,38,80,163,41,13,73,319,45,39,68,300,45,1*7F
$GBGSV,4,2,15,16,65,276,40,06,64,271,41,46,62,082,27,19,55,002,37,1*75
$GBGSV,4,3,15,09,51,250,24,36,48,183,35,20,39,080,27,22,18,311,22,1*73
$GBGSV,4,4,15,35,16,256,34,37,14,041,20,29,11,203,14,1*4C
$GBGSV,2,1,08,38,80,163,44,39,68,300,44,46,62,082,37,19,55,002,34,4*7D
$GBGSV,2,2,08,36,48,183,36,22,18,311,17,35,16,256,37,37,14,041,19,4*79
$GNACCURACY,2.4*10
$PAIRSAT,1,35,1,0,200,2,0,200,3,0,200,4,0,200,5,0,201,6,0,200,7,0,200,8,0,200,9,0,200,10,0,221,11,0,200,12,0,201,13,0,201,14,0,200,15,0,201,16,0,200,17,0,200,18,0,221,19,0,200,20,0,200,21,0,200,23,0,221,24,0,221,25,0,221,26,0,200,27,0,200,28,0,200,29,0,200,30,0,200,31,0,200,32,0,221,194,0,621,195,0,621,196,0,620,199,0,621*6B
$PAIRSAT,2,24,65,0,200,66,0,200,67,0,200,68,0,200,69,0,200,70,0,200,71,0,201,72,0,200,73,0,201,74,0,200,75,0,200,76,0,200,77,0,200,78,0,200,79,0,201,80,0,201,81,0,200,82,0,200,83,0,200,84,0,200,85,0,201,86,0,201,87,0,200,88,0,200*7A
$PAIRSAT,3,23,2,0,1221,3,0,1221,4,0,1200,5,0,200,7,0,1221,8,0,1221,9,0,1200,10,0,1200,11,0,1200,12,0,1200,13,0,1221,15,0,1221,19,0,1200,21,0,1200,24,0,1200,25,0,1200,26,0,1221,27,0,1200,30,0,1221,31,0,1200,33,0,1200,34,0,1200,36,0,1200*6A
$PAIRSAT,4,50,1,0,200,2,0,200,3,0,200,4,0,200,5,0,200,6,0,201,7,0,200,8,0,201,9,0,201,10,0,200,11,0,200,12,0,200,13,0,201,14,0,200,15,0,200,16,0,201,19,0,621,20,0,621,21,0,600,22,0,621,23,0,600,24,0,600,25,0,600,26,0,600,27,0,600,28,0,600,29,0,621,30,0,600,31,0,200,32,0,600,33,0,600,34,0,600,35,0,621,36,0,621,37,0,621,38,0,621,39,0,621,40,0,600,41,0,600,42,0,600,43,0,600,44,0,600,45,0,600,46,0,621,56,0,200,57,0,200,58,0,200,59,0,600,60,0,600,61,0,600*41
$PAIRDGP,10,5,10,12,15,18,23,24,25,28,32*45
$GNGGA,115720.200,2500.8273435,N,12132.4532843,E,2,61,0.46,17.724,M,15.25,M,12,3335*70
$GNRMC,115720.200,A,2500.8273435,N,12132.4532843,E,0.04,314.86,260623,,,D,V*05
$GPHDT,,T*1B
$GNACCURACY,2.4*10
$GNGGA,115720.300,2500.8273435,N,12132.4532723,E,2,61,0.46,17.727,M,15.25,M,12,3335*7B
$GNRMC,115720.300,A,2500.8273435,N,12132.4532723,E,0.04,314.86,260623,,,D,V*0D
$GPHDT,,T*1B
$GNACCURACY,2.4*10
$GNGGA,115720.400,2500.8273435,N,12132.4532663,E,2,61,0.46,17.732,M,15.25,M,12,3335*7D
$GNRMC,115720.400,A,2500.8273435,N,12132.4532663,E,0.04,314.86,260623,,,D,V*0F
$GPHDT,,T*1B
$GNACCURACY,2.4*10
$GNGGA,115720.500,2500.8273435,N,12132.4532543,E,2,61,0.46,17.735,M,15.25,M,12,3335*7A
$GNRMC,115720.500,A,2500.8273435,N,12132.4532543,E,0.04,314.86,260623,,,D,V*0F
$GPHDT,,T*1B
$GNACCURACY,2.4*10
$GNGGA,115720.600,2500.8273435,N,12132.4532423,E,2,61,0.46,17.738,M,15.25,M,12,3335*73
$GNRMC,115720.600,A,2500.8273435,N,12132.4532423,E,0.04,314.86,260623,,,D,V*0B
$GPHDT,,T*1B
$GNACCURACY,2.4*10
$GNGGA,115720.700,2500.8273435,N,12132.4532363,E,2,62,0.45,17.742,M,15.25,M,12,3335*7C
$GNRMC,115720.700,A,2500.8273435,N,12132.4532363,E,0.04,314.86,260623,,,D,V*09
$GPHDT,,T*1B
$GNACCURACY,2.5*11
$GNGGA,115720.800,2500.8273495,N,12132.4532303,E,2,62,0.45,17.744,M,15.25,M,12,3335*79
$GNRMC,115720.800,A,2500.8273495,N,12132.4532303,E,0.04,314.86,260623,,,D,V*0A
$GPHDT,,T*1B
$GNACCURACY,2.5*11
$GNGGA,115720.900,2500.8273495,N,12132.4532183,E,2,61,0.45,17.746,M,15.25,M,12,3335*73
$GNRMC,115720.900,A,2500.8273495,N,12132.4532183,E,0.04,314.86,260623,,,D,V*01
$GPHDT,,T*1B
$GNACCURACY,2.5*11
$GNGGA,115721.000,2500.8273555,N,12132.4532123,E,2,61,0.45,17.746,M,15.25,M,13,3335*7D
$GNRMC,115721.000,A,2500.8273555,N,12132.4532123,E,0.04,314.86,260623,,,D,V*0E
$GPHDT,,T*1B
$GNACCURACY,2.5*11
$GNGGA,115721.100,2500.8273555,N,12132.4532003,E,2,61,0.45,17.748,M,15.25,M,13,3335*71
$GNRMC,115721.100,A,2500.8273555,N,12132.4532003,E,0.04,314.86,260623,,,D,V*0C
$GPHDT,,T*1B
