$FW : RTK35X,V1.1X0314AS,Lib20210517,1*54
$Tool : LOCOSYS , GNSS Firebird , v1.0.0.19*39
$---------------------------------------------------*2D
$GPHDT,,T*1B
$GNACCURACY,2.4*10
$GNGGA,115516.800,2500.8266655,N,12132.4543792,E,2,60,0.45,16.653,M,15.25,M,24,3335*7F
$GNRMC,115516.800,A,2500.8266655,N,12132.4543792,E,0.00,314.86,260623,,,D,V*09
$GPHDT,,T*1B
$GNACCURACY,2.4*10
$GNGGA,115516.900,2500.8266595,N,12132.4543792,E,2,60,0.45,16.634,M,15.25,M,24,3335*70
$GNRMC,115516.900,A,2500.8266595,N,12132.4543792,E,0.00,314.86,260623,,,D,V*07
$GPHDT,,T*1B
$GNACCURACY,2.4*10
$GNGGA,115517.000,2500.8266415,N,12132.4543792,E,2,60,0.45,16.624,M,15.25,M,25,3335*71
$GNRMC,115517.000,A,2500.8266415,N,12132.4543792,E,0.00,314.86,260623,,,D,V*06
$GPHDT,,T*1B
$GNACCURACY,2.4*10
$GNGGA,115517.100,2500.8266295,N,12132.4543792,E,2,60,0.45,16.613,M,15.25,M,25,3335*7A
$GNRMC,115517.100,A,2500.8266295,N,12132.4543792,E,0.00,314.86,260623,,,D,V*09
$GPHDT,,T*1B
$GNGSA,A,3,196,23,24,199,18,194,15,195,12,10,25,32,0.83,0.45,0.70,1*0C
$GNGSA,A,3,73,80,71,86,85,,,,,,,,0.83,0.45,0.70,2*06
$GNGSA,A,3,07,13,08,26,30,02,15,,,,,,0.83,0.45,0.70,3*02
$GNGSA,A,3,08,38,13,39,16,06,46,19,09,36,20,22,0.83,0.45,0.70,4*07
$GNGSA,A,3,35,37,,,,,,,,,,,0.83,0.45,0.70,4*0B
$GPGSV,4,1,16,196,76,074,33,23,63,348,27,24,60,034,36,199,60,167,37,1*65
$GPGSV,4,2,16,18,50,225,44,41,38,242,43,194,35,135,39,15,30,060,25,1*50
$GPGSV,4,3,16,195,29,179,42,12,29,130,32,10,28,324,28,25,18,169,33,1*54
$GPGSV,4,4,16,32,15,280,23,05,10,128,,28,04,222,,13,01,066,,1*6D
$GPGSV,3,1,10,196,76,074,36,23,63,348,35,24,60,034,40,199,60,167,46,8*6C
$GPGSV,3,2,10,18,50,225,46,194,35,135,42,195,29,179,44,10,28,324,26,8*6E
$GPGSV,3,3,10,25,18,169,35,32,15,280,23,8*64
$GLGSV,2,1,08,73,54,150,42,80,44,054,34,71,28,328,29,86,27,285,28,1*7A
$GLGSV,2,2,08,85,24,232,37,74,16,185,27,69,08,088,,79,01,025,,1*7E
$GAGSV,3,1,09,07,46,317,33,13,46,220,42,08,42,037,24,26,36,295,34,7*7A
$GAGSV,3,2,09,30,34,135,36,02,27,073,20,15,13,173,18,27,09,184,,7*77
$GAGSV,3,3,09,03,06,073,22,7*4B
$GAGSV,2,1,06,07,46,317,37,13,46,220,42,08,42,037,24,26,36,295,36,1*74
$GAGSV,2,2,06,30,34,135,36,03,06,073,20,1*76
$GBGSV,4,1,15,08,86,337,37,38,80,161,45,13,72,320,38,39,68,299,43,1*7A
$GBGSV,4,2,15,16,65,275,42,06,64,270,42,46,62,084,27,19,55,001,32,1*76
$GBGSV,4,3,15,09,51,250,39,36,48,183,43,20,39,079,29,22,18,310,23,1*76
$GBGSV,4,4,15,35,17,257,39,37,14,041,34,29,11,203,14,1*44
$GBGSV,2,1,07,38,80,161,46,39,68,299,41,46,62,084,30,19,55,001,26,4*77
$GBGSV,2,2,07,36,48,183,46,20,39,079,14,35,17,257,25,4*41
$GNACCURACY,2.4*10
$PAIRSAT,1,35,1,0,200,2,0,200,3,0,200,4,0,200,5,0,201,6,0,200,7,0,200,8,0,200,9,0,200,10,0,221,11,0,200,12,0,201,13,0,201,14,0,200,15,0,201,16,0,200,17,0,200,18,0,221,19,0,200,20,0,200,21,0,200,23,0,221,24,0,221,25,0,221,26,0,200,27,0,200,28,0,200,29,0,200,30,0,200,31,0,200,32,0,221,194,0,621,195,0,621,196,0,620,199,0,621*6B
$PAIRSAT,2,24,65,0,200,66,0,200,67,0,200,68,0,200,69,0,200,70,0,200,71,0,201,72,0,200,73,0,201,74,0,200,75,0,200,76,0,200,77,0,200,78,0,200,79,0,201,80,0,201,81,0,200,82,0,200,83,0,200,84,0,200,85,0,201,86,0,201,87,0,200,88,0,200*7A
$PAIRSAT,3,23,2,0,1221,3,0,1221,4,0,1200,5,0,200,7,0,1221,8,0,1221,9,0,1200,10,0,1200,11,0,1200,12,0,1200,13,0,1221,15,0,1221,19,0,1200,21,0,1200,24,0,1200,25,0,1200,26,0,1221,27,0,1200,30,0,1221,31,0,1200,33,0,1200,34,0,1200,36,0,1200*6A
$PAIRSAT,4,50,1,0,200,2,0,200,3,0,200,4,0,200,5,0,200,6,0,201,7,0,200,8,0,201,9,0,201,10,0,200,11,0,200,12,0,200,13,0,201,14,0,200,15,0,200,16,0,201,19,0,621,20,0,621,21,0,600,22,0,621,23,0,600,24,0,600,25,0,600,26,0,600,27,0,600,28,0,600,29,0,621,30,0,600,31,0,200,32,0,600,33,0,600,34,0,600,35,0,621,36,0,621,37,0,621,38,0,621,39,0,621,40,0,600,41,0,600,42,0,600,43,0,600,44,0,600,45,0,600,46,0,621,56,0,200,57,0,200,58,0,200,59,0,600,60,0,600,61,0,600*41
$PAIRDGP,10,5,10,12,15,18,23,24,25,28,32*45
$GNGGA,115517.200,2500.8266235,N,12132.4543792,E,2,60,0.45,16.602,M,15.25,M,25,3335*73
$GNRMC,115517.200,A,2500.8266235,N,12132.4543792,E,0.00,314.86,260623,,,D,V*00
$GPHDT,,T*1B
$GNACCURACY,2.4*10
$GNGGA,115517.300,2500.8266115,N,12132.4543732,E,2,58,0.49,16.584,M,15.25,M,25,3335*73
$GNRMC,115517.300,A,2500.8266115,N,12132.4543732,E,0.00,314.86,260623,,,D,V*0A
$GPHDT,,T*1B
$GNACCURACY,2.4*10
$GNGGA,115517.400,2500.8265995,N,12132.4543732,E,2,59,0.45,16.570,M,15.25,M,25,3335*71
$GNRMC,115517.400,A,2500.8265995,N,12132.4543732,E,0.01,314.86,260623,,,D,V*0F
$GPHDT,,T*1B
$GNACCURACY,2.4*10
$GNGGA,115517.500,2500.8265875,N,12132.4543732,E,2,59,0.45,16.558,M,15.25,M,25,3335*75
$GNRMC,115517.500,A,2500.8265875,N,12132.4543732,E,0.01,314.86,260623,,,D,V*01
$GPHDT,,T*1B
$GNACCURACY,2.4*10
$GNGGA,115517.600,2500.8265755,N,12132.4543672,E,2,59,0.45,16.539,M,15.25,M,25,3335*79
$GNRMC,115517.600,A,2500.8265755,N,12132.4543672,E,0.01,314.86,260623,,,D,V*0A
$GPHDT,,T*1B
$GNACCURACY,2.4*10
$GNGGA,115517.700,2500.8265695,N,12132.4543672,E,2,60,0.45,16.520,M,15.25,M,25,3335*77
$GNRMC,115517.700,A,2500.8265695,N,12132.4543672,E,0.01,314.86,260623,,,D,V*06
$GPHDT,,T*1B
$GNACCURACY,2.4*10
$GNGGA,115517.800,2500.8265575,N,12132.4543612,E,2,60,0.45,16.499,M,15.25,M,25,3335*70
$GNRMC,115517.800,A,2500.8265575,N,12132.4543612,E,0.01,314.86,260623,,,D,V*02
$GPHDT,,T*1B
$GNACCURACY,2.4*10
$GNGGA,115517.900,2500.8265515,N,12132.4543552,E,2,60,0.45,16.477,M,15.25,M,25,3335*70
$GNRMC,115517.900,A,2500.8265515,N,12132.4543552,E,0.01,314.86,260623,,,D,V*02
$GPHDT,,T*1B
$GNACCURACY,2.4*10
$GNGGA,115518.000,2500.8265395,N,12132.4543492,E,2,59,0.45,16.452,M,15.25,M,26,3335*7B
$GNRMC,115518.000,A,2500.8265395,N,12132.4543492,E,0.01,314.86,260623,,,D,V*07
$GPHDT,,T*1B
$GNACCURACY,2.4*10
$GNGGA,115518.100,2500.8265335,N,12132.4543432,E,2,60,0.45,16.428,M,15.25,M,26,3335*7D
$GNRMC,115518.100,A,2500.8265335,N,12132.4543432,E,0.01,314.86,260623,,,D,V*06
$GPHDT,,T*1B
$GNGSA,A,3,196,23,24,199,18,194,15,12,195,10,25,32,0.83,0.45,0.70,1*0C
$GNGSA,A,3,73,80,71,86,85,,,,,,,,0.83,0.45,0.70,2*06
$GNGSA,A,3,13,07,08,26,30,02,15,,,,,,0.83,0.45,0.70,3*02
$GNGSA,A,3,08,38,13,39,16,06,46,19,09,36,20,22,0.83,0.45,0.70,4*07
$GNGSA,A,3,35,37,,,,,,,,,,,0.83,0.45,0.70,4*0B
$GPGSV,4,1,16,196,76,074,33,23,63,348,33,24,60,034,37,199,60,167,39,1*6F
$GPGSV,4,2,16,18,50,225,44,41,38,242,42,194,35,135,40,15,30,060,28,1*52
$GPGSV,4,3,16,12,29,130,30,195,29,179,42,10,28,324,31,25,18,169,33,1*5E
$GPGSV,4,4,16,32,15,280,21,05,10,128,,28,04,222,,13,01,066,,1*6F
$GPGSV,3,1,10,196,76,074,36,23,63,348,29,24,60,034,40,199,60,167,46,8*61
$GPGSV,3,2,10,18,50,225,47,194,35,135,42,195,29,179,44,10,28,324,26,8*6F
$GPGSV,3,3,10,25,18,169,36,32,15,280,24,8*60
$GLGSV,2,1,07,73,54,150,42,80,44,054,35,71,28,328,34,86,27,285,29,1*79
$GLGSV,2,2,07,85,24,232,39,74,16,185,26,79,01,025,,1*49
$GAGSV,3,1,09,13,46,220,43,07,46,317,32,08,42,037,24,26,36,295,28,7*77
$GAGSV,3,2,09,30,34,135,36,02,27,073,19,15,13,173,17,27,09,184,,7*72
$GAGSV,3,3,09,03,06,073,24,7*4D
$GAGSV,2,1,07,07,46,317,35,13,46,220,42,08,42,037,22,26,36,295,29,1*7F
$GAGSV,2,2,07,30,34,135,36,15,13,173,25,03,06,073,20,1*43
$GBGSV,4,1,15,08,86,337,39,38,80,161,46,13,72,320,36,39,68,299,40,1*7A
$GBGSV,4,2,15,16,65,275,36,06,64,270,37,46,62,084,28,19,55,001,35,1*7F
$GBGSV,4,3,15,09,51,250,40,36,48,183,44,20,39,079,28,22,18,310,19,1*77
$GBGSV,4,4,15,35,17,257,42,37,14,041,28,29,11,203,15,1*44
$GBGSV,2,1,06,38,80,161,47,39,68,299,39,46,62,084,28,19,55,001,20,4*77
$GBGSV,2,2,06,36,48,183,46,35,17,257,37,4*70
$GNACCURACY,2.4*10
$PAIRSAT,1,35,1,0,200,2,0,200,3,0,200,4,0,200,5,0,201,6,0,200,7,0,200,8,0,200,9,0,200,10,0,221,11,0,200,12,0,201,13,0,201,14,0,200,15,0,201,16,0,200,17,0,200,18,0,221,19,0,200,20,0,200,21,0,200,23,0,221,24,0,221,25,0,221,26,0,200,27,0,200,28,0,200,29,0,200,30,0,200,31,0,200,32,0,221,194,0,621,195,0,621,196,0,620,199,0,621*6B
$PAIRSAT,2,24,65,0,200,66,0,200,67,0,200,68,0,200,69,0,200,70,0,200,71,0,201,72,0,200,73,0,201,74,0,200,75,0,200,76,0,200,77,0,200,78,0,200,79,0,201,80,0,201,81,0,200,82,0,200,83,0,200,84,0,200,85,0,201,86,0,201,87,0,200,88,0,200*7A
$PAIRSAT,3,23,2,0,1221,3,0,1221,4,0,1200,5,0,200,7,0,1221,8,0,1221,9,0,1200,10,0,1200,11,0,1200,12,0,1200,13,0,1221,15,0,1221,19,0,1200,21,0,1200,24,0,1200,25,0,1200,26,0,1221,27,0,1200,30,0,1221,31,0,1200,33,0,1200,34,0,1200,36,0,1200*6A
$PAIRSAT,4,50,1,0,200,2,0,200,3,0,200,4,0,200,5,0,200,6,0,201,7,0,200,8,0,201,9,0,201,10,0,200,11,0,200,12,0,200,13,0,201,14,0,200,15,0,200,16,0,201,19,0,621,20,0,621,21,0,600,22,0,621,23,0,600,24,0,600,25,0,600,26,0,600,27,0,600,28,0,600,29,0,621,30,0,600,31,0,200,32,0,600,33,0,600,34,0,600,35,0,621,36,0,621,37,0,621,38,0,621,39,0,621,40,0,600,41,0,600,42,0,600,43,0,600,44,0,600,45,0,600,46,0,621,56,0,200,57,0,200,58,0,200,59,0,600,60,0,600,61,0,600*41
$PAIRDGP,10,5,10,12,15,18,23,24,25,28,32*45
$GNGGA,115518.200,2500.8265275,N,12132.4543372,E,2,60,0.45,16.406,M,15.25,M,26,3335*74
$GNRMC,115518.200,A,2500.8265275,N,12132.4543372,E,0.01,314.86,260623,,,D,V*03
$GPHDT,,T*1B
$GNACCURACY,2.4*10
$GNGGA,115518.300,2500.8265155,N,12132.4543372,E,2,59,0.47,16.388,M,15.25,M,26,3335*7D
$GNRMC,115518.300,A,2500.8265155,N,12132.4543372,E,0.01,314.86,260623,,,D,V*03
$GPHDT,,T*1B
$GNACCURACY,2.4*10
$GNGGA,115518.400,2500.8265095,N,12132.4543372,E,2,59,0.47,16.368,M,15.25,M,26,3335*79
$GNRMC,115518.400,A,2500.8265095,N,12132.4543372,E,0.01,314.86,260623,,,D,V*09
$GPHDT,,T*1B
$GNACCURACY,2.4*10
$GNGGA,115518.500,2500.8265035,N,12132.4543372,E,2,59,0.47,16.348,M,15.25,M,26,3335*70
$GNRMC,115518.500,A,2500.8265035,N,12132.4543372,E,0.01,314.86,260623,,,D,V*02
$GPHDT,,T*1B
$GNACCURACY,2.4*10
$GNGGA,115518.600,2500.8264975,N,12132.4543372,E,2,59,0.47,16.332,M,15.25,M,26,3335*72
$GNRMC,115518.600,A,2500.8264975,N,12132.4543372,E,0.01,314.86,260623,,,D,V*0D
$GPHDT,,T*1B
$GNACCURACY,2.4*10
$GNGGA,115518.700,2500.8264915,N,12132.4543432,E,2,59,0.47,16.315,M,15.25,M,26,3335*73
$GNRMC,115518.700,A,2500.8264915,N,12132.4543432,E,0.01,314.86,260623,,,D,V*09
$GPHDT,,T*1B
$GNACCURACY,2.4*10
$GNGGA,115518.800,2500.8264795,N,12132.4543432,E,2,59,0.47,16.303,M,15.25,M,26,3335*7D
$GNRMC,115518.800,A,2500.8264795,N,12132.4543432,E,0.01,314.86,260623,,,D,V*00
$GPHDT,,T*1B
$GNACCURACY,2.4*10
$GNGGA,115518.900,2500.8264795,N,12132.4543492,E,2,59,0.47,16.290,M,15.25,M,26,3335*7D
$GNRMC,115518.900,A,2500.8264795,N,12132.4543492,E,0.01,314.86,260623,,,D,V*0B
$GPHDT,,T*1B
$GNACCURACY,2.4*10
$GNGGA,115519.000,2500.8264675,N,12132.4543552,E,2,59,0.47,16.277,M,15.25,M,27,3335*7F
$GNRMC,115519.000,A,2500.8264675,N,12132.4543552,E,0.01,314.86,260623,,,D,V*01
$GPHDT,,T*1B
$GNACCURACY,2.4*10
$GNGGA,115519.100,2500.8264615,N,12132.4543552,E,2,59,0.47,16.260,M,15.25,M,27,3335*7E
$GNRMC,115519.100,A,2500.8264615,N,12132.4543552,E,0.01,314.86,260623,,,D,V*06
$GPHDT,,T*1B
$GNGSA,A,3,196,23,24,199,18,194,15,12,195,10,25,32,0.83,0.45,0.70,1*0C
$GNGSA,A,3,73,80,71,86,85,,,,,,,,0.83,0.45,0.70,2*06
$GNGSA,A,3,13,07,08,26,30,02,15,,,,,,0.83,0.45,0.70,3*02
$GNGSA,A,3,08,38,13,39,16,06,46,19,09,36,20,22,0.83,0.45,0.70,4*07
$GNGSA,A,3,35,37,,,,,,,,,,,0.83,0.45,0.70,4*0B
$GPGSV,4,1,16,196,76,074,34,23,63,348,33,24,60,034,38,199,60,167,37,1*69
$GPGSV,4,2,16,18,50,225,44,41,38,242,40,194,35,135,40,15,30,060,28,1*50
$GPGSV,4,3,16,12,29,130,30,195,29,179,41,10,28,324,36,25,18,169,34,1*5D
$GPGSV,4,4,16,32,15,280,21,05,10,128,,28,04,222,,13,01,066,,1*6F
$GPGSV,3,1,10,196,76,074,36,23,63,348,35,24,60,034,40,199,60,167,46,8*6C
$GPGSV,3,2,10,18,50,225,47,194,35,135,42,195,29,179,45,10,28,324,23,8*6B
$GPGSV,3,3,10,25,18,169,35,32,15,280,24,8*63
$GLGSV,2,1,07,73,54,150,42,80,44,054,35,71,28,328,32,86,27,285,27,1*71
$GLGSV,2,2,07,85,24,232,40,74,16,185,25,79,01,025,,1*44
$GAGSV,3,1,09,13,46,220,43,07,46,317,39,08,42,037,24,26,36,295,30,7*75
$GAGSV,3,2,09,30,34,135,34,02,27,073,17,15,13,173,17,27,09,184,,7*7E
$GAGSV,3,3,09,03,06,073,24,7*4D
$GAGSV,2,1,07,07,46,317,41,13,46,220,41,08,42,037,21,26,36,295,33,1*77
$GAGSV,2,2,07,30,34,135,34,15,13,173,24,03,06,073,20,1*40
$GBGSV,4,1,15,08,86,337,37,38,80,161,46,13,72,320,38,39,68,299,40,1*7A
$GBGSV,4,2,15,16,65,275,36,06,64,270,36,46,62,084,28,19,55,001,36,1*7D
$GBGSV,4,3,15,09,51,250,34,36,48,183,44,20,39,079,28,22,18,310,20,1*7E
$GBGSV,4,4,15,35,17,257,30,37,14,041,,29,11,203,15,1*4B
$GBGSV,2,1,07,38,80,161,47,39,68,299,39,46,62,084,28,19,55,001,19,4*7C
$GBGSV,2,2,07,36,48,183,45,35,17,257,26,37,14,041,21,4*45
$GNACCURACY,2.4*10
$PAIRSAT,1,35,1,0,200,2,0,200,3,0,200,4,0,200,5,0,201,6,0,200,7,0,200,8,0,200,9,0,200,10,0,221,11,0,200,12,0,201,13,0,201,14,0,200,15,0,201,16,0,200,17,0,200,18,0,221,19,0,200,20,0,200,21,0,200,23,0,221,24,0,221,25,0,221,26,0,200,27,0,200,28,0,200,29,0,200,30,0,200,31,0,200,32,0,221,194,0,621,195,0,621,196,0,620,199,0,621*6B
$PAIRSAT,2,24,65,0,200,66,0,200,67,0,200,68,0,200,69,0,200,70,0,200,71,0,201,72,0,200,73,0,201,74,0,200,75,0,200,76,0,200,77,0,200,78,0,200,79,0,201,80,0,201,81,0,200,82,0,200,83,0,200,84,0,200,85,0,201,86,0,201,87,0,200,88,0,200*7A
$PAIRSAT,3,23,2,0,1221,3,0,1221,4,0,1200,5,0,200,7,0,1221,8,0,1221,9,0,1200,10,0,1200,11,0,1200,12,0,1200,13,0,1221,15,0,1221,19,0,1200,21,0,1200,24,0,1200,25,0,1200,26,0,1221,27,0,1200,30,0,1221,31,0,1200,33,0,1200,34,0,1200,36,0,1200*6A
$PAIRSAT,4,50,1,0,200,2,0,200,3,0,200,4,0,200,5,0,200,6,0,201,7,0,200,8,0,201,9,0,201,10,0,200,11,0,200,12,0,200,13,0,201,14,0,200,15,0,200,16,0,201,19,0,621,20,0,621,21,0,600,22,0,621,23,0,600,24,0,600,25,0,600,26,0,600,27,0,600,28,0,600,29,0,621,30,0,600,31,0,200,32,0,600,33,0,600,34,0,600,35,0,621,36,0,621,37,0,621,38,0,621,39,0,621,40,0,600,41,0,600,42,0,600,43,0,600,44,0,600,45,0,600,46,0,621,56,0,200,57,0,200,58,0,200,59,0,600,60,0,600,61,0,600*41
$PAIRDGP,10,5,10,12,15,18,23,24,25,28,32*45
$GNGGA,115519.200,2500.8264615,N,12132.4543552,E,2,60,0.45,16.241,M,15.25,M,27,3335*76
$GNRMC,115519.200,A,2500.8264615,N,12132.4543552,E,0.01,314.86,260623,,,D,V*05
$GPHDT,,T*1B
$GNACCURACY,2.4*10
$GNGGA,115519.300,2500.8264615,N,12132.4543552,E,2,60,0.45,16.222,M,15.25,M,27,3335*72
$GNRMC,115519.300,A,2500.8264615,N,12132.4543552,E,0.01,314.86,260623,,,D,V*04
$GPHDT,,T*1B
$GNACCURACY,2.4*10
$GNGGA,115519.400,2500.8264555,N,12132.4543552,E,2,60,0.45,16.204,M,15.25,M,27,3335*76
$GNRMC,115519.400,A,2500.8264555,N,12132.4543552,E,0.01,314.86,260623,,,D,V*04
$GPHDT,,T*1B
$GNACCURACY,2.4*10
$GNGGA,115519.500,2500.8264495,N,12132.4543612,E,2,60,0.45,16.185,M,15.25,M,27,3335*77
$GNRMC,115519.500,A,2500.8264495,N,12132.4543612,E,0.01,314.86,260623,,,D,V*0F
$GPHDT,,T*1B
$GNACCURACY,2.4*10
$GNGGA,115519.600,2500.8264435,N,12132.4543612,E,2,60,0.45,16.166,M,15.25,M,27,3335*73
$GNRMC,115519.600,A,2500.8264435,N,12132.4543612,E,0.01,314.86,260623,,,D,V*06
$GPHDT,,T*1B
$GNACCURACY,2.4*10
$GNGGA,115519.700,2500.8264375,N,12132.4543672,E,2,60,0.45,16.142,M,15.25,M,27,3335*71
$GNRMC,115519.700,A,2500.8264375,N,12132.4543672,E,0.01,314.86,260623,,,D,V*02
$GPHDT,,T*1B
$GNACCURACY,2.4*10
$GNGGA,115519.800,2500.8264255,N,12132.4543732,E,2,60,0.45,16.120,M,15.25,M,27,3335*7C
$GNRMC,115519.800,A,2500.8264255,N,12132.4543732,E,0.01,314.86,260623,,,D,V*0B
$GPHDT,,T*1B
$GNACCURACY,2.4*10
$GNGGA,115519.900,2500.8264195,N,12132.4543792,E,2,60,0.45,16.098,M,15.25,M,27,3335*7A
$GNRMC,115519.900,A,2500.8264195,N,12132.4543792,E,0.01,314.86,260623,,,D,V*0F
$GPHDT,,T*1B
$GNACCURACY,2.4*10
$GNGGA,115520.000,2500.8264135,N,12132.4543852,E,2,60,0.45,16.074,M,15.25,M,28,3335*7D
$GNRMC,115520.000,A,2500.8264135,N,12132.4543852,E,0.01,314.86,260623,,,D,V*05
$GPHDT,,T*1B
$GNACCURACY,2.4*10
$GNGGA,115520.100,2500.8264075,N,12132.4543912,E,2,60,0.45,16.054,M,15.25,M,28,3335*7E
$GNRMC,115520.100,A,2500.8264075,N,12132.4543912,E,0.01,314.86,260623,,,D,V*04
$GPHDT,,T*1B
$GNGSA,A,3,196,23,24,199,18,194,15,12,195,10,25,32,0.83,0.45,0.70,1*0C
$GNGSA,A,3,73,80,71,86,85,,,,,,,,0.83,0.45,0.70,2*06
$GNGSA,A,3,13,07,08,26,30,02,15,,,,,,0.83,0.45,0.70,3*02
$GNGSA,A,3,08,38,13,39,16,06,46,19,09,36,20,22,0.83,0.45,0.70,4*07
$GNGSA,A,3,35,37,,,,,,,,,,,0.83,0.45,0.70,4*0B
$GPGSV,4,1,16,196,76,074,34,23,63,348,34,24,60,034,38,199,60,167,38,1*61
$GPGSV,4,2,16,18,50,225,44,41,38,242,37,194,35,135,40,15,30,060,26,1*5E
$GPGSV,4,3,16,12,29,130,31,195,29,179,41,10,28,324,35,25,18,169,34,1*5F
$GPGSV,4,4,16,32,15,280,19,05,10,128,,28,04,222,,13,01,066,,1*64
$GPGSV,3,1,10,196,76,074,36,23,63,348,37,24,60,034,40,199,60,167,46,8*6E
$GPGSV,3,2,10,18,50,225,47,194,35,135,43,195,29,179,46,10,28,324,23,8*69
$GPGSV,3,3,10,25,18,169,35,32,15,280,24,8*63
$GLGSV,2,1,08,73,54,150,42,80,44,054,35,71,28,328,37,86,27,285,29,1*75
$GLGSV,2,2,08,85,24,232,40,74,16,185,26,87,02,332,,79,01,025,,1*77
$GAGSV,3,1,09,13,46,220,42,07,46,317,39,08,42,037,24,26,36,295,33,7*77
$GAGSV,3,2,09,30,34,135,35,02,27,073,17,15,13,173,17,27,09,184,,7*7F
$GAGSV,3,3,09,03,06,073,21,7*48
$GAGSV,2,1,07,07,46,317,41,13,46,220,42,08,42,037,19,26,36,295,35,1*79
$GAGSV,2,2,07,30,34,135,36,15,13,173,21,03,06,073,20,1*47
$GBGSV,5,1,18,08,86,337,39,38,80,161,46,13,72,320,41,39,68,299,43,1*75
$GBGSV,5,2,18,16,65,275,37,06,64,270,37,46,62,084,28,19,55,001,36,1*71
$GBGSV,5,3,18,09,51,250,29,36,48,183,44,20,39,079,30,22,18,310,25,1*72
$GBGSV,5,4,18,35,17,257,33,37,14,041,,29,11,203,15,07,06,190,,1*7D
$GBGSV,5,5,18,44,04,301,,45,01,207,,1*7C
$GBGSV,2,1,07,38,80,161,46,39,68,299,42,46,62,084,29,19,55,001,19,4*70
$GBGSV,2,2,07,36,48,183,45,35,17,257,30,37,14,041,26,4*45
$GNACCURACY,2.4*10
$PAIRSAT,1,35,1,0,200,2,0,200,3,0,200,4,0,200,5,0,201,6,0,200,7,0,200,8,0,200,9,0,200,10,0,221,11,0,200,12,0,201,13,0,201,14,0,200,15,0,201,16,0,200,17,0,200,18,0,221,19,0,200,20,0,200,21,0,200,23,0,221,24,0,221,25,0,221,26,0,200,27,0,200,28,0,200,29,0,200,30,0,200,31,0,200,32,0,221,194,0,621,195,0,621,196,0,620,199,0,621*6B
$PAIRSAT,2,24,65,0,200,66,0,200,67,0,200,68,0,200,69,0,200,70,0,200,71,0,201,72,0,200,73,0,201,74,0,200,75,0,200,76,0,200,77,0,200,78,0,200,79,0,201,80,0,201,81,0,200,82,0,200,83,0,200,84,0,200,85,0,201,86,0,201,87,0,200,88,0,200*7A
$PAIRSAT,3,23,2,0,1221,3,0,1221,4,0,1200,5,0,200,7,0,1221,8,0,1221,9,0,1200,10,0,1200,11,0,1200,12,0,1200,13,0,1221,15,0,1221,19,0,1200,21,0,1200,24,0,1200,25,0,1200,26,0,1221,27,0,1200,30,0,1221,31,0,1200,33,0,1200,34,0,1200,36,0,1200*6A
$PAIRSAT,4,50,1,0,200,2,0,200,3,0,200,4,0,200,5,0,200,6,0,201,7,0,200,8,0,201,9,0,201,10,0,200,11,0,200,12,0,200,13,0,201,14,0,200,15,0,200,16,0,201,19,0,621,20,0,621,21,0,600,22,0,621,23,0,600,24,0,600,25,0,600,26,0,600,27,0,600,28,0,600,29,0,621,30,0,600,31,0,200,32,0,600,33,0,600,34,0,600,35,0,621,36,0,621,37,0,621,38,0,621,39,0,621,40,0,600,41,0,600,42,0,600,43,0,600,44,0,600,45,0,600,46,0,621,56,0,200,57,0,200,58,0,200,59,0,600,60,0,600,61,0,600*41
$PAIRDGP,10,5,10,12,15,18,23,24,25,28,32*45
$GNGGA,115520.200,2500.8264015,N,12132.4543972,E,2,60,0.45,16.032,M,15.25,M,28,3335*7D
$GNRMC,115520.200,A,2500.8264015,N,12132.4543972,E,0.01,314.86,260623,,,D,V*07
$GPHDT,,T*1B
$GNACCURACY,2.4*10
$GNGGA,115520.300,2500.8263955,N,12132.4544032,E,2,60,0.45,16.007,M,15.25,M,28,3335*7A
$GNRMC,115520.300,A,2500.8263955,N,12132.4544032,E,0.01,314.86,260623,,,D,V*06
$GPHDT,,T*1B
$GNACCURACY,2.4*10
$GNGGA,115520.400,2500.8263895,N,12132.4544092,E,2,61,0.45,15.985,M,15.25,M,28,3335*7B
$GNRMC,115520.400,A,2500.8263895,N,12132.4544092,E,0.01,314.86,260623,,,D,V*06
$GPHDT,,T*1B
$GNACCURACY,2.5*11
$GNGGA,115520.500,2500.8263835,N,12132.4544152,E,2,61,0.45,15.962,M,15.25,M,28,3335*74
$GNRMC,115520.500,A,2500.8263835,N,12132.4544152,E,0.01,314.86,260623,,,D,V*00
$GPHDT,,T*1B
$GNACCURACY,2.5*11
$GNGGA,115520.600,2500.8263775,N,12132.4544212,E,2,61,0.45,15.939,M,15.25,M,28,3335*75
$GNRMC,115520.600,A,2500.8263775,N,12132.4544212,E,0.01,314.86,260623,,,D,V*0F
$GPHDT,,T*1B
$GNACCURACY,2.4*10
$GNGGA,115520.700,2500.8263655,N,12132.4544212,E,2,61,0.45,15.912,M,15.25,M,28,3335*7E
$GNRMC,115520.700,A,2500.8263655,N,12132.4544212,E,0.01,314.86,260623,,,D,V*0D
$GPHDT,,T*1B
$GNACCURACY,2.4*10
$GNGGA,115520.800,2500.8263595,N,12132.4544272,E,2,61,0.45,15.884,M,15.25,M,28,3335*76
$GNRMC,115520.800,A,2500.8263595,N,12132.4544272,E,0.01,314.86,260623,,,D,V*0B
$GPHDT,,T*1B
$GNACCURACY,2.4*10
$GNGGA,115520.900,2500.8263475,N,12132.4544272,E,2,62,0.44,15.856,M,15.25,M,28,3335*75
$GNRMC,115520.900,A,2500.8263475,N,12132.4544272,E,0.02,314.86,260623,,,D,V*06
$GPHDT,,T*1B
$GNACCURACY,2.4*10
$GNGGA,115521.000,2500.8263415,N,12132.4544272,E,2,62,0.44,15.830,M,15.25,M,29,3335*7A
$GNRMC,115521.000,A,2500.8263415,N,12132.4544272,E,0.02,314.86,260623,,,D,V*08
$GPHDT,,T*1B
$GNACCURACY,2.4*10
$GNGGA,115521.100,2500.8263295,N,12132.4544332,E,2,62,0.44,15.803,M,15.25,M,29,3335*70
$GNRMC,115521.100,A,2500.8263295,N,12132.4544332,E,0.02,314.86,260623,,,D,V*02
$GPHDT,,T*1B
$GNGSA,A,3,196,23,199,24,18,194,15,12,195,10,25,32,0.80,0.44,0.67,1*08
$GNGSA,A,3,05,,,,,,,,,,,,0.80,0.44,0.67,1*0D
$GNGSA,A,3,73,80,71,86,85,,,,,,,,0.80,0.44,0.67,2*02
$GNGSA,A,3,07,13,08,26,30,02,15,,,,,,0.80,0.44,0.67,3*06
$GNGSA,A,3,08,38,13,39,16,06,46,19,09,36,20,22,0.80,0.44,0.67,4*03
$GNGSA,A,3,35,37,,,,,,,,,,,0.80,0.44,0.67,4*0F
$GPGSV,4,1,16,196,76,074,34,23,63,348,34,199,60,167,38,24,60,034,38,1*61
$GPGSV,4,2,16,18,50,225,44,41,38,242,38,194,35,135,40,15,30,060,27,1*50
$GPGSV,4,3,16,12,29,130,32,195,29,179,41,10,28,324,34,25,18,169,34,1*5D
$GPGSV,4,4,16,32,15,280,21,05,10,128,19,28,04,222,,13,01,066,,1*67
$GPGSV,3,1,10,196,76,074,36,23,63,348,37,24,60,034,40,199,60,167,46,8*6E
$GPGSV,3,2,10,18,50,225,45,194,35,135,43,195,29,179,46,10,28,324,29,8*61
$GPGSV,3,3,10,25,18,169,35,32,15,280,25,8*62
$GLGSV,2,1,07,73,54,150,42,80,44,054,33,71,28,328,37,86,27,285,29,1*7C
$GLGSV,2,2,07,85,24,232,38,74,16,185,26,79,01,025,,1*48
$GAGSV,3,1,09,07,46,317,38,13,46,220,43,08,42,037,24,26,36,295,33,7*77
$GAGSV,3,2,09,30,34,135,36,02,27,073,17,15,13,173,18,27,09,184,,7*73
$GAGSV,3,3,09,03,06,073,20,7*49
$GAGSV,2,1,07,07,46,317,41,13,46,220,42,08,42,037,21,26,36,295,36,1*71
$GAGSV,2,2,07,30,34,135,37,15,13,173,22,03,06,073,23,1*46
$GBGSV,4,1,16,08,86,337,39,38,80,161,46,13,72,320,43,39,68,299,44,1*7F
$GBGSV,4,2,16,16,65,275,35,06,64,270,37,46,62,084,27,19,55,001,36,1*73
$GBGSV,4,3,16,09,51,250,29,36,48,183,44,20,39,079,28,22,18,310,25,1*74
$GBGSV,4,4,16,35,17,257,33,37,14,041,35,29,11,203,15,44,04,301,,1*7B
$GBGSV,2,1,08,38,80,161,46,39,68,299,43,46,62,084,29,19,55,001,21,4*75
$GBGSV,2,2,08,36,48,183,45,22,18,310,25,35,17,257,21,37,14,041,26,4*76
$GNACCURACY,2.4*10
$PAIRSAT,1,35,1,0,200,2,0,200,3,0,200,4,0,200,5,0,201,6,0,200,7,0,200,8,0,200,9,0,200,10,0,221,11,0,200,12,0,201,13,0,201,14,0,200,15,0,201,16,0,200,17,0,200,18,0,221,19,0,200,20,0,200,21,0,200,23,0,221,24,0,221,25,0,221,26,0,200,27,0,200,28,0,200,29,0,200,30,0,200,31,0,200,32,0,221,194,0,621,195,0,621,196,0,620,199,0,621*6B
$PAIRSAT,2,24,65,0,200,66,0,200,67,0,200,68,0,200,69,0,200,70,0,200,71,0,201,72,0,200,73,0,201,74,0,200,75,0,200,76,0,200,77,0,200,78,0,200,79,0,201,80,0,201,81,0,200,82,0,200,83,0,200,84,0,200,85,0,201,86,0,201,87,0,200,88,0,200*7A
$PAIRSAT,3,23,2,0,1221,3,0,1221,4,0,1200,5,0,200,7,0,1221,8,0,1221,9,0,1200,10,0,1200,11,0,1200,12,0,1200,13,0,1221,15,0,1221,19,0,1200,21,0,1200,24,0,1200,25,0,1200,26,0,1221,27,0,1200,30,0,1221,31,0,1200,33,0,1200,34,0,1200,36,0,1200*6A
$PAIRSAT,4,50,1,0,200,2,0,200,3,0,200,4,0,200,5,0,200,6,0,201,7,0,200,8,0,201,9,0,201,10,0,200,11,0,200,12,0,200,13,0,201,14,0,200,15,0,200,16,0,201,19,0,621,20,0,621,21,0,600,22,0,621,23,0,600,24,0,600,25,0,600,26,0,600,27,0,600,28,0,600,29,0,621,30,0,600,31,0,200,32,0,600,33,0,600,34,0,600,35,0,621,36,0,621,37,0,621,38,0,621,39,0,621,40,0,600,41,0,600,42,0,600,43,0,600,44,0,600,45,0,600,46,0,621,56,0,200,57,0,200,58,0,200,59,0,600,60,0,600,61,0,600*41
$PAIRDGP,10,5,10,12,15,18,23,24,25,28,32*45
$GNGGA,115521.200,2500.8263235,N,12132.4544332,E,2,63,0.44,15.775,M,15.25,M,29,3335*76
$GNRMC,115521.200,A,2500.8263235,N,12132.4544332,E,0.02,314.86,260623,,,D,V*0B
$GPHDT,,T*1B
$GNACCURACY,2.4*10
$GNGGA,115521.300,2500.8263175,N,12132.4544452,E,2,63,0.44,15.756,M,15.25,M,29,3335*70
$GNRMC,115521.300,A,2500.8263175,N,12132.4544452,E,0.01,314.86,260623,,,D,V*0F
$GPHDT,,T*1B
$GNACCURACY,2.4*10
$GNGGA,115521.400,2500.8263115,N,12132.4544512,E,2,63,0.44,15.738,M,15.25,M,29,3335*7C
$GNRMC,115521.400,A,2500.8263115,N,12132.4544512,E,0.01,314.86,260623,,,D,V*0B
$GPHDT,,T*1B
$GNACCURACY,2.4*10
$GNGGA,115521.500,2500.8262995,N,12132.4544632,E,2,63,0.44,15.721,M,15.25,M,29,3335*75
$GNRMC,115521.500,A,2500.8262995,N,12132.4544632,E,0.01,314.86,260623,,,D,V*0A
$GPHDT,,T*1B
$GNACCURACY,2.4*10
$GNGGA,115521.600,2500.8262935,N,12132.4544692,E,2,63,0.44,15.702,M,15.25,M,29,3335*77
$GNRMC,115521.600,A,2500.8262935,N,12132.4544692,E,0.01,314.86,260623,,,D,V*09
$GPHDT,,T*1B
$GNACCURACY,2.4*10
$GNGGA,115521.700,2500.8262875,N,12132.4544812,E,2,63,0.44,15.685,M,15.25,M,29,3335*7B
$GNRMC,115521.700,A,2500.8262875,N,12132.4544812,E,0.01,314.86,260623,,,D,V*0B
$GPHDT,,T*1B
$GNACCURACY,2.5*11
$GNGGA,115521.800,2500.8262815,N,12132.4544932,E,2,62,0.45,15.669,M,15.25,M,29,3335*73
$GNRMC,115521.800,A,2500.8262815,N,12132.4544932,E,0.01,314.86,260623,,,D,V*01
$GPHDT,,T*1B
$GNACCURACY,2.4*10
$GNGGA,115521.900,2500.8262755,N,12132.4544992,E,2,62,0.45,15.654,M,15.25,M,29,3335*7D
$GNRMC,115521.900,A,2500.8262755,N,12132.4544992,E,0.01,314.86,260623,,,D,V*01
$GPHDT,,T*1B
$GNACCURACY,2.5*11
$GNGGA,115522.000,2500.8262695,N,12132.4545172,E,2,61,0.47,15.639,M,15.25,M,30,3335*7F
$GNRMC,115522.000,A,2500.8262695,N,12132.4545172,E,0.01,314.86,260623,,,D,V*01
$GPHDT,,T*1B
$GNACCURACY,2.5*11
$GNGGA,115522.100,2500.8262635,N,12132.4545232,E,2,61,0.47,15.624,M,15.25,M,30,3335*7F
$GNRMC,115522.100,A,2500.8262635,N,12132.4545232,E,0.01,314.86,260623,,,D,V*0D
$GPHDT,,T*1B
$GNGSA,A,3,196,23,24,199,18,194,12,195,10,25,32,,0.85,0.47,0.71,1*0D
$GNGSA,A,3,73,80,71,86,85,,,,,,,,0.85,0.47,0.71,2*03
$GNGSA,A,3,07,13,08,26,30,02,15,,,,,,0.85,0.47,0.71,3*07
$GNGSA,A,3,08,38,13,39,16,06,46,19,09,36,20,22,0.85,0.47,0.71,4*02
$GNGSA,A,3,35,37,,,,,,,,,,,0.85,0.47,0.71,4*0E
$GPGSV,4,1,16,196,76,074,34,23,63,348,35,24,60,034,37,199,60,167,38,1*6F
$GPGSV,4,2,16,18,50,225,44,41,38,242,40,194,36,135,40,15,30,060,27,1*5C
$GPGSV,4,3,16,12,29,130,32,195,29,179,41,10,28,324,33,25,18,169,34,1*5A
$GPGSV,4,4,16,32,15,280,22,05,10,128,,28,04,222,,13,01,066,,1*6C
$GPGSV,3,1,10,196,76,074,36,23,63,348,36,24,60,034,39,199,60,167,46,8*61
$GPGSV,3,2,10,18,50,225,44,194,36,135,43,195,29,179,46,10,28,324,30,8*6B
$GPGSV,3,3,10,25,18,169,35,32,15,280,25,8*62
$GLGSV,2,1,06,73,54,150,42,80,44,054,32,71,28,328,38,86,27,285,31,1*7A
$GLGSV,2,2,06,85,24,232,37,79,01,025,,1*7A
$GAGSV,3,1,09,07,46,317,38,13,46,220,43,08,42,037,27,26,36,295,33,7*74
$GAGSV,3,2,09,30,34,135,36,02,27,073,16,15,13,173,19,27,09,184,,7*73
$GAGSV,3,3,09,03,06,073,19,7*43
$GAGSV,2,1,07,07,46,317,41,13,46,220,42,08,42,037,22,26,36,295,36,1*72
$GAGSV,2,2,07,30,34,135,37,15,13,173,24,03,06,073,24,1*47
$GBGSV,4,1,15,08,86,337,39,38,80,161,46,13,72,320,43,39,68,299,44,1*7C
$GBGSV,4,2,15,16,65,275,35,06,64,270,36,46,62,084,29,19,55,001,36,1*7F
$GBGSV,4,3,15,09,51,250,28,36,48,183,44,20,39,079,28,22,18,310,24,1*77
$GBGSV,4,4,15,35,17,257,34,37,14,041,35,29,11,203,15,1*49
$GBGSV,2,1,08,38,80,161,46,39,68,299,43,46,62,084,29,19,55,001,21,4*75
$GBGSV,2,2,08,36,48,183,45,22,18,310,24,35,17,257,25,37,14,041,26,4*73
$GNACCURACY,2.5*11
$PAIRSAT,1,35,1,0,200,2,0,200,3,0,200,4,0,200,5,0,201,6,0,200,7,0,200,8,0,200,9,0,200,10,0,221,11,0,200,12,0,201,13,0,201,14,0,200,15,0,201,16,0,200,17,0,200,18,0,221,19,0,200,20,0,200,21,0,200,23,0,221,24,0,221,25,0,221,26,0,200,27,0,200,28,0,200,29,0,200,30,0,200,31,0,200,32,0,221,194,0,621,195,0,621,196,0,620,199,0,621*6B
$PAIRSAT,2,24,65,0,200,66,0,200,67,0,200,68,0,200,69,0,200,70,0,200,71,0,201,72,0,200,73,0,201,74,0,200,75,0,200,76,0,200,77,0,200,78,0,200,79,0,201,80,0,201,81,0,200,82,0,200,83,0,200,84,0,200,85,0,201,86,0,201,87,0,200,88,0,200*7A
$PAIRSAT,3,23,2,0,1221,3,0,1221,4,0,1200,5,0,200,7,0,1221,8,0,1221,9,0,1200,10,0,1200,11,0,1200,12,0,1200,13,0,1221,15,0,1221,19,0,1200,21,0,1200,24,0,1200,25,0,1200,26,0,1221,27,0,1200,30,0,1221,31,0,1200,33,0,1200,34,0,1200,36,0,1200*6A
$PAIRSAT,4,50,1,0,200,2,0,200,3,0,200,4,0,200,5,0,200,6,0,201,7,0,200,8,0,201,9,0,201,10,0,200,11,0,200,12,0,200,13,0,201,14,0,200,15,0,200,16,0,201,19,0,621,20,0,621,21,0,600,22,0,621,23,0,600,24,0,600,25,0,600,26,0,600,27,0,600,28,0,600,29,0,621,30,0,600,31,0,200,32,0,600,33,0,600,34,0,600,35,0,621,36,0,621,37,0,621,38,0,621,39,0,621,40,0,600,41,0,600,42,0,600,43,0,600,44,0,600,45,0,600,46,0,621,56,0,200,57,0,200,58,0,200,59,0,600,60,0,600,61,0,600*41
$PAIRDGP,10,5,10,12,15,18,23,24,25,28,32*45
$GNGGA,115522.200,2500.8262575,N,12132.4545352,E,2,61,0.47,15.609,M,15.25,M,30,3335*73
$GNRMC,115522.200,A,2500.8262575,N,12132.4545352,E,0.01,314.86,260623,,,D,V*0E
$GPHDT,,T*1B
$GNACCURACY,2.4*10
$GNGGA,115522.300,2500.8262515,N,12132.4545472,E,2,62,0.45,15.597,M,15.25,M,30,3335*74
$GNRMC,115522.300,A,2500.8262515,N,12132.4545472,E,0.01,314.86,260623,,,D,V*0C
$GPHDT,,T*1B
$GNACCURACY,2.4*10
$GNGGA,115522.400,2500.8262455,N,12132.4545532,E,2,62,0.45,15.573,M,15.25,M,30,3335*79
$GNRMC,115522.400,A,2500.8262455,N,12132.4545532,E,0.01,314.86,260623,,,D,V*0B
$GPHDT,,T*1B
$GNACCURACY,2.4*10
$GNGGA,115522.500,2500.8262395,N,12132.4545532,E,2,62,0.45,15.550,M,15.25,M,30,3335*72
$GNRMC,115522.500,A,2500.8262395,N,12132.4545532,E,0.01,314.86,260623,,,D,V*01
$GPHDT,,T*1B
$GNACCURACY,2.4*10
$GNGGA,115522.600,2500.8262455,N,12132.4545472,E,2,62,0.45,15.538,M,15.25,M,30,3335*71
$GNRMC,115522.600,A,2500.8262455,N,12132.4545472,E,0.01,314.86,260623,,,D,V*0C
$GPHDT,,T*1B
$GNACCURACY,2.4*10
$GNGGA,115522.700,2500.8262455,N,12132.4545472,E,2,62,0.45,15.531,M,15.25,M,30,3335*79
$GNRMC,115522.700,A,2500.8262455,N,12132.4545472,E,0.01,314.86,260623,,,D,V*0D
$GPHDT,,T*1B
$GNACCURACY,2.4*10
$GNGGA,115522.800,2500.8262515,N,12132.4545412,E,2,61,0.47,15.518,M,15.25,M,30,3335*7F
$GNRMC,115522.800,A,2500.8262515,N,12132.4545412,E,0.01,314.86,260623,,,D,V*01
$GPHDT,,T*1B
