$FW : RTK35X,V1.1X0314AS,Lib20210517,1*54
$Tool : LOCOSYS , GNSS Firebird , v1.0.0.19*39
$---------------------------------------------------*2D
01,6,0,200,7,0,200,8,0,200,9,0,200,10,0,221,11,0,200,12,0,201,13,0,201,14,0,200,15,0,201,16,0,200,17,0,200,18,0,221,19,0,200,20,0,200,21,0,200,23,0,221,24,0,221,25,0,221,26,0,200,27,0,200,28,0,200,29,0,200,30,0,200,31,0,200,32,0,221,194,0,621,195,0,621,196,0,620,199,0,621*6B
$PAIRSAT,2,24,65,0,200,66,0,200,67,0,200,68,0,200,69,0,200,70,0,200,71,0,201,72,0,200,73,0,201,74,0,200,75,0,200,76,0,200,77,0,200,78,0,200,79,0,201,80,0,201,81,0,200,82,0,200,83,0,200,84,0,200,85,0,201,86,0,201,87,0,200,88,0,200*7A
$PAIRSAT,3,23,2,0,1221,3,0,1221,4,0,1200,5,0,200,7,0,1221,8,0,1221,9,0,1200,10,0,1200,11,0,1200,12,0,1200,13,0,1221,15,0,1221,19,0,1200,21,0,1200,24,0,1200,25,0,1200,26,0,1221,27,0,1200,30,0,1221,31,0,1200,33,0,1200,34,0,1200,36,0,1200*6A
$PAIRSAT,4,50,1,0,200,2,0,200,3,0,200,4,0,200,5,0,200,6,0,201,7,0,200,8,0,201,9,0,201,10,0,200,11,0,200,12,0,200,13,0,201,14,0,200,15,0,200,16,0,201,19,0,621,20,0,621,21,0,600,22,0,621,23,0,600,24,0,600,25,0,600,26,0,600,27,0,600,28,0,600,29,0,621,30,0,600,31,0,200,32,0,600,33,0,600,34,0,600,35,0,621,36,0,621,37,0,621,38,0,621,39,0,621,40,0,600,41,0,600,42,0,600,43,0,600,44,0,600,45,0,600,46,0,621,56,0,200,57,0,200,58,0,200,59,0,600,60,0,600,61,0,600*41
$PAIRDGP,10,5,10,12,15,18,23,24,25,28,32*45
$GNGGA,115658.200,2500.8277875,N,12132.4542623,E,2,61,0.45,16.431,M,15.25,M,5,3335*4E
$GNRMC,115658.200,A,2500.8277875,N,12132.4542623,E,0.05,314.86,260623,,,D,V*09
$GPHDT,,T*1B
$GNACCURACY,2.6*12
$GNGGA,115658.300,2500.8277635,N,12132.4542563,E,2,61,0.45,16.433,M,15.25,M,5,3335*40
$GNRMC,115658.300,A,2500.8277635,N,12132.4542563,E,0.04,314.86,260623,,,D,V*04
$GPHDT,,T*1B
$GNACCURACY,2.6*12
$GNGGA,115658.400,2500.8277455,N,12132.4542443,E,2,61,0.45,16.435,M,15.25,M,5,3335*46
$GNRMC,115658.400,A,2500.8277455,N,12132.4542443,E,0.04,314.86,260623,,,D,V*04
$GPHDT,,T*1B
$GNACCURACY,2.6*12
$GNGGA,115658.500,2500.8277215,N,12132.4542383,E,2,62,0.45,16.438,M,15.25,M,5,3335*40
$GNRMC,115658.500,A,2500.8277215,N,12132.4542383,E,0.04,314.86,260623,,,D,V*0C
$GPHDT,,T*1B
$GNACCURACY,2.6*12
$GNGGA,115658.600,2500.8277095,N,12132.4542323,E,2,63,0.45,16.440,M,15.25,M,5,3335*4D
$GNRMC,115658.600,A,2500.8277095,N,12132.4542323,E,0.04,314.86,260623,,,D,V*0F
$GPHDT,,T*1B
$GNACCURACY,2.6*12
$GNGGA,115658.700,2500.8276915,N,12132.4542263,E,2,63,0.45,16.443,M,15.25,M,5,3335*4A
$GNRMC,115658.700,A,2500.8276915,N,12132.4542263,E,0.04,314.86,260623,,,D,V*0B
$GPHDT,,T*1B
$GNACCURACY,2.6*12
$GNGGA,115658.800,2500.8276735,N,12132.4542143,E,2,62,0.45,16.445,M,15.25,M,5,3335*4F
$GNRMC,115658.800,A,2500.8276735,N,12132.4542143,E,0.04,314.86,260623,,,D,V*09
$GPHDT,,T*1B
$GNACCURACY,2.6*12
$GNGGA,115658.900,2500.8276615,N,12132.4542083,E,2,61,0.45,16.445,M,15.25,M,5,3335*43
$GNRMC,115658.900,A,2500.8276615,N,12132.4542083,E,0.04,314.86,260623,,,D,V*06
$GPHDT,,T*1B
$GNACCURACY,2.6*12
$GNGGA,115659.000,2500.8276495,N,12132.4542023,E,2,60,0.45,16.445,M,15.25,M,6,3335*49
$GNRMC,115659.000,A,2500.8276495,N,12132.4542023,E,0.04,314.86,260623,,,D,V*0E
$GPHDT,,T*1B
$GNACCURACY,2.6*12
$GNGGA,115659.100,2500.8276375,N,12132.4542023,E,2,60,0.45,16.445,M,15.25,M,6,3335*41
$GNRMC,115659.100,A,2500.8276375,N,12132.4542023,E,0.03,314.86,260623,,,D,V*01
$GPHDT,,T*1B
$GNGSA,A,3,196,23,199,24,18,194,12,10,195,25,32,,0.72,0.45,0.56,1*02
$GNGSA,A,3,73,80,71,86,85,,,,,,,,0.72,0.45,0.56,2*0C
$GNGSA,A,3,07,13,08,26,30,02,15,,,,,,0.72,0.45,0.56,3*08
$GNGSA,A,3,08,38,13,39,16,06,46,19,09,36,20,22,0.72,0.45,0.56,4*0D
$GNGSA,A,3,35,37,29,,,,,,,,,,0.72,0.45,0.56,4*0A
$GPGSV,4,1,16,196,76,075,35,23,64,348,35,199,60,167,31,24,59,034,35,1*69
$GPGSV,4,2,16,18,49,224,44,41,38,242,42,194,36,135,42,15,30,061,25,1*56
$GPGSV,4,3,16,12,29,129,22,10,29,324,38,195,29,179,36,25,19,169,31,1*5D
$GPGSV,4,4,16,32,15,281,18,05,10,128,,28,05,223,,13,01,067,,1*65
$GPGSV,2,1,08,196,76,075,32,23,64,348,38,199,60,167,36,24,59,034,36,8*67
$GPGSV,2,2,08,18,49,224,44,194,36,135,44,10,29,324,35,195,29,179,34,8*6C
$GLGSV,2,1,08,73,54,149,44,80,44,052,25,70,42,031,,71,28,329,37,1*71
$GLGSV,2,2,08,86,27,284,30,85,24,231,38,74,17,185,16,69,08,089,,1*7E
$GAGSV,3,1,10,07,46,318,28,13,46,219,42,08,42,038,18,26,36,294,38,7*70
$GAGSV,3,2,10,30,35,135,34,02,27,073,19,15,12,173,17,27,09,183,18,7*76
$GAGSV,3,3,10,03,06,074,,33,01,327,,7*73
$GAGSV,2,1,06,07,46,318,42,13,46,219,42,08,42,038,34,26,36,294,35,1*7F
$GAGSV,2,2,06,30,35,135,42,02,27,073,13,1*76
$GBGSV,4,1,16,08,86,333,38,38,80,162,43,13,73,319,43,39,68,300,43,1*71
$GBGSV,4,2,16,16,65,276,39,06,64,271,39,46,62,083,31,19,55,002,33,1*75
$GBGSV,4,3,16,09,51,250,24,36,48,183,39,20,39,079,25,22,18,311,32,1*79
$GBGSV,4,4,16,35,16,256,36,37,14,041,27,29,11,203,15,07,06,190,,1*72
$GBGSV,3,1,09,38,80,162,43,39,68,300,43,46,62,083,37,19,55,002,31,4*78
$GBGSV,3,2,09,36,48,183,40,20,39,079,25,35,16,256,39,37,14,041,27,4*76
$GBGSV,3,3,09,29,11,203,18,4*49
$GNACCURACY,2.6*12
$PAIRSAT,1,35,1,0,200,2,0,200,3,0,200,4,0,200,5,0,201,6,0,200,7,0,200,8,0,200,9,0,200,10,0,221,11,0,200,12,0,201,13,0,201,14,0,200,15,0,201,16,0,200,17,0,200,18,0,221,19,0,200,20,0,200,21,0,200,23,0,221,24,0,221,25,0,221,26,0,200,27,0,200,28,0,200,29,0,200,30,0,200,31,0,200,32,0,221,194,0,621,195,0,621,196,0,620,199,0,621*6B
$PAIRSAT,2,24,65,0,200,66,0,200,67,0,200,68,0,200,69,0,200,70,0,200,71,0,201,72,0,200,73,0,201,74,0,200,75,0,200,76,0,200,77,0,200,78,0,200,79,0,201,80,0,201,81,0,200,82,0,200,83,0,200,84,0,200,85,0,201,86,0,201,87,0,200,88,0,200*7A
$PAIRSAT,3,23,2,0,1221,3,0,1221,4,0,1200,5,0,200,7,0,1221,8,0,1221,9,0,1200,10,0,1200,11,0,1200,12,0,1200,13,0,1221,15,0,1221,19,0,1200,21,0,1200,24,0,1200,25,0,1200,26,0,1221,27,0,1200,30,0,1221,31,0,1200,33,0,1200,34,0,1200,36,0,1200*6A
$PAIRSAT,4,50,1,0,200,2,0,200,3,0,200,4,0,200,5,0,200,6,0,201,7,0,200,8,0,201,9,0,201,10,0,200,11,0,200,12,0,200,13,0,201,14,0,200,15,0,200,16,0,201,19,0,621,20,0,621,21,0,600,22,0,621,23,0,600,24,0,600,25,0,600,26,0,600,27,0,600,28,0,600,29,0,621,30,0,600,31,0,200,32,0,600,33,0,600,34,0,600,35,0,621,36,0,621,37,0,621,38,0,621,39,0,621,40,0,600,41,0,600,42,0,600,43,0,600,44,0,600,45,0,600,46,0,621,56,0,200,57,0,200,58,0,200,59,0,600,60,0,600,61,0,600*41
$PAIRDGP,10,5,10,12,15,18,23,24,25,28,32*45
$GNGGA,115659.200,2500.8276075,N,12132.4542023,E,2,60,0.45,16.464,M,15.25,M,6,3335*42
$GNRMC,115659.200,A,2500.8276075,N,12132.4542023,E,0.03,314.86,260623,,,D,V*01
$GPHDT,,T*1B
$GNACCURACY,2.5*11
$GNGGA,115659.300,2500.8275775,N,12132.4541963,E,2,61,0.45,16.484,M,15.25,M,6,3335*46
$GNRMC,115659.300,A,2500.8275775,N,12132.4541963,E,0.04,314.86,260623,,,D,V*0D
$GPHDT,,T*1B
$GNACCURACY,2.5*11
$GNGGA,115659.400,2500.8275535,N,12132.4541963,E,2,61,0.45,16.505,M,15.25,M,6,3335*4F
$GNRMC,115659.400,A,2500.8275535,N,12132.4541963,E,0.04,314.86,260623,,,D,V*0C
$GPHDT,,T*1B
$GNACCURACY,2.5*11
$GNGGA,115659.500,2500.8275355,N,12132.4541903,E,2,61,0.45,16.528,M,15.25,M,6,3335*47
$GNRMC,115659.500,A,2500.8275355,N,12132.4541903,E,0.04,314.86,260623,,,D,V*0B
$GPHDT,,T*1B
$GNACCURACY,2.5*11
$GNGGA,115659.600,2500.8275115,N,12132.4541843,E,2,61,0.45,16.546,M,15.25,M,6,3335*4F
$GNRMC,115659.600,A,2500.8275115,N,12132.4541843,E,0.04,314.86,260623,,,D,V*0B
$GPHDT,,T*1B
$GNACCURACY,2.5*11
$GNGGA,115659.700,2500.8274995,N,12132.4541843,E,2,61,0.45,16.563,M,15.25,M,6,3335*48
$GNRMC,115659.700,A,2500.8274995,N,12132.4541843,E,0.03,314.86,260623,,,D,V*0C
$GPHDT,,T*1B
$GNACCURACY,2.5*11
$GNGGA,115659.800,2500.8274815,N,12132.4541783,E,2,61,0.45,16.579,M,15.25,M,6,3335*46
$GNRMC,115659.800,A,2500.8274815,N,12132.4541783,E,0.04,314.86,260623,,,D,V*0E
$GPHDT,,T*1B
$GNACCURACY,2.5*11
$GNGGA,115659.900,2500.8274755,N,12132.4541783,E,2,61,0.45,16.593,M,15.25,M,6,3335*48
$GNRMC,115659.900,A,2500.8274755,N,12132.4541783,E,0.03,314.86,260623,,,D,V*03
$GPHDT,,T*1B
$GNACCURACY,2.5*11
$GNGGA,115700.000,2500.8274575,N,12132.4541723,E,2,61,0.45,16.604,M,15.25,M,7,3335*4A
$GNRMC,115700.000,A,2500.8274575,N,12132.4541723,E,0.04,314.86,260623,,,D,V*0A
$GPHDT,,T*1B
$GNACCURACY,2.5*11
$GNGGA,115700.100,2500.8274455,N,12132.4541663,E,2,62,0.45,16.620,M,15.25,M,7,3335*48
$GNRMC,115700.100,A,2500.8274455,N,12132.4541663,E,0.03,314.86,260623,,,D,V*0A
$GPHDT,,T*1B
$GNGSA,A,3,196,23,199,24,18,194,15,12,10,195,25,32,0.72,0.45,0.56,1*06
$GNGSA,A,3,73,80,71,86,85,,,,,,,,0.72,0.45,0.56,2*0C
$GNGSA,A,3,07,13,08,26,30,02,15,,,,,,0.72,0.45,0.56,3*08
$GNGSA,A,3,08,38,13,39,16,06,46,19,09,36,20,22,0.72,0.45,0.56,4*0D
$GNGSA,A,3,35,37,29,,,,,,,,,,0.72,0.45,0.56,4*0A
$GPGSV,4,1,16,196,76,075,35,23,64,348,35,199,60,167,31,24,59,034,35,1*69
$GPGSV,4,2,16,18,49,224,44,41,38,242,42,194,36,135,42,15,30,061,27,1*54
$GPGSV,4,3,16,12,29,129,22,10,29,324,39,195,29,179,37,25,19,169,31,1*5D
$GPGSV,4,4,16,32,15,281,23,05,10,128,,28,05,223,,13,01,067,,1*6D
$GPGSV,2,1,08,196,76,075,31,23,64,348,37,199,60,167,38,24,59,034,36,8*65
$GPGSV,2,2,08,18,49,224,44,194,36,135,44,10,29,324,35,195,29,179,32,8*6A
$GLGSV,2,1,08,73,54,149,44,80,44,052,29,70,42,031,,71,28,329,36,1*7C
$GLGSV,2,2,08,86,27,284,29,85,24,231,39,74,17,185,15,69,08,089,,1*74
$GAGSV,3,1,10,07,46,318,24,13,46,219,42,08,42,038,18,26,36,294,39,7*7D
$GAGSV,3,2,10,30,35,135,36,02,27,073,19,15,12,173,20,27,09,183,19,7*71
$GAGSV,3,3,10,03,05,074,,33,01,327,,7*70
$GAGSV,2,1,07,07,46,318,42,13,46,219,42,08,42,038,33,26,36,294,35,1*79
$GAGSV,2,2,07,30,35,135,42,02,27,073,13,15,12,173,21,1*46
$GBGSV,4,1,15,08,86,333,38,38,80,162,43,13,73,319,43,39,68,300,44,1*75
$GBGSV,4,2,15,16,65,276,40,06,64,271,41,46,62,083,30,19,55,002,33,1*76
$GBGSV,4,3,15,09,51,250,29,36,48,183,40,20,39,079,25,22,18,311,32,1*79
$GBGSV,4,4,15,35,16,256,36,37,14,041,25,29,11,203,14,1*4B
$GBGSV,3,1,09,38,80,162,43,39,68,300,44,46,62,083,37,19,55,002,30,4*7E
$GBGSV,3,2,09,36,48,183,39,20,39,079,22,35,16,256,39,37,14,041,28,4*70
$GBGSV,3,3,09,29,11,203,19,4*48
$GNACCURACY,2.5*11
$PAIRSAT,1,35,1,0,200,2,0,200,3,0,200,4,0,200,5,0,201,6,0,200,7,0,200,8,0,200,9,0,200,10,0,221,11,0,200,12,0,201,13,0,201,14,0,200,15,0,201,16,0,200,17,0,200,18,0,221,19,0,200,20,0,200,21,0,200,23,0,221,24,0,221,25,0,221,26,0,200,27,0,200,28,0,200,29,0,200,30,0,200,31,0,200,32,0,221,194,0,621,195,0,621,196,0,620,199,0,621*6B
$PAIRSAT,2,24,65,0,200,66,0,200,67,0,200,68,0,200,69,0,200,70,0,200,71,0,201,72,0,200,73,0,201,74,0,200,75,0,200,76,0,200,77,0,200,78,0,200,79,0,201,80,0,201,81,0,200,82,0,200,83,0,200,84,0,200,85,0,201,86,0,201,87,0,200,88,0,200*7A
$PAIRSAT,3,23,2,0,1221,3,0,1221,4,0,1200,5,0,200,7,0,1221,8,0,1221,9,0,1200,10,0,1200,11,0,1200,12,0,1200,13,0,1221,15,0,1221,19,0,1200,21,0,1200,24,0,1200,25,0,1200,26,0,1221,27,0,1200,30,0,1221,31,0,1200,33,0,1200,34,0,1200,36,0,1200*6A
$PAIRSAT,4,50,1,0,200,2,0,200,3,0,200,4,0,200,5,0,200,6,0,201,7,0,200,8,0,201,9,0,201,10,0,200,11,0,200,12,0,200,13,0,201,14,0,200,15,0,200,16,0,201,19,0,621,20,0,621,21,0,600,22,0,621,23,0,600,24,0,600,25,0,600,26,0,600,27,0,600,28,0,600,29,0,621,30,0,600,31,0,200,32,0,600,33,0,600,34,0,600,35,0,621,36,0,621,37,0,621,38,0,621,39,0,621,40,0,600,41,0,600,42,0,600,43,0,600,44,0,600,45,0,600,46,0,621,56,0,200,57,0,200,58,0,200,59,0,600,60,0,600,61,0,600*41
$PAIRDGP,10,5,10,12,15,18,23,24,25,28,32*45
$GNGGA,115700.200,2500.8274395,N,12132.4541663,E,2,62,0.45,16.636,M,15.25,M,7,3335*47
$GNRMC,115700.200,A,2500.8274395,N,12132.4541663,E,0.02,314.86,260623,,,D,V*03
$GPHDT,,T*1B
$GNACCURACY,2.5*11
$GNGGA,115700.300,2500.8274275,N,12132.4541603,E,2,61,0.45,16.650,M,15.25,M,7,3335*4C
$GNRMC,115700.300,A,2500.8274275,N,12132.4541603,E,0.03,314.86,260623,,,D,V*0A
$GPHDT,,T*1B
$GNACCURACY,2.5*11
$GNGGA,115700.400,2500.8274215,N,12132.4541543,E,2,61,0.45,16.664,M,15.25,M,7,3335*4D
$GNRMC,115700.400,A,2500.8274215,N,12132.4541543,E,0.03,314.86,260623,,,D,V*0C
$GPHDT,,T*1B
$GNACCURACY,2.5*11
$GNGGA,115700.500,2500.8274095,N,12132.4541543,E,2,61,0.45,16.676,M,15.25,M,7,3335*45
$GNRMC,115700.500,A,2500.8274095,N,12132.4541543,E,0.02,314.86,260623,,,D,V*06
$GPHDT,,T*1B
$GNACCURACY,2.5*11
$GNGGA,115700.600,2500.8273975,N,12132.4541483,E,2,61,0.45,16.691,M,15.25,M,7,3335*42
$GNRMC,115700.600,A,2500.8273975,N,12132.4541483,E,0.02,314.86,260623,,,D,V*08
$GPHDT,,T*1B
$GNACCURACY,2.5*11
$GNGGA,115700.700,2500.8273855,N,12132.4541423,E,2,61,0.45,16.704,M,15.25,M,7,3335*47
$GNRMC,115700.700,A,2500.8273855,N,12132.4541423,E,0.02,314.86,260623,,,D,V*00
$GPHDT,,T*1B
$GNACCURACY,2.5*11
$GNGGA,115700.800,2500.8273795,N,12132.4541423,E,2,61,0.45,16.720,M,15.25,M,7,3335*4D
$GNRMC,115700.800,A,2500.8273795,N,12132.4541423,E,0.02,314.86,260623,,,D,V*0C
$GPHDT,,T*1B
$GNACCURACY,2.5*11
$GNGGA,115700.900,2500.8273735,N,12132.4541363,E,2,61,0.45,16.735,M,15.25,M,7,3335*41
$GNRMC,115700.900,A,2500.8273735,N,12132.4541363,E,0.02,314.86,260623,,,D,V*04
$GPHDT,,T*1B
$GNACCURACY,2.5*11
$GNGGA,115701.000,2500.8273735,N,12132.4541303,E,2,61,0.45,16.752,M,15.25,M,8,3335*41
$GNRMC,115701.000,A,2500.8273735,N,12132.4541303,E,0.02,314.86,260623,,,D,V*0A
$GPHDT,,T*1B
$GNACCURACY,2.5*11
$GNGGA,115701.100,2500.8273675,N,12132.4541183,E,2,62,0.45,16.767,M,15.25,M,8,3335*4A
$GNRMC,115701.100,A,2500.8273675,N,12132.4541183,E,0.02,314.86,260623,,,D,V*04
$GPHDT,,T*1B
$GNGSA,A,3,196,23,199,24,18,194,15,12,10,195,25,32,0.72,0.45,0.56,1*06
$GNGSA,A,3,73,80,71,86,85,,,,,,,,0.72,0.45,0.56,2*0C
$GNGSA,A,3,13,07,08,26,30,02,15,,,,,,0.72,0.45,0.56,3*08
$GNGSA,A,3,08,38,13,39,16,06,46,19,09,36,20,22,0.72,0.45,0.56,4*0D
$GNGSA,A,3,35,37,29,,,,,,,,,,0.72,0.45,0.56,4*0A
$GPGSV,4,1,16,196,76,075,35,23,64,348,35,199,60,167,30,24,59,034,35,1*68
$GPGSV,4,2,16,18,49,224,44,41,38,242,42,194,36,135,42,15,30,061,29,1*5A
$GPGSV,4,3,16,12,29,129,23,10,29,324,39,195,29,179,37,25,19,169,32,1*5F
$GPGSV,4,4,16,32,15,281,21,05,10,128,,28,05,223,,13,01,067,,1*6F
$GPGSV,3,1,09,196,76,075,31,23,64,348,38,199,60,167,38,24,59,034,36,8*6A
$GPGSV,3,2,09,18,49,224,44,194,36,135,44,10,29,324,35,195,29,179,30,8*68
$GPGSV,3,3,09,32,15,281,27,8*5F
$GLGSV,2,1,07,73,54,149,43,80,44,052,29,70,42,031,,71,28,329,36,1*74
$GLGSV,2,2,07,86,27,284,29,85,24,231,39,74,17,185,14,1*4C
$GAGSV,3,1,09,13,46,219,42,07,46,318,25,08,42,038,18,26,36,294,39,7*74
$GAGSV,3,2,09,30,35,135,36,02,27,073,18,15,12,173,20,27,09,183,20,7*72
$GAGSV,3,3,09,03,05,074,,7*4F
$GAGSV,2,1,06,07,46,318,42,13,46,219,42,08,42,038,33,26,36,294,35,1*78
$GAGSV,2,2,06,30,35,135,42,15,12,173,22,1*75
$GBGSV,4,1,15,08,86,333,38,38,80,162,44,13,73,319,43,39,68,300,44,1*72
$GBGSV,4,2,15,16,65,276,41,06,64,271,41,46,62,083,31,19,55,002,33,1*76
$GBGSV,4,3,15,09,51,250,31,36,48,183,40,20,39,079,25,22,18,311,31,1*73
$GBGSV,4,4,15,35,16,256,36,37,14,041,25,29,11,203,11,1*4E
$GBGSV,3,1,09,38,80,162,43,39,68,300,44,46,62,083,37,19,55,002,30,4*7E
$GBGSV,3,2,09,36,48,183,40,20,39,079,22,35,16,256,39,37,14,041,27,4*71
$GBGSV,3,3,09,29,11,203,19,4*48
$GNACCURACY,2.5*11
$PAIRSAT,1,35,1,0,200,2,0,200,3,0,200,4,0,200,5,0,201,6,0,200,7,0,200,8,0,200,9,0,200,10,0,221,11,0,200,12,0,201,13,0,201,14,0,200,15,0,201,16,0,200,17,0,200,18,0,221,19,0,200,20,0,200,21,0,200,23,0,221,24,0,221,25,0,221,26,0,200,27,0,200,28,0,200,29,0,200,30,0,200,31,0,200,32,0,221,194,0,621,195,0,621,196,0,620,199,0,621*6B
$PAIRSAT,2,24,65,0,200,66,0,200,67,0,200,68,0,200,69,0,200,70,0,200,71,0,201,72,0,200,73,0,201,74,0,200,75,0,200,76,0,200,77,0,200,78,0,200,79,0,201,80,0,201,81,0,200,82,0,200,83,0,200,84,0,200,85,0,201,86,0,201,87,0,200,88,0,200*7A
$PAIRSAT,3,23,2,0,1221,3,0,1221,4,0,1200,5,0,200,7,0,1221,8,0,1221,9,0,1200,10,0,1200,11,0,1200,12,0,1200,13,0,1221,15,0,1221,19,0,1200,21,0,1200,24,0,1200,25,0,1200,26,0,1221,27,0,1200,30,0,1221,31,0,1200,33,0,1200,34,0,1200,36,0,1200*6A
$PAIRSAT,4,50,1,0,200,2,0,200,3,0,200,4,0,200,5,0,200,6,0,201,7,0,200,8,0,201,9,0,201,10,0,200,11,0,200,12,0,200,13,0,201,14,0,200,15,0,200,16,0,201,19,0,621,20,0,621,21,0,600,22,0,621,23,0,600,24,0,600,25,0,600,26,0,600,27,0,600,28,0,600,29,0,621,30,0,600,31,0,200,32,0,600,33,0,600,34,0,600,35,0,621,36,0,621,37,0,621,38,0,621,39,0,621,40,0,600,41,0,600,42,0,600,43,0,600,44,0,600,45,0,600,46,0,621,56,0,200,57,0,200,58,0,200,59,0,600,60,0,600,61,0,600*41
$PAIRDGP,10,5,10,12,15,18,23,24,25,28,32*45
$GNGGA,115701.200,2500.8273615,N,12132.4541123,E,2,62,0.45,16.781,M,15.25,M,8,3335*4D
$GNRMC,115701.200,A,2500.8273615,N,12132.4541123,E,0.02,314.86,260623,,,D,V*0B
$GPHDT,,T*1B
$GNACCURACY,2.5*11
$GNGGA,115701.300,2500.8273495,N,12132.4541063,E,2,62,0.45,16.797,M,15.25,M,8,3335*44
$GNRMC,115701.300,A,2500.8273495,N,12132.4541063,E,0.02,314.86,260623,,,D,V*05
$GPHDT,,T*1B
$GNACCURACY,2.5*11
$GNGGA,115701.400,2500.8273495,N,12132.4541003,E,2,62,0.45,16.809,M,15.25,M,8,3335*4D
$GNRMC,115701.400,A,2500.8273495,N,12132.4541003,E,0.02,314.86,260623,,,D,V*04
$GPHDT,,T*1B
$GNACCURACY,2.5*11
$GNGGA,115701.500,2500.8273375,N,12132.4540943,E,2,62,0.45,16.826,M,15.25,M,8,3335*44
$GNRMC,115701.500,A,2500.8273375,N,12132.4540943,E,0.02,314.86,260623,,,D,V*00
$GPHDT,,T*1B
$GNACCURACY,2.5*11
$GNGGA,115701.600,2500.8273375,N,12132.4540883,E,2,62,0.45,16.842,M,15.25,M,8,3335*48
$GNRMC,115701.600,A,2500.8273375,N,12132.4540883,E,0.03,314.86,260623,,,D,V*0F
$GPHDT,,T*1B
$GNACCURACY,2.5*11
$GNGGA,115701.700,2500.8273315,N,12132.4540883,E,2,62,0.45,16.858,M,15.25,M,8,3335*44
$GNRMC,115701.700,A,2500.8273315,N,12132.4540883,E,0.03,314.86,260623,,,D,V*08
$GPHDT,,T*1B
$GNACCURACY,2.5*11
$GNGGA,115701.800,2500.8273255,N,12132.4540823,E,2,62,0.45,16.873,M,15.25,M,8,3335*4D
$GNRMC,115701.800,A,2500.8273255,N,12132.4540823,E,0.02,314.86,260623,,,D,V*09
$GPHDT,,T*1B
$GNACCURACY,2.5*11
$GNGGA,115701.900,2500.8273255,N,12132.4540763,E,2,62,0.45,16.890,M,15.25,M,8,3335*4A
$GNRMC,115701.900,A,2500.8273255,N,12132.4540763,E,0.03,314.86,260623,,,D,V*02
$GPHDT,,T*1B
$GNACCURACY,2.5*11
$GNGGA,115702.000,2500.8273195,N,12132.4540703,E,2,62,0.45,16.903,M,15.25,M,9,3335*43
$GNRMC,115702.000,A,2500.8273195,N,12132.4540703,E,0.02,314.86,260623,,,D,V*00
$GPHDT,,T*1B
$GNACCURACY,2.5*11
$GNGGA,115702.100,2500.8273195,N,12132.4540703,E,2,62,0.45,16.914,M,15.25,M,9,3335*44
$GNRMC,115702.100,A,2500.8273195,N,12132.4540703,E,0.02,314.86,260623,,,D,V*01
$GPHDT,,T*1B
$GNGSA,A,3,196,23,199,24,18,194,15,12,10,195,25,32,0.72,0.45,0.56,1*06
$GNGSA,A,3,73,80,71,86,85,,,,,,,,0.72,0.45,0.56,2*0C
$GNGSA,A,3,13,07,08,26,30,02,15,,,,,,0.72,0.45,0.56,3*08
$GNGSA,A,3,08,38,13,39,16,06,46,19,09,36,20,22,0.72,0.45,0.56,4*0D
$GNGSA,A,3,35,37,29,,,,,,,,,,0.72,0.45,0.56,4*0A
$GPGSV,4,1,16,196,76,075,35,23,64,348,35,199,60,167,30,24,59,034,35,1*68
$GPGSV,4,2,16,18,49,224,44,41,38,242,42,194,36,135,42,15,30,061,30,1*52
$GPGSV,4,3,16,12,29,129,23,10,29,324,39,195,29,179,37,25,19,169,32,1*5F
$GPGSV,4,4,16,32,15,281,21,05,10,128,,28,05,223,,13,01,067,,1*6F
$GPGSV,3,1,09,196,76,075,31,23,64,348,38,199,60,167,38,24,59,034,36,8*6A
$GPGSV,3,2,09,18,49,224,44,194,36,135,44,10,29,324,35,195,29,179,30,8*68
$GPGSV,3,3,09,32,15,281,26,8*5E
$GLGSV,2,1,07,73,54,149,43,80,44,052,29,70,42,031,,71,28,329,35,1*77
$GLGSV,2,2,07,86,27,284,29,85,24,231,39,74,17,185,15,1*4D
$GAGSV,3,1,09,13,46,219,42,07,46,318,26,08,42,038,19,26,36,294,39,7*76
$GAGSV,3,2,09,30,35,135,36,02,27,073,19,15,12,173,20,27,09,183,19,7*79
$GAGSV,3,3,09,03,05,074,,7*4F
$GAGSV,2,1,06,07,46,318,42,13,46,219,42,08,42,038,33,26,36,294,36,1*7B
$GAGSV,2,2,06,30,35,135,42,15,12,173,20,1*77
$GBGSV,4,1,15,08,86,333,38,38,80,162,44,13,73,319,43,39,68,300,44,1*72
$GBGSV,4,2,15,16,65,276,41,06,64,271,41,46,62,083,31,19,55,002,33,1*76
$GBGSV,4,3,15,09,51,250,32,36,48,183,40,20,39,079,21,22,18,311,31,1*74
$GBGSV,4,4,15,35,16,256,36,37,14,041,25,29,11,203,15,1*4A
$GBGSV,3,1,09,38,80,162,43,39,68,300,44,46,62,083,37,19,55,002,31,4*7F
$GBGSV,3,2,09,36,48,183,40,20,39,079,21,35,16,256,39,37,14,041,27,4*72
$GBGSV,3,3,09,29,11,203,19,4*48
$GNACCURACY,2.5*11
$PAIRSAT,1,35,1,0,200,2,0,200,3,0,200,4,0,200,5,0,201,6,0,200,7,0,200,8,0,200,9,0,200,10,0,221,11,0,200,12,0,201,13,0,201,14,0,200,15,0,201,16,0,200,17,0,200,18,0,221,19,0,200,20,0,200,21,0,200,23,0,221,24,0,221,25,0,221,26,0,200,27,0,200,28,0,200,29,0,200,30,0,200,31,0,200,32,0,221,194,0,621,195,0,621,196,0,620,199,0,621*6B
$PAIRSAT,2,24,65,0,200,66,0,200,67,0,200,68,0,200,69,0,200,70,0,200,71,0,201,72,0,200,73,0,201,74,0,200,75,0,200,76,0,200,77,0,200,78,0,200,79,0,201,80,0,201,81,0,200,82,0,200,83,0,200,84,0,200,85,0,201,86,0,201,87,0,200,88,0,200*7A
$PAIRSAT,3,23,2,0,1221,3,0,1221,4,0,1200,5,0,200,7,0,1221,8,0,1221,9,0,1200,10,0,1200,11,0,1200,12,0,1200,13,0,1221,15,0,1221,19,0,1200,21,0,1200,24,0,1200,25,0,1200,26,0,1221,27,0,1200,30,0,1221,31,0,1200,33,0,1200,34,0,1200,36,0,1200*6A
$PAIRSAT,4,50,1,0,200,2,0,200,3,0,200,4,0,200,5,0,200,6,0,201,7,0,200,8,0,201,9,0,201,10,0,200,11,0,200,12,0,200,13,0,201,14,0,200,15,0,200,16,0,201,19,0,621,20,0,621,21,0,600,22,0,621,23,0,600,24,0,600,25,0,600,26,0,600,27,0,600,28,0,600,29,0,621,30,0,600,31,0,200,32,0,600,33,0,600,34,0,600,35,0,621,36,0,621,37,0,621,38,0,621,39,0,621,40,0,600,41,0,600,42,0,600,43,0,600,44,0,600,45,0,600,46,0,621,56,0,200,57,0,200,58,0,200,59,0,600,60,0,600,61,0,600*41
$PAIRDGP,10,5,10,12,15,18,23,24,25,28,32*45
$GNGGA,115702.200,2500.8273195,N,12132.4540643,E,2,62,0.45,16.929,M,15.25,M,9,3335*4C
$GNRMC,115702.200,A,2500.8273195,N,12132.4540643,E,0.02,314.86,260623,,,D,V*07
$GPHDT,,T*1B
$GNACCURACY,2.5*11
$GNGGA,115702.300,2500.8273195,N,12132.4540583,E,2,62,0.45,16.937,M,15.25,M,9,3335*4D
$GNRMC,115702.300,A,2500.8273195,N,12132.4540583,E,0.02,314.86,260623,,,D,V*09
$GPHDT,,T*1B
$GNACCURACY,2.5*11
$GNGGA,115702.400,2500.8273195,N,12132.4540523,E,2,62,0.45,16.952,M,15.25,M,9,3335*43
$GNRMC,115702.400,A,2500.8273195,N,12132.4540523,E,0.02,314.86,260623,,,D,V*04
$GPHDT,,T*1B
$GNACCURACY,2.5*11
$GNGGA,115702.500,2500.8273195,N,12132.4540463,E,2,62,0.45,16.961,M,15.25,M,9,3335*47
$GNRMC,115702.500,A,2500.8273195,N,12132.4540463,E,0.03,314.86,260623,,,D,V*01
$GPHDT,,T*1B
$GNACCURACY,2.5*11
$GNGGA,115702.600,2500.8273195,N,12132.4540463,E,2,62,0.45,16.974,M,15.25,M,9,3335*40
$GNRMC,115702.600,A,2500.8273195,N,12132.4540463,E,0.03,314.86,260623,,,D,V*02
$GPHDT,,T*1B
$GNACCURACY,2.5*11
$GNGGA,115702.700,2500.8273135,N,12132.4540403,E,2,62,0.45,16.987,M,15.25,M,9,3335*41
$GNRMC,115702.700,A,2500.8273135,N,12132.4540403,E,0.03,314.86,260623,,,D,V*0F
$GPHDT,,T*1B
$GNACCURACY,2.5*11
$GNGGA,115702.800,2500.8273135,N,12132.4540403,E,2,62,0.45,16.998,M,15.25,M,9,3335*40
$GNRMC,115702.800,A,2500.8273135,N,12132.4540403,E,0.02,314.86,260623,,,D,V*01
$GPHDT,,T*1B
$GNACCURACY,2.5*11
$GNGGA,115702.900,2500.8273135,N,12132.4540343,E,2,62,0.45,17.008,M,15.25,M,9,3335*43
$GNRMC,115702.900,A,2500.8273135,N,12132.4540343,E,0.02,314.86,260623,,,D,V*03
$GPHDT,,T*1B
$GNACCURACY,2.5*11
$GNGGA,115703.000,2500.8273135,N,12132.4540283,E,2,62,0.45,17.016,M,15.25,M,10,3335*71
$GNRMC,115703.000,A,2500.8273135,N,12132.4540283,E,0.02,314.86,260623,,,D,V*06
$GPHDT,,T*1B
$GNACCURACY,2.5*11
$GNGGA,115703.100,2500.8273135,N,12132.4540283,E,2,62,0.45,17.027,M,15.25,M,10,3335*72
$GNRMC,115703.100,A,2500.8273135,N,12132.4540283,E,0.01,314.86,260623,,,D,V*04
$GPHDT,,T*1B
$GNGSA,A,3,196,23,199,24,18,194,15,12,10,195,25,32,0.72,0.45,0.56,1*06
$GNGSA,A,3,73,80,71,86,85,,,,,,,,0.72,0.45,0.56,2*0C
$GNGSA,A,3,13,07,08,26,30,02,15,,,,,,0.72,0.45,0.56,3*08
$GNGSA,A,3,08,38,13,39,16,06,46,19,09,36,20,22,0.72,0.45,0.56,4*0D
$GNGSA,A,3,35,37,29,,,,,,,,,,0.72,0.45,0.56,4*0A
$GPGSV,4,1,16,196,76,075,35,23,64,348,35,199,60,167,29,24,59,034,34,1*61
$GPGSV,4,2,16,18,49,224,44,41,38,242,41,194,36,135,42,15,30,061,27,1*57
$GPGSV,4,3,16,12,29,129,28,10,29,324,39,195,29,179,36,25,19,169,32,1*55
$GPGSV,4,4,16,32,15,281,22,05,10,128,,28,05,223,,13,01,067,,1*6C
$GPGSV,3,1,09,196,76,075,31,23,64,348,38,199,60,167,38,24,59,034,36,8*6A
$GPGSV,3,2,09,18,49,224,44,194,36,135,44,10,29,324,35,195,29,179,29,8*60
$GPGSV,3,3,09,32,15,281,26,8*5E
$GLGSV,2,1,07,73,54,149,43,80,44,052,29,70,42,031,,71,28,329,35,1*77
$GLGSV,2,2,07,86,27,284,31,85,24,231,39,74,17,185,16,1*47
$GAGSV,3,1,09,13,46,219,42,07,46,318,27,08,42,038,19,26,36,294,39,7*77
$GAGSV,3,2,09,30,35,135,36,02,27,073,22,15,12,173,19,27,09,183,19,7*7B
$GAGSV,3,3,09,03,05,074,,7*4F
$GAGSV,2,1,06,07,46,318,42,13,46,219,42,08,42,038,33,26,36,294,36,1*7B
$GAGSV,2,2,06,30,35,135,42,15,12,173,22,1*75
$GBGSV,4,1,15,08,86,333,38,38,80,162,44,13,73,319,43,39,68,300,44,1*72
$GBGSV,4,2,15,16,65,276,41,06,64,271,41,46,62,083,32,19,55,002,33,1*75
$GBGSV,4,3,15,09,51,250,32,36,48,183,40,20,39,079,21,22,18,311,30,1*75
$GBGSV,4,4,15,35,16,256,35,37,14,041,26,29,11,203,14,1*4B
$GBGSV,3,1,09,38,80,162,43,39,68,300,44,46,62,083,37,19,55,002,31,4*7F
$GBGSV,3,2,09,36,48,183,40,20,39,079,20,35,16,256,39,37,14,041,27,4*73
$GBGSV,3,3,09,29,11,203,19,4*48
$GNACCURACY,2.5*11
$PAIRSAT,1,35,1,0,200,2,0,200,3,0,200,4,0,200,5,0,201,6,0,200,7,0,200,8,0,200,9,0,200,10,0,221,11,0,200,12,0,201,13,0,201,14,0,200,15,0,201,16,0,200,17,0,200,18,0,221,19,0,200,20,0,200,21,0,200,23,0,221,24,0,221,25,0,221,26,0,200,27,0,200,28,0,200,29,0,200,30,0,200,31,0,200,32,0,221,194,0,621,195,0,621,196,0,620,199,0,621*6B
$PAIRSAT,2,24,65,0,200,66,0,200,67,0,200,68,0,200,69,0,200,70,0,200,71,0,201,72,0,200,73,0,201,74,0,200,75,0,200,76,0,200,77,0,200,78,0,200,79,0,201,80,0,201,81,0,200,82,0,200,83,0,200,84,0,200,85,0,201,86,0,201,87,0,200,88,0,200*7A
$PAIRSAT,3,23,2,0,1221,3,0,1221,4,0,1200,5,0,200,7,0,1221,8,0,1221,9,0,1200,10,0,1200,11,0,1200,12,0,1200,13,0,1221,15,0,1221,19,0,1200,21,0,1200,24,0,1200,25,0,1200,26,0,1221,27,0,1200,30,0,1221,31,0,1200,33,0,1200,34,0,1200,36,0,1200*6A
$PAIRSAT,4,50,1,0,200,2,0,200,3,0,200,4,0,200,5,0,200,6,0,201,7,0,200,8,0,201,9,0,201,10,0,200,11,0,200,12,0,200,13,0,201,14,0,200,15,0,200,16,0,201,19,0,621,20,0,621,21,0,600,22,0,621,23,0,600,24,0,600,25,0,600,26,0,600,27,0,600,28,0,600,29,0,621,30,0,600,31,0,200,32,0,600,33,0,600,34,0,600,35,0,621,36,0,621,37,0,621,38,0,621,39,0,621,40,0,600,41,0,600,42,0,600,43,0,600,44,0,600,45,0,600,46,0,621,56,0,200,57,0,200,58,0,200,59,0,600,60,0,600,61,0,600*41
$PAIRDGP,10,5,10,12,15,18,23,24,25,28,32*45
$GNGGA,115703.200,2500.8273135,N,12132.4540223,E,2,62,0.45,17.040,M,15.25,M,10,3335*7A
$GNRMC,115703.200,A,2500.8273135,N,12132.4540223,E,0.01,314.86,260623,,,D,V*0D
$GPHDT,,T*1B
$GNACCURACY,2.5*11
$GNGGA,115703.300,2500.8273135,N,12132.4540223,E,2,62,0.45,17.049,M,15.25,M,10,3335*72
$GNRMC,115703.300,A,2500.8273135,N,12132.4540223,E,0.01,314.86,260623,,,D,V*0C
$GPHDT,,T*1B
$GNACCURACY,2.5*11
$GNGGA,115703.400,2500.8273135,N,12132.4540163,E,2,62,0.45,17.063,M,15.25,M,10,3335*7A
$GNRMC,115703.400,A,2500.8273135,N,12132.4540163,E,0.01,314.86,260623,,,D,V*0C
$GPHDT,,T*1B
$GNACCURACY,2.5*11
$GNGGA,115703.500,2500.8273075,N,12132.4540163,E,2,62,0.45,17.069,M,15.25,M,10,3335*74
$GNRMC,115703.500,A,2500.8273075,N,12132.4540163,E,0.01,314.86,260623,,,D,V*08
$GPHDT,,T*1B
$GNACCURACY,2.5*11
$GNGGA,115703.600,2500.8273135,N,12132.4540103,E,2,62,0.45,17.076,M,15.25,M,10,3335*7A
$GNRMC,115703.600,A,2500.8273135,N,12132.4540103,E,0.01,314.86,260623,,,D,V*08
$GPHDT,,T*1B
$GNACCURACY,2.5*11
$GNGGA,115703.700,2500.8273135,N,12132.4540103,E,2,62,0.45,17.083,M,15.25,M,10,3335*71
$GNRMC,115703.700,A,2500.8273135,N,12132.4540103,E,0.01,314.86,260623,,,D,V*09
$GPHDT,,T*1B
$GNACCURACY,2.5*11
$GNGGA,115703.800,2500.8273195,N,12132.4540043,E,2,62,0.45,17.089,M,15.25,M,10,3335*7B
$GNRMC,115703.800,A,2500.8273195,N,12132.4540043,E,0.01,314.86,260623,,,D,V*09
$GPHDT,,T*1B
$GNACCURACY,2.5*11
$GNGGA,115703.900,2500.8273195,N,12132.4539983,E,2,62,0.45,17.094,M,15.25,M,10,3335*7D
$GNRMC,115703.900,A,2500.8273195,N,12132.4539983,E,0.01,314.86,260623,,,D,V*03
$GPHDT,,T*1B
$GNACCURACY,2.4*10
$GNGGA,115704.000,2500.8273195,N,12132.4539923,E,2,62,0.45,17.095,M,15.25,M,11,3335*79
$GNRMC,115704.000,A,2500.8273195,N,12132.4539923,E,0.01,314.86,260623,,,D,V*07
$GPHDT,,T*1B
$GNACCURACY,2.4*10
$GNGGA,115704.100,2500.8273195,N,12132.4539863,E,2,62,0.45,17.098,M,15.25,M,11,3335*70
$GNRMC,115704.100,A,2500.8273195,N,12132.4539863,E,0.01,314.86,260623,,,D,V*03
$GPHDT,,T*1B
$GNGSA,A,3,196,23,199,24,18,194,15,12,10,195,25,32,0.72,0.45,0.56,1*06
$GNGSA,A,3,73,80,71,86,85,,,,,,,,0.72,0.45,0.56,2*0C
$GNGSA,A,3,13,07,08,26,30,02,15,,,,,,0.72,0.45,0.56,3*08
$GNGSA,A,3,08,38,13,39,16,06,46,19,09,36,20,22,0.72,0.45,0.56,4*0D
$GNGSA,A,3,35,37,29,,,,,,,,,,0.72,0.45,0.56,4*0A
$GPGSV,4,1,16,196,76,075,35,23,64,348,37,199,60,167,31,24,59,034,34,1*6A
$GPGSV,4,2,16,18,49,224,44,41,38,242,43,194,36,135,42,15,30,061,29,1*5B
$GPGSV,4,3,16,12,29,129,28,10,29,324,40,195,29,179,35,25,19,169,31,1*5B
$GPGSV,4,4,16,32,15,281,21,05,10,128,,28,05,223,,13,01,067,,1*6F
$GPGSV,3,1,09,196,76,075,31,23,64,348,38,199,60,167,39,24,59,034,36,8*6B
$GPGSV,3,2,09,18,49,224,44,194,36,135,45,10,29,324,34,195,29,179,33,8*6B
$GPGSV,3,3,09,32,15,281,23,8*5B
$GLGSV,2,1,06,73,54,149,43,80,44,052,26,71,28,329,36,86,27,284,30,1*7F
$GLGSV,2,2,06,85,24,231,38,74,17,185,17,1*71
$GAGSV,3,1,09,13,46,219,41,07,46,318,32,08,42,038,17,26,36,294,35,7*72
$GAGSV,3,2,09,30,35,135,37,02,27,073,22,15,12,173,19,27,09,183,19,7*7A
$GAGSV,3,3,09,03,05,074,,7*4F
$GAGSV,2,1,06,07,46,318,42,13,46,219,41,08,42,038,33,26,36,294,31,1*7F
$GAGSV,2,2,06,30,35,135,42,15,12,173,21,1*76
$GBGSV,4,1,15,08,86,333,38,38,80,162,44,13,73,319,44,39,68,300,42,1*73
$GBGSV,4,2,15,16,65,276,40,06,64,271,40,46,62,083,32,19,55,002,33,1*75
$GBGSV,4,3,15,09,51,250,36,36,48,183,37,20,39,079,22,22,18,311,26,1*75
$GBGSV,4,4,15,35,16,256,39,37,14,041,26,29,11,203,12,1*41
$GBGSV,3,1,09,38,80,162,43,39,68,300,42,46,62,083,37,19,55,002,32,4*7A
$GBGSV,3,2,09,36,48,183,40,20,39,079,21,35,16,256,40,37,14,041,25,4*7E
$GBGSV,3,3,09,29,11,203,19,4*48
$GNACCURACY,2.4*10
$PAIRSAT,1,35,1,0,200,2,0,200,3,0,200,4,0,200,5,0,201,6,0,200,7,0,200,8,0,200,9,0,200,10,0,221,11,0,200,12,0,201,13,0,201,14,0,200,15,0,201,16,0,200,17,0,200,18,0,221,19,0,200,20,0,200,21,0,200,23,0,221,24,0,221,25,0,221,26,0,200,27,0,200,28,0,200,29,0,200,30,0,200,31,0,200,32,0,221,194,0,621,195,0,621,196,0,620,199,0,621*6B
$PAIRSAT,2,24,65,0,200,66,0,200,67,0,200,68,0,200,69,0,200,70,0,200,71,0,201,72,0,200,73,0,201,74,0,200,75,0,200,76,0,200,77,0,200,78,0,200,79,0,201,80,0,201,81,0,200,82,0,200,83,0,200,84,0,200,85,0,201,86,0,201,87,0,200,88,0,200*7A
$PAIRSAT,3,23,2,0,1221,3,0,1221,4,0,1200,5,0,200,7,0,1221,8,0,1221,9,0,1200,10,0,1200,11,0,1200,12,0,1200,13,0,1221,15,0,1221,19,0,1200,21,0,1200,24,0,1200,25,0,1200,26,0,1221,27,0,1200,30,0,1221,31,0,1200,33,0,1200,34,0,1200,36,0,1200*6A
$PAIRSAT,4,50,1,0,200,2,0,200,3,0,200,4,0,200,5,0,200,6,0,201,7,0,200,8,0,201,9,0,201,10,0,200,11,0,200,12,0,200,13,0,201,14,0,200,15,0,200,16,0,201,19,0,621,20,0,621,21,0,600,22,0,621,23,0,600,24,0,600,25,0,600,26,0,600,27,0,600,28,0,600,29,0,621,30,0,600,31,0,200,32,0,600,33,0,600,34,0,600,35,0,621,36,0,621,37,0,621,38,0,621,39,0,621,40,0,600,41,0,600,42,0,600,43,0,600,