$FW : RTK35X,V1.1X0314AS,Lib20210517,1*54
$Tool : LOCOSYS , GNSS Firebird , v1.0.0.19*39
$---------------------------------------------------*2D
$GNGGA,032905.800,2500.8202026,N,12132.4470001,E,4,61,0.45,17.653,M,15.25,M,1,3335*48
$GNRMC,032905.800,A,2500.8202026,N,12132.4470001,E,0.00,160.66,270623,,,R,V*17
$GPHDT,89.397,T*09
$GNGSA,A,3,195,17,196,19,199,06,194,14,09,11,04,,0.87,0.44,0.75,1*02
$GNGSA,A,3,67,68,82,83,80,73,,,,,,,0.87,0.44,0.75,2*0D
$GNGSA,A,3,24,12,10,31,11,19,04,25,33,,,,0.87,0.44,0.75,3*03
$GNGSA,A,3,40,07,10,14,08,33,43,13,42,11,28,37,0.87,0.44,0.75,4*0B
$GNGSA,A,3,23,41,,,,,,,,,,,0.87,0.44,0.75,4*0D
$GPGSV,4,1,15,195,67,040,41,17,64,056,43,196,61,130,42,19,61,005,40,1*6B
$GPGSV,4,2,15,199,60,167,36,06,50,328,43,194,44,170,34,41,38,242,43,1*69
$GPGSV,4,3,15,14,33,178,30,09,29,114,35,11,24,277,38,20,22,225,26,1*63
$GPGSV,4,4,15,04,21,081,32,03,15,038,25,12,08,321,19,1*57
$GPGSV,3,1,10,195,67,040,45,196,61,130,44,199,60,167,44,06,50,328,47,8*52
$GPGSV,3,2,10,194,44,170,35,14,33,178,32,09,29,114,36,11,24,277,44,8*5C
$GPGSV,3,3,10,04,21,081,29,03,15,038,29,8*6E
$GLGSV,3,1,09,67,48,076,41,68,40,154,39,82,37,026,33,83,31,331,27,1*7D
$GLGSV,3,2,09,80,31,238,46,73,22,299,35,66,12,032,24,79,07,190,17,1*72
$GLGSV,3,3,09,69,02,186,,1*43
$GAGSV,3,1,09,24,55,253,42,12,50,006,35,10,48,324,42,31,34,183,26,7*7F
$GAGSV,3,2,09,11,33,292,37,19,29,093,23,04,22,157,32,25,22,312,31,7*7D
$GAGSV,3,3,09,33,17,058,30,7*42
$GAGSV,2,1,08,24,55,253,44,12,50,006,41,10,48,324,44,31,34,183,20,1*7C
$GAGSV,2,2,08,11,33,292,38,04,22,157,35,25,22,312,36,33,17,058,25,1*70
$GBGSV,4,1,15,40,83,092,41,07,83,269,40,10,71,300,39,14,60,099,43,1*79
$GBGSV,4,2,15,08,59,261,39,33,56,156,42,43,54,043,45,13,49,251,42,1*77
$GBGSV,4,3,15,42,44,061,41,11,35,072,40,28,33,318,46,23,23,227,,1*73
$GBGSV,4,4,15,37,18,280,39,41,15,197,17,39,02,180,,1*46
$GBGSV,2,1,08,40,83,092,45,33,56,156,44,43,54,043,46,42,44,061,46,4*7C
$GBGSV,2,2,08,28,33,318,42,23,23,227,25,37,18,280,31,41,15,197,18,4*7F
$GNGGA,032906.000,2500.8201991,N,12132.4470005,E,4,63,0.44,17.651,M,15.25,M,2,3335*43
$GNRMC,032906.000,A,2500.8201991,N,12132.4470005,E,0.00,160.66,270623,,,R,V*1E
$GPHDT,89.058,T*09
$GNGGA,032906.200,2500.8202009,N,12132.4469995,E,4,62,0.45,17.656,M,15.25,M,2,3335*45
$GNRMC,032906.200,A,2500.8202009,N,12132.4469995,E,0.00,160.66,270623,,,R,V*1F
$GPHDT,89.070,T*03
$GNGGA,032906.400,2500.8202001,N,12132.4470019,E,4,62,0.45,17.645,M,15.25,M,2,3335*4C
$GNRMC,032906.400,A,2500.8202001,N,12132.4470019,E,0.00,160.66,270623,,,R,V*14
$GPHDT,88.845,T*0C
$GNGGA,032906.600,2500.8201966,N,12132.4470005,E,4,62,0.45,17.632,M,15.25,M,2,3335*48
$GNRMC,032906.600,A,2500.8201966,N,12132.4470005,E,0.00,160.66,270623,,,R,V*10
$GPHDT,88.826,T*09
$GNGGA,032906.800,2500.8201949,N,12132.4470004,E,4,62,0.45,17.637,M,15.25,M,2,3335*4F
$GNRMC,032906.800,A,2500.8201949,N,12132.4470004,E,0.00,160.66,270623,,,R,V*12
$GPHDT,88.891,T*05
$GNGSA,A,3,195,17,196,19,199,06,194,14,09,11,04,,0.88,0.45,0.76,1*0F
$GNGSA,A,3,67,68,82,80,83,73,,,,,,,0.88,0.45,0.76,2*00
$GNGSA,A,3,24,12,10,31,11,19,04,25,33,,,,0.88,0.45,0.76,3*0E
$GNGSA,A,3,40,07,10,14,08,33,43,13,42,11,28,37,0.88,0.45,0.76,4*06
$GNGSA,A,3,41,,,,,,,,,,,,0.88,0.45,0.76,4*01
$GPGSV,4,1,15,195,67,040,41,17,64,056,43,196,61,130,42,19,61,005,40,1*6B
$GPGSV,4,2,15,199,60,167,36,06,50,328,43,194,44,170,34,41,38,242,43,1*69
$GPGSV,4,3,15,14,33,178,29,09,29,114,35,11,24,277,38,20,22,225,27,1*6A
$GPGSV,4,4,15,04,21,081,33,03,15,038,26,12,08,321,18,1*54
$GPGSV,3,1,10,195,67,040,45,196,61,130,44,199,60,167,44,06,50,328,47,8*52
$GPGSV,3,2,10,194,44,170,35,14,33,178,32,09,29,114,36,11,24,277,44,8*5C
$GPGSV,3,3,10,04,21,081,28,03,15,038,29,8*6F
$GLGSV,2,1,08,67,48,076,41,68,40,154,39,82,37,026,33,80,31,238,46,1*71
$GLGSV,2,2,08,83,31,331,28,73,22,299,35,66,12,032,25,79,07,190,16,1*71
$GAGSV,3,1,09,24,55,253,42,12,50,006,35,10,48,324,42,31,34,183,25,7*7C
$GAGSV,3,2,09,11,33,292,37,19,29,093,23,04,22,157,32,25,22,312,29,7*74
$GAGSV,3,3,09,33,17,058,29,7*4A
$GAGSV,2,1,08,24,55,253,44,12,50,006,41,10,48,324,44,31,34,183,18,1*77
$GAGSV,2,2,08,11,33,292,38,04,22,157,36,25,22,312,36,33,17,058,28,1*7E
$GBGSV,4,1,14,40,83,092,41,07,83,269,40,10,71,300,39,14,60,099,43,1*78
$GBGSV,4,2,14,08,59,261,39,33,56,156,42,43,54,043,45,13,49,251,42,1*76
$GBGSV,4,3,14,42,44,061,41,11,35,072,40,28,33,318,46,23,23,227,,1*72
$GBGSV,4,4,14,37,18,280,39,41,15,197,19,1*78
$GBGSV,2,1,07,40,83,092,45,33,56,156,44,43,54,043,46,42,44,061,46,4*73
$GBGSV,2,2,07,28,33,318,42,37,18,280,32,41,15,197,18,4*43
$GNGGA,032907.000,2500.8201935,N,12132.4470021,E,4,62,0.45,17.632,M,15.25,M,3,3335*4E
$GNRMC,032907.000,A,2500.8201935,N,12132.4470021,E,0.00,160.66,270623,,,R,V*17
$GPHDT,89.051,T*00
$GNGGA,032907.200,2500.8201924,N,12132.4470030,E,4,62,0.45,17.632,M,15.25,M,3,3335*4C
$GNRMC,032907.200,A,2500.8201924,N,12132.4470030,E,0.00,160.66,270623,,,R,V*15
$GPHDT,89.277,T*06
$GNGGA,032907.400,2500.8201933,N,12132.4470016,E,4,63,0.45,17.627,M,15.25,M,3,3335*4D
$GNRMC,032907.400,A,2500.8201933,N,12132.4470016,E,0.00,160.66,270623,,,R,V*11
$GPHDT,89.128,T*0F
$GNGGA,032907.600,2500.8201928,N,12132.4469995,E,4,63,0.45,17.634,M,15.25,M,3,3335*4D
$GNRMC,032907.600,A,2500.8201928,N,12132.4469995,E,0.00,160.66,270623,,,R,V*13
$GPHDT,89.125,T*02
$GNGGA,032907.800,2500.8201912,N,12132.4470016,E,4,63,0.45,17.633,M,15.25,M,3,3335*47
$GNRMC,032907.800,A,2500.8201912,N,12132.4470016,E,0.00,160.66,270623,,,R,V*1E
$GPHDT,89.179,T*0B
$GNGSA,A,3,195,17,196,19,199,06,194,14,09,11,04,,0.88,0.45,0.76,1*0F
$GNGSA,A,3,67,68,82,80,83,73,,,,,,,0.88,0.45,0.76,2*00
$GNGSA,A,3,24,12,10,31,11,19,04,25,33,,,,0.88,0.45,0.76,3*0E
$GNGSA,A,3,40,07,10,14,08,33,43,13,42,11,28,37,0.88,0.45,0.76,4*06
$GNGSA,A,3,41,,,,,,,,,,,,0.88,0.45,0.76,4*01
$GPGSV,4,1,15,195,67,040,41,17,64,056,43,196,61,130,42,19,61,005,40,1*6B
$GPGSV,4,2,15,199,60,167,36,06,50,328,43,194,44,170,34,41,38,242,43,1*69
$GPGSV,4,3,15,14,33,178,28,09,29,114,36,11,24,277,38,20,22,225,27,1*68
$GPGSV,4,4,15,04,21,081,34,03,15,038,26,12,08,321,18,1*53
$GPGSV,3,1,10,195,67,040,45,196,61,130,44,199,60,167,44,06,50,328,47,8*52
$GPGSV,3,2,10,194,44,170,34,14,33,178,32,09,29,114,36,11,24,277,44,8*5D
$GPGSV,3,3,10,04,21,081,28,03,15,038,29,8*6F
$GLGSV,3,1,09,67,48,076,41,68,40,154,39,82,37,026,33,80,31,238,46,1*71
$GLGSV,3,2,09,83,31,331,28,73,22,299,35,66,12,032,26,79,07,190,16,1*72
$GLGSV,3,3,09,69,02,186,,1*43
$GAGSV,3,1,09,24,55,253,42,12,50,006,35,10,48,324,42,31,34,183,21,7*78
$GAGSV,3,2,09,11,33,292,37,19,29,093,23,04,22,157,31,25,22,312,31,7*7E
$GAGSV,3,3,09,33,17,058,30,7*42
$GAGSV,3,1,09,24,55,253,44,12,50,006,41,10,48,324,44,31,34,183,18,1*77
$GAGSV,3,2,09,11,33,292,38,19,29,093,20,04,22,157,37,25,22,312,36,1*75
$GAGSV,3,3,09,33,17,058,27,1*42
$GBGSV,5,1,18,40,83,092,41,07,83,269,40,10,71,300,39,14,60,099,43,1*75
$GBGSV,5,2,18,08,59,261,39,33,56,156,42,43,54,043,45,13,49,251,42,1*7B
$GBGSV,5,3,18,42,44,061,41,11,35,072,40,28,33,318,46,23,23,227,,1*7F
$GBGSV,5,4,18,34,20,090,,37,18,280,39,41,15,197,19,21,02,035,,1*7E
$GBGSV,5,5,18,39,02,180,,06,01,190,,1*71
$GBGSV,2,1,07,40,83,092,45,33,56,156,44,43,54,043,46,42,44,061,45,4*70
$GBGSV,2,2,07,28,33,318,42,37,18,280,33,41,15,197,18,4*42
$GNGGA,032908.000,2500.8201933,N,12132.4470023,E,4,63,0.45,17.631,M,15.25,M,4,3335*40
$GNRMC,032908.000,A,2500.8201933,N,12132.4470023,E,0.00,160.66,270623,,,R,V*1C
$GPHDT,89.365,T*04
$GNGGA,032908.200,2500.8201878,N,12132.4470022,E,4,63,0.45,17.646,M,15.25,M,2,3335*4B
$GNRMC,032908.200,A,2500.8201878,N,12132.4470022,E,0.00,160.66,270623,,,R,V*11
$GPHDT,89.329,T*0C
$GNGGA,032908.400,2500.8201889,N,12132.4470014,E,4,63,0.45,17.628,M,15.25,M,1,3335*4D
$GNRMC,032908.400,A,2500.8201889,N,12132.4470014,E,0.00,160.66,270623,,,R,V*1C
$GPHDT,89.158,T*08
$GNGGA,032908.600,2500.8201925,N,12132.4470003,E,4,63,0.45,17.641,M,15.25,M,1,3335*41
$GNRMC,032908.600,A,2500.8201925,N,12132.4470003,E,0.00,160.66,270623,,,R,V*1F
$GPHDT,88.590,T*09
$GNGGA,032908.800,2500.8201924,N,12132.4470001,E,4,63,0.45,17.644,M,15.25,M,1,3335*49
$GNRMC,032908.800,A,2500.8201924,N,12132.4470001,E,0.00,160.66,270623,,,R,V*12
$GPHDT,88.802,T*0F
$GNGSA,A,3,195,17,196,19,199,06,194,14,09,11,04,,0.88,0.45,0.76,1*0F
$GNGSA,A,3,67,68,82,83,80,73,,,,,,,0.88,0.45,0.76,2*00
$GNGSA,A,3,24,12,10,31,11,19,04,25,33,,,,0.88,0.45,0.76,3*0E
$GNGSA,A,3,40,07,10,14,08,33,43,13,42,11,28,37,0.88,0.45,0.76,4*06
$GNGSA,A,3,41,,,,,,,,,,,,0.88,0.45,0.76,4*01
$GPGSV,4,1,15,195,67,040,41,17,64,056,43,196,61,130,42,19,61,005,40,1*6B
$GPGSV,4,2,15,199,60,167,36,06,50,328,43,194,44,170,34,41,38,242,43,1*69
$GPGSV,4,3,15,14,33,178,28,09,29,114,36,11,24,277,38,20,22,225,27,1*68
$GPGSV,4,4,15,04,21,081,34,03,15,038,26,12,08,321,17,1*5C
$GPGSV,3,1,10,195,67,040,45,196,61,130,44,199,60,167,44,06,50,328,47,8*52
$GPGSV,3,2,10,194,44,170,34,14,33,178,33,09,29,114,36,11,24,277,44,8*5C
$GPGSV,3,3,10,04,21,081,28,03,15,038,29,8*6F
$GLGSV,2,1,08,67,48,076,42,68,40,154,39,82,37,026,33,83,31,331,28,1*71
$GLGSV,2,2,08,80,31,238,46,73,22,299,36,66,12,032,26,79,07,190,16,1*72
$GAGSV,3,1,09,24,55,253,41,12,50,006,35,10,48,324,42,31,34,183,20,7*7A
$GAGSV,3,2,09,11,33,292,37,19,29,093,23,04,22,157,31,25,22,312,31,7*7E
$GAGSV,3,3,09,33,17,058,29,7*4A
$GAGSV,3,1,09,24,55,253,44,12,50,006,41,10,48,324,44,31,34,183,18,1*77
$GAGSV,3,2,09,11,33,292,38,19,29,093,21,04,22,157,37,25,22,312,35,1*77
$GAGSV,3,3,09,33,17,058,28,1*4D
$GBGSV,4,1,16,40,83,092,41,07,83,269,40,10,71,300,39,14,60,099,43,1*7A
$GBGSV,4,2,16,08,59,261,39,33,56,156,42,43,54,043,45,13,49,251,42,1*74
$GBGSV,4,3,16,42,44,061,41,11,35,072,40,28,33,318,46,23,23,227,,1*70
$GBGSV,4,4,16,37,18,280,39,41,15,197,17,39,02,180,,21,02,035,,1*72
$GBGSV,2,1,07,40,83,092,45,33,56,156,44,43,54,043,46,42,44,061,45,4*70
$GBGSV,2,2,07,28,33,318,42,37,18,280,34,41,15,197,19,4*44
$GNGGA,032909.000,2500.8201951,N,12132.4469999,E,4,63,0.45,17.642,M,15.25,M,2,3335*47
$GNRMC,032909.000,A,2500.8201951,N,12132.4469999,E,0.00,160.66,270623,,,R,V*19
$GPHDT,88.847,T*0E
$GNGGA,032909.200,2500.8201945,N,12132.4469999,E,4,62,0.45,17.652,M,15.25,M,2,3335*40
$GNRMC,032909.200,A,2500.8201945,N,12132.4469999,E,0.00,160.66,270623,,,R,V*1E
$GPHDT,89.234,T*01
$GNGGA,032909.400,2500.8201931,N,12132.4470002,E,4,63,0.45,17.645,M,15.25,M,2,3335*41
$GNRMC,032909.400,A,2500.8201931,N,12132.4470002,E,0.00,160.66,270623,,,R,V*18
$GPHDT,89.342,T*01
$GNGGA,032909.600,2500.8201916,N,12132.4470016,E,4,63,0.45,17.638,M,15.25,M,2,3335*49
$GNRMC,032909.600,A,2500.8201916,N,12132.4470016,E,0.00,160.66,270623,,,R,V*1A
$GPHDT,89.150,T*00
$GNGGA,032909.800,2500.8201913,N,12132.4470023,E,4,63,0.45,17.636,M,15.25,M,2,3335*4A
$GNRMC,032909.800,A,2500.8201913,N,12132.4470023,E,0.00,160.66,270623,,,R,V*17
$GPHDT,89.203,T*05
$GNGSA,A,3,195,17,196,19,199,06,194,14,09,11,04,,0.88,0.45,0.76,1*0F
$GNGSA,A,3,67,68,82,80,83,73,,,,,,,0.88,0.45,0.76,2*00
$GNGSA,A,3,24,12,10,31,11,19,04,25,33,,,,0.88,0.45,0.76,3*0E
$GNGSA,A,3,40,07,10,14,08,33,43,13,42,11,28,37,0.88,0.45,0.76,4*06
$GNGSA,A,3,41,,,,,,,,,,,,0.88,0.45,0.76,4*01
$GPGSV,4,1,15,195,67,040,41,17,64,056,43,196,61,130,42,19,61,005,40,1*6B
$GPGSV,4,2,15,199,60,167,36,06,50,328,43,194,44,170,35,41,38,242,43,1*68
$GPGSV,4,3,15,14,33,178,29,09,29,114,36,11,24,277,38,20,22,225,27,1*69
$GPGSV,4,4,15,04,21,081,35,03,15,038,27,12,08,321,15,1*5E
$GPGSV,3,1,10,195,67,040,45,196,61,130,44,199,60,167,44,06,50,328,47,8*52
$GPGSV,3,2,10,194,44,170,34,14,33,178,33,09,29,114,36,11,24,277,44,8*5C
$GPGSV,3,3,10,04,21,081,28,03,15,038,29,8*6F
$GLGSV,2,1,08,67,48,076,42,68,40,154,38,82,37,026,33,80,31,238,46,1*73
$GLGSV,2,2,08,83,31,331,27,73,22,299,37,66,12,032,27,79,07,190,14,1*7C
$GAGSV,3,1,09,24,55,253,41,12,50,006,35,10,48,325,42,31,34,183,19,7*71
$GAGSV,3,2,09,11,33,292,37,19,29,093,23,04,22,157,31,25,22,312,31,7*7E
$GAGSV,3,3,09,33,17,058,30,7*42
$GAGSV,3,1,09,24,55,253,44,12,50,006,41,10,48,325,44,31,34,183,18,1*76
$GAGSV,3,2,09,11,33,292,38,19,29,093,20,04,22,157,37,25,22,312,35,1*76
$GAGSV,3,3,09,33,17,058,29,1*4C
$GBGSV,4,1,14,40,83,092,41,07,83,269,40,10,71,300,39,14,60,099,43,1*78
$GBGSV,4,2,14,08,59,261,39,33,56,156,43,43,54,043,45,13,49,251,42,1*77
$GBGSV,4,3,14,42,44,061,41,11,35,072,40,28,33,318,46,23,23,227,,1*72
$GBGSV,4,4,14,37,18,280,39,41,15,197,18,1*79
$GBGSV,2,1,07,40,83,092,45,33,56,156,44,43,54,043,46,42,44,061,45,4*70
$GBGSV,2,2,07,28,33,318,42,37,18,280,33,41,15,197,19,4*43
$GNGGA,032910.000,2500.8201946,N,12132.4470033,E,4,63,0.45,17.637,M,15.25,M,3,3335*4B
$GNRMC,032910.000,A,2500.8201946,N,12132.4470033,E,0.00,160.66,270623,,,R,V*16
$GPHDT,89.529,T*0A
$GNGGA,032910.200,2500.8201936,N,12132.4470025,E,4,63,0.45,17.638,M,15.25,M,3,3335*46
$GNRMC,032910.200,A,2500.8201936,N,12132.4470025,E,0.00,160.66,270623,,,R,V*14
$GPHDT,89.322,T*07
$GNGGA,032910.400,2500.8201938,N,12132.4470005,E,4,62,0.45,17.651,M,15.25,M,3,3335*42
$GNRMC,032910.400,A,2500.8201938,N,12132.4470005,E,0.00,160.66,270623,,,R,V*1E
$GPHDT,89.302,T*05
$GNGGA,032910.600,2500.8201926,N,12132.4470016,E,4,63,0.45,17.642,M,15.25,M,3,3335*4E
$GNRMC,032910.600,A,2500.8201926,N,12132.4470016,E,0.00,160.66,270623,,,R,V*11
$GPHDT,89.499,T*00
$GNGGA,032910.800,2500.8201918,N,12132.4470028,E,4,62,0.45,17.640,M,15.25,M,3,3335*43
$GNRMC,032910.800,A,2500.8201918,N,12132.4470028,E,0.00,160.66,270623,,,R,V*1F
$GPHDT,89.612,T*01
$GNGSA,A,3,195,17,196,19,199,06,194,14,09,11,04,,0.88,0.45,0.76,1*0F
$GNGSA,A,3,67,68,82,80,83,73,,,,,,,0.88,0.45,0.76,2*00
$GNGSA,A,3,24,12,10,31,11,19,04,25,33,,,,0.88,0.45,0.76,3*0E
$GNGSA,A,3,40,07,10,14,08,33,43,13,42,11,28,37,0.88,0.45,0.76,4*06
$GNGSA,A,3,41,,,,,,,,,,,,0.88,0.45,0.76,4*01
$GPGSV,4,1,15,195,67,040,41,17,64,056,43,196,61,130,42,19,61,005,40,1*6B
$GPGSV,4,2,15,199,60,167,36,06,50,328,43,194,44,170,35,41,38,242,43,1*68
$GPGSV,4,3,15,14,33,178,29,09,29,114,36,11,24,277,39,20,22,225,26,1*69
$GPGSV,4,4,15,04,21,081,35,03,15,038,27,12,08,321,16,1*5D
$GPGSV,3,1,10,195,67,040,45,196,61,130,44,199,60,167,44,06,50,328,47,8*52
$GPGSV,3,2,10,194,44,170,36,14,33,178,33,09,29,114,36,11,24,277,44,8*5E
$GPGSV,3,3,10,04,21,081,28,03,15,038,29,8*6F
$GLGSV,2,1,08,67,48,076,42,68,40,154,38,82,37,026,33,80,31,238,46,1*73
$GLGSV,2,2,08,83,31,331,27,73,22,299,37,66,12,032,28,79,07,190,15,1*72
$GAGSV,3,1,09,24,55,253,41,12,50,006,35,10,48,325,42,31,34,183,19,7*71
$GAGSV,3,2,09,11,33,292,37,19,29,093,22,04,22,157,31,25,22,312,30,7*7E
$GAGSV,3,3,09,33,17,058,29,7*4A
$GAGSV,3,1,09,24,55,253,44,12,50,006,41,10,48,325,44,31,34,183,18,1*76
$GAGSV,3,2,09,11,33,292,38,19,29,093,20,04,22,157,37,25,22,312,35,1*76
$GAGSV,3,3,09,33,17,058,28,1*4D
$GBGSV,4,1,14,40,83,092,41,07,83,269,40,10,71,300,39,14,60,099,43,1*78
$GBGSV,4,2,14,08,59,261,39,33,56,156,43,43,54,043,45,13,49,251,42,1*77
$GBGSV,4,3,14,42,44,061,41,11,35,072,40,28,33,318,46,23,23,227,,1*72
$GBGSV,4,4,14,37,18,280,39,41,15,197,19,1*78
$GBGSV,2,1,07,40,83,092,45,33,56,156,44,43,54,043,46,42,44,061,45,4*70
$GBGSV,2,2,07,28,33,318,42,37,18,280,33,41,15,197,19,4*43
$GNGGA,032911.000,2500.8201933,N,12132.4470004,E,4,63,0.45,17.641,M,15.25,M,4,3335*4A
$GNRMC,032911.000,A,2500.8201933,N,12132.4470004,E,0.00,160.66,270623,,,R,V*11
$GPHDT,89.334,T*00
$GNGGA,032911.200,2500.8202010,N,12132.4469961,E,4,64,0.45,17.653,M,15.25,M,1,3335*40
$GNRMC,032911.200,A,2500.8202010,N,12132.4469961,E,0.00,160.66,270623,,,R,V*1A
$GPHDT,89.306,T*01
$GNGGA,032911.400,2500.8202000,N,12132.4469970,E,4,63,0.45,17.655,M,15.25,M,1,3335*46
$GNRMC,032911.400,A,2500.8202000,N,12132.4469970,E,0.00,160.66,270623,,,R,V*1D
$GPHDT,89.481,T*09
$GNGGA,032911.600,2500.8201953,N,12132.4469923,E,4,63,0.45,17.671,M,15.25,M,0,3335*49
$GNRMC,032911.600,A,2500.8201953,N,12132.4469923,E,0.00,160.66,270623,,,R,V*15
$GPHDT,89.268,T*08
$GNGGA,032911.800,2500.8201974,N,12132.4469920,E,4,63,0.45,17.679,M,15.25,M,0,3335*49
$GNRMC,032911.800,A,2500.8201974,N,12132.4469920,E,0.00,160.66,270623,,,R,V*1D
$GPHDT,89.280,T*0E
$GNGSA,A,3,195,17,196,19,199,06,194,14,09,11,04,,0.88,0.45,0.76,1*0F
$GNGSA,A,3,67,68,82,80,83,73,,,,,,,0.88,0.45,0.76,2*00
$GNGSA,A,3,24,12,10,31,11,19,04,25,33,,,,0.88,0.45,0.76,3*0E
$GNGSA,A,3,40,07,10,14,08,33,43,13,42,11,28,37,0.88,0.45,0.76,4*06
$GNGSA,A,3,41,,,,,,,,,,,,0.88,0.45,0.76,4*01
$GPGSV,4,1,15,195,67,040,41,17,64,056,43,196,61,130,42,19,61,005,40,1*6B
$GPGSV,4,2,15,199,60,167,36,06,50,328,43,194,44,170,36,41,38,242,43,1*6B
$GPGSV,4,3,15,14,33,178,30,09,29,114,36,11,24,277,39,20,22,225,26,1*61
$GPGSV,4,4,15,04,21,081,35,03,15,038,27,12,08,321,16,1*5D
$GPGSV,3,1,10,195,67,040,45,196,61,130,44,199,60,167,44,06,50,328,47,8*52
$GPGSV,3,2,10,194,44,170,36,14,33,178,33,09,29,114,36,11,24,277,44,8*5E
$GPGSV,3,3,10,04,21,081,28,03,15,038,29,8*6F
$GLGSV,2,1,08,67,48,076,42,68,40,154,38,82,37,026,33,80,31,238,46,1*73
$GLGSV,2,2,08,83,31,331,28,73,22,299,37,66,12,032,28,79,07,190,17,1*7F
$GAGSV,3,1,09,24,55,253,41,12,50,006,35,10,48,325,42,31,34,183,19,7*71
$GAGSV,3,2,09,11,33,292,37,19,29,093,22,04,22,157,31,25,22,312,30,7*7E
$GAGSV,3,3,09,33,17,058,26,7*45
$GAGSV,3,1,09,24,55,253,44,12,50,006,41,10,48,325,44,31,34,183,19,1*77
$GAGSV,3,2,09,11,33,292,38,19,29,093,21,04,22,157,37,25,22,312,35,1*77
$GAGSV,3,3,09,33,17,058,28,1*4D
$GBGSV,4,1,14,40,83,092,41,07,83,269,40,10,71,300,39,14,60,099,43,1*78
$GBGSV,4,2,14,08,59,261,39,33,56,156,43,43,54,043,45,13,49,251,42,1*77
$GBGSV,4,3,14,42,44,061,41,11,35,072,40,28,33,318,46,23,23,227,,1*72
$GBGSV,4,4,14,37,18,280,39,41,15,197,17,1*76
$GBGSV,2,1,07,40,83,092,45,33,56,156,44,43,54,043,46,42,44,061,45,4*70
$GBGSV,2,2,07,28,33,318,42,37,18,280,33,41,15,197,19,4*43
$GNGGA,032912.000,2500.8201933,N,12132.4469959,E,4,63,0.45,17.670,M,15.25,M,1,3335*47
$GNRMC,032912.000,A,2500.8201933,N,12132.4469959,E,0.00,160.66,270623,,,R,V*1B
$GPHDT,89.370,T*00
$GNGGA,032912.200,2500.8201964,N,12132.4469940,E,4,62,0.45,17.661,M,15.25,M,1,3335*4E
$GNRMC,032912.200,A,2500.8201964,N,12132.4469940,E,0.00,160.66,270623,,,R,V*13
$GPHDT,89.668,T*0C
$GNGGA,032912.400,2500.8201954,N,12132.4469963,E,4,62,0.45,17.669,M,15.25,M,1,3335*42
$GNRMC,032912.400,A,2500.8201954,N,12132.4469963,E,0.00,160.66,270623,,,R,V*17
$GPHDT,89.687,T*0D
$GNGGA,032912.600,2500.8201964,N,12132.4469925,E,4,62,0.45,17.669,M,15.25,M,1,3335*41
$GNRMC,032912.600,A,2500.8201964,N,12132.4469925,E,0.00,160.66,270623,,,R,V*14
$GPHDT,89.488,T*00
$GNGGA,032912.800,2500.8201943,N,12132.4469943,E,4,64,0.43,17.672,M,15.25,M,1,3335*40
$GNRMC,032912.800,A,2500.8201943,N,12132.4469943,E,0.00,160.66,270623,,,R,V*1F
$GPHDT,89.385,T*0A
$GNGSA,A,3,195,17,196,19,199,06,194,14,09,11,04,03,0.85,0.43,0.73,1*02
$GNGSA,A,3,67,68,82,80,83,73,,,,,,,0.85,0.43,0.73,2*0E
$GNGSA,A,3,24,12,10,31,11,19,04,25,33,,,,0.85,0.43,0.73,3*00
$GNGSA,A,3,40,07,10,14,08,33,43,13,42,11,28,37,0.85,0.43,0.73,4*08
$GNGSA,A,3,41,,,,,,,,,,,,0.85,0.43,0.73,4*0F
$GPGSV,4,1,15,195,67,040,41,17,64,056,43,196,61,130,42,19,61,005,40,1*6B
$GPGSV,4,2,15,199,60,167,36,06,50,328,43,194,44,170,36,41,38,242,43,1*6B
$GPGSV,4,3,15,14,33,178,31,09,29,114,35,11,24,277,39,20,22,225,26,1*63
$GPGSV,4,4,15,04,21,081,36,03,15,038,28,12,08,321,16,1*51
$GPGSV,3,1,10,195,67,040,45,196,61,130,44,199,60,167,44,06,50,328,47,8*52
$GPGSV,3,2,10,194,44,170,36,14,33,178,34,09,29,114,36,11,24,277,44,8*59
$GPGSV,3,3,10,04,21,081,26,03,15,038,29,8*61
$GLGSV,2,1,08,67,48,076,42,68,40,154,38,82,37,026,33,80,31,238,46,1*73
$GLGSV,2,2,08,83,31,331,28,73,22,299,37,66,12,032,28,79,07,190,17,1*7F
$GAGSV,3,1,09,24,55,253,41,12,50,006,35,10,48,325,42,31,34,183,21,7*7A
$GAGSV,3,2,09,11,33,292,37,19,29,093,21,04,22,157,30,25,22,312,30,7*7C
$GAGSV,3,3,09,33,17,058,,7*41
$GAGSV,3,1,09,24,55,253,44,12,50,006,41,10,48,325,44,31,34,183,19,1*77
$GAGSV,3,2,09,11,33,292,38,19,29,093,19,04,22,157,37,25,22,312,35,1*7C
$GAGSV,3,3,09,33,17,058,28,1*4D
$GBGSV,4,1,14,40,83,092,41,07,83,269,40,10,71,300,39,14,60,099,42,1*79
$GBGSV,4,2,14,08,59,261,39,33,56,156,43,43,54,043,45,13,49,251,42,1*77
$GBGSV,4,3,14,42,44,061,41,11,35,072,40,28,33,318,46,23,23,227,,1*72
$GBGSV,4,4,14,37,18,280,39,41,15,197,18,1*79
$GBGSV,2,1,07,40,83,092,45,33,56,156,44,43,54,043,46,42,44,061,45,4*70
$GBGSV,2,2,07,28,33,318,42,37,18,280,32,41,15,197,19,4*42
$GNGGA,032913.000,2500.8201931,N,12132.4469947,E,4,64,0.43,17.671,M,15.25,M,2,3335*48
$GNRMC,032913.000,A,2500.8201931,N,12132.4469947,E,0.00,160.66,270623,,,R,V*17
$GPHDT,89.486,T*0E
$GNGGA,032913.200,2500.8201919,N,12132.4469967,E,4,65,0.43,17.671,M,15.25,M,2,3335*43
$GNRMC,032913.200,A,2500.8201919,N,12132.4469967,E,0.00,160.66,270623,,,R,V*1D
$GPHDT,89.568,T*0F
$GNGGA,032913.400,2500.8201943,N,12132.4469989,E,4,65,0.43,17.640,M,15.25,M,1,3335*4B
$GNRMC,032913.400,A,2500.8201943,N,12132.4469989,E,0.00,160.66,270623,,,R,V*14
$GPHDT,89.224,T*00
$GNGGA,032913.600,2500.8201963,N,12132.4469968,E,4,65,0.43,17.648,M,15.25,M,1,3335*4C
$GNRMC,032913.600,A,2500.8201963,N,12132.4469968,E,0.00,160.66,270623,,,R,V*1B
$GPHDT,89.177,T*05
$GNGGA,032913.800,2500.8201952,N,12132.4469977,E,4,65,0.43,17.654,M,15.25,M,1,3335*43
$GNRMC,032913.800,A,2500.8201952,N,12132.4469977,E,0.00,160.66,270623,,,R,V*19
$GPHDT,89.672,T*07
$GNGSA,A,3,195,17,196,19,199,06,194,14,09,11,04,03,0.85,0.43,0.73,1*02
$GNGSA,A,3,67,68,82,80,83,73,,,,,,,0.85,0.43,0.73,2*0E
$GNGSA,A,3,24,12,10,31,11,19,04,25,33,,,,0.85,0.43,0.73,3*00
$GNGSA,A,3,40,07,10,14,08,33,43,13,42,11,28,37,0.85,0.43,0.73,4*08
$GNGSA,A,3,41,,,,,,,,,,,,0.85,0.43,0.73,4*0F
$GPGSV,4,1,15,195,67,040,41,17,64,056,43,196,61,130,42,19,61,005,40,1*6B
$GPGSV,4,2,15,199,60,167,36,06,50,328,43,194,44,170,36,41,38,242,43,1*6B
$GPGSV,4,3,15,14,33,178,31,09,29,114,35,11,24,277,39,20,22,225,26,1*63
$GPGSV,4,4,15,04,21,081,36,03,15,038,28,12,08,321,16,1*51
$GPGSV,3,1,10,195,67,040,45,196,61,130,44,199,60,167,44,06,50,328,47,8*52
$GPGSV,3,2,10,194,44,170,36,14,33,178,34,09,29,114,36,11,24,277,44,8*59
$GPGSV,3,3,10,04,21,081,26,03,15,038,29,8*61
$GLGSV,2,1,08,67,48,076,43,68,40,154,38,82,37,026,32,80,31,238,46,1*73
$GLGSV,2,2,08,83,31,331,28,73,22,299,38,66,12,032,28,79,07,190,17,1*70
$GAGSV,3,1,09,24,55,253,41,12,50,006,35,10,48,325,42,31,34,183,18,7*70
$GAGSV,3,2,09,11,33,292,37,19,29,093,21,04,22,157,30,25,22,312,30,7*7C
$GAGSV,3,3,09,33,17,058,30,7*42
$GAGSV,3,1,09,24,55,253,44,12,50,006,41,10,48,325,44,31,34,183,19,1*77
$GAGSV,3,2,09,11,33,292,38,19,29,093,18,04,22,157,37,25,22,312,35,1*7D
$GAGSV,3,3,09,33,17,058,28,1*4D
$GBGSV,4,1,14,40,83,092,41,07,83,269,40,10,71,300,39,14,60,099,42,1*79
$GBGSV,4,2,14,08,59,261,39,33,56,156,43,43,54,043,45,13,49,251,42,1*77
$GBGSV,4,3,14,42,44,061,41,11,35,072,40,28,33,318,46,23,23,227,,1*72
$GBGSV,4,4,14,37,18,280,39,41,15,197,17,1*76
$GBGSV,2,1,07,40,83,092,45,33,56,156,44,43,54,043,45,42,44,061,45,4*73
$GBGSV,2,2,07,28,33,318,42,37,18,280,30,41,15,197,19,4*40
$GNGGA,032914.000,2500.8201959,N,12132.4469968,E,4,65,0.43,17.649,M,15.25,M,2,3335*46
$GNRMC,032914.000,A,2500.8201959,N,12132.4469968,E,0.00,160.66,270623,,,R,V*13
$GPHDT,89.426,T*04
$GNGGA,032914.200,2500.8201953,N,12132.4469979,E,4,65,0.43,17.648,M,15.25,M,2,3335*4F
$GNRMC,032914.200,A,2500.8201953,N,12132.4469979,E,0.00,160.66,270623,,,R,V*1B
$GPHDT,89.710,T*02
$GNGGA,032914.400,2500.8201947,N,12132.4469987,E,4,66,0.42,17.643,M,15.25,M,2,3335*44
$GNRMC,032914.400,A,2500.8201947,N,12132.4469987,E,0.00,160.66,270623,,,R,V*19
$GPHDT,89.610,T*03
$GNGGA,032914.600,2500.8201954,N,12132.4469965,E,4,66,0.42,17.651,M,15.25,M,2,3335*4B
$GNRMC,032914.600,A,2500.8201954,N,12132.4469965,E,0.00,160.66,270623,,,R,V*15
$GPHDT,89.617,T*04
$GNGGA,032914.800,2500.8201939,N,12132.4469981,E,4,66,0.42,17.644,M,15.25,M,2,3335*40
$GNRMC,032914.800,A,2500.8201939,N,12132.4469981,E,0.00,160.66,270623,,,R,V*1A
$GPHDT,89.319,T*0F
$GNGSA,A,3,195,17,196,19,199,06,194,14,09,11,04,03,0.84,0.42,0.72,1*03
$GNGSA,A,3,67,68,82,80,83,73,,,,,,,0.84,0.42,0.72,2*0F
$GNGSA,A,3,24,12,10,31,11,19,04,25,33,,,,0.84,0.42,0.72,3*01
$GNGSA,A,3,40,07,10,14,08,33,43,13,42,11,28,23,0.84,0.42,0.72,4*0C
$GNGSA,A,3,37,41,,,,,,,,,,,0.84,0.42,0.72,4*0A
$GPGSV,4,1,15,195,67,040,41,17,64,056,43,196,61,130,42,19,61,005,40,1*6B
$GPGSV,4,2,15,199,60,167,36,06,50,328,43,194,44,170,35,41,38,242,43,1*68
$GPGSV,4,3,15,14,33,178,32,09,29,114,34,11,24,277,39,20,22,225,26,1*61
$GPGSV,4,4,15,04,21,081,36,03,15,038,28,12,08,321,16,1*51
$GPGSV,3,1,10,195,67,040,45,196,61,130,44,199,60,167,44,06,50,328,47,8*52
$GPGSV,3,2,10,194,44,170,34,14,33,178,33,09,29,114,36,11,24,277,44,8*5C
$GPGSV,3,3,10,04,21,081,25,03,15,038,29,8*62
$GLGSV,2,1,08,67,48,076,43,68,40,154,38,82,37,026,31,80,31,238,46,1*70
$GLGSV,2,2,08,83,31,331,29,73,22,299,38,66,12,032,28,79,07,190,19,1*7F
$GAGSV,3,1,09,24,55,253,41,12,50,006,36,10,48,325,42,31,34,183,17,7*7C
$GAGSV,3,2,09,11,33,292,37,19,29,093,20,04,22,157,29,25,22,312,30,7*75
$GAGSV,3,3,09,33,17,058,31,7*43
$GAGSV,3,1,09,24,55,253,44,12,50,006,41,10,48,325,44,31,34,183,19,1*77
$GAGSV,3,2,09,11,33,292,38,19,29,093,18,04,22,157,37,25,22,312,35,1*7D
$GAGSV,3,3,09,33,17,058,28,1*4D
$GBGSV,4,1,14,40,83,092,41,07,83,269,40,10,71,300,39,14,60,099,42,1*79
$GBGSV,4,2,14,08,59,261,39,33,56,156,43,43,54,043,46,13,49,251,42,1*74
$GBGSV,4,3,14,42,44,061,41,11,35,072,40,28,33,318,46,23,23,227,26,1*76
$GBGSV,4,4,14,37,18,280,39,41,15,197,17,1*76
$GBGSV,2,1,07,40,83,092,45,33,56,156,44,43,54,043,45,42,44,061,45,4*73
$GBGSV,2,2,07,28,33,318,42,37,18,280,30,41,15,197,19,4*40
$GNGGA,032915.000,2500.8201949,N,12132.4469982,E,4,66,0.42,17.661,M,15.25,M,3,3335*4B
$GNRMC,032915.000,A,2500.8201949,N,12132.4469982,E,0.00,160.66,270623,,,R,V*17
$GPHDT,89.752,T*04
$GNGGA,032915.200,2500.8201902,N,12132.4470017,E,4,66,0.42,17.644,M,15.25,M,3,3335*4C
$GNRMC,032915.200,A,2500.8201902,N,12132.4470017,E,0.00,160.66,270623,,,R,V*17
$GPHDT,89.431,T*02
$GNGGA,032915.400,2500.8201945,N,12132.4469979,E,4,66,0.42,17.649,M,15.25,M,3,3335*4D
$GNRMC,032915.400,A,2500.8201945,N,12132.4469979,E,0.00,160.66,270623,,,R,V*1B
$GPHDT,89.397,T*09
$GNGGA,032915.600,2500.8201918,N,12132.4469981,E,4,66,0.42,17.657,M,15.25,M,3,3335*4F
$GNRMC,032915.600,A,2500.8201918,N,12132.4469981,E,0.00,160.66,270623,,,R,V*16
$GPHDT,89.486,T*0E
$GNGGA,032915.800,2500.8201895,N,12132.4470002,E,4,66,0.42,17.642,M,15.25,M,3,3335*4B
$GNRMC,032915.800,A,2500.8201895,N,12132.4470002,E,0.00,160.66,270623,,,R,V*16
$GPHDT,89.492,T*0B
$GNGSA,A,3,195,17,196,19,199,06,194,14,09,11,04,03,0.84,0.42,0.72,1*03
$GNGSA,A,3,67,68,82,80,83,73,,,,,,,0.84,0.42,0.72,2*0F
$GNGSA,A,3,24,12,10,31,11,19,04,25,33,,,,0.84,0.42,0.72,3*01
$GNGSA,A,3,40,07,10,14,08,33,43,13,42,11,28,23,0.84,0.42,0.72,4*0C
$GNGSA,A,3,37,41,,,,,,,,,,,0.84,0.42,0.72,4*0A
$GPGSV,4,1,15,195,67,040,41,17,64,056,43,196,61,130,42,19,61,005,40,1*6B
$GPGSV,4,2,15,199,60,167,36,06,50,328,43,194,44,170,34,41,38,242,43,1*69
$GPGSV,4,3,15,14,33,178,34,09,29,114,33,11,24,277,39,20,22,225,26,1*60
$GPGSV,4,4,15,04,21,081,36,03,15,038,28,12,08,321,16,1*51
$GPGSV,3,1,10,195,67,040,45,196,61,130,44,199,60,167,44,06,50,328,47,8*52
$GPGSV,3,2,10,194,44,170,32,14,33,178,32,09,29,114,35,11,24,277,44,8*58
$GPGSV,3,3,10,04,21,081,26,03,15,038,28,8*60
$GLGSV,2,1,08,67,48,075,43,68,40,153,39,82,37,026,32,80,31,238,46,1*76
$GLGSV,2,2,08,83,31,331,29,73,22,299,38,66,12,031,28,79,07,190,17,1*72
$GAGSV,3,1,09,24,55,253,41,12,50,006,36,10,48,325,42,31,34,183,16,7*7D
$GAGSV,3,2,09,11,33,292,37,19,29,093,20,04,22,157,28,25,22,312,30,7*74
$GAGSV,3,3,09,33,17,058,32,7*40
$GAGSV,3,1,09,24,55,253,44,12,50,006,41,10,48,325,44,31,34,183,19,1*77
$GAGSV,3,2,09,11,33,292,38,19,29,093,17,04,22,157,36,25,22,312,35,1*73
$GAGSV,3,3,09,33,17,058,28,1*4D
$GBGSV,4,1,14,40,83,092,41,07,83,269,40,10,71,300,39,14,60,099,42,1*79
$GBGSV,4,2,14,08,59,261,39,33,56,156,43,43,54,043,46,13,49,251,42,1*74
$GBGSV,4,3,14,42,44,061,41,11,35,072,40,28,33,318,46,23,23,227,23,1*73
$GBGSV,4,4,14,37,18,280,39,41,15,197,17,1*76
$GBGSV,2,1,07,40,83,092,45,33,56,156,43,43,54,043,44,42,44,061,45,4*75
$GBGSV,2,2,07,28,33,318,42,37,18,280,31,41,15,197,19,4*41
$GNGGA,032916.000,2500.8201925,N,12132.4469980,E,4,66,0.42,17.659,M,15.25,M,4,3335*4C
$GNRMC,032916.000,A,2500.8201925,N,12132.4469980,E,0.00,160.66,270623,,,R,V*1C
$GPHDT,89.485,T*0D
$GNGGA,032916.200,2500.8201911,N,12132.4469998,E,4,66,0.42,17.650,M,15.25,M,4,3335*49
$GNRMC,032916.200,A,2500.8201911,N,12132.4469998,E,0.00,160.66,270623,,,R,V*10
$GPHDT,89.498,T*01
$GNGGA,032916.400,2500.8201953,N,12132.4469966,E,4,66,0.42,17.665,M,15.25,M,1,3335*4B
$GNRMC,032916.400,A,2500.8201953,N,12132.4469966,E,0.00,160.66,270623,,,R,V*11
$GPHDT,89.704,T*07
$GNGGA,032916.600,2500.8201954,N,12132.4469922,E,4,66,0.42,17.677,M,15.25,M,0,3335*4C
$GNRMC,032916.600,A,2500.8201954,N,12132.4469922,E,0.00,160.66,270623,,,R,V*14
$GPHDT,89.499,T*00
$GNGGA,032916.800,2500.8201955,N,12132.4469916,E,4,65,0.43,17.669,M,15.25,M,0,3335*49
$GNRMC,032916.800,A,2500.8201955,N,12132.4469916,E,0.00,160.66,270623,,,R,V*1C
$GPHDT,89.547,T*02
$GNGSA,A,3,195,17,196,19,199,06,194,14,09,11,04,03,0.85,0.43,0.73,1*02
$GNGSA,A,3,67,68,82,80,83,73,,,,,,,0.85,0.43,0.73,2*0E
$GNGSA,A,3,24,12,10,31,11,19,04,25,33,,,,0.85,0.43,0.73,3*00
$GNGSA,A,3,40,07,10,14,08,33,43,13,42,11,28,37,0.85,0.43,0.73,4*08
$GNGSA,A,3,41,,,,,,,,,,,,0.85,0.43,0.73,4*0F
$GPGSV,4,1,15,195,67,040,40,17,64,056,43,196,61,130,42,19,61,005,40,1*6A
$GPGSV,4,2,15,199,60,167,36,06,50,328,43,194,44,170,34,41,38,242,43,1*69
$GPGSV,4,3,15,14,33,178,35,09,29,114,33,11,24,277,39,20,22,225,26,1*61
$GPGSV,4,4,15,04,21,081,36,03,15,038,27,12,08,321,16,1*5E
$GPGSV,3,1,10,195,67,040,45,196,61,130,44,199,60,167,44,06,50,328,47,8*52
$GPGSV,3,2,10,194,44,170,34,14,33,178,32,09,29,114,35,11,24,277,44,8*5E
$GPGSV,3,3,10,04,21,081,26,03,15,038,29,8*61
$GLGSV,2,1,08,67,48,075,43,68,40,153,39,82,37,026,32,80,31,238,46,1*76
$GLGSV,2,2,08,83,31,331,29,73,23,299,38,66,12,031,28,79,07,190,17,1*73
$GAGSV,3,1,09,24,55,253,41,12,50,006,36,10,48,325,42,31,34,183,18,7*73
$GAGSV,3,2,09,11,33,292,37,19,29,093,20,04,22,157,28,25,22,312,31,7*75
$GAGSV,3,3,09,33,17,058,32,7*40
$GAGSV,3,1,09,24,55,253,44,12,50,006,41,10,48,325,44,31,34,183,20,1*7D
$GAGSV,3,2,09,11,33,292,38,19,29,093,16,04,22,157,36,25,22,312,35,1*72
$GAGSV,3,3,09,33,17,058,28,1*4D
$GBGSV,4,1,14,40,83,092,41,07,83,269,40,10,71,300,39,14,60,099,42,1*79
$GBGSV,4,2,14,08,59,261,39,33,56,156,43,43,54,043,46,13,49,251,42,1*74
$GBGSV,4,3,14,42,44,061,41,11,35,072,40,28,33,318,46,23,23,227,,1*72
$GBGSV,4,4,14,37,18,280,39,41,15,197,17,1*76
$GBGSV,2,1,07,40,83,092,45,33,56,156,43,43,54,043,44,42,44,061,45,4*75
$GBGSV,2,2,07,28,33,318,42,37,18,280,31,41,15,197,20,4*4B
$GNGGA,032917.000,2500.8201915,N,12132.4469940,E,4,65,0.43,17.666,M,15.25,M,1,3335*49
$GNRMC,032917.000,A,2500.8201915,N,12132.4469940,E,0.00,160.66,270623,,,R,V*12
$GPHDT,89.481,T*09
$GNGGA,032917.200,2500.8201978,N,12132.4469905,E,4,65,0.43,17.676,M,15.25,M,1,3335*40
$GNRMC,032917.200,A,2500.8201978,N,12132.4469905,E,0.00,160.66,270623,,,R,V*1A
