$FW : RTK35X,V1.1X0314AS,Lib20210517,1*54
$Tool : LOCOSYS , GNSS Firebird , v1.0.0.19*39
$---------------------------------------------------*2D
2500.8202065,N,12132.4470021,E,0.00,160.66,270623,,,R,V*11
$GPHDT,139.709,T*30
$GNGSA,A,3,195,17,19,196,199,06,194,14,09,11,04,,0.88,0.45,0.76,1*0F
$GNGSA,A,3,67,68,82,83,80,73,,,,,,,0.88,0.45,0.76,2*00
$GNGSA,A,3,24,12,10,31,11,19,04,25,33,,,,0.88,0.45,0.76,3*0E
$GNGSA,A,3,40,07,10,14,08,33,43,13,42,11,28,37,0.88,0.45,0.76,4*06
$GNGSA,A,3,41,,,,,,,,,,,,0.88,0.45,0.76,4*01
$GPGSV,4,1,14,195,67,040,38,17,64,056,41,19,61,005,40,196,61,130,40,1*64
$GPGSV,4,2,14,199,60,167,35,06,50,327,44,194,44,170,41,41,38,242,39,1*6C
$GPGSV,4,3,14,14,33,178,40,09,29,114,31,11,24,277,40,04,21,081,18,1*6A
$GPGSV,4,4,14,03,16,038,,12,07,322,17,1*6F
$GPGSV,3,1,09,195,67,040,46,196,61,130,46,199,60,167,44,06,50,327,46,8*55
$GPGSV,3,2,09,194,44,170,45,14,33,178,42,09,29,114,39,11,24,277,43,8*5C
$GPGSV,3,3,09,04,21,081,36,8*5F
$GLGSV,2,1,08,67,48,076,43,68,40,154,44,82,37,026,31,83,31,331,23,1*73
$GLGSV,2,2,08,80,31,238,37,73,22,300,41,66,12,032,21,79,07,190,15,1*71
$GAGSV,3,1,09,24,55,253,37,12,50,006,36,10,48,324,40,31,34,183,38,7*73
$GAGSV,3,2,09,11,33,292,39,19,29,093,25,04,22,157,38,25,22,312,32,7*7C
$GAGSV,3,3,09,33,17,058,27,7*44
$GAGSV,3,1,09,24,55,253,42,12,50,006,41,10,48,324,43,31,34,183,37,1*7B
$GAGSV,3,2,09,11,33,292,40,19,29,093,16,04,22,157,39,25,22,312,33,1*74
$GAGSV,3,3,09,33,17,058,20,1*45
$GBGSV,4,1,14,40,83,091,40,07,83,269,40,10,71,301,39,14,60,100,42,1*7B
$GBGSV,4,2,14,08,59,260,34,33,56,157,46,43,54,043,45,13,49,250,35,1*7E
$GBGSV,4,3,14,42,44,062,42,11,35,071,35,28,33,318,46,23,23,227,21,1*70
$GBGSV,4,4,14,37,18,280,38,41,15,197,20,1*73
$GBGSV,2,1,07,40,83,091,44,33,56,157,45,43,54,043,47,42,44,062,44,4*71
$GBGSV,2,2,07,28,33,318,41,37,18,280,37,41,15,197,18,4*45
$GNGGA,032844.000,2500.8202060,N,12132.4470014,E,4,63,0.45,17.631,M,15.25,M,1,3335*44
$GNRMC,032844.000,A,2500.8202060,N,12132.4470014,E,0.00,160.66,270623,,,R,V*1D
$GPHDT,139.798,T*38
$GNGGA,032844.200,2500.8202048,N,12132.4470006,E,4,63,0.45,17.644,M,15.25,M,1,3335*4D
$GNRMC,032844.200,A,2500.8202048,N,12132.4470006,E,0.00,160.66,270623,,,R,V*16
$GPHDT,139.427,T*3F
$GNGGA,032844.400,2500.8202048,N,12132.4470021,E,4,64,0.45,17.643,M,15.25,M,1,3335*4E
$GNRMC,032844.400,A,2500.8202048,N,12132.4470021,E,0.00,160.66,270623,,,R,V*15
$GPHDT,139.640,T*3C
$GNGGA,032844.600,2500.8202045,N,12132.4470017,E,4,63,0.45,17.633,M,15.25,M,0,3335*45
$GNRMC,032844.600,A,2500.8202045,N,12132.4470017,E,0.00,160.66,270623,,,R,V*1F
$GPHDT,139.687,T*37
$GNGGA,032844.800,2500.8202052,N,12132.4470033,E,4,63,0.45,17.622,M,15.25,M,0,3335*4B
$GNRMC,032844.800,A,2500.8202052,N,12132.4470033,E,0.00,160.66,270623,,,R,V*11
$GPHDT,139.644,T*38
$GNGSA,A,3,195,17,19,196,199,06,194,14,09,11,04,,0.88,0.45,0.76,1*0F
$GNGSA,A,3,67,68,82,83,80,73,,,,,,,0.88,0.45,0.76,2*00
$GNGSA,A,3,24,12,10,31,11,19,04,25,33,,,,0.88,0.45,0.76,3*0E
$GNGSA,A,3,40,07,10,14,08,33,43,13,42,11,28,37,0.88,0.45,0.76,4*06
$GNGSA,A,3,41,,,,,,,,,,,,0.88,0.45,0.76,4*01
$GPGSV,4,1,14,195,67,040,40,17,64,056,41,19,61,005,40,196,61,130,40,1*6B
$GPGSV,4,2,14,199,60,167,36,06,50,327,44,194,44,170,41,41,38,242,39,1*6F
$GPGSV,4,3,14,14,33,178,40,09,29,114,31,11,24,277,40,04,21,081,20,1*61
$GPGSV,4,4,14,03,16,038,18,12,07,322,17,1*66
$GPGSV,3,1,09,195,67,040,46,196,61,130,46,199,60,167,44,06,50,327,46,8*55
$GPGSV,3,2,09,194,44,170,45,14,33,178,42,09,29,114,39,11,24,277,43,8*5C
$GPGSV,3,3,09,04,21,081,36,8*5F
$GLGSV,2,1,08,67,48,076,43,68,40,154,44,82,37,026,31,83,31,331,23,1*73
$GLGSV,2,2,08,80,31,238,35,73,22,299,41,66,12,032,20,79,07,190,14,1*72
$GAGSV,3,1,09,24,55,253,37,12,50,006,36,10,48,324,41,31,34,183,38,7*72
$GAGSV,3,2,09,11,33,292,39,19,29,093,25,04,22,157,38,25,22,312,32,7*7C
$GAGSV,3,3,09,33,17,058,25,7*46
$GAGSV,2,1,08,24,55,253,42,12,50,006,41,10,48,324,43,31,34,183,37,1*7B
$GAGSV,2,2,08,11,33,292,40,04,22,157,39,25,22,312,33,33,17,058,20,1*73
$GBGSV,4,1,14,40,83,091,40,07,83,269,40,10,71,301,39,14,60,100,42,1*7B
$GBGSV,4,2,14,08,59,260,34,33,56,157,46,43,54,043,45,13,49,250,36,1*7D
$GBGSV,4,3,14,42,44,062,40,11,35,071,35,28,33,318,46,23,23,227,21,1*72
$GBGSV,4,4,14,37,18,280,38,41,15,197,21,1*72
$GBGSV,2,1,07,40,83,091,44,33,56,157,45,43,54,043,47,42,44,062,44,4*71
$GBGSV,2,2,07,28,33,318,41,37,18,280,37,41,15,197,17,4*4A
$GNGGA,032845.000,2500.8202084,N,12132.4470009,E,4,63,0.45,17.633,M,15.25,M,1,3335*41
$GNRMC,032845.000,A,2500.8202084,N,12132.4470009,E,0.00,160.66,270623,,,R,V*1A
$GPHDT,139.947,T*34
$GNGGA,032845.200,2500.8202078,N,12132.4469992,E,4,64,0.45,17.637,M,15.25,M,1,3335*40
$GNRMC,032845.200,A,2500.8202078,N,12132.4469992,E,0.00,160.66,270623,,,R,V*18
$GPHDT,139.723,T*38
$GNGGA,032845.400,2500.8202078,N,12132.4470004,E,4,64,0.45,17.652,M,15.25,M,1,3335*4B
$GNRMC,032845.400,A,2500.8202078,N,12132.4470004,E,0.00,160.66,270623,,,R,V*10
$GPHDT,139.746,T*3B
$GNGGA,032845.600,2500.8202084,N,12132.4469985,E,4,63,0.45,17.650,M,15.25,M,1,3335*47
$GNRMC,032845.600,A,2500.8202084,N,12132.4469985,E,0.00,160.66,270623,,,R,V*19
$GPHDT,139.754,T*38
$GNGGA,032845.800,2500.8202099,N,12132.4469990,E,4,63,0.45,17.646,M,15.25,M,1,3335*46
$GNRMC,032845.800,A,2500.8202099,N,12132.4469990,E,0.00,160.66,270623,,,R,V*1F
$GPHDT,140.129,T*3A
$GNGSA,A,3,195,17,19,196,199,06,194,14,09,11,04,,0.88,0.45,0.76,1*0F
$GNGSA,A,3,67,68,82,83,80,73,,,,,,,0.88,0.45,0.76,2*00
$GNGSA,A,3,24,12,10,31,11,19,04,25,33,,,,0.88,0.45,0.76,3*0E
$GNGSA,A,3,40,07,10,14,08,33,43,13,42,11,28,37,0.88,0.45,0.76,4*06
$GNGSA,A,3,41,,,,,,,,,,,,0.88,0.45,0.76,4*01
$GPGSV,4,1,14,195,67,040,38,17,64,056,40,19,61,005,40,196,61,130,40,1*65
$GPGSV,4,2,14,199,60,167,35,06,50,327,44,194,44,170,41,41,38,242,39,1*6C
$GPGSV,4,3,14,14,33,178,40,09,29,114,32,11,24,277,40,04,21,081,18,1*69
$GPGSV,4,4,14,03,16,038,20,12,07,322,17,1*6D
$GPGSV,3,1,09,195,67,040,46,196,61,130,46,199,60,167,44,06,50,327,46,8*55
$GPGSV,3,2,09,194,44,170,45,14,33,178,42,09,29,114,39,11,24,277,43,8*5C
$GPGSV,3,3,09,04,21,081,36,8*5F
$GLGSV,2,1,08,67,48,076,43,68,40,154,44,82,37,026,28,83,31,331,23,1*7B
$GLGSV,2,2,08,80,31,238,37,73,22,299,41,66,12,032,18,79,07,190,15,1*7A
$GAGSV,3,1,09,24,55,253,37,12,50,006,36,10,48,324,41,31,34,183,38,7*72
$GAGSV,3,2,09,11,33,292,39,19,29,093,25,04,22,157,38,25,22,312,31,7*7F
$GAGSV,3,3,09,33,17,058,29,7*4A
$GAGSV,3,1,09,24,55,253,42,12,50,006,41,10,48,324,43,31,34,183,37,1*7B
$GAGSV,3,2,09,11,33,292,40,19,29,093,21,04,22,157,39,25,22,312,34,1*77
$GAGSV,3,3,09,33,17,058,20,1*45
$GBGSV,4,1,14,40,83,091,40,07,83,269,40,10,71,301,39,14,60,100,42,1*7B
$GBGSV,4,2,14,08,59,260,34,33,56,157,46,43,54,043,45,13,49,250,36,1*7D
$GBGSV,4,3,14,42,44,062,41,11,35,071,36,28,33,318,46,23,23,227,19,1*7B
$GBGSV,4,4,14,37,18,280,38,41,15,197,21,1*72
$GBGSV,2,1,07,40,83,091,44,33,56,157,45,43,54,043,47,42,44,062,44,4*71
$GBGSV,2,2,07,28,33,318,41,37,18,280,37,41,15,197,18,4*45
$GNGGA,032846.000,2500.8202053,N,12132.4469991,E,4,63,0.45,17.622,M,15.25,M,2,3335*4B
$GNRMC,032846.000,A,2500.8202053,N,12132.4469991,E,0.00,160.66,270623,,,R,V*13
$GPHDT,139.838,T*3D
$GNGGA,032846.200,2500.8202068,N,12132.4469993,E,4,63,0.45,17.630,M,15.25,M,2,3335*40
$GNRMC,032846.200,A,2500.8202068,N,12132.4469993,E,0.00,160.66,270623,,,R,V*1B
$GPHDT,139.961,T*30
$GNGGA,032846.400,2500.8202060,N,12132.4469922,E,4,63,0.45,17.632,M,15.25,M,2,3335*46
$GNRMC,032846.400,A,2500.8202060,N,12132.4469922,E,0.00,160.66,270623,,,R,V*1F
$GPHDT,139.623,T*39
$GNGGA,032846.600,2500.8202083,N,12132.4469942,E,4,63,0.45,17.633,M,15.25,M,2,3335*4E
$GNRMC,032846.600,A,2500.8202083,N,12132.4469942,E,0.00,160.66,270623,,,R,V*16
$GPHDT,140.107,T*36
$GNGGA,032846.800,2500.8202053,N,12132.4469981,E,4,62,0.45,17.636,M,15.25,M,2,3335*46
$GNRMC,032846.800,A,2500.8202053,N,12132.4469981,E,0.00,160.66,270623,,,R,V*1A
$GPHDT,140.140,T*35
$GNGSA,A,3,195,17,19,196,199,06,194,14,09,11,04,,0.88,0.45,0.76,1*0F
$GNGSA,A,3,67,68,82,83,80,73,,,,,,,0.88,0.45,0.76,2*00
$GNGSA,A,3,24,12,10,31,11,19,04,25,33,,,,0.88,0.45,0.76,3*0E
$GNGSA,A,3,40,07,10,14,08,33,43,13,42,11,28,37,0.88,0.45,0.76,4*06
$GNGSA,A,3,41,,,,,,,,,,,,0.88,0.45,0.76,4*01
$GPGSV,4,1,14,195,67,040,40,17,64,056,39,19,61,005,41,196,61,130,40,1*65
$GPGSV,4,2,14,199,60,167,34,06,50,327,44,194,44,170,41,41,38,242,38,1*6C
$GPGSV,4,3,14,14,33,178,40,09,29,114,32,11,24,277,39,04,21,081,18,1*67
$GPGSV,4,4,14,03,16,038,22,12,07,322,18,1*60
$GPGSV,3,1,09,195,67,040,46,196,61,130,46,199,60,167,45,06,50,327,46,8*54
$GPGSV,3,2,09,194,44,170,45,14,33,178,42,09,29,114,39,11,24,277,42,8*5D
$GPGSV,3,3,09,04,21,081,35,8*5C
$GLGSV,2,1,08,67,48,076,43,68,40,154,44,82,37,026,31,83,31,331,26,1*76
$GLGSV,2,2,08,80,31,238,39,73,22,299,41,66,12,032,16,79,07,190,15,1*7A
$GAGSV,3,1,09,24,55,253,37,12,50,006,36,10,48,324,41,31,34,183,38,7*72
$GAGSV,3,2,09,11,33,292,39,19,29,093,25,04,22,157,38,25,22,312,28,7*77
$GAGSV,3,3,09,33,17,058,29,7*4A
$GAGSV,3,1,09,24,55,253,42,12,50,006,41,10,48,324,43,31,34,183,37,1*7B
$GAGSV,3,2,09,11,33,292,40,19,29,093,21,04,22,157,39,25,22,312,34,1*77
$GAGSV,3,3,09,33,17,058,19,1*4F
$GBGSV,4,1,14,40,83,091,40,07,83,269,39,10,71,301,37,14,60,100,42,1*7B
$GBGSV,4,2,14,08,59,260,34,33,56,157,46,43,54,043,46,13,49,250,33,1*7B
$GBGSV,4,3,14,42,44,062,41,11,35,071,36,28,33,318,44,23,23,227,18,1*78
$GBGSV,4,4,14,37,18,280,38,41,15,197,19,1*79
$GBGSV,2,1,07,40,83,091,44,33,56,157,45,43,54,043,47,42,44,062,46,4*73
$GBGSV,2,2,07,28,33,318,41,37,18,280,36,41,15,197,17,4*4B
$GNGGA,032847.000,2500.8202064,N,12132.4469965,E,4,62,0.45,17.633,M,15.25,M,3,3335*45
$GNRMC,032847.000,A,2500.8202064,N,12132.4469965,E,0.00,160.66,270623,,,R,V*1D
$GPHDT,140.089,T*31
$GNGGA,032847.200,2500.8202089,N,12132.4470015,E,4,62,0.45,17.631,M,15.25,M,3,3335*40
$GNRMC,032847.200,A,2500.8202089,N,12132.4470015,E,0.00,160.66,270623,,,R,V*1A
$GPHDT,140.255,T*32
$GNGGA,032847.400,2500.8202072,N,12132.4469941,E,4,62,0.45,17.637,M,15.25,M,3,3335*44
$GNRMC,032847.400,A,2500.8202072,N,12132.4469941,E,0.00,160.66,270623,,,R,V*18
$GPHDT,140.019,T*38
$GNGGA,032847.600,2500.8202050,N,12132.4469955,E,4,63,0.45,17.641,M,15.25,M,3,3335*43
$GNRMC,032847.600,A,2500.8202050,N,12132.4469955,E,0.00,160.66,270623,,,R,V*1F
$GPHDT,139.893,T*3C
$GNGGA,032847.800,2500.8202074,N,12132.4469971,E,4,64,0.45,17.637,M,15.25,M,3,3335*4B
$GNRMC,032847.800,A,2500.8202074,N,12132.4469971,E,0.00,160.66,270623,,,R,V*11
$GPHDT,140.134,T*36
$GNGSA,A,3,195,17,19,196,199,06,194,14,09,11,04,,0.88,0.45,0.76,1*0F
$GNGSA,A,3,67,68,82,83,80,73,,,,,,,0.88,0.45,0.76,2*00
$GNGSA,A,3,24,12,10,31,11,19,04,25,33,,,,0.88,0.45,0.76,3*0E
$GNGSA,A,3,40,07,10,14,08,33,43,13,42,11,28,37,0.88,0.45,0.76,4*06
$GNGSA,A,3,41,,,,,,,,,,,,0.88,0.45,0.76,4*01
$GPGSV,4,1,14,195,67,040,40,17,64,056,39,19,61,005,41,196,61,130,40,1*65
$GPGSV,4,2,14,199,60,167,34,06,50,327,44,194,44,170,41,41,38,242,37,1*63
$GPGSV,4,3,14,14,33,178,40,09,29,114,31,11,24,277,39,04,21,081,19,1*65
$GPGSV,4,4,14,03,16,038,21,12,07,322,17,1*6C
$GPGSV,3,1,09,195,67,040,46,196,61,130,46,199,60,167,45,06,50,327,46,8*54
$GPGSV,3,2,09,194,44,170,45,14,33,178,42,09,29,114,39,11,24,277,42,8*5D
$GPGSV,3,3,09,04,21,081,35,8*5C
$GLGSV,2,1,08,67,48,076,43,68,40,154,44,82,37,026,31,83,31,331,27,1*77
$GLGSV,2,2,08,80,31,238,39,73,22,299,41,66,12,032,14,79,07,190,16,1*7B
$GAGSV,3,1,09,24,55,253,37,12,50,006,36,10,48,324,41,31,34,183,38,7*72
$GAGSV,3,2,09,11,33,292,39,19,29,093,25,04,22,157,38,25,22,312,28,7*77
$GAGSV,3,3,09,33,17,058,30,7*42
$GAGSV,3,1,09,24,55,253,42,12,50,006,41,10,48,324,43,31,34,183,37,1*7B
$GAGSV,3,2,09,11,33,292,40,19,29,093,19,04,22,157,40,25,22,312,36,1*70
$GAGSV,3,3,09,33,17,058,19,1*4F
$GBGSV,4,1,14,40,83,091,41,07,83,269,39,10,71,301,36,14,60,100,42,1*7B
$GBGSV,4,2,14,08,59,260,34,33,56,157,46,43,54,043,46,13,49,250,33,1*7B
$GBGSV,4,3,14,42,44,062,42,11,35,071,36,28,33,318,44,23,23,227,18,1*7B
$GBGSV,4,4,14,37,18,280,38,41,15,197,19,1*79
$GBGSV,2,1,07,40,83,091,44,33,56,157,45,43,54,043,47,42,44,062,46,4*73
$GBGSV,2,2,07,28,33,318,41,37,18,280,35,41,15,197,18,4*47
$GNGGA,032848.000,2500.8202076,N,12132.4469996,E,4,63,0.45,17.633,M,15.25,M,4,3335*43
$GNRMC,032848.000,A,2500.8202076,N,12132.4469996,E,0.00,160.66,270623,,,R,V*1D
$GPHDT,140.241,T*37
$GNGGA,032848.200,2500.8202037,N,12132.4469921,E,4,64,0.45,17.649,M,15.25,M,1,3335*47
$GNRMC,032848.200,A,2500.8202037,N,12132.4469921,E,0.00,160.66,270623,,,R,V*16
$GPHDT,139.877,T*36
$GNGGA,032848.400,2500.8202044,N,12132.4469947,E,4,64,0.45,17.644,M,15.25,M,1,3335*48
$GNRMC,032848.400,A,2500.8202044,N,12132.4469947,E,0.00,160.66,270623,,,R,V*14
$GPHDT,140.229,T*39
$GNGGA,032848.600,2500.8202050,N,12132.4470011,E,4,64,0.45,17.636,M,15.25,M,1,3335*48
$GNRMC,032848.600,A,2500.8202050,N,12132.4470011,E,0.00,160.66,270623,,,R,V*11
$GPHDT,139.911,T*37
$GNGGA,032848.800,2500.8202155,N,12132.4469935,E,4,64,0.45,17.668,M,15.25,M,0,3335*4F
$GNRMC,032848.800,A,2500.8202155,N,12132.4469935,E,0.00,160.66,270623,,,R,V*1C
$GPHDT,139.841,T*33
$GNGSA,A,3,195,17,19,196,199,06,194,14,09,11,04,,0.88,0.45,0.76,1*0F
$GNGSA,A,3,67,68,82,83,80,73,,,,,,,0.88,0.45,0.76,2*00
$GNGSA,A,3,24,12,10,31,11,19,04,25,33,,,,0.88,0.45,0.76,3*0E
$GNGSA,A,3,40,07,10,14,08,33,43,13,42,11,28,37,0.88,0.45,0.76,4*06
$GNGSA,A,3,41,,,,,,,,,,,,0.88,0.45,0.76,4*01
$GPGSV,4,1,14,195,67,040,39,17,64,056,39,19,61,005,41,196,61,130,40,1*6B
$GPGSV,4,2,14,199,60,167,34,06,50,327,44,194,44,170,41,41,38,242,37,1*63
$GPGSV,4,3,14,14,33,178,40,09,29,114,31,11,24,277,39,04,21,081,22,1*6D
$GPGSV,4,4,14,03,16,038,19,12,07,322,18,1*68
$GPGSV,3,1,09,195,67,040,46,196,61,130,46,199,60,167,45,06,50,327,46,8*54
$GPGSV,3,2,09,194,44,170,45,14,33,178,42,09,29,114,38,11,24,277,42,8*5C
$GPGSV,3,3,09,04,21,081,33,8*5A
$GLGSV,2,1,08,67,48,076,43,68,40,154,44,82,37,026,28,83,31,331,24,1*7C
$GLGSV,2,2,08,80,31,238,39,73,22,299,41,66,12,032,14,79,07,190,15,1*78
$GAGSV,3,1,09,24,55,253,37,12,50,006,36,10,48,324,41,31,34,183,38,7*72
$GAGSV,3,2,09,11,33,292,39,19,29,093,25,04,22,157,38,25,22,312,30,7*7E
$GAGSV,3,3,09,33,17,058,30,7*42
$GAGSV,3,1,09,24,55,253,42,12,50,006,41,10,48,324,43,31,34,183,37,1*7B
$GAGSV,3,2,09,11,33,292,40,19,29,093,20,04,22,157,40,25,22,312,36,1*7A
$GAGSV,3,3,09,33,17,058,18,1*4E
$GBGSV,4,1,14,40,83,091,41,07,83,269,39,10,71,301,37,14,60,100,42,1*7A
$GBGSV,4,2,14,08,59,261,34,33,56,157,46,43,54,043,46,13,49,250,34,1*7D
$GBGSV,4,3,14,42,44,062,42,11,35,071,36,28,33,318,44,23,23,227,18,1*7B
$GBGSV,4,4,14,37,18,280,38,41,15,197,19,1*79
$GBGSV,2,1,07,40,83,091,44,33,56,157,45,43,54,043,46,42,44,062,46,4*72
$GBGSV,2,2,07,28,33,318,41,37,18,280,36,41,15,197,18,4*44
$GNGGA,032849.000,2500.8202119,N,12132.4469916,E,4,64,0.45,17.655,M,15.25,M,1,3335*40
$GNRMC,032849.000,A,2500.8202119,N,12132.4469916,E,0.00,160.66,270623,,,R,V*1C
$GPHDT,139.654,T*39
$GNGGA,032849.200,2500.8202113,N,12132.4469880,E,4,64,0.45,17.659,M,15.25,M,1,3335*4A
$GNRMC,032849.200,A,2500.8202113,N,12132.4469880,E,0.00,160.66,270623,,,R,V*1A
$GPHDT,139.381,T*34
$GNGGA,032849.400,2500.8202139,N,12132.4469907,E,4,64,0.45,17.659,M,15.25,M,1,3335*4A
$GNRMC,032849.400,A,2500.8202139,N,12132.4469907,E,0.00,160.66,270623,,,R,V*1A
$GPHDT,139.941,T*32
$GNGGA,032849.600,2500.8202126,N,12132.4469899,E,4,64,0.45,17.664,M,15.25,M,1,3335*4E
$GNRMC,032849.600,A,2500.8202126,N,12132.4469899,E,0.00,160.66,270623,,,R,V*10
$GPHDT,139.552,T*3C
$GNGGA,032849.800,2500.8202111,N,12132.4469913,E,4,63,0.45,17.656,M,15.25,M,1,3335*41
$GNRMC,032849.800,A,2500.8202111,N,12132.4469913,E,0.00,160.66,270623,,,R,V*19
$GPHDT,139.752,T*3E
$GNGSA,A,3,195,17,19,196,199,06,194,14,09,11,04,,0.88,0.45,0.76,1*0F
$GNGSA,A,3,67,68,82,83,80,73,,,,,,,0.88,0.45,0.76,2*00
$GNGSA,A,3,24,12,10,31,11,19,04,25,33,,,,0.88,0.45,0.76,3*0E
$GNGSA,A,3,40,07,10,14,08,33,43,13,42,11,28,37,0.88,0.45,0.76,4*06
$GNGSA,A,3,41,,,,,,,,,,,,0.88,0.45,0.76,4*01
$GPGSV,4,1,14,195,67,040,39,17,64,056,39,19,61,005,41,196,61,130,40,1*6B
$GPGSV,4,2,14,199,60,167,35,06,50,327,44,194,44,170,41,41,38,242,37,1*62
$GPGSV,4,3,14,14,33,178,40,09,29,114,33,11,24,277,39,04,21,081,24,1*69
$GPGSV,4,4,14,03,16,038,19,12,07,322,18,1*68
$GPGSV,3,1,09,195,67,040,46,196,61,130,46,199,60,167,45,06,50,327,46,8*54
$GPGSV,3,2,09,194,44,170,45,14,33,178,42,09,29,114,38,11,24,277,42,8*5C
$GPGSV,3,3,09,04,21,081,33,8*5A
$GLGSV,2,1,08,67,48,076,43,68,40,154,44,82,37,026,28,83,31,331,24,1*7C
$GLGSV,2,2,08,80,31,238,39,73,22,299,41,66,12,032,15,79,07,190,15,1*79
$GAGSV,3,1,09,24,55,253,37,12,50,006,36,10,48,324,41,31,34,183,38,7*72
$GAGSV,3,2,09,11,33,292,39,19,29,093,24,04,22,157,38,25,22,312,31,7*7E
$GAGSV,3,3,09,33,17,058,30,7*42
$GAGSV,3,1,09,24,55,253,42,12,50,006,41,10,48,324,43,31,34,183,37,1*7B
$GAGSV,3,2,09,11,33,292,40,19,29,093,20,04,22,157,40,25,22,312,36,1*7A
$GAGSV,3,3,09,33,17,058,15,1*43
$GBGSV,4,1,14,40,83,091,41,07,83,269,39,10,71,300,37,14,60,100,42,1*7B
$GBGSV,4,2,14,08,59,261,34,33,56,157,46,43,54,043,46,13,49,251,34,1*7C
$GBGSV,4,3,14,42,44,062,42,11,35,072,36,28,33,318,45,23,23,227,19,1*78
$GBGSV,4,4,14,37,18,280,38,41,15,197,16,1*76
$GBGSV,2,1,07,40,83,091,44,33,56,157,45,43,54,043,46,42,44,062,46,4*72
$GBGSV,2,2,07,28,33,318,41,37,18,280,36,41,15,197,18,4*44
$GNGGA,032850.000,2500.8202119,N,12132.4469900,E,4,63,0.45,17.658,M,15.25,M,2,3335*46
$GNRMC,032850.000,A,2500.8202119,N,12132.4469900,E,0.00,160.66,270623,,,R,V*13
$GPHDT,139.619,T*30
$GNGGA,032850.200,2500.8202087,N,12132.4469930,E,4,63,0.45,17.653,M,15.25,M,2,3335*4A
$GNRMC,032850.200,A,2500.8202087,N,12132.4469930,E,0.00,160.66,270623,,,R,V*14
$GPHDT,139.580,T*33
$GNGGA,032850.400,2500.8202073,N,12132.4469937,E,4,63,0.45,17.655,M,15.25,M,2,3335*46
$GNRMC,032850.400,A,2500.8202073,N,12132.4469937,E,0.00,160.66,270623,,,R,V*1E
$GPHDT,139.703,T*3A
$GNGGA,032850.600,2500.8202088,N,12132.4469931,E,4,64,0.45,17.654,M,15.25,M,2,3335*40
$GNRMC,032850.600,A,2500.8202088,N,12132.4469931,E,0.00,160.66,270623,,,R,V*1E
$GPHDT,139.622,T*38
$GNGGA,032850.800,2500.8202072,N,12132.4469941,E,4,64,0.45,17.658,M,15.25,M,2,3335*40
$GNRMC,032850.800,A,2500.8202072,N,12132.4469941,E,0.00,160.66,270623,,,R,V*12
$GPHDT,139.504,T*3F
$GNGSA,A,3,195,17,19,196,199,06,194,14,09,11,04,,0.88,0.45,0.76,1*0F
$GNGSA,A,3,67,68,82,83,80,73,,,,,,,0.88,0.45,0.76,2*00
$GNGSA,A,3,24,12,10,31,11,19,04,25,33,,,,0.88,0.45,0.76,3*0E
$GNGSA,A,3,40,07,10,14,08,33,43,13,42,11,28,37,0.88,0.45,0.76,4*06
$GNGSA,A,3,41,,,,,,,,,,,,0.88,0.45,0.76,4*01
$GPGSV,4,1,14,195,67,040,39,17,64,056,40,19,61,005,41,196,61,130,40,1*65
$GPGSV,4,2,14,199,60,167,35,06,50,327,44,194,44,170,41,41,38,242,37,1*62
$GPGSV,4,3,14,14,33,178,39,09,29,114,33,11,24,277,39,04,21,081,22,1*61
$GPGSV,4,4,14,03,16,038,19,12,07,322,18,1*68
$GPGSV,3,1,09,195,67,040,46,196,61,130,46,199,60,167,45,06,50,327,46,8*54
$GPGSV,3,2,09,194,44,170,45,14,33,178,42,09,29,114,38,11,24,277,42,8*5C
$GPGSV,3,3,09,04,21,081,32,8*5B
$GLGSV,2,1,08,67,48,076,43,68,40,154,44,82,37,026,27,83,31,331,24,1*73
$GLGSV,2,2,08,80,31,238,39,73,22,299,41,66,12,032,15,79,07,190,13,1*7F
$GAGSV,3,1,09,24,55,253,37,12,50,006,36,10,48,324,41,31,34,183,38,7*72
$GAGSV,3,2,09,11,33,292,39,19,29,093,24,04,22,157,38,25,22,312,31,7*7E
$GAGSV,3,3,09,33,17,058,30,7*42
$GAGSV,3,1,09,24,55,253,42,12,50,006,41,10,48,324,43,31,34,183,37,1*7B
$GAGSV,3,2,09,11,33,292,40,19,29,093,20,04,22,157,40,25,22,312,36,1*7A
$GAGSV,3,3,09,33,17,058,15,1*43
$GBGSV,4,1,14,40,83,091,40,07,83,269,39,10,71,300,37,14,60,099,42,1*7B
$GBGSV,4,2,14,08,59,261,33,33,56,157,46,43,54,043,46,13,49,251,34,1*7B
$GBGSV,4,3,14,42,44,062,42,11,35,072,36,28,33,318,45,23,23,227,17,1*76
$GBGSV,4,4,14,37,18,280,38,41,15,197,16,1*76
$GBGSV,2,1,07,40,83,091,44,33,56,157,45,43,54,043,46,42,44,062,46,4*72
$GBGSV,2,2,07,28,33,318,41,37,18,280,36,41,15,197,18,4*44
$GNGGA,032851.000,2500.8202103,N,12132.4469938,E,4,64,0.45,17.653,M,15.25,M,3,3335*4A
$GNRMC,032851.000,A,2500.8202103,N,12132.4469938,E,0.00,160.66,270623,,,R,V*12
$GPHDT,139.824,T*30
$GNGGA,032851.200,2500.8202101,N,12132.4469915,E,4,64,0.45,17.662,M,15.25,M,2,3335*46
$GNRMC,032851.200,A,2500.8202101,N,12132.4469915,E,0.00,160.66,270623,,,R,V*1D
$GPHDT,139.704,T*3D
$GNGGA,032851.400,2500.8201995,N,12132.4469967,E,4,63,0.45,17.624,M,15.25,M,1,3335*45
$GNRMC,032851.400,A,2500.8201995,N,12132.4469967,E,0.00,160.66,270623,,,R,V*18
$GPHDT,140.037,T*34
$GNGGA,032851.600,2500.8202078,N,12132.4469936,E,4,63,0.45,17.636,M,15.25,M,0,3335*48
$GNRMC,032851.600,A,2500.8202078,N,12132.4469936,E,0.00,160.66,270623,,,R,V*17
$GPHDT,139.730,T*3A
$GNGGA,032851.800,2500.8202064,N,12132.4469949,E,4,63,0.45,17.643,M,15.25,M,0,3335*41
$GNRMC,032851.800,A,2500.8202064,N,12132.4469949,E,0.00,160.66,270623,,,R,V*1C
$GPHDT,139.931,T*35
$GNGSA,A,3,195,17,19,196,199,06,194,14,09,11,04,,0.88,0.45,0.76,1*0F
$GNGSA,A,3,67,68,82,83,80,73,,,,,,,0.88,0.45,0.76,2*00
$GNGSA,A,3,24,12,10,31,11,19,04,25,33,,,,0.88,0.45,0.76,3*0E
$GNGSA,A,3,40,07,10,14,08,33,43,13,42,11,28,37,0.88,0.45,0.76,4*06
$GNGSA,A,3,41,,,,,,,,,,,,0.88,0.45,0.76,4*01
$GPGSV,4,1,14,195,67,040,39,17,64,056,40,19,61,005,41,196,61,130,40,1*65
$GPGSV,4,2,14,199,60,167,35,06,50,327,44,194,44,170,41,41,38,242,37,1*62
$GPGSV,4,3,14,14,33,178,39,09,29,114,32,11,24,277,39,04,21,081,24,1*66
$GPGSV,4,4,14,03,16,038,19,12,07,322,18,1*68
$GPGSV,3,1,10,195,67,040,46,196,61,130,46,199,60,167,45,06,50,327,46,8*5C
$GPGSV,3,2,10,194,44,170,44,14,33,178,42,09,29,114,38,11,24,277,42,8*55
$GPGSV,3,3,10,04,21,081,33,03,16,038,23,8*6C
$GLGSV,2,1,08,67,48,076,43,68,40,154,44,82,37,026,29,83,31,331,24,1*7D
$GLGSV,2,2,08,80,31,238,39,73,22,299,41,66,12,032,14,79,07,190,14,1*79
$GAGSV,3,1,09,24,55,253,37,12,50,006,36,10,48,324,41,31,34,183,38,7*72
$GAGSV,3,2,09,11,33,292,39,19,29,093,23,04,22,157,38,25,22,312,31,7*79
$GAGSV,3,3,09,33,17,058,29,7*4A
$GAGSV,3,1,09,24,55,253,42,12,50,006,41,10,48,324,43,31,34,183,36,1*7A
$GAGSV,3,2,09,11,33,292,40,19,29,093,21,04,22,157,40,25,22,312,36,1*7B
$GAGSV,3,3,09,33,17,058,14,1*42
$GBGSV,4,1,14,40,83,091,40,07,83,269,39,10,71,300,37,14,60,099,42,1*7B
$GBGSV,4,2,14,08,59,261,33,33,56,157,46,43,54,043,46,13,49,251,34,1*7B
$GBGSV,4,3,14,42,44,062,42,11,35,072,36,28,33,318,45,23,23,227,17,1*76
$GBGSV,4,4,14,37,18,280,38,41,15,197,16,1*76
$GBGSV,2,1,07,40,83,091,44,33,56,157,45,43,54,043,45,42,44,062,46,4*71
$GBGSV,2,2,07,28,33,318,41,37,18,280,36,41,15,197,18,4*44
$GNGGA,032852.000,2500.8202093,N,12132.4469935,E,4,64,0.45,17.633,M,15.25,M,1,3335*48
$GNRMC,032852.000,A,2500.8202093,N,12132.4469935,E,0.00,160.66,270623,,,R,V*14
$GPHDT,139.927,T*32
$GNGGA,032852.200,2500.8202033,N,12132.4469955,E,4,64,0.45,17.634,M,15.25,M,1,3335*41
$GNRMC,032852.200,A,2500.8202033,N,12132.4469955,E,0.00,160.66,270623,,,R,V*1A
$GPHDT,139.776,T*38
$GNGGA,032852.400,2500.8202055,N,12132.4469972,E,4,63,0.45,17.633,M,15.25,M,1,3335*42
$GNRMC,032852.400,A,2500.8202055,N,12132.4469972,E,0.00,160.66,270623,,,R,V*19
$GPHDT,139.720,T*3B
$GNGGA,032852.600,2500.8202057,N,12132.4469930,E,4,65,0.44,17.653,M,15.25,M,1,3335*45
$GNRMC,032852.600,A,2500.8202057,N,12132.4469930,E,0.00,160.66,270623,,,R,V*1F
$GPHDT,139.881,T*3F
$GNGGA,032852.800,2500.8202033,N,12132.4469952,E,4,65,0.44,17.633,M,15.25,M,0,3335*4A
$GNRMC,032852.800,A,2500.8202033,N,12132.4469952,E,0.00,160.66,270623,,,R,V*17
$GPHDT,139.773,T*3D
$GNGSA,A,3,195,17,19,196,199,06,194,14,09,11,04,,0.88,0.45,0.76,1*0F
$GNGSA,A,3,67,68,82,83,80,73,,,,,,,0.88,0.45,0.76,2*00
$GNGSA,A,3,24,12,10,31,11,19,04,25,33,,,,0.88,0.45,0.76,3*0E
$GNGSA,A,3,40,07,10,14,08,33,43,13,42,11,28,37,0.88,0.45,0.76,4*06
$GNGSA,A,3,41,,,,,,,,,,,,0.88,0.45,0.76,4*01
$GPGSV,4,1,14,195,67,040,39,17,64,056,40,19,61,005,41,196,61,130,40,1*65
$GPGSV,4,2,14,199,60,167,35,06,50,327,44,194,44,170,41,41,38,242,37,1*62
$GPGSV,4,3,14,14,33,178,39,09,29,114,32,11,24,277,39,04,21,081,24,1*66
$GPGSV,4,4,14,03,16,038,20,12,07,322,18,1*62
$GPGSV,3,1,10,195,67,040,46,196,61,130,46,199,60,167,45,06,50,327,46,8*5C
$GPGSV,3,2,10,194,44,170,44,14,33,178,42,09,29,114,38,11,24,277,42,8*55
$GPGSV,3,3,10,04,21,081,33,03,16,038,27,8*68
$GLGSV,2,1,08,67,48,076,43,68,40,154,44,82,37,026,32,83,31,331,24,1*77
$GLGSV,2,2,08,80,31,238,39,73,22,299,40,66,12,032,14,79,07,190,13,1*7F
$GAGSV,3,1,09,24,55,253,37,12,50,006,36,10,48,324,41,31,34,183,38,7*72
$GAGSV,3,2,09,11,33,292,39,19,29,093,23,04,22,157,38,25,22,312,31,7*79
$GAGSV,3,3,09,33,17,058,29,7*4A
$GAGSV,3,1,09,24,55,253,42,12,50,006,41,10,48,324,43,31,34,183,36,1*7A
$GAGSV,3,2,09,11,33,292,40,19,29,093,21,04,22,157,40,25,22,312,36,1*7B
$GAGSV,3,3,09,33,17,058,16,1*40
$GBGSV,4,1,14,40,83,091,40,07,83,269,39,10,71,300,37,14,60,099,42,1*7B
$GBGSV,4,2,14,08,59,261,33,33,56,157,46,43,54,043,47,13,49,251,33,1*7D
$GBGSV,4,3,14,42,44,062,41,11,35,072,36,28,33,318,45,23,23,227,17,1*75
$GBGSV,4,4,14,37,18,280,39,41,15,197,17,1*76
$GBGSV,2,1,07,40,83,091,45,33,56,157,45,43,54,043,45,42,44,062,46,4*70
$GBGSV,2,2,07,28,33,318,41,37,18,280,36,41,15,197,18,4*44
$GNGGA,032853.000,2500.8202034,N,12132.4469964,E,4,64,0.45,17.627,M,15.25,M,1,3335*45
$GNRMC,032853.000,A,2500.8202034,N,12132.4469964,E,0.00,160.66,270623,,,R,V*1C
$GPHDT,139.976,T*36
$GNGGA,032853.200,2500.8202026,N,12132.4469955,E,4,64,0.45,17.621,M,15.25,M,1,3335*40
$GNRMC,032853.200,A,2500.8202026,N,12132.4469955,E,0.00,160.66,270623,,,R,V*1F
$GPHDT,139.565,T*38
$GNGGA,032853.400,2500.8202018,N,12132.4469960,E,4,64,0.45,17.627,M,15.25,M,1,3335*4B
$GNRMC,032853.400,A,2500.8202018,N,12132.4469960,E,0.00,160.66,270623,,,R,V*12
$GPHDT,139.627,T*3D
$GNGGA,032853.600,2500.8202018,N,12132.4469967,E,4,63,0.45,17.625,M,15.25,M,1,3335*4B
$GNRMC,032853.600,A,2500.8202018,N,12132.4469967,E,0.00,160.66,270623,,,R,V*17
$GPHDT,139.529,T*30
$GNGGA,032853.800,2500.8202034,N,12132.4469971,E,4,63,0.45,17.632,M,15.25,M,1,3335*4A
$GNRMC,032853.800,A,2500.8202034,N,12132.4469971,E,0.00,160.66,270623,,,R,V*10
$GPHDT,139.808,T*3E
$GNGSA,A,3,195,17,19,196,199,06,194,14,09,11,04,,0.88,0.45,0.76,1*0F
$GNGSA,A,3,67,68,82,83,80,73,,,,,,,0.88,0.45,0.76,2*00
$GNGSA,A,3,24,12,10,31,11,19,04,25,33,,,,0.88,0.45,0.76,3*0E
$GNGSA,A,3,40,07,10,14,08,33,43,13,42,11,28,37,0.88,0.45,0.76,4*06
$GNGSA,A,3,41,,,,,,,,,,,,0.88,0.45,0.76,4*01
$GPGSV,4,1,14,195,67,040,39,17,64,056,40,19,61,005,41,196,61,130,40,1*65
$GPGSV,4,2,14,199,60,167,35,06,50,327,44,194,44,170,41,41,38,242,37,1*62
$GPGSV,4,3,14,14,33,178,39,09,29,114,32,11,24,277,39,04,21,081,23,1*61
$GPGSV,4,4,14,03,16,038,19,12,07,322,18,1*68
$GPGSV,3,1,10,195,67,040,46,196,61,130,46,199,60,167,45,06,50,327,46,8*5C
$GPGSV,3,2,10,194,44,170,44,14,33,178,42,09,29,114,38,11,24,277,42,8*55
$GPGSV,3,3,10,04,21,081,33,03,16,038,27,8*68
$GLGSV,2,1,08,67,48,076,43,68,40,154,44,82,37,026,32,83,31,331,25,1*76
$GLGSV,2,2,08,80,31,238,39,73,22,299,40,66,12,032,15,79,07,190,15,1*78
$GAGSV,3,1,09,24,55,253,37,12,50,006,36,10,48,324,41,31,34,183,38,7*72
$GAGSV,3,2,09,11,33,292,39,19,29,093,23,04,22,157,38,25,22,312,31,7*79
$GAGSV,3,3,09,33,17,058,29,7*4A
$GAGSV,3,1,09,24,55,253,42,12,50,006,41,10,48,324,43,31,34,183,36,1*7A
$GAGSV,3,2,09,11,33,292,40,19,29,093,21,04,22,157,40,25,22,312,36,1*7B
$GAGSV,3,3,09,33,17,058,16,1*40
$GBGSV,4,1,14,40,83,091,40,07,83,269,39,10,71,300,37,14,60,099,43,1*7A
$GBGSV,4,2,14,08,59,261,33,33,56,156,46,43,54,043,47,13,49,251,33,1*7C
$GBGSV,4,3,14,42,44,062,41,11,35,072,36,28,33,318,45,23,23,227,,1*73
$GBGSV,4,4,14,37,18,280,39,41,15,197,17,1*76
$GBGSV,2,1,07,40,83,091,45,33,56,156,45,43,54,043,45,42,44,062,46,4*71
$GBGSV,2,2,07,28,33,318,41,37,18,280,36,41,15,197,18,4*44
$GNGGA,032854.000,2500.8202049,N,12132.4469984,E,4,63,0.45,17.621,M,15.25,M,2,3335*44
$GNRMC,032854.000,A,2500.8202049,N,12132.4469984,E,0.00,160.66,270623,,,R,V*1F
$GPHDT,140.033,T*30
$GNGGA,032854.200,2500.8202015,N,12132.4469944,E,4,65,0.44,17.635,M,15.25,M,2,3335*41
$GNRMC,032854.200,A,2500.8202015,N,12132.4469944,E,0.00,160.66,270623,,,R,V*18
$GPHDT,139.481,T*33
$GNGGA,032854.400,2500.8202021,N,12132.4469952,E,4,63,0.45,17.636,M,15.25,M,2,3335*43
$GNRMC,032854.400,A,2500.8202021,N,12132.4469952,E,0.00,160.66,270623,,,R,V*1E
$GPHDT,139.790,T*30
$GNGGA,032854.600,2500.8202026,N,12132.4469961,E,4,63,0.45,17.642,M,15.25,M,2,3335*45
$GNRMC,032854.600,A,2500.8202026,N,12132.4469961,E,0.00,160.66,270623,,,R,V*1B
$GPHDT,139.829,T*3D
$GNGGA,032854.800,2500.8202022,N,12132.4469984,E,4,63,0.45,17.627,M,15.25,M,2,3335*47
$GNRMC,032854.800,A,2500.8202022,N,12132.4469984,E,0.00,160.66,270623,,,R,V*1A
$GPHDT,139.524,T*3D
