$FW : RTK35X,V1.1X0314AS,Lib20210517,1*54
$Tool : LOCOSYS , GNSS Firebird , v1.0.0.19*39
$---------------------------------------------------*2D
$GPHDT,268.177,T*38
$GNGGA,032737.400,2500.8201969,N,12132.4470233,E,4,63,0.44,17.611,M,15.25,M,15,3335*79
$GNRMC,032737.400,A,2500.8201969,N,12132.4470233,E,0.00,160.66,270623,,,R,V*16
$GPHDT,267.892,T*35
$GNGGA,032737.600,2500.8201993,N,12132.4470185,E,4,64,0.44,17.631,M,15.25,M,15,3335*75
$GNRMC,032737.600,A,2500.8201993,N,12132.4470185,E,0.00,160.66,270623,,,R,V*1F
$GPHDT,267.998,T*3E
$GNGGA,032737.800,2500.8201996,N,12132.4470127,E,4,64,0.44,17.637,M,15.25,M,15,3335*70
$GNRMC,032737.800,A,2500.8201996,N,12132.4470127,E,0.00,160.66,270623,,,R,V*1C
$GPHDT,268.617,T*39
$GNGSA,A,3,195,17,196,199,19,06,194,14,09,11,04,,0.74,0.43,0.60,1*0D
$GNGSA,A,3,67,68,82,80,83,73,,,,,,,0.74,0.43,0.60,2*02
$GNGSA,A,3,24,12,10,31,11,19,04,25,33,,,,0.74,0.43,0.60,3*0C
$GNGSA,A,3,40,07,10,14,08,33,43,13,11,28,37,41,0.74,0.43,0.60,4*07
$GNGSA,A,3,42,23,,,,,,,,,,,0.74,0.43,0.60,4*01
$GPGSV,4,1,14,195,67,040,41,17,64,055,38,196,61,130,38,199,60,167,34,1*56
$GPGSV,4,2,14,19,60,004,42,06,50,326,41,194,44,170,42,41,38,242,43,1*5B
$GPGSV,4,3,14,14,34,178,43,09,29,115,34,11,24,277,42,20,22,225,,1*68
$GPGSV,4,4,14,04,21,082,18,12,07,322,17,1*64
$GPGSV,3,1,09,195,67,040,42,196,61,130,45,199,60,167,46,06,50,326,45,8*52
$GPGSV,3,2,09,194,44,170,45,14,34,178,46,09,29,115,38,11,24,277,37,8*5C
$GPGSV,3,3,09,04,21,082,29,8*52
$GLGSV,2,1,08,67,49,077,44,68,39,154,42,82,37,025,20,80,31,239,42,1*72
$GLGSV,2,2,08,83,30,330,25,73,22,300,40,66,12,032,16,79,08,191,19,1*7E
$GAGSV,3,1,09,24,55,254,41,12,50,005,29,10,48,324,41,31,34,183,40,7*76
$GAGSV,3,2,09,11,33,292,39,19,29,094,27,04,22,158,36,25,22,313,33,7*78
$GAGSV,3,3,09,33,17,058,36,7*44
$GAGSV,3,1,09,24,55,254,45,12,50,005,37,10,48,324,43,31,34,183,42,1*7B
$GAGSV,3,2,09,11,33,292,36,19,29,094,24,04,22,158,39,25,22,313,35,1*7B
$GAGSV,3,3,09,33,17,058,24,1*41
$GBGSV,4,1,14,40,83,089,40,07,83,271,38,10,71,301,39,14,60,101,44,1*73
$GBGSV,4,2,14,08,59,260,39,33,55,157,45,43,54,042,35,13,49,250,41,1*76
$GBGSV,4,3,14,42,44,062,,11,35,071,35,28,33,318,40,23,23,227,14,1*76
$GBGSV,4,4,14,37,18,281,34,41,15,197,28,1*76
$GBGSV,2,1,08,40,83,089,45,33,55,157,45,43,54,042,40,42,44,062,36,4*76
$GBGSV,2,2,08,28,33,318,42,23,23,227,14,37,18,281,34,41,15,197,25,4*77
$GNGGA,032738.000,2500.8201975,N,12132.4470237,E,4,63,0.43,17.618,M,15.25,M,16,3335*76
$GNRMC,032738.000,A,2500.8201975,N,12132.4470237,E,0.01,160.66,270623,,,R,V*15
$GPHDT,268.341,T*3F
$GNGGA,032738.200,2500.8202015,N,12132.4470171,E,4,64,0.44,17.634,M,15.25,M,16,3335*77
$GNRMC,032738.200,A,2500.8202015,N,12132.4470171,E,0.00,160.66,270623,,,R,V*1B
$GPHDT,268.348,T*36
$GNGGA,032738.400,2500.8202004,N,12132.4470107,E,4,64,0.44,17.657,M,15.25,M,16,3335*75
$GNRMC,032738.400,A,2500.8202004,N,12132.4470107,E,0.01,160.66,270623,,,R,V*1D
$GPHDT,268.357,T*38
$GNGGA,032738.600,2500.8202062,N,12132.4469978,E,4,65,0.44,17.674,M,15.25,M,16,3335*7F
$GNRMC,032738.600,A,2500.8202062,N,12132.4469978,E,0.00,160.66,270623,,,R,V*16
$GPHDT,268.279,T*35
$GNGGA,032738.800,2500.8202025,N,12132.4470016,E,4,65,0.44,17.663,M,15.25,M,16,3335*7D
$GNRMC,032738.800,A,2500.8202025,N,12132.4470016,E,0.01,160.66,270623,,,R,V*13
$GPHDT,267.868,T*30
$GNGSA,A,3,195,17,196,19,199,06,194,14,09,11,04,,0.87,0.44,0.75,1*02
$GNGSA,A,3,67,68,82,80,83,73,,,,,,,0.87,0.44,0.75,2*0D
$GNGSA,A,3,24,12,10,31,11,19,04,25,33,,,,0.87,0.44,0.75,3*03
$GNGSA,A,3,40,07,10,14,08,33,43,13,42,11,28,37,0.87,0.44,0.75,4*0B
$GNGSA,A,3,41,23,,,,,,,,,,,0.87,0.44,0.75,4*0D
$GPGSV,4,1,13,195,67,040,41,17,64,055,38,196,61,130,39,19,60,004,42,1*6C
$GPGSV,4,2,13,199,60,167,34,06,50,326,41,194,44,170,42,41,38,242,42,1*61
$GPGSV,4,3,13,14,34,178,43,09,29,115,33,11,24,277,42,04,21,082,21,1*61
$GPGSV,4,4,13,12,07,322,17,1*57
$GPGSV,3,1,09,195,67,040,42,196,61,130,45,199,60,167,46,06,50,326,45,8*52
$GPGSV,3,2,09,194,44,170,46,14,34,178,46,09,29,115,38,11,24,277,38,8*50
$GPGSV,3,3,09,04,21,082,29,8*52
$GLGSV,2,1,08,67,49,077,44,68,40,154,41,82,37,025,23,80,31,239,42,1*7C
$GLGSV,2,2,08,83,30,330,25,73,22,300,40,66,12,032,16,79,08,191,19,1*7E
$GAGSV,3,1,09,24,55,254,41,12,50,005,31,10,48,324,41,31,34,183,40,7*7F
$GAGSV,3,2,09,11,33,292,39,19,29,094,27,04,22,158,36,25,22,313,32,7*79
$GAGSV,3,3,09,33,17,058,36,7*44
$GAGSV,3,1,09,24,55,254,45,12,50,005,37,10,48,324,43,31,34,183,42,1*7B
$GAGSV,3,2,09,11,33,292,36,19,29,094,24,04,22,158,38,25,22,313,35,1*7A
$GAGSV,3,3,09,33,17,058,20,1*45
$GBGSV,4,1,14,40,83,089,40,07,83,271,38,10,71,301,39,14,60,101,44,1*73
$GBGSV,4,2,14,08,59,260,39,33,55,157,45,43,54,042,35,13,49,250,41,1*76
$GBGSV,4,3,14,42,44,062,32,11,35,071,35,28,33,318,41,23,23,227,15,1*77
$GBGSV,4,4,14,37,18,281,35,41,15,197,28,1*77
$GBGSV,2,1,08,40,83,089,45,33,55,157,45,43,54,042,40,42,44,062,36,4*76
$GBGSV,2,2,08,28,33,318,42,23,23,227,14,37,18,281,33,41,15,197,25,4*70
$GNGGA,032739.000,2500.8202085,N,12132.4469951,E,4,65,0.44,17.677,M,15.25,M,17,3335*78
$GNRMC,032739.000,A,2500.8202085,N,12132.4469951,E,0.00,160.66,270623,,,R,V*13
$GPHDT,267.641,T*35
$GNGGA,032739.200,2500.8202062,N,12132.4470014,E,4,65,0.44,17.672,M,15.25,M,17,3335*76
$GNRMC,032739.200,A,2500.8202062,N,12132.4470014,E,0.00,160.66,270623,,,R,V*18
$GPHDT,267.662,T*34
$GNGGA,032739.400,2500.8202016,N,12132.4470013,E,4,65,0.44,17.665,M,15.25,M,17,3335*72
$GNRMC,032739.400,A,2500.8202016,N,12132.4470013,E,0.01,160.66,270623,,,R,V*1B
$GPHDT,267.983,T*34
$GNGGA,032739.600,2500.8202062,N,12132.4469979,E,4,65,0.44,17.676,M,15.25,M,17,3335*7C
$GNRMC,032739.600,A,2500.8202062,N,12132.4469979,E,0.01,160.66,270623,,,R,V*17
$GPHDT,267.655,T*30
$GNGGA,032739.800,2500.8202084,N,12132.4469951,E,4,65,0.43,17.680,M,15.25,M,17,3335*7E
$GNRMC,032739.800,A,2500.8202084,N,12132.4469951,E,0.02,160.66,270623,,,R,V*18
$GPHDT,267.570,T*34
$GNGSA,A,3,195,17,196,19,199,06,194,14,09,11,04,,0.87,0.44,0.75,1*02
$GNGSA,A,3,67,68,82,80,83,73,,,,,,,0.87,0.44,0.75,2*0D
$GNGSA,A,3,24,12,10,31,11,19,04,25,33,,,,0.87,0.44,0.75,3*03
$GNGSA,A,3,40,07,10,14,08,33,43,13,42,11,28,37,0.87,0.44,0.75,4*0B
$GNGSA,A,3,41,23,,,,,,,,,,,0.87,0.44,0.75,4*0D
$GPGSV,4,1,13,195,67,040,41,17,64,055,38,196,61,130,39,19,60,004,42,1*6C
$GPGSV,4,2,13,199,60,167,34,06,50,326,41,194,44,170,42,41,38,242,42,1*61
$GPGSV,4,3,13,14,34,178,43,09,29,115,33,11,24,277,40,04,21,082,22,1*60
$GPGSV,4,4,13,12,07,322,18,1*58
$GPGSV,3,1,09,195,67,040,42,196,61,130,45,199,60,167,46,06,50,326,45,8*52
$GPGSV,3,2,09,194,44,170,46,14,34,178,46,09,29,115,38,11,24,277,39,8*51
$GPGSV,3,3,09,04,21,082,27,8*5C
$GLGSV,2,1,08,67,49,077,44,68,40,154,41,82,37,025,22,80,31,239,42,1*7D
$GLGSV,2,2,08,83,30,330,24,73,22,300,40,66,12,032,16,79,08,191,19,1*7F
$GAGSV,3,1,09,24,55,254,41,12,50,005,30,10,48,324,41,31,34,183,40,7*7E
$GAGSV,3,2,09,11,33,292,39,19,29,094,28,04,22,158,36,25,22,313,32,7*76
$GAGSV,3,3,09,33,17,058,35,7*47
$GAGSV,3,1,09,24,55,254,45,12,50,005,37,10,48,324,43,31,34,183,42,1*7B
$GAGSV,3,2,09,11,33,292,37,19,29,094,25,04,22,158,38,25,22,313,35,1*7A
$GAGSV,3,3,09,33,17,058,23,1*46
$GBGSV,4,1,14,40,83,089,40,07,83,271,38,10,71,301,39,14,60,101,44,1*73
$GBGSV,4,2,14,08,59,260,39,33,55,157,45,43,54,042,35,13,49,250,41,1*76
$GBGSV,4,3,14,42,44,062,29,11,35,071,35,28,33,318,42,23,23,227,14,1*7F
$GBGSV,4,4,14,37,18,281,35,41,15,197,29,1*76
$GBGSV,2,1,08,40,83,089,45,33,55,157,45,43,54,042,40,42,44,062,36,4*76
$GBGSV,2,2,08,28,33,318,42,23,23,227,15,37,18,281,30,41,15,197,25,4*72
$GNGGA,032740.000,2500.8202096,N,12132.4469925,E,4,65,0.44,17.685,M,15.25,M,18,3335*75
$GNRMC,032740.000,A,2500.8202096,N,12132.4469925,E,0.01,160.66,270623,,,R,V*1D
$GPHDT,267.853,T*38
$GNGGA,032740.200,2500.8202035,N,12132.4470065,E,4,65,0.44,17.661,M,15.25,M,18,3335*71
$GNRMC,032740.200,A,2500.8202035,N,12132.4470065,E,0.00,160.66,270623,,,R,V*12
$GPHDT,268.089,T*38
$GNGGA,032740.400,2500.8202057,N,12132.4470050,E,4,65,0.44,17.666,M,15.25,M,18,3335*72
$GNRMC,032740.400,A,2500.8202057,N,12132.4470050,E,0.00,160.66,270623,,,R,V*16
$GPHDT,268.208,T*33
$GNGGA,032740.600,2500.8202002,N,12132.4470113,E,4,65,0.44,17.651,M,15.25,M,18,3335*72
$GNRMC,032740.600,A,2500.8202002,N,12132.4470113,E,0.00,160.66,270623,,,R,V*12
$GPHDT,268.126,T*3C
$GNGGA,032740.800,2500.8202024,N,12132.4470128,E,4,65,0.44,17.646,M,15.25,M,18,3335*76
$GNRMC,032740.800,A,2500.8202024,N,12132.4470128,E,0.00,160.66,270623,,,R,V*10
$GPHDT,267.963,T*3A
$GNGSA,A,3,195,17,196,19,199,06,194,14,09,11,04,,0.87,0.44,0.75,1*02
$GNGSA,A,3,67,68,82,80,83,73,,,,,,,0.87,0.44,0.75,2*0D
$GNGSA,A,3,24,12,10,31,11,19,04,25,33,,,,0.87,0.44,0.75,3*03
$GNGSA,A,3,07,40,10,14,08,33,43,13,42,11,28,37,0.87,0.44,0.75,4*0B
$GNGSA,A,3,41,23,,,,,,,,,,,0.87,0.44,0.75,4*0D
$GPGSV,4,1,13,195,67,040,41,17,64,055,38,196,61,130,39,19,60,004,42,1*6C
$GPGSV,4,2,13,199,60,167,34,06,50,326,41,194,44,170,42,41,38,242,42,1*61
$GPGSV,4,3,13,14,34,178,43,09,29,115,35,11,24,277,40,04,21,082,25,1*61
$GPGSV,4,4,13,12,07,322,17,1*57
$GPGSV,3,1,09,195,67,040,42,196,61,130,45,199,60,167,46,06,50,326,45,8*52
$GPGSV,3,2,09,194,44,170,46,14,34,178,46,09,29,115,38,11,24,277,39,8*51
$GPGSV,3,3,09,04,21,082,29,8*52
$GLGSV,3,1,09,67,49,077,44,68,40,154,41,82,37,025,23,80,31,238,42,1*7D
$GLGSV,3,2,09,83,30,330,23,73,22,300,40,66,12,032,14,79,07,191,19,1*75
$GLGSV,3,3,09,69,02,187,,1*42
$GAGSV,3,1,09,24,55,254,41,12,50,005,30,10,48,324,41,31,34,183,40,7*7E
$GAGSV,3,2,09,11,33,292,39,19,29,094,28,04,22,158,35,25,22,313,32,7*75
$GAGSV,3,3,09,33,17,058,35,7*47
$GAGSV,3,1,09,24,55,254,45,12,50,005,37,10,48,324,43,31,34,183,42,1*7B
$GAGSV,3,2,09,11,33,292,37,19,29,094,24,04,22,158,38,25,22,313,35,1*7B
$GAGSV,3,3,09,33,17,058,25,1*40
$GBGSV,4,1,14,07,83,271,38,40,83,089,40,10,71,301,39,14,60,101,44,1*73
$GBGSV,4,2,14,08,59,260,39,33,55,157,45,43,54,042,36,13,49,250,41,1*75
$GBGSV,4,3,14,42,44,062,29,11,35,071,34,28,33,318,42,23,23,227,,1*7B
$GBGSV,4,4,14,37,18,281,35,41,15,197,29,1*76
$GBGSV,2,1,08,40,83,089,45,33,55,157,45,43,54,042,40,42,44,062,36,4*76
$GBGSV,2,2,08,28,33,318,42,23,23,227,15,37,18,281,31,41,15,197,25,4*73
$GNGGA,032741.000,2500.8201999,N,12132.4470144,E,4,65,0.44,17.632,M,15.25,M,19,3335*7B
$GNRMC,032741.000,A,2500.8201999,N,12132.4470144,E,0.01,160.66,270623,,,R,V*1E
$GPHDT,268.039,T*33
$GNGGA,032741.200,2500.8202053,N,12132.4470040,E,4,65,0.44,17.660,M,15.25,M,19,3335*77
$GNRMC,032741.200,A,2500.8202053,N,12132.4470040,E,0.00,160.66,270623,,,R,V*14
$GPHDT,267.463,T*37
$GNGGA,032741.400,2500.8202076,N,12132.4469952,E,4,65,0.44,17.704,M,15.25,M,19,3335*77
$GNRMC,032741.400,A,2500.8202076,N,12132.4469952,E,0.00,160.66,270623,,,R,V*17
$GPHDT,267.886,T*30
$GNGGA,032741.600,2500.8201989,N,12132.4470161,E,4,64,0.45,17.629,M,15.25,M,19,3335*71
$GNRMC,032741.600,A,2500.8201989,N,12132.4470161,E,0.00,160.66,270623,,,R,V*1F
$GPHDT,267.827,T*3B
$GNGGA,032741.800,2500.8202079,N,12132.4470094,E,4,64,0.45,17.654,M,15.25,M,19,3335*7B
$GNRMC,032741.800,A,2500.8202079,N,12132.4470094,E,0.01,160.66,270623,,,R,V*1E
$GPHDT,267.522,T*33
$GNGSA,A,3,195,17,196,19,199,06,194,14,09,11,04,,0.88,0.45,0.76,1*0F
$GNGSA,A,3,67,68,82,80,83,73,,,,,,,0.88,0.45,0.76,2*00
$GNGSA,A,3,24,12,10,31,11,19,04,25,33,,,,0.88,0.45,0.76,3*0E
$GNGSA,A,3,40,07,10,14,08,33,43,13,42,11,28,37,0.88,0.45,0.76,4*06
$GNGSA,A,3,41,,,,,,,,,,,,0.88,0.45,0.76,4*01
$GPGSV,4,1,13,195,67,040,41,17,64,055,38,196,61,130,39,19,60,004,42,1*6C
$GPGSV,4,2,13,199,60,167,35,06,50,326,41,194,44,170,42,41,38,242,42,1*60
$GPGSV,4,3,13,14,34,178,43,09,29,115,36,11,24,277,40,04,21,082,28,1*6F
$GPGSV,4,4,13,12,07,322,16,1*56
$GPGSV,3,1,09,195,67,040,42,196,61,130,45,199,60,167,46,06,50,326,45,8*52
$GPGSV,3,2,09,194,44,170,46,14,34,178,46,09,29,115,38,11,24,277,38,8*50
$GPGSV,3,3,09,04,21,082,30,8*5A
$GLGSV,3,1,09,67,49,077,44,68,40,154,41,82,37,025,25,80,31,238,42,1*7B
$GLGSV,3,2,09,83,30,330,23,73,22,300,40,66,12,032,15,79,07,191,19,1*74
$GLGSV,3,3,09,69,02,187,,1*42
$GAGSV,3,1,09,24,55,254,41,12,50,005,30,10,48,324,41,31,34,183,40,7*7E
$GAGSV,3,2,09,11,33,292,39,19,29,094,28,04,22,158,35,25,22,313,32,7*75
$GAGSV,3,3,09,33,17,058,36,7*44
$GAGSV,3,1,09,24,55,254,45,12,50,005,37,10,48,324,43,31,34,183,42,1*7B
$GAGSV,3,2,09,11,33,292,37,19,29,094,24,04,22,158,38,25,22,313,35,1*7B
$GAGSV,3,3,09,33,17,058,25,1*40
$GBGSV,4,1,16,40,83,089,40,07,83,271,38,10,71,301,39,14,60,101,44,1*71
$GBGSV,4,2,16,08,59,260,39,33,55,157,45,43,54,042,35,13,49,250,41,1*74
$GBGSV,4,3,16,42,44,062,27,11,35,071,34,28,33,318,40,23,23,227,,1*75
$GBGSV,4,4,16,37,18,281,34,41,15,197,29,21,02,035,,06,01,190,,1*7D
$GBGSV,2,1,07,40,83,089,45,33,55,157,45,43,54,042,40,42,44,062,35,4*7A
$GBGSV,2,2,07,28,33,318,42,37,18,281,33,41,15,197,25,4*4D
$GNGGA,032742.000,2500.8202013,N,12132.4470077,E,4,64,0.45,17.670,M,15.25,M,20,3335*7D
$GNRMC,032742.000,A,2500.8202013,N,12132.4470077,E,0.00,160.66,270623,,,R,V*15
$GPHDT,267.918,T*36
$GNGGA,032742.200,2500.8201997,N,12132.4470162,E,4,64,0.45,17.630,M,15.25,M,20,3335*78
$GNRMC,032742.200,A,2500.8201997,N,12132.4470162,E,0.00,160.66,270623,,,R,V*14
$GPHDT,268.159,T*34
$GNGGA,032742.400,2500.8201952,N,12132.4470314,E,4,63,0.45,17.603,M,15.25,M,20,3335*73
$GNRMC,032742.400,A,2500.8201952,N,12132.4470314,E,0.00,160.66,270623,,,R,V*18
$GPHDT,268.250,T*3E
$GNGGA,032742.600,2500.8202036,N,12132.4470173,E,4,64,0.45,17.645,M,15.25,M,20,3335*7F
$GNRMC,032742.600,A,2500.8202036,N,12132.4470173,E,0.00,160.66,270623,,,R,V*11
$GPHDT,268.097,T*37
$GNGGA,032742.800,2500.8201949,N,12132.4470340,E,4,63,0.45,17.597,M,15.25,M,20,3335*7A
$GNRMC,032742.800,A,2500.8201949,N,12132.4470340,E,0.00,160.66,270623,,,R,V*1F
$GPHDT,268.146,T*3A
$GNGSA,A,3,195,17,196,19,199,06,194,14,09,11,04,,0.88,0.45,0.76,1*0F
$GNGSA,A,3,67,68,82,80,83,73,,,,,,,0.88,0.45,0.76,2*00
$GNGSA,A,3,24,12,10,31,11,19,04,25,33,,,,0.88,0.45,0.76,3*0E
$GNGSA,A,3,40,07,10,14,08,33,43,13,42,11,28,37,0.88,0.45,0.76,4*06
$GNGSA,A,3,41,,,,,,,,,,,,0.88,0.45,0.76,4*01
$GPGSV,4,1,13,195,67,040,41,17,64,055,38,196,61,130,39,19,60,004,42,1*6C
$GPGSV,4,2,13,199,60,167,35,06,50,326,40,194,44,170,42,41,38,242,42,1*61
$GPGSV,4,3,13,14,34,178,43,09,29,115,36,11,24,277,40,04,21,082,25,1*62
$GPGSV,4,4,13,12,07,322,16,1*56
$GPGSV,3,1,09,195,67,040,42,196,61,130,45,199,60,167,46,06,50,326,44,8*53
$GPGSV,3,2,09,194,44,170,46,14,34,178,46,09,29,115,37,11,24,277,38,8*5F
$GPGSV,3,3,09,04,21,082,28,8*53
$GLGSV,2,1,08,67,49,077,44,68,40,154,41,82,37,025,26,80,31,238,42,1*78
$GLGSV,2,2,08,83,30,330,24,73,22,300,40,66,12,032,16,79,07,191,19,1*70
$GAGSV,3,1,09,24,55,254,41,12,50,005,30,10,48,324,41,31,34,183,40,7*7E
$GAGSV,3,2,09,11,33,292,39,19,29,094,27,04,22,158,35,25,22,313,33,7*7B
$GAGSV,3,3,09,33,17,058,36,7*44
$GAGSV,3,1,09,24,55,254,45,12,50,005,37,10,48,324,43,31,34,183,42,1*7B
$GAGSV,3,2,09,11,33,292,37,19,29,094,24,04,22,158,38,25,22,313,34,1*7A
$GAGSV,3,3,09,33,17,058,25,1*40
$GBGSV,4,1,16,40,83,089,40,07,83,271,38,10,71,301,39,14,60,101,44,1*71
$GBGSV,4,2,16,08,59,260,39,33,55,157,45,43,54,042,35,13,49,250,41,1*74
$GBGSV,4,3,16,42,44,062,26,11,35,071,35,28,33,318,40,23,23,227,,1*75
$GBGSV,4,4,16,34,21,090,,37,18,281,34,41,15,197,29,06,01,190,,1*77
$GBGSV,2,1,07,40,83,089,45,33,55,157,45,43,54,042,40,42,44,062,35,4*7A
$GBGSV,2,2,07,28,33,318,41,37,18,281,34,41,15,197,24,4*48
$GNGGA,032743.000,2500.8201929,N,12132.4470347,E,4,64,0.45,17.591,M,15.25,M,21,3335*72
$GNRMC,032743.000,A,2500.8201929,N,12132.4470347,E,0.00,160.66,270623,,,R,V*17
$GPHDT,268.213,T*39
$GNGGA,032743.200,2500.8201986,N,12132.4470176,E,4,64,0.45,17.634,M,15.25,M,21,3335*79
$GNRMC,032743.200,A,2500.8201986,N,12132.4470176,E,0.00,160.66,270623,,,R,V*10
$GPHDT,268.143,T*3F
$GNGGA,032743.400,2500.8202006,N,12132.4470214,E,4,64,0.45,17.625,M,15.25,M,21,3335*7A
$GNRMC,032743.400,A,2500.8202006,N,12132.4470214,E,0.00,160.66,270623,,,R,V*13
$GPHDT,267.959,T*33
$GNGGA,032743.600,2500.8201969,N,12132.4470262,E,4,64,0.45,17.605,M,15.25,M,21,3335*78
$GNRMC,032743.600,A,2500.8201969,N,12132.4470262,E,0.00,160.66,270623,,,R,V*13
$GPHDT,268.037,T*3D
$GNGGA,032743.800,2500.8201918,N,12132.4470381,E,4,64,0.45,17.582,M,15.25,M,21,3335*70
$GNRMC,032743.800,A,2500.8201918,N,12132.4470381,E,0.00,160.66,270623,,,R,V*17
$GPHDT,267.936,T*3A
$GNGSA,A,3,195,17,196,19,199,06,194,14,09,11,04,,0.88,0.45,0.76,1*0F
$GNGSA,A,3,67,68,82,80,83,73,,,,,,,0.88,0.45,0.76,2*00
$GNGSA,A,3,24,12,10,31,11,19,04,25,33,,,,0.88,0.45,0.76,3*0E
$GNGSA,A,3,40,07,10,14,08,33,43,13,42,11,28,37,0.88,0.45,0.76,4*06
$GNGSA,A,3,41,,,,,,,,,,,,0.88,0.45,0.76,4*01
$GPGSV,4,1,13,195,67,040,41,17,64,055,38,196,61,130,39,19,60,004,42,1*6C
$GPGSV,4,2,13,199,60,167,34,06,50,326,40,194,44,170,42,41,38,242,42,1*60
$GPGSV,4,3,13,14,34,178,43,09,29,115,36,11,24,277,40,04,21,082,24,1*63
$GPGSV,4,4,13,12,07,322,16,1*56
$GPGSV,3,1,09,195,67,040,42,196,61,130,45,199,60,167,46,06,50,326,43,8*54
$GPGSV,3,2,09,194,44,170,46,14,34,178,46,09,29,115,36,11,24,277,38,8*5E
$GPGSV,3,3,09,04,21,082,28,8*53
$GLGSV,2,1,08,67,49,077,44,68,40,154,41,82,37,025,26,80,31,238,42,1*78
$GLGSV,2,2,08,83,30,330,24,73,22,300,40,66,12,032,14,79,07,191,19,1*72
$GAGSV,3,1,09,24,55,254,41,12,50,005,31,10,48,324,41,31,34,183,40,7*7F
$GAGSV,3,2,09,11,33,292,39,19,29,094,27,04,22,158,36,25,22,313,33,7*78
$GAGSV,3,3,09,33,17,058,37,7*45
$GAGSV,3,1,09,24,55,254,45,12,50,005,37,10,48,324,43,31,34,183,42,1*7B
$GAGSV,3,2,09,11,33,292,36,19,29,094,24,04,22,158,38,25,22,313,34,1*7B
$GAGSV,3,3,09,33,17,058,26,1*43
$GBGSV,4,1,14,40,83,089,41,07,83,270,38,10,71,301,39,14,60,101,44,1*73
$GBGSV,4,2,14,08,59,260,39,33,55,157,45,43,54,042,36,13,49,250,41,1*75
$GBGSV,4,3,14,42,44,062,28,11,35,071,35,28,33,318,40,23,23,227,,1*79
$GBGSV,4,4,14,37,18,281,35,41,15,197,29,1*76
$GBGSV,2,1,07,40,83,089,45,33,55,157,45,43,54,042,40,42,44,062,35,4*7A
$GBGSV,2,2,07,28,33,318,41,37,18,281,34,41,15,197,24,4*48
$GNGGA,032744.000,2500.8201946,N,12132.4470318,E,4,64,0.45,17.601,M,15.25,M,22,3335*7F
$GNRMC,032744.000,A,2500.8201946,N,12132.4470318,E,0.00,160.66,270623,,,R,V*13
$GPHDT,267.970,T*38
$GNGGA,032744.200,2500.8202005,N,12132.4470188,E,4,64,0.45,17.631,M,15.25,M,22,3335*78
$GNRMC,032744.200,A,2500.8202005,N,12132.4470188,E,0.00,160.66,270623,,,R,V*17
$GPHDT,268.145,T*39
$GNGGA,032744.400,2500.8201990,N,12132.4470196,E,4,64,0.45,17.631,M,15.25,M,22,3335*77
$GNRMC,032744.400,A,2500.8201990,N,12132.4470196,E,0.00,160.66,270623,,,R,V*18
$GPHDT,268.035,T*3F
$GNGGA,032744.600,2500.8202007,N,12132.4470176,E,4,64,0.45,17.639,M,15.25,M,22,3335*77
$GNRMC,032744.600,A,2500.8202007,N,12132.4470176,E,0.00,160.66,270623,,,R,V*10
$GPHDT,268.232,T*3A
$GNGGA,032744.800,2500.8201946,N,12132.4470278,E,4,64,0.45,17.615,M,15.25,M,22,3335*75
$GNRMC,032744.800,A,2500.8201946,N,12132.4470278,E,0.00,160.66,270623,,,R,V*1C
$GPHDT,267.933,T*3F
$GNGSA,A,3,195,17,196,19,199,06,194,14,09,11,04,,0.88,0.45,0.76,1*0F
$GNGSA,A,3,67,68,82,80,83,73,,,,,,,0.88,0.45,0.76,2*00
$GNGSA,A,3,24,12,10,31,11,19,04,25,33,,,,0.88,0.45,0.76,3*0E
$GNGSA,A,3,40,07,10,14,08,33,43,13,42,11,28,37,0.88,0.45,0.76,4*06
$GNGSA,A,3,41,,,,,,,,,,,,0.88,0.45,0.76,4*01
$GPGSV,4,1,13,195,67,040,41,17,64,055,38,196,61,130,39,19,60,004,42,1*6C
$GPGSV,4,2,13,199,60,167,34,06,50,326,40,194,44,170,42,41,38,242,42,1*60
$GPGSV,4,3,13,14,34,178,43,09,29,115,37,11,24,277,40,04,21,082,23,1*65
$GPGSV,4,4,13,12,07,322,16,1*56
$GPGSV,3,1,09,195,67,040,42,196,61,130,45,199,60,167,46,06,50,326,43,8*54
$GPGSV,3,2,09,194,44,170,46,14,34,178,46,09,29,115,36,11,24,277,38,8*5E
$GPGSV,3,3,09,04,21,082,29,8*52
$GLGSV,2,1,08,67,49,077,44,68,40,154,41,82,37,025,28,80,31,238,42,1*76
$GLGSV,2,2,08,83,30,330,24,73,22,300,40,66,12,032,14,79,07,191,21,1*79
$GAGSV,3,1,09,24,55,254,41,12,50,005,31,10,48,324,41,31,34,183,40,7*7F
$GAGSV,3,2,09,11,33,292,39,19,29,094,28,04,22,158,36,25,22,313,33,7*77
$GAGSV,3,3,09,33,17,058,37,7*45
$GAGSV,3,1,09,24,55,254,45,12,50,005,37,10,48,324,43,31,34,183,42,1*7B
$GAGSV,3,2,09,11,33,292,37,19,29,094,23,04,22,158,38,25,22,313,34,1*7D
$GAGSV,3,3,09,33,17,058,26,1*43
$GBGSV,4,1,14,40,83,089,41,07,83,270,38,10,71,301,39,14,60,101,44,1*73
$GBGSV,4,2,14,08,59,260,39,33,55,157,45,43,54,042,36,13,49,250,41,1*75
$GBGSV,4,3,14,42,44,062,29,11,35,071,35,28,33,318,40,23,23,227,,1*78
$GBGSV,4,4,14,37,18,281,36,41,15,197,29,1*75
$GBGSV,2,1,07,40,83,089,45,33,55,157,45,43,54,042,40,42,44,062,35,4*7A
$GBGSV,2,2,07,28,33,318,41,37,18,281,34,41,15,197,24,4*48
$GNGGA,032745.000,2500.8201991,N,12132.4470218,E,4,64,0.45,17.640,M,15.25,M,23,3335*71
$GNRMC,032745.000,A,2500.8201991,N,12132.4470218,E,0.00,160.66,270623,,,R,V*19
$GPHDT,267.736,T*34
$GNGGA,032745.200,2500.8201996,N,12132.4470178,E,4,64,0.45,17.635,M,15.25,M,23,3335*73
$GNRMC,032745.200,A,2500.8201996,N,12132.4470178,E,0.00,160.66,270623,,,R,V*19
$GPHDT,267.864,T*3C
$GNGGA,032745.400,2500.8201951,N,12132.4470258,E,4,64,0.45,17.620,M,15.25,M,23,3335*7B
$GNRMC,032745.400,A,2500.8201951,N,12132.4470258,E,0.00,160.66,270623,,,R,V*15
$GPHDT,268.030,T*3A
$GNGGA,032745.600,2500.8202005,N,12132.4470162,E,4,63,0.45,17.641,M,15.25,M,23,3335*78
$GNRMC,032745.600,A,2500.8202005,N,12132.4470162,E,0.01,160.66,270623,,,R,V*17
$GPHDT,267.880,T*36
$GNGGA,032745.800,2500.8201954,N,12132.4470306,E,4,64,0.45,17.616,M,15.25,M,23,3335*7D
$GNRMC,032745.800,A,2500.8201954,N,12132.4470306,E,0.00,160.66,270623,,,R,V*16
$GPHDT,267.701,T*30
$GNGSA,A,3,195,17,196,19,199,06,194,14,09,11,04,,0.88,0.45,0.76,1*0F
$GNGSA,A,3,67,68,82,80,83,73,,,,,,,0.88,0.45,0.76,2*00
$GNGSA,A,3,24,12,10,31,11,19,04,25,33,,,,0.88,0.45,0.76,3*0E
$GNGSA,A,3,40,07,10,14,08,33,43,13,42,11,28,37,0.88,0.45,0.76,4*06
$GNGSA,A,3,41,,,,,,,,,,,,0.88,0.45,0.76,4*01
$GPGSV,4,1,13,195,67,040,41,17,64,055,38,196,61,130,39,19,60,004,42,1*6C
$GPGSV,4,2,13,199,60,167,34,06,50,326,40,194,44,170,42,41,38,242,42,1*60
$GPGSV,4,3,13,14,34,178,43,09,29,115,37,11,24,277,40,04,21,082,21,1*67
$GPGSV,4,4,13,12,07,322,16,1*56
$GPGSV,3,1,09,195,67,040,42,196,61,130,45,199,60,167,46,06,50,326,44,8*53
$GPGSV,3,2,09,194,44,170,46,14,34,178,46,09,29,115,37,11,24,277,38,8*5F
$GPGSV,3,3,09,04,21,082,29,8*52
$GLGSV,2,1,08,67,49,077,44,68,40,154,41,82,37,025,29,80,31,238,42,1*77
$GLGSV,2,2,08,83,30,330,24,73,22,300,40,66,12,032,13,79,07,191,19,1*75
$GAGSV,3,1,09,24,55,254,41,12,50,005,31,10,48,324,41,31,34,183,40,7*7F
$GAGSV,3,2,09,11,33,292,39,19,29,094,28,04,22,158,36,25,22,313,33,7*77
$GAGSV,3,3,09,33,17,058,37,7*45
$GAGSV,3,1,09,24,55,254,45,12,50,005,37,10,48,324,43,31,34,183,42,1*7B
$GAGSV,3,2,09,11,33,292,37,19,29,094,23,04,22,158,38,25,22,313,34,1*7D
$GAGSV,3,3,09,33,17,058,27,1*42
$GBGSV,4,1,14,40,83,089,41,07,83,270,38,10,71,301,39,14,60,100,44,1*72
$GBGSV,4,2,14,08,59,260,39,33,55,157,45,43,54,042,36,13,49,250,41,1*75
$GBGSV,4,3,14,42,44,062,27,11,35,071,35,28,33,318,40,23,23,227,,1*76
$GBGSV,4,4,14,37,18,281,36,41,15,197,29,1*75
$GBGSV,2,1,07,40,83,089,45,33,55,157,46,43,54,042,40,42,44,062,35,4*79
$GBGSV,2,2,07,28,33,318,41,37,18,281,34,41,15,197,24,4*48
$GNGGA,032746.000,2500.8201925,N,12132.4470242,E,4,64,0.45,17.629,M,15.25,M,24,3335*7A
$GNRMC,032746.000,A,2500.8201925,N,12132.4470242,E,0.00,160.66,270623,,,R,V*1A
$GPHDT,267.929,T*34
$GNGGA,032746.200,2500.8201950,N,12132.4470272,E,4,64,0.45,17.612,M,15.25,M,24,3335*71
$GNRMC,032746.200,A,2500.8201950,N,12132.4470272,E,0.00,160.66,270623,,,R,V*19
$GPHDT,268.075,T*3B
$GNGGA,032746.400,2500.8201939,N,12132.4470234,E,4,64,0.45,17.620,M,15.25,M,24,3335*7B
$GNRMC,032746.400,A,2500.8201939,N,12132.4470234,E,0.00,160.66,270623,,,R,V*12
$GPHDT,267.943,T*38
$GNGGA,032746.600,2500.8201957,N,12132.4470276,E,4,63,0.45,17.620,M,15.25,M,24,3335*70
$GNRMC,032746.600,A,2500.8201957,N,12132.4470276,E,0.00,160.66,270623,,,R,V*1E
$GPHDT,267.866,T*3E
$GNGGA,032746.800,2500.8201957,N,12132.4470275,E,4,63,0.45,17.617,M,15.25,M,24,3335*79
$GNRMC,032746.800,A,2500.8201957,N,12132.4470275,E,0.00,160.66,270623,,,R,V*13
$GPHDT,267.851,T*3A
$GNGSA,A,3,195,17,196,19,199,06,194,14,09,11,04,,0.88,0.45,0.76,1*0F
$GNGSA,A,3,67,68,82,80,83,73,,,,,,,0.88,0.45,0.76,2*00
$GNGSA,A,3,24,12,10,31,11,19,04,25,33,,,,0.88,0.45,0.76,3*0E
$GNGSA,A,3,40,07,10,14,08,33,43,13,42,11,28,37,0.88,0.45,0.76,4*06
$GNGSA,A,3,41,,,,,,,,,,,,0.88,0.45,0.76,4*01
$GPGSV,4,1,13,195,67,040,41,17,64,055,38,196,61,130,39,19,60,004,42,1*6C
$GPGSV,4,2,13,199,60,167,34,06,50,326,40,194,44,170,42,41,38,242,42,1*60
$GPGSV,4,3,13,14,34,178,43,09,29,115,37,11,24,277,40,04,21,082,23,1*65
$GPGSV,4,4,13,12,07,322,17,1*57
$GPGSV,3,1,09,195,67,040,42,196,61,130,45,199,60,167,46,06,50,326,44,8*53
$GPGSV,3,2,09,194,44,170,46,14,34,178,46,09,29,115,37,11,24,277,38,8*5F
$GPGSV,3,3,09,04,21,082,29,8*52
$GLGSV,2,1,08,67,49,077,44,68,40,154,41,82,37,025,29,80,31,238,42,1*77
$GLGSV,2,2,08,83,30,330,24,73,22,300,40,66,12,032,14,79,07,191,19,1*72
$GAGSV,3,1,09,24,55,254,41,12,50,005,31,10,48,324,41,31,34,183,40,7*7F
$GAGSV,3,2,09,11,33,292,39,19,29,094,28,04,22,158,36,25,22,313,33,7*77
$GAGSV,3,3,09,33,17,058,37,7*45
$GAGSV,3,1,09,24,55,254,45,12,50,005,37,10,48,324,43,31,34,183,42,1*7B
$GAGSV,3,2,09,11,33,292,37,19,29,094,23,04,22,158,38,25,22,313,33,1*7A
$GAGSV,3,3,09,33,17,058,27,1*42
$GBGSV,4,1,14,40,83,089,41,07,83,270,38,10,71,301,39,14,60,100,44,1*72
$GBGSV,4,2,14,08,59,260,39,33,55,157,45,43,54,042,36,13,49,250,41,1*75
$GBGSV,4,3,14,42,44,062,25,11,35,071,35,28,33,318,41,23,23,227,,1*75
$GBGSV,4,4,14,37,18,281,36,41,15,197,29,1*75
$GBGSV,2,1,07,40,83,089,45,33,55,157,46,43,54,042,40,42,44,062,35,4*79
$GBGSV,2,2,07,28,33,318,41,37,18,281,34,41,15,197,24,4*48
$GNGGA,032747.000,2500.8202006,N,12132.4470150,E,4,64,0.45,17.651,M,15.25,M,25,3335*7E
$GNRMC,032747.000,A,2500.8202006,N,12132.4470150,E,0.00,160.66,270623,,,R,V*10
$GPHDT,267.986,T*31
$GNGGA,032747.200,2500.8201954,N,12132.4470213,E,4,63,0.45,17.643,M,15.25,M,25,3335*71
$GNRMC,032747.200,A,2500.8201954,N,12132.4470213,E,0.00,160.66,270623,,,R,V*1B
$GPHDT,268.222,T*3B
$GNGGA,032747.400,2500.8201951,N,12132.4470217,E,4,63,0.45,17.645,M,15.25,M,25,3335*70
$GNRMC,032747.400,A,2500.8201951,N,12132.4470217,E,0.00,160.66,270623,,,R,V*1C
$GPHDT,268.348,T*36
$GNGGA,032747.600,2500.8201990,N,12132.4470176,E,4,63,0.45,17.640,M,15.25,M,25,3335*7E
$GNRMC,032747.600,A,2500.8201990,N,12132.4470176,E,0.00,160.66,270623,,,R,V*17
