$FW : RTK35X,V1.1X0314AS,Lib20210517,1*54
$Tool : LOCOSYS , GNSS Firebird , v1.0.0.19*39
$---------------------------------------------------*2D
$GPHDT,180.831,T*36
$GNGSA,A,3,195,17,196,19,199,06,194,14,09,11,04,,0.88,0.45,0.76,1*0F
$GNGSA,A,3,67,68,82,83,80,73,,,,,,,0.88,0.45,0.76,2*00
$GNGSA,A,3,24,12,10,31,11,19,04,25,33,,,,0.88,0.45,0.76,3*0E
$GNGSA,A,3,40,07,10,14,08,33,43,13,42,11,28,37,0.88,0.45,0.76,4*06
$GNGSA,A,3,41,,,,,,,,,,,,0.88,0.45,0.76,4*01
$GPGSV,4,1,13,195,67,040,39,17,64,055,41,196,61,130,38,19,60,004,42,1*6C
$GPGSV,4,2,13,199,60,167,34,06,50,327,44,194,44,170,43,41,38,242,41,1*67
$GPGSV,4,3,13,14,34,178,42,09,29,115,31,11,24,277,34,04,21,081,30,1*60
$GPGSV,4,4,13,12,07,322,16,1*56
$GPGSV,3,1,09,195,67,040,44,196,61,130,46,199,60,167,46,06,50,327,48,8*5B
$GPGSV,3,2,09,194,44,170,44,14,34,178,45,09,29,115,42,11,24,277,40,8*53
$GPGSV,3,3,09,04,21,081,36,8*5F
$GLGSV,2,1,08,67,49,076,44,68,40,154,43,82,37,026,25,83,31,331,30,1*75
$GLGSV,2,2,08,80,31,238,36,73,22,300,37,66,12,032,25,79,07,190,15,1*75
$GAGSV,3,1,09,24,55,254,39,12,50,006,36,10,48,324,44,31,34,183,39,7*7F
$GAGSV,3,2,09,11,33,292,32,19,29,094,29,04,22,157,36,25,22,313,32,7*73
$GAGSV,3,3,09,33,17,058,31,7*43
$GAGSV,3,1,09,24,55,254,41,12,50,006,40,10,48,324,45,31,34,183,41,1*79
$GAGSV,3,2,09,11,33,292,35,19,29,094,22,04,22,157,38,25,22,313,36,1*73
$GAGSV,3,3,09,33,17,058,25,1*40
$GBGSV,4,1,14,40,83,091,41,07,83,269,39,10,71,301,35,14,60,100,43,1*79
$GBGSV,4,2,14,08,59,260,39,33,56,157,44,43,54,043,45,13,49,250,39,1*7D
$GBGSV,4,3,14,42,44,062,41,11,35,071,38,28,33,318,46,23,23,227,,1*7D
$GBGSV,4,4,14,37,18,280,36,41,15,197,26,1*7B
$GBGSV,2,1,06,40,83,091,46,33,56,157,44,43,54,043,46,42,44,062,43,4*75
$GBGSV,2,2,06,28,33,318,43,37,18,280,33,4*75
$GNGGA,032824.000,2500.8201904,N,12132.4469887,E,4,63,0.45,17.678,M,15.25,M,1,3335*4D
$GNRMC,032824.000,A,2500.8201904,N,12132.4469887,E,0.00,160.66,270623,,,R,V*19
$GPHDT,180.876,T*35
$GNGGA,032824.200,2500.8201885,N,12132.4469888,E,4,63,0.45,17.674,M,15.25,M,1,3335*44
$GNRMC,032824.200,A,2500.8201885,N,12132.4469888,E,0.00,160.66,270623,,,R,V*1C
$GPHDT,180.417,T*3E
$GNGGA,032824.400,2500.8201873,N,12132.4469858,E,4,63,0.45,17.690,M,15.25,M,0,3335*4D
$GNRMC,032824.400,A,2500.8201873,N,12132.4469858,E,0.00,160.66,270623,,,R,V*1E
$GPHDT,180.599,T*39
$GNGGA,032824.600,2500.8201880,N,12132.4469860,E,4,63,0.45,17.691,M,15.25,M,0,3335*49
$GNRMC,032824.600,A,2500.8201880,N,12132.4469860,E,0.00,160.66,270623,,,R,V*1B
$GPHDT,180.552,T*3E
$GNGGA,032824.800,2500.8201897,N,12132.4469868,E,4,64,0.45,17.690,M,15.25,M,0,3335*4F
$GNRMC,032824.800,A,2500.8201897,N,12132.4469868,E,0.00,160.66,270623,,,R,V*1B
$GPHDT,180.592,T*32
$GNGSA,A,3,195,17,196,19,199,06,194,14,09,11,04,,0.88,0.45,0.76,1*0F
$GNGSA,A,3,67,68,82,80,83,73,,,,,,,0.88,0.45,0.76,2*00
$GNGSA,A,3,24,12,10,31,11,19,04,25,33,,,,0.88,0.45,0.76,3*0E
$GNGSA,A,3,07,40,10,14,08,33,43,13,42,11,28,37,0.88,0.45,0.76,4*06
$GNGSA,A,3,41,,,,,,,,,,,,0.88,0.45,0.76,4*01
$GPGSV,4,1,13,195,67,040,39,17,64,055,41,196,61,130,37,19,60,004,42,1*63
$GPGSV,4,2,13,199,60,167,33,06,50,327,44,194,44,170,43,41,38,242,40,1*61
$GPGSV,4,3,13,14,34,178,42,09,29,115,31,11,24,277,35,04,21,081,31,1*60
$GPGSV,4,4,13,12,07,322,17,1*57
$GPGSV,3,1,09,195,67,040,44,196,61,130,46,199,60,167,46,06,50,327,48,8*5B
$GPGSV,3,2,09,194,44,170,44,14,34,178,45,09,29,115,42,11,24,277,40,8*53
$GPGSV,3,3,09,04,21,081,36,8*5F
$GLGSV,3,1,09,67,49,076,44,68,40,154,43,82,37,026,22,80,31,238,35,1*7C
$GLGSV,3,2,09,83,31,331,30,73,22,300,37,66,12,032,26,79,07,190,14,1*7A
$GLGSV,3,3,09,69,02,186,,1*43
$GAGSV,3,1,09,24,55,254,39,12,50,006,35,10,48,324,44,31,34,183,39,7*7C
$GAGSV,3,2,09,11,33,292,33,19,29,094,28,04,22,157,36,25,22,313,32,7*73
$GAGSV,3,3,09,33,17,058,31,7*43
$GAGSV,3,1,09,24,55,254,41,12,50,006,40,10,48,324,45,31,34,183,41,1*79
$GAGSV,3,2,09,11,33,292,35,19,29,094,21,04,22,157,38,25,22,313,36,1*70
$GAGSV,3,3,09,33,17,058,24,1*41
$GBGSV,4,1,14,07,83,269,39,40,83,091,41,10,71,301,35,14,60,100,43,1*79
$GBGSV,4,2,14,08,59,260,39,33,56,157,44,43,54,043,45,13,49,250,39,1*7D
$GBGSV,4,3,14,42,44,062,42,11,35,071,37,28,33,318,46,23,23,227,,1*71
$GBGSV,4,4,14,37,18,280,36,41,15,197,25,1*78
$GBGSV,2,1,07,40,83,091,46,33,56,157,44,43,54,043,45,42,44,062,43,4*77
$GBGSV,2,2,07,28,33,318,43,37,18,280,33,41,15,197,18,4*43
$GNGGA,032825.000,2500.8201911,N,12132.4469899,E,4,64,0.45,17.687,M,15.25,M,1,3335*40
$GNRMC,032825.000,A,2500.8201911,N,12132.4469899,E,0.00,160.66,270623,,,R,V*13
$GPHDT,180.855,T*34
$GNGGA,032825.200,2500.8201918,N,12132.4469891,E,4,64,0.45,17.688,M,15.25,M,1,3335*4C
$GNRMC,032825.200,A,2500.8201918,N,12132.4469891,E,0.00,160.66,270623,,,R,V*10
$GPHDT,180.604,T*3E
$GNGGA,032825.400,2500.8201886,N,12132.4469879,E,4,64,0.45,17.681,M,15.25,M,1,3335*43
$GNRMC,032825.400,A,2500.8201886,N,12132.4469879,E,0.00,160.66,270623,,,R,V*16
$GPHDT,180.681,T*33
$GNGGA,032825.600,2500.8201888,N,12132.4469855,E,4,64,0.45,17.680,M,15.25,M,0,3335*41
$GNRMC,032825.600,A,2500.8201888,N,12132.4469855,E,0.00,160.66,270623,,,R,V*14
$GPHDT,180.459,T*34
$GNGGA,032825.800,2500.8201874,N,12132.4469860,E,4,64,0.45,17.683,M,15.25,M,0,3335*49
$GNRMC,032825.800,A,2500.8201874,N,12132.4469860,E,0.00,160.66,270623,,,R,V*1F
$GPHDT,180.577,T*39
$GNGSA,A,3,195,17,196,199,19,06,194,14,09,11,04,,0.88,0.45,0.76,1*0F
$GNGSA,A,3,67,68,82,80,83,73,,,,,,,0.88,0.45,0.76,2*00
$GNGSA,A,3,24,12,10,31,11,19,04,25,33,,,,0.88,0.45,0.76,3*0E
$GNGSA,A,3,40,07,10,14,08,33,43,13,42,11,28,37,0.88,0.45,0.76,4*06
$GNGSA,A,3,41,,,,,,,,,,,,0.88,0.45,0.76,4*01
$GPGSV,4,1,14,195,67,040,39,17,64,055,41,196,61,130,37,199,60,167,33,1*5F
$GPGSV,4,2,14,19,60,004,42,06,50,327,44,194,44,170,43,41,38,242,40,1*5D
$GPGSV,4,3,14,14,34,178,41,09,29,115,29,11,24,277,35,20,22,225,,1*66
$GPGSV,4,4,14,04,21,081,31,12,07,322,17,1*6C
$GPGSV,3,1,09,195,67,040,44,196,61,130,46,199,60,167,46,06,50,327,48,8*5B
$GPGSV,3,2,09,194,44,170,43,14,34,178,45,09,29,115,42,11,24,277,40,8*54
$GPGSV,3,3,09,04,21,081,36,8*5F
$GLGSV,2,1,08,67,49,076,44,68,40,154,43,82,37,026,24,80,31,238,36,1*79
$GLGSV,2,2,08,83,31,331,29,73,22,300,37,66,12,032,25,79,07,190,15,1*70
$GAGSV,3,1,09,24,55,254,39,12,50,006,35,10,48,324,44,31,34,183,39,7*7C
$GAGSV,3,2,09,11,33,292,33,19,29,094,28,04,22,157,36,25,22,313,32,7*73
$GAGSV,3,3,09,33,17,058,30,7*42
$GAGSV,3,1,09,24,55,254,41,12,50,006,40,10,48,324,45,31,34,183,41,1*79
$GAGSV,3,2,09,11,33,292,35,19,29,094,19,04,22,157,38,25,22,313,36,1*7B
$GAGSV,3,3,09,33,17,058,25,1*40
$GBGSV,4,1,15,40,83,091,41,07,83,269,39,10,71,301,35,14,60,100,43,1*78
$GBGSV,4,2,15,08,59,260,39,33,56,157,44,43,54,043,45,13,49,250,39,1*7C
$GBGSV,4,3,15,42,44,062,41,11,35,071,38,28,33,318,46,23,23,227,,1*7C
$GBGSV,4,4,15,37,18,280,36,41,15,197,27,39,02,180,,1*4A
$GBGSV,2,1,07,40,83,091,46,33,56,157,44,43,54,043,45,42,44,062,43,4*77
$GBGSV,2,2,07,28,33,318,43,37,18,280,33,41,15,197,18,4*43
$GNGGA,032826.000,2500.8201886,N,12132.4469843,E,4,64,0.45,17.680,M,15.25,M,1,3335*4C
$GNRMC,032826.000,A,2500.8201886,N,12132.4469843,E,0.00,160.66,270623,,,R,V*18
$GPHDT,180.436,T*3D
$GNGGA,032826.200,2500.8201866,N,12132.4469870,E,4,64,0.45,17.678,M,15.25,M,1,3335*47
$GNRMC,032826.200,A,2500.8201866,N,12132.4469870,E,0.00,160.66,270623,,,R,V*14
$GPHDT,180.091,T*34
$GNGGA,032826.400,2500.8201871,N,12132.4469892,E,4,64,0.45,17.668,M,15.25,M,0,3335*4B
$GNRMC,032826.400,A,2500.8201871,N,12132.4469892,E,0.00,160.66,270623,,,R,V*18
$GPHDT,180.463,T*3D
$GNGGA,032826.600,2500.8201869,N,12132.4469900,E,4,64,0.45,17.675,M,15.25,M,0,3335*46
$GNRMC,032826.600,A,2500.8201869,N,12132.4469900,E,0.00,160.66,270623,,,R,V*19
$GPHDT,180.641,T*3F
$GNGGA,032826.800,2500.8201870,N,12132.4469898,E,4,64,0.45,17.669,M,15.25,M,0,3335*4D
$GNRMC,032826.800,A,2500.8201870,N,12132.4469898,E,0.00,160.66,270623,,,R,V*1F
$GPHDT,180.495,T*34
$GNGSA,A,3,195,17,196,199,19,06,194,14,09,11,04,,0.88,0.45,0.76,1*0F
$GNGSA,A,3,67,68,82,80,83,73,,,,,,,0.88,0.45,0.76,2*00
$GNGSA,A,3,24,12,10,31,11,19,04,25,33,,,,0.88,0.45,0.76,3*0E
$GNGSA,A,3,40,07,10,14,08,33,43,13,42,11,28,37,0.88,0.45,0.76,4*06
$GNGSA,A,3,41,,,,,,,,,,,,0.88,0.45,0.76,4*01
$GPGSV,4,1,14,195,67,040,39,17,64,055,41,196,61,130,37,199,60,167,32,1*5E
$GPGSV,4,2,14,19,60,004,42,06,50,327,44,194,44,170,43,41,38,242,40,1*5D
$GPGSV,4,3,14,14,34,178,41,09,29,115,30,11,24,277,34,20,22,225,,1*6F
$GPGSV,4,4,14,04,21,081,30,12,07,322,17,1*6D
$GPGSV,3,1,09,195,67,040,44,196,61,130,46,199,60,167,46,06,50,327,48,8*5B
$GPGSV,3,2,09,194,44,170,43,14,34,178,45,09,29,115,42,11,24,277,39,8*5A
$GPGSV,3,3,09,04,21,081,36,8*5F
$GLGSV,2,1,08,67,49,076,44,68,40,154,43,82,37,026,25,80,31,238,36,1*78
$GLGSV,2,2,08,83,31,331,29,73,22,300,37,66,12,032,24,79,07,190,13,1*77
$GAGSV,3,1,09,24,55,254,39,12,50,006,35,10,48,324,44,31,34,183,39,7*7C
$GAGSV,3,2,09,11,33,292,33,19,29,094,27,04,22,157,36,25,22,313,32,7*7C
$GAGSV,3,3,09,33,17,058,30,7*42
$GAGSV,3,1,09,24,55,254,41,12,50,006,40,10,48,324,45,31,34,183,41,1*79
$GAGSV,3,2,09,11,33,292,34,19,29,094,20,04,22,157,38,25,22,313,36,1*70
$GAGSV,3,3,09,33,17,058,24,1*41
$GBGSV,4,1,16,40,83,091,41,07,83,269,39,10,71,301,35,14,60,100,43,1*7B
$GBGSV,4,2,16,08,59,260,39,33,56,157,44,43,54,043,45,13,49,250,39,1*7F
$GBGSV,4,3,16,42,44,062,41,11,35,071,38,28,33,318,46,23,23,227,24,1*79
$GBGSV,4,4,16,37,18,280,35,41,15,197,25,39,02,180,,06,01,190,,1*77
$GBGSV,2,1,07,40,83,091,45,33,56,157,44,43,54,043,45,42,44,062,43,4*74
$GBGSV,2,2,07,28,33,318,43,37,18,280,33,41,15,197,18,4*43
$GNGGA,032827.000,2500.8201875,N,12132.4469912,E,4,64,0.45,17.693,M,15.25,M,1,3335*46
$GNRMC,032827.000,A,2500.8201875,N,12132.4469912,E,0.00,160.66,270623,,,R,V*10
$GPHDT,180.876,T*35
$GNGGA,032827.200,2500.8201872,N,12132.4469909,E,4,64,0.45,17.673,M,15.25,M,1,3335*47
$GNRMC,032827.200,A,2500.8201872,N,12132.4469909,E,0.00,160.66,270623,,,R,V*1F
$GPHDT,180.916,T*32
$GNGGA,032827.400,2500.8201884,N,12132.4469937,E,4,64,0.45,17.668,M,15.25,M,1,3335*4F
$GNRMC,032827.400,A,2500.8201884,N,12132.4469937,E,0.00,160.66,270623,,,R,V*1D
$GPHDT,181.232,T*3E
$GNGGA,032827.600,2500.8201883,N,12132.4469887,E,4,64,0.45,17.677,M,15.25,M,0,3335*4F
$GNRMC,032827.600,A,2500.8201883,N,12132.4469887,E,0.00,160.66,270623,,,R,V*12
$GPHDT,180.574,T*3A
$GNGGA,032827.800,2500.8201880,N,12132.4469901,E,4,64,0.45,17.679,M,15.25,M,0,3335*43
$GNRMC,032827.800,A,2500.8201880,N,12132.4469901,E,0.00,160.66,270623,,,R,V*10
$GPHDT,180.559,T*35
$GNGSA,A,3,195,17,196,199,19,06,194,14,09,11,04,,0.88,0.45,0.76,1*0F
$GNGSA,A,3,67,68,82,80,83,73,,,,,,,0.88,0.45,0.76,2*00
$GNGSA,A,3,24,12,10,31,11,19,04,25,33,,,,0.88,0.45,0.76,3*0E
$GNGSA,A,3,40,07,10,14,08,33,43,13,42,11,28,37,0.88,0.45,0.76,4*06
$GNGSA,A,3,41,,,,,,,,,,,,0.88,0.45,0.76,4*01
$GPGSV,4,1,14,195,67,040,39,17,64,055,41,196,61,130,37,199,60,167,32,1*5E
$GPGSV,4,2,14,19,60,004,42,06,50,327,44,194,44,170,43,41,38,242,40,1*5D
$GPGSV,4,3,14,14,34,178,41,09,29,115,30,11,24,277,34,20,22,225,,1*6F
$GPGSV,4,4,14,04,21,081,28,12,07,322,17,1*64
$GPGSV,3,1,09,195,67,040,44,196,61,130,46,199,60,167,46,06,50,327,48,8*5B
$GPGSV,3,2,09,194,44,170,43,14,34,178,45,09,29,115,42,11,24,277,39,8*5A
$GPGSV,3,3,09,04,21,081,36,8*5F
$GLGSV,2,1,08,67,49,076,43,68,40,154,43,82,37,026,22,80,31,238,36,1*78
$GLGSV,2,2,08,83,31,331,29,73,22,300,37,66,12,032,23,79,07,190,13,1*70
$GAGSV,3,1,09,24,55,254,39,12,50,006,35,10,48,324,44,31,34,183,39,7*7C
$GAGSV,3,2,09,11,33,292,33,19,29,094,28,04,22,157,35,25,22,313,32,7*70
$GAGSV,3,3,09,33,17,058,29,7*4A
$GAGSV,3,1,09,24,55,254,41,12,50,006,40,10,48,324,45,31,34,183,41,1*79
$GAGSV,3,2,09,11,33,292,33,19,29,094,23,04,22,157,38,25,22,313,37,1*75
$GAGSV,3,3,09,33,17,058,24,1*41
$GBGSV,5,1,17,40,83,091,41,07,83,269,39,10,71,301,35,14,60,100,43,1*7B
$GBGSV,5,2,17,08,59,260,39,33,56,157,44,43,54,043,45,13,49,250,39,1*7F
$GBGSV,5,3,17,42,44,062,41,11,35,071,37,28,33,318,46,23,23,227,25,1*77
$GBGSV,5,4,17,34,21,090,,37,18,280,35,41,15,197,25,21,02,035,,1*73
$GBGSV,5,5,17,06,01,190,,1*4F
$GBGSV,2,1,07,40,83,091,45,33,56,157,44,43,54,043,45,42,44,062,43,4*74
$GBGSV,2,2,07,28,33,318,43,37,18,280,33,41,15,197,17,4*4C
$GNGGA,032828.000,2500.8201894,N,12132.4469887,E,4,64,0.45,17.674,M,15.25,M,1,3335*42
$GNRMC,032828.000,A,2500.8201894,N,12132.4469887,E,0.00,160.66,270623,,,R,V*1D
$GPHDT,180.663,T*3F
$GNGGA,032828.200,2500.8201871,N,12132.4469882,E,4,64,0.45,17.667,M,15.25,M,1,3335*4C
$GNRMC,032828.200,A,2500.8201871,N,12132.4469882,E,0.00,160.66,270623,,,R,V*11
$GPHDT,180.533,T*39
$GNGGA,032828.400,2500.8201865,N,12132.4469889,E,4,64,0.45,17.663,M,15.25,M,1,3335*40
$GNRMC,032828.400,A,2500.8201865,N,12132.4469889,E,0.00,160.66,270623,,,R,V*19
$GPHDT,180.290,T*37
$GNGGA,032828.600,2500.8201903,N,12132.4469908,E,4,64,0.45,17.678,M,15.25,M,0,3335*40
$GNRMC,032828.600,A,2500.8201903,N,12132.4469908,E,0.00,160.66,270623,,,R,V*12
$GPHDT,180.902,T*37
$GNGGA,032828.800,2500.8201888,N,12132.4469922,E,4,64,0.45,17.674,M,15.25,M,0,3335*48
$GNRMC,032828.800,A,2500.8201888,N,12132.4469922,E,0.00,160.66,270623,,,R,V*16
$GPHDT,180.865,T*37
$GNGSA,A,3,195,17,196,199,19,06,194,14,09,11,04,,0.88,0.45,0.76,1*0F
$GNGSA,A,3,67,68,82,80,83,73,,,,,,,0.88,0.45,0.76,2*00
$GNGSA,A,3,24,12,10,31,11,19,04,25,33,,,,0.88,0.45,0.76,3*0E
$GNGSA,A,3,40,07,10,14,08,33,43,13,42,11,28,37,0.88,0.45,0.76,4*06
$GNGSA,A,3,41,,,,,,,,,,,,0.88,0.45,0.76,4*01
$GPGSV,4,1,14,195,67,040,39,17,64,055,41,196,61,130,37,199,60,167,32,1*5E
$GPGSV,4,2,14,19,60,004,42,06,50,327,45,194,44,170,43,41,38,242,40,1*5C
$GPGSV,4,3,14,14,34,178,41,09,29,115,30,11,24,277,35,20,22,225,,1*6E
$GPGSV,4,4,14,04,21,081,26,12,07,322,19,1*64
$GPGSV,3,1,09,195,67,040,44,196,61,130,46,199,60,167,46,06,50,327,48,8*5B
$GPGSV,3,2,09,194,44,170,43,14,34,178,45,09,29,115,42,11,24,277,39,8*5A
$GPGSV,3,3,09,04,21,081,37,8*5E
$GLGSV,2,1,08,67,49,076,43,68,40,154,42,82,37,026,21,80,31,238,36,1*7A
$GLGSV,2,2,08,83,31,331,29,73,22,300,37,66,12,032,23,79,07,190,13,1*70
$GAGSV,3,1,09,24,55,254,39,12,50,006,35,10,48,324,44,31,34,183,39,7*7C
$GAGSV,3,2,09,11,33,292,33,19,29,094,28,04,22,157,35,25,22,313,33,7*71
$GAGSV,3,3,09,33,17,058,28,7*4B
$GAGSV,3,1,09,24,55,254,41,12,50,006,40,10,48,324,45,31,34,183,41,1*79
$GAGSV,3,2,09,11,33,292,33,19,29,094,22,04,22,157,38,25,22,313,37,1*74
$GAGSV,3,3,09,33,17,058,24,1*41
$GBGSV,4,1,15,40,83,091,41,07,83,269,39,10,71,301,35,14,60,100,43,1*78
$GBGSV,4,2,15,08,59,260,39,33,56,157,44,43,54,043,45,13,49,250,39,1*7C
$GBGSV,4,3,15,42,44,062,41,11,35,071,37,28,33,318,46,23,23,227,25,1*74
$GBGSV,4,4,15,37,18,280,35,41,15,197,25,21,02,035,,1*4D
$GBGSV,2,1,07,40,83,091,45,33,56,157,43,43,54,043,45,42,44,062,43,4*73
$GBGSV,2,2,07,28,33,318,43,37,18,280,33,41,15,197,17,4*4C
$GNGGA,032829.000,2500.8201890,N,12132.4469861,E,4,64,0.45,17.665,M,15.25,M,1,3335*4F
$GNRMC,032829.000,A,2500.8201890,N,12132.4469861,E,0.00,160.66,270623,,,R,V*10
$GPHDT,180.387,T*30
$GNGGA,032829.200,2500.8201871,N,12132.4469841,E,4,64,0.45,17.679,M,15.25,M,1,3335*4D
$GNRMC,032829.200,A,2500.8201871,N,12132.4469841,E,0.00,160.66,270623,,,R,V*1F
$GPHDT,180.267,T*3F
$GNGGA,032829.400,2500.8201873,N,12132.4469832,E,4,64,0.45,17.688,M,15.25,M,1,3335*43
$GNRMC,032829.400,A,2500.8201873,N,12132.4469832,E,0.00,160.66,270623,,,R,V*1F
$GPHDT,180.345,T*3E
$GNGGA,032829.600,2500.8201880,N,12132.4469855,E,4,64,0.45,17.670,M,15.25,M,0,3335*4A
$GNRMC,032829.600,A,2500.8201880,N,12132.4469855,E,0.00,160.66,270623,,,R,V*10
$GPHDT,180.379,T*31
$GNGGA,032829.800,2500.8201883,N,12132.4469843,E,4,64,0.45,17.678,M,15.25,M,0,3335*48
$GNRMC,032829.800,A,2500.8201883,N,12132.4469843,E,0.00,160.66,270623,,,R,V*1A
$GPHDT,180.334,T*38
$GNGSA,A,3,195,17,196,199,19,06,194,14,09,11,04,,0.88,0.45,0.76,1*0F
$GNGSA,A,3,67,68,82,83,80,73,,,,,,,0.88,0.45,0.76,2*00
$GNGSA,A,3,24,12,10,31,11,19,04,25,33,,,,0.88,0.45,0.76,3*0E
$GNGSA,A,3,40,07,10,14,08,33,43,13,42,11,28,37,0.88,0.45,0.76,4*06
$GNGSA,A,3,41,,,,,,,,,,,,0.88,0.45,0.76,4*01
$GPGSV,4,1,14,195,67,040,40,17,64,055,41,196,61,130,37,199,60,167,30,1*52
$GPGSV,4,2,14,19,60,004,42,06,50,327,45,194,44,170,43,41,38,242,40,1*5C
$GPGSV,4,3,14,14,34,178,41,09,29,114,30,11,24,277,35,20,22,225,,1*6F
$GPGSV,4,4,14,04,21,081,29,12,07,322,18,1*6A
$GPGSV,3,1,09,195,67,040,44,196,61,130,46,199,60,167,46,06,50,327,48,8*5B
$GPGSV,3,2,09,194,44,170,43,14,34,178,45,09,29,114,41,11,24,277,39,8*58
$GPGSV,3,3,09,04,21,081,36,8*5F
$GLGSV,2,1,08,67,49,076,43,68,40,154,42,82,37,026,22,83,31,331,28,1*7D
$GLGSV,2,2,08,80,31,238,36,73,22,300,37,66,12,032,22,79,07,190,12,1*75
$GAGSV,3,1,09,24,55,254,39,12,50,006,34,10,48,324,44,31,34,183,39,7*7D
$GAGSV,3,2,09,11,33,292,34,19,29,094,28,04,22,157,35,25,22,313,32,7*77
$GAGSV,3,3,09,33,17,058,29,7*4A
$GAGSV,3,1,09,24,55,254,41,12,50,006,40,10,48,324,45,31,34,183,41,1*79
$GAGSV,3,2,09,11,33,292,34,19,29,094,22,04,22,157,39,25,22,313,37,1*72
$GAGSV,3,3,09,33,17,058,23,1*46
$GBGSV,4,1,14,40,83,091,41,07,83,269,39,10,71,301,34,14,60,100,43,1*78
$GBGSV,4,2,14,08,59,260,38,33,56,157,44,43,54,043,45,13,49,250,39,1*7C
$GBGSV,4,3,14,42,44,062,41,11,35,071,37,28,33,318,46,23,23,227,27,1*77
$GBGSV,4,4,14,37,18,280,37,41,15,197,25,1*79
$GBGSV,2,1,07,40,83,091,45,33,56,157,44,43,54,043,45,42,44,062,43,4*74
$GBGSV,2,2,07,28,33,318,43,37,18,280,33,41,15,197,17,4*4C
$GNGGA,032830.000,2500.8201865,N,12132.4469857,E,4,64,0.45,17.678,M,15.25,M,1,3335*44
$GNRMC,032830.000,A,2500.8201865,N,12132.4469857,E,0.00,160.66,270623,,,R,V*17
$GPHDT,180.669,T*35
$GNGGA,032830.200,2500.8201870,N,12132.4469863,E,4,64,0.45,17.675,M,15.25,M,1,3335*48
$GNRMC,032830.200,A,2500.8201870,N,12132.4469863,E,0.00,160.66,270623,,,R,V*16
$GPHDT,180.668,T*34
$GNGGA,032830.400,2500.8201865,N,12132.4469850,E,4,64,0.45,17.668,M,15.25,M,1,3335*46
$GNRMC,032830.400,A,2500.8201865,N,12132.4469850,E,0.00,160.66,270623,,,R,V*14
$GPHDT,180.342,T*39
$GNGGA,032830.600,2500.8201879,N,12132.4469848,E,4,64,0.45,17.663,M,15.25,M,0,3335*4A
$GNRMC,032830.600,A,2500.8201879,N,12132.4469848,E,0.00,160.66,270623,,,R,V*12
$GPHDT,180.502,T*3B
$GNGGA,032830.800,2500.8201890,N,12132.4469843,E,4,64,0.45,17.658,M,15.25,M,0,3335*40
$GNRMC,032830.800,A,2500.8201890,N,12132.4469843,E,0.00,160.66,270623,,,R,V*10
$GPHDT,180.645,T*3B
$GNGSA,A,3,195,17,196,199,19,06,194,14,09,11,04,,0.88,0.45,0.76,1*0F
$GNGSA,A,3,67,68,82,83,80,73,,,,,,,0.88,0.45,0.76,2*00
$GNGSA,A,3,24,12,10,31,11,19,04,25,33,,,,0.88,0.45,0.76,3*0E
$GNGSA,A,3,40,07,10,14,08,33,43,13,42,11,28,37,0.88,0.45,0.76,4*06
$GNGSA,A,3,41,,,,,,,,,,,,0.88,0.45,0.76,4*01
$GPGSV,4,1,14,195,67,040,40,17,64,056,41,196,61,130,37,199,60,167,30,1*51
$GPGSV,4,2,14,19,60,004,42,06,50,327,45,194,44,170,43,41,38,242,40,1*5C
$GPGSV,4,3,14,14,33,178,41,09,29,114,30,11,24,277,35,20,22,225,,1*68
$GPGSV,4,4,14,04,21,081,20,12,07,322,18,1*63
$GPGSV,3,1,09,195,67,040,44,196,61,130,46,199,60,167,46,06,50,327,48,8*5B
$GPGSV,3,2,09,194,44,170,43,14,33,178,45,09,29,114,41,11,24,277,39,8*5F
$GPGSV,3,3,09,04,21,081,36,8*5F
$GLGSV,2,1,08,67,49,076,42,68,40,154,42,82,37,026,23,83,31,331,28,1*7D
$GLGSV,2,2,08,80,31,238,36,73,22,300,37,66,12,032,18,79,07,190,13,1*7D
$GAGSV,3,1,09,24,55,254,39,12,50,006,34,10,48,324,44,31,34,183,39,7*7D
$GAGSV,3,2,09,11,33,292,34,19,29,094,27,04,22,157,36,25,22,313,32,7*7B
$GAGSV,3,3,09,33,17,058,29,7*4A
$GAGSV,3,1,09,24,55,254,41,12,50,006,40,10,48,324,45,31,34,183,41,1*79
$GAGSV,3,2,09,11,33,292,34,19,29,094,23,04,22,157,39,25,22,313,37,1*73
$GAGSV,3,3,09,33,17,058,23,1*46
$GBGSV,4,1,14,40,83,091,41,07,83,269,39,10,71,301,34,14,60,100,43,1*78
$GBGSV,4,2,14,08,59,260,38,33,56,157,44,43,54,043,45,13,49,250,39,1*7C
$GBGSV,4,3,14,42,44,062,41,11,35,071,37,28,33,318,46,23,23,227,25,1*75
$GBGSV,4,4,14,37,18,280,37,41,15,197,25,1*79
$GBGSV,2,1,07,40,83,091,45,33,56,157,44,43,54,043,45,42,44,062,43,4*74
$GBGSV,2,2,07,28,33,318,44,37,18,280,33,41,15,197,19,4*45
$GNGGA,032831.000,2500.8201912,N,12132.4469877,E,4,64,0.45,17.682,M,15.25,M,1,3335*43
$GNRMC,032831.000,A,2500.8201912,N,12132.4469877,E,0.00,160.66,270623,,,R,V*15
$GPHDT,181.048,T*31
$GNGGA,032831.200,2500.8201897,N,12132.4469894,E,4,63,0.45,17.667,M,15.25,M,1,3335*4C
$GNRMC,032831.200,A,2500.8201897,N,12132.4469894,E,0.00,160.66,270623,,,R,V*16
$GPHDT,180.947,T*36
$GNGGA,032831.400,2500.8201884,N,12132.4469882,E,4,63,0.45,17.669,M,15.25,M,1,3335*41
$GNRMC,032831.400,A,2500.8201884,N,12132.4469882,E,0.00,160.66,270623,,,R,V*15
$GPHDT,180.853,T*32
$GNGGA,032831.600,2500.8201885,N,12132.4469876,E,4,63,0.45,17.670,M,15.25,M,1,3335*41
$GNRMC,032831.600,A,2500.8201885,N,12132.4469876,E,0.00,160.66,270623,,,R,V*1D
$GPHDT,180.555,T*39
$GNGGA,032831.800,2500.8201893,N,12132.4469899,E,4,64,0.45,17.662,M,15.25,M,1,3335*4D
$GNRMC,032831.800,A,2500.8201893,N,12132.4469899,E,0.00,160.66,270623,,,R,V*15
$GPHDT,180.709,T*32
$GNGSA,A,3,195,17,19,196,199,06,194,14,09,11,04,,0.88,0.45,0.76,1*0F
$GNGSA,A,3,67,68,82,83,80,73,,,,,,,0.88,0.45,0.76,2*00
$GNGSA,A,3,24,12,10,31,11,19,04,25,33,,,,0.88,0.45,0.76,3*0E
$GNGSA,A,3,40,07,10,14,08,33,43,13,42,11,28,37,0.88,0.45,0.76,4*06
$GNGSA,A,3,41,,,,,,,,,,,,0.88,0.45,0.76,4*01
$GPGSV,4,1,13,195,67,040,40,17,64,056,41,19,61,005,42,196,61,130,37,1*6E
$GPGSV,4,2,13,199,60,167,30,06,50,327,45,194,44,170,43,41,38,242,40,1*63
$GPGSV,4,3,13,14,33,178,41,09,29,114,30,11,24,277,34,04,21,081,19,1*6F
$GPGSV,4,4,13,12,07,322,18,1*58
$GPGSV,3,1,09,195,67,040,44,196,61,130,46,199,60,167,46,06,50,327,48,8*5B
$GPGSV,3,2,09,194,44,170,43,14,33,178,45,09,29,114,41,11,24,277,39,8*5F
$GPGSV,3,3,09,04,21,081,36,8*5F
$GLGSV,2,1,08,67,49,076,42,68,40,154,43,82,37,026,26,83,31,331,29,1*78
$GLGSV,2,2,08,80,31,238,35,73,22,300,37,66,12,032,18,79,07,190,12,1*7F
$GAGSV,3,1,09,24,55,254,39,12,50,006,34,10,48,324,44,31,34,183,39,7*7D
$GAGSV,3,2,09,11,33,292,34,19,29,094,26,04,22,157,36,25,22,313,32,7*7A
$GAGSV,3,3,09,33,17,058,29,7*4A
$GAGSV,3,1,09,24,55,254,41,12,50,006,40,10,48,324,45,31,34,183,41,1*79
$GAGSV,3,2,09,11,33,292,34,19,29,094,23,04,22,157,39,25,22,313,37,1*73
$GAGSV,3,3,09,33,17,058,23,1*46
$GBGSV,4,1,14,40,83,091,41,07,83,269,39,10,71,301,34,14,60,100,43,1*78
$GBGSV,4,2,14,08,59,260,38,33,56,157,43,43,54,043,45,13,49,250,39,1*7B
$GBGSV,4,3,14,42,44,062,41,11,35,071,37,28,33,318,46,23,23,227,24,1*74
$GBGSV,4,4,14,37,18,280,37,41,15,197,25,1*79
$GBGSV,2,1,07,40,83,091,45,33,56,157,44,43,54,043,45,42,44,062,43,4*74
$GBGSV,2,2,07,28,33,318,44,37,18,280,33,41,15,197,19,4*45
$GNGGA,032832.000,2500.8201874,N,12132.4469892,E,4,64,0.45,17.681,M,15.25,M,1,3335*49
$GNRMC,032832.000,A,2500.8201874,N,12132.4469892,E,0.00,160.66,270623,,,R,V*1C
$GPHDT,180.804,T*30
$GNGGA,032832.200,2500.8201878,N,12132.4469913,E,4,64,0.45,17.675,M,15.25,M,1,3335*44
$GNRMC,032832.200,A,2500.8201878,N,12132.4469913,E,0.00,160.66,270623,,,R,V*1A
$GPHDT,180.920,T*37
$GNGGA,032832.400,2500.8201886,N,12132.4469895,E,4,64,0.45,17.681,M,15.25,M,1,3335*47
$GNRMC,032832.400,A,2500.8201886,N,12132.4469895,E,0.00,160.66,270623,,,R,V*12
$GPHDT,180.752,T*3C
$GNGGA,032832.600,2500.8201888,N,12132.4469881,E,4,63,0.45,17.672,M,15.25,M,0,3335*44
$GNRMC,032832.600,A,2500.8201888,N,12132.4469881,E,0.00,160.66,270623,,,R,V*1B
$GPHDT,180.881,T*3D
$GNGGA,032832.800,2500.8201868,N,12132.4469873,E,4,64,0.45,17.683,M,15.25,M,0,3335*40
$GNRMC,032832.800,A,2500.8201868,N,12132.4469873,E,0.00,160.66,270623,,,R,V*16
$GPHDT,180.527,T*3C
$GNGSA,A,3,195,17,19,196,199,06,194,14,09,11,04,,0.88,0.45,0.76,1*0F
$GNGSA,A,3,67,68,82,83,80,73,,,,,,,0.88,0.45,0.76,2*00
$GNGSA,A,3,24,12,10,31,11,19,04,25,33,,,,0.88,0.45,0.76,3*0E
$GNGSA,A,3,40,07,10,14,08,33,43,13,42,11,28,37,0.88,0.45,0.76,4*06
$GNGSA,A,3,41,,,,,,,,,,,,0.88,0.45,0.76,4*01
$GPGSV,4,1,13,195,67,040,40,17,64,056,41,19,61,005,42,196,61,130,37,1*6E
$GPGSV,4,2,13,199,60,167,30,06,50,327,45,194,44,170,43,41,38,242,40,1*63
$GPGSV,4,3,13,14,33,178,41,09,29,114,30,11,24,277,34,04,21,081,18,1*6E
$GPGSV,4,4,13,12,07,322,18,1*58
$GPGSV,3,1,09,195,67,040,44,196,61,130,46,199,60,167,46,06,50,327,48,8*5B
$GPGSV,3,2,09,194,44,170,43,14,33,178,45,09,29,114,41,11,24,277,39,8*5F
$GPGSV,3,3,09,04,21,081,36,8*5F
$GLGSV,2,1,08,67,49,076,42,68,40,154,43,82,37,026,26,83,31,331,29,1*78
$GLGSV,2,2,08,80,31,238,36,73,22,300,37,66,12,032,18,79,07,190,11,1*7F
$GAGSV,3,1,09,24,55,254,39,12,50,006,34,10,48,324,44,31,34,183,39,7*7D
$GAGSV,3,2,09,11,33,292,34,19,29,094,27,04,22,157,36,25,22,313,32,7*7B
$GAGSV,3,3,09,33,17,058,27,7*44
$GAGSV,3,1,09,24,55,254,41,12,50,006,40,10,48,324,45,31,34,183,41,1*79
$GAGSV,3,2,09,11,33,292,34,19,29,094,22,04,22,157,39,25,22,313,37,1*72
$GAGSV,3,3,09,33,17,058,23,1*46
$GBGSV,4,1,14,40,83,091,41,07,83,269,39,10,71,301,35,14,60,100,43,1*79
$GBGSV,4,2,14,08,59,260,38,33,56,157,43,43,54,043,45,13,49,250,39,1*7B
$GBGSV,4,3,14,42,44,062,41,11,35,071,37,28,33,318,46,23,23,227,24,1*74
$GBGSV,4,4,14,37,18,280,37,41,15,197,25,1*79
$GBGSV,2,1,07,40,83,091,45,33,56,157,44,43,54,043,45,42,44,062,43,4*74
$GBGSV,2,2,07,28,33,318,44,37,18,280,33,41,15,197,19,4*45
$GNGGA,032833.000,2500.8201890,N,12132.4469859,E,4,64,0.45,17.673,M,15.25,M,1,3335*48
$GNRMC,032833.000,A,2500.8201890,N,12132.4469859,E,0.00,160.66,270623,,,R,V*10
$GPHDT,180.589,T*38
$GNGGA,032833.200,2500.8201883,N,12132.4469860,E,4,64,0.45,17.678,M,15.25,M,1,3335*49
$GNRMC,032833.200,A,2500.8201883,N,12132.4469860,E,0.00,160.66,270623,,,R,V*1A
$GPHDT,180.852,T*33
$GNGGA,032833.400,2500.8201874,N,12132.4469867,E,4,64,0.45,17.674,M,15.25,M,1,3335*4C
$GNRMC,032833.400,A,2500.8201874,N,12132.4469867,E,0.00,160.66,270623,,,R,V*13
$GPHDT,180.479,T*36
$GNGGA,032833.600,2500.8201896,N,12132.4469887,E,4,64,0.45,17.671,M,15.25,M,0,3335*48
$GNRMC,032833.600,A,2500.8201896,N,12132.4469887,E,0.00,160.66,270623,,,R,V*13
$GPHDT,180.782,T*31
$GNGGA,032833.800,2500.8201887,N,12132.4469914,E,4,64,0.45,17.671,M,15.25,M,0,3335*4D
$GNRMC,032833.800,A,2500.8201887,N,12132.4469914,E,0.00,160.66,270623,,,R,V*16
$GPHDT,180.673,T*3E
$GNGSA,A,3,195,17,19,196,199,06,194,14,09,11,04,,0.88,0.45,0.76,1*0F
$GNGSA,A,3,67,68,82,83,80,73,,,,,,,0.88,0.45,0.76,2*00
$GNGSA,A,3,24,12,10,31,11,19,04,25,33,,,,0.88,0.45,0.76,3*0E
$GNGSA,A,3,40,07,10,14,08,33,43,13,42,11,28,37,0.88,0.45,0.76,4*06
$GNGSA,A,3,41,,,,,,,,,,,,0.88,0.45,0.76,4*01
$GPGSV,4,1,13,195,67,040,40,17,64,056,41,19,61,005,42,196,61,130,37,1*6E
$GPGSV,4,2,13,199,60,167,30,06,50,327,45,194,44,170,43,41,38,242,40,1*63
$GPGSV,4,3,13,14,33,178,41,09,29,114,30,11,24,277,34,04,21,081,19,1*6F
$GPGSV,4,4,13,12,07,322,18,1*58
$GPGSV,3,1,09,195,67,040,44,196,61,130,46,199,60,167,46,06,50,327,48,8*5B
$GPGSV,3,2,09,194,44,170,43,14,33,178,45,09,29,114,41,11,24,277,39,8*5F
$GPGSV,3,3,09,04,21,081,35,8*5C
$GLGSV,2,1,08,67,49,076,42,68,40,154,43,82,37,026,26,83,31,331,29,1*78
$GLGSV,2,2,08,80,31,238,36,73,22,300,37,66,12,032,19,79,07,190,14,1*7B
$GAGSV,3,1,09,24,55,254,39,12,50,006,35,10,48,324,44,31,34,183,39,7*7C
$GAGSV,3,2,09,11,33,292,34,19,29,094,27,04,22,157,36,25,22,313,32,7*7B
$GAGSV,3,3,09,33,17,058,27,7*44
$GAGSV,3,1,09,24,55,254,41,12,50,006,40,10,48,324,45,31,34,183,41,1*79
$GAGSV,3,2,09,11,33,292,35,19,29,094,22,04,22,157,39,25,22,313,37,1*73
$GAGSV,3,3,09,33,17,058,24,1*41
$GBGSV,4,1,14,40,83,091,41,07,83,269,39,10,71,301,35,14,60,100,43,1*79
$GBGSV,4,2,14,08,59,260,38,33,56,157,43,43,54,043,45,13,49,250,39,1*7B
$GBGSV,4,3,14,42,44,062,41,11,35,071,37,28,33,318,46,23,23,227,24,1*74
$GBGSV,4,4,14,37,18,280,37,41,15,197,24,1*78
$GBGSV,2,1,07,40,83,091,45,33,56,157,44,43,54,043,45,42,44,062,43,4*74
$GBGSV,2,2,07,28,33,318,44,37,18,280,33,41,15,197,20,4*4F
$GNGGA,032834.000,2500.8201894,N,12132.4469912,E,4,64,0.45,17.687,M,15.25,M,1,3335*4E
$GNRMC,032834.000,A,2500.8201894,N,12132.4469912,E,0.00,160.66,270623,,,R,V*1D
$GPHDT,180.811,T*34
$GNGGA,032834.200,2500.8201893,N,12132.4469928,E,4,64,0.45,17.671,M,15.25,M,1,3335*4B
$GNRMC,032834.200,A,2500.8201893,N,12132.4469928,E,0.00,160.66,270623,,,R,V*11
$GPHDT,180.931,T*37
$GNGGA,032834.400,2500.8201900,N,12132.4469934,E,4,64,0.45,17.671,M,15.25,M,1,3335*4B
$GNRMC,032834.400,A,2500.8201900,N,12132.4469934,E,0.00,160.66,270623,,,R,V*11
$GPHDT,180.638,T*31
$GNGGA,032834.600,2500.8201886,N,12132.4469899,E,4,64,0.45,17.669,M,15.25,M,0,3335*48
$GNRMC,032834.600,A,2500.8201886,N,12132.4469899,E,0.00,160.66,270623,,,R,V*1A
$GPHDT,180.719,T*33
$GNGGA,032834.800,2500.8201902,N,12132.4469867,E,4,64,0.45,17.664,M,15.25,M,0,3335*47
$GNRMC,032834.800,A,2500.8201902,N,12132.4469867,E,0.00,160.66,270623,,,R,V*18
$GPHDT,180.708,T*33
$GNGSA,A,3,195,17,19,196,199,06,194,14,09,11,04,,0.88,0.45,0.76,1*0F
$GNGSA,A,3,67,68,82,80,83,73,,,,,,,0.88,0.45,0.76,2*00
$GNGSA,A,3,24,12,10,31,11,19,25,04,33,,,,0.88,0.45,0.76,3*0E
$GNGSA,A,3,07,40,10,14,08,33,43,13,42,11,28,37,0.88,0.45,0.76,4*06
$GNGSA,A,3,41,,,,,,,,,,,,0.88,0.45,0.76,4*01
$GPGSV,4,1,14,195,67,040,39,17,64,056,41,19,61,005,42,196,61,130,37,1*67
$GPGSV,4,2,14,199,60,167,30,06,50,327,45,194,44,170,43,41,38,242,40,1*64
$GPGSV,4,3,14,14,33,178,41,09,29,114,32,11,24,277,35,04,21,081,19,1*6B
$GPGSV,4,4,14,12,07,322,18,27,,,18,1*53
$GPGSV,3,1,09,195,67,040,44,196,61,130,46,199,60,167,46,06,50,327,48,8*5B
$GPGSV,3,2,09,194,44,170,43,14,33,178,45,09,29,114,41,11,24,277,39,8*5F
$GPGSV,3,3,09,04,21,081,35,8*5C
$GLGSV,2,1,08,67,49,076,42,68,40,154,43,82,37,026,27,80,31,238,36,1*7C
$GLGSV,2,2,08,83,31,331,29,73,22,300,37,66,12,032,21,79,07,190,14,1*75
$GAGSV,3,1,09,24,55,254,39,12,50,006,36,10,48,324,43,31,34,183,38,7*79
$GAGSV,3,2,09,11,33,292,34,19,29,094,27,25,22,313,32,04,22,157,35,7*78
$GAGSV,3,3,09,33,17,058,28,7*4B
$GAGSV,3,1,09,24,55,254,41,12,50,006,41,10,48,324,45,31,34,183,41,1*78
$GAGSV,3,2,09,11,33,292,35,19,29,094,22,04,22,157,39,25,22,313,37,1*73
$GAGSV,3,3,09,33,17,058,23,1*46
$GBGSV,4,1,14,07,83,269,39,40,83,091,41,10,71,301,35,14,60,100,43,1*79
$GBGSV,4,2,14,08,59,260,38,33,56,157,43,43,54,043,45,13,49,250,39,1*7B
$GBGSV,4,3,14,42,44,062,41,11,35,071,37,28,33,318,46,23,23,227,24,1*74
$GBGSV,4,4,14,37,18,280,37,41,15,197,24,1*78
$GBGSV,2,1,07,40,83,091,45,33,56,157,44,43,54,043,45,42,44,062,43,4*74
$GBGSV,2,2,07,28,33,318,44,37,18,280,33,41,15,197,20,4*4F
$GNGGA,032835.000,2500.8201900,N,12132.4469891,E,4,63,0.45,17.669,M,15.25,M,1,3335*4E
$GNRMC,032835.000,A,2500.8201900,N,12132.4469891,E,0.00,160.66,270623,,,R,V*1A
$GPHDT,180.912,T*36
$GNGGA,032835.200,2500.8201894,N,12132.4469893,E,4,63,0.45,17.673,M,15.25,M,1,3335*49
$GNRMC,032835.200,A,2500.8201894,N,12132.4469893,E,0.00,160.66,270623,,,R,V*16
