$FW : RTK35X,V1.1X0314AS,Lib20210517,1*54
$Tool : LOCOSYS , GNSS Firebird , v1.0.0.19*39
$---------------------------------------------------*2D
$GPHDT,6.666,T*35
$GNGGA,032648.600,2500.8202017,N,12132.4469919,E,4,62,0.46,17.701,M,15.25,M,0,3335*4D
$GNRMC,032648.600,A,2500.8202017,N,12132.4469919,E,0.00,160.66,270623,,,R,V*15
$GPHDT,6.824,T*3D
$GNGGA,032648.800,2500.8202022,N,12132.4469925,E,4,62,0.46,17.705,M,15.25,M,0,3335*4E
$GNRMC,032648.800,A,2500.8202022,N,12132.4469925,E,0.00,160.66,270623,,,R,V*12
$GPHDT,6.975,T*38
$GNGSA,A,3,195,17,196,199,19,06,194,14,09,11,04,,0.91,0.46,0.79,1*0B
$GNGSA,A,3,67,68,82,80,83,73,,,,,,,0.91,0.46,0.79,2*04
$GNGSA,A,3,24,12,10,31,11,04,25,33,19,,,,0.91,0.46,0.79,3*0A
$GNGSA,A,3,40,07,10,14,08,33,43,13,42,28,23,37,0.91,0.46,0.79,4*03
$GPGSV,4,1,14,195,67,040,40,17,64,053,38,196,61,130,33,199,60,167,34,1*5A
$GPGSV,4,2,14,19,60,003,42,06,50,326,42,194,45,170,33,41,38,242,43,1*58
$GPGSV,4,3,14,14,34,178,35,09,29,115,31,11,24,276,40,20,21,225,19,1*64
$GPGSV,4,4,14,04,20,082,19,12,07,322,20,1*60
$GPGSV,3,1,09,195,67,040,43,196,61,130,37,199,60,167,42,06,50,326,49,8*5E
$GPGSV,3,2,09,194,45,170,42,14,34,178,29,09,29,115,36,11,24,276,47,8*5B
$GPGSV,3,3,09,04,20,082,16,8*5F
$GLGSV,2,1,08,67,49,078,38,68,39,154,31,82,37,025,35,80,32,239,42,1*75
$GLGSV,2,2,08,83,30,330,30,73,22,300,38,66,13,032,22,79,08,191,19,1*73
$GAGSV,3,1,09,24,56,255,40,12,50,005,39,10,48,323,41,31,35,183,27,7*73
$GAGSV,3,2,09,11,33,291,37,19,29,094,,04,22,158,35,25,22,313,32,7*72
$GAGSV,3,3,09,33,18,058,33,7*4E
$GAGSV,3,1,09,24,56,255,45,12,50,005,40,10,48,323,46,31,35,183,33,1*7C
$GAGSV,3,2,09,11,33,291,40,19,29,094,25,04,22,158,30,25,22,313,34,1*70
$GAGSV,3,3,09,33,18,058,18,1*41
$GBGSV,4,1,14,40,83,088,43,07,83,272,39,10,71,302,39,14,60,101,38,1*7B
$GBGSV,4,2,14,08,59,260,39,33,55,157,37,43,54,041,39,13,49,250,41,1*7C
$GBGSV,4,3,14,42,44,063,35,11,35,071,10,28,33,317,44,23,24,227,18,1*76
$GBGSV,4,4,14,37,18,281,34,41,14,197,16,1*7A
$GBGSV,2,1,08,40,83,088,44,33,55,157,41,43,54,041,42,42,44,063,41,4*72
$GBGSV,2,2,08,28,33,317,43,23,24,227,20,37,18,281,35,41,14,197,17,4*78
$GNGGA,032649.000,2500.8202037,N,12132.4469922,E,4,62,0.46,17.699,M,15.25,M,1,3335*41
$GNRMC,032649.000,A,2500.8202037,N,12132.4469922,E,0.00,160.66,270623,,,R,V*18
$GPHDT,6.799,T*34
$GNGGA,032649.200,2500.8202035,N,12132.4469923,E,4,62,0.46,17.699,M,15.25,M,1,3335*40
$GNRMC,032649.200,A,2500.8202035,N,12132.4469923,E,0.00,160.66,270623,,,R,V*19
$GPHDT,6.694,T*38
$GNGGA,032649.400,2500.8202083,N,12132.4469908,E,4,62,0.46,17.717,M,15.25,M,1,3335*45
$GNRMC,032649.400,A,2500.8202083,N,12132.4469908,E,0.00,160.66,270623,,,R,V*1B
$GPHDT,6.841,T*3E
$GNGGA,032649.600,2500.8202046,N,12132.4469948,E,4,62,0.46,17.684,M,15.25,M,0,3335*40
$GNRMC,032649.600,A,2500.8202046,N,12132.4469948,E,0.00,160.66,270623,,,R,V*14
$GPHDT,6.244,T*31
$GNGGA,032649.800,2500.8201998,N,12132.4469946,E,4,62,0.46,17.668,M,15.25,M,0,3335*4B
$GNRMC,032649.800,A,2500.8201998,N,12132.4469946,E,0.00,160.66,270623,,,R,V*1D
$GPHDT,6.465,T*34
$GNGSA,A,3,195,17,196,199,19,06,194,14,09,11,04,,0.91,0.46,0.79,1*0B
$GNGSA,A,3,67,68,82,80,83,73,,,,,,,0.91,0.46,0.79,2*04
$GNGSA,A,3,24,12,10,31,11,04,25,33,19,,,,0.91,0.46,0.79,3*0A
$GNGSA,A,3,40,07,10,14,08,33,43,13,42,28,23,37,0.91,0.46,0.79,4*03
$GPGSV,4,1,14,195,67,040,40,17,64,053,38,196,61,130,34,199,60,167,32,1*5B
$GPGSV,4,2,14,19,60,003,42,06,50,326,42,194,45,170,35,41,38,242,43,1*5E
$GPGSV,4,3,14,14,34,178,36,09,29,115,32,11,24,276,41,20,21,225,18,1*64
$GPGSV,4,4,14,04,20,082,21,12,07,322,20,1*6B
$GPGSV,3,1,09,195,67,040,43,196,61,130,34,199,60,167,39,06,50,326,49,8*51
$GPGSV,3,2,09,194,45,170,39,14,34,178,34,09,29,115,38,11,24,276,47,8*55
$GPGSV,3,3,09,04,20,082,16,8*5F
$GLGSV,2,1,08,67,49,078,37,68,39,154,32,82,37,025,37,80,32,239,42,1*7B
$GLGSV,2,2,08,83,30,330,30,73,22,300,38,66,13,032,22,79,08,191,19,1*73
$GAGSV,3,1,09,24,56,255,39,12,50,005,39,10,48,323,41,31,35,183,33,7*78
$GAGSV,3,2,09,11,33,291,37,19,29,094,,04,22,158,35,25,22,313,32,7*72
$GAGSV,3,3,09,33,18,058,32,7*4F
$GAGSV,3,1,09,24,56,255,45,12,50,005,40,10,48,323,46,31,35,183,33,1*7C
$GAGSV,3,2,09,11,33,291,40,19,29,094,25,04,22,158,32,25,22,313,34,1*72
$GAGSV,3,3,09,33,18,058,18,1*41
$GBGSV,4,1,14,40,83,088,43,07,83,272,38,10,71,302,39,14,60,101,38,1*7A
$GBGSV,4,2,14,08,59,260,39,33,55,157,37,43,54,041,40,13,49,250,40,1*73
$GBGSV,4,3,14,42,44,063,36,11,35,071,12,28,33,317,44,23,24,227,19,1*76
$GBGSV,4,4,14,37,18,281,34,41,14,197,17,1*7B
$GBGSV,2,1,08,40,83,088,44,33,55,157,41,43,54,041,41,42,44,063,39,4*7E
$GBGSV,2,2,08,28,33,317,43,23,24,227,19,37,18,281,36,41,14,197,15,4*73
$GNGGA,032650.000,2500.8202065,N,12132.4469977,E,4,62,0.46,17.676,M,15.25,M,1,3335*4F
$GNRMC,032650.000,A,2500.8202065,N,12132.4469977,E,0.00,160.66,270623,,,R,V*17
$GPHDT,5.781,T*3E
$GNGGA,032650.200,2500.8202031,N,12132.4469941,E,4,62,0.46,17.691,M,15.25,M,1,3335*40
$GNRMC,032650.200,A,2500.8202031,N,12132.4469941,E,0.00,160.66,270623,,,R,V*11
$GPHDT,6.421,T*34
$GNGGA,032650.400,2500.8202047,N,12132.4469942,E,4,62,0.46,17.695,M,15.25,M,1,3335*40
$GNRMC,032650.400,A,2500.8202047,N,12132.4469942,E,0.00,160.66,270623,,,R,V*15
$GPHDT,6.371,T*36
$GNGGA,032650.600,2500.8202038,N,12132.4469927,E,4,63,0.46,17.713,M,15.25,M,1,3335*47
$GNRMC,032650.600,A,2500.8202038,N,12132.4469927,E,0.00,160.66,270623,,,R,V*1C
$GPHDT,6.683,T*3E
$GNGGA,032650.800,2500.8202138,N,12132.4469874,E,4,62,0.46,17.746,M,15.25,M,1,3335*4E
$GNRMC,032650.800,A,2500.8202138,N,12132.4469874,E,0.00,160.66,270623,,,R,V*14
$GPHDT,7.002,T*30
$GNGSA,A,3,195,17,196,199,19,06,194,14,09,11,04,,0.91,0.46,0.79,1*0B
$GNGSA,A,3,67,68,82,80,83,73,,,,,,,0.91,0.46,0.79,2*04
$GNGSA,A,3,24,12,10,31,11,19,04,25,33,,,,0.91,0.46,0.79,3*0A
$GNGSA,A,3,07,40,10,14,08,33,43,13,42,28,37,23,0.91,0.46,0.79,4*03
$GPGSV,4,1,15,195,67,040,40,17,64,053,39,196,61,130,36,199,60,167,31,1*5A
$GPGSV,4,2,15,19,60,003,42,06,50,326,42,194,45,170,33,41,38,242,43,1*59
$GPGSV,4,3,15,14,34,178,35,09,29,115,33,11,24,276,40,20,21,225,17,1*69
$GPGSV,4,4,15,04,20,082,22,12,07,322,20,01,,,20,1*6A
$GPGSV,3,1,09,195,67,040,42,196,61,130,35,199,60,167,39,06,50,326,47,8*5F
$GPGSV,3,2,09,194,45,170,37,14,34,178,32,09,29,115,36,11,24,276,47,8*53
$GPGSV,3,3,09,04,20,082,16,8*5F
$GLGSV,2,1,08,67,49,078,34,68,39,154,33,82,37,025,37,80,32,239,41,1*7A
$GLGSV,2,2,08,83,30,330,30,73,22,300,39,66,13,032,23,79,08,191,18,1*72
$GAGSV,3,1,09,24,56,255,42,12,50,005,39,10,48,323,41,31,35,183,31,7*76
$GAGSV,3,2,09,11,33,291,37,19,29,094,23,04,22,158,35,25,22,313,32,7*73
$GAGSV,3,3,09,33,18,058,32,7*4F
$GAGSV,3,1,09,24,56,255,45,12,50,005,39,10,48,323,45,31,35,183,30,1*72
$GAGSV,3,2,09,11,33,291,40,19,29,094,23,04,22,158,32,25,22,313,32,1*72
$GAGSV,3,3,09,33,18,058,18,1*41
$GBGSV,4,1,14,07,83,272,38,40,83,088,42,10,71,302,39,14,60,101,39,1*7A
$GBGSV,4,2,14,08,59,260,41,33,55,157,35,43,54,041,40,13,49,250,40,1*7E
$GBGSV,4,3,14,42,44,063,38,11,35,071,13,28,33,317,44,23,24,227,18,1*78
$GBGSV,4,4,14,37,18,281,34,41,14,197,15,1*79
$GBGSV,2,1,08,40,83,088,43,33,55,157,40,43,54,041,41,42,44,063,38,4*79
$GBGSV,2,2,08,28,33,317,43,23,24,227,18,37,18,281,35,41,14,197,12,4*76
$GNGGA,032651.000,2500.8202095,N,12132.4469991,E,4,62,0.46,17.698,M,15.25,M,2,3335*4A
$GNRMC,032651.000,A,2500.8202095,N,12132.4469991,E,0.00,160.66,270623,,,R,V*11
$GPHDT,6.253,T*37
$GNGGA,032651.200,2500.8202025,N,12132.4470011,E,4,62,0.46,17.690,M,15.25,M,2,3335*42
$GNRMC,032651.200,A,2500.8202025,N,12132.4470011,E,0.00,160.66,270623,,,R,V*11
$GPHDT,6.033,T*33
$GNGGA,032651.400,2500.8202042,N,12132.4469968,E,4,62,0.46,17.687,M,15.25,M,2,3335*4C
$GNRMC,032651.400,A,2500.8202042,N,12132.4469968,E,0.00,160.66,270623,,,R,V*19
$GPHDT,6.526,T*32
$GNGGA,032651.600,2500.8202019,N,12132.4469987,E,4,63,0.46,17.686,M,15.25,M,2,3335*41
$GNRMC,032651.600,A,2500.8202019,N,12132.4469987,E,0.00,160.66,270623,,,R,V*14
$GPHDT,5.762,T*33
$GNGGA,032651.800,2500.8202053,N,12132.4470027,E,4,63,0.45,17.678,M,15.25,M,2,3335*48
$GNRMC,032651.800,A,2500.8202053,N,12132.4470027,E,0.00,160.66,270623,,,R,V*1F
$GPHDT,5.696,T*39
$GNGSA,A,3,195,17,196,199,19,06,14,09,11,04,194,,0.88,0.45,0.76,1*0F
$GNGSA,A,3,67,68,82,80,83,73,,,,,,,0.88,0.45,0.76,2*00
$GNGSA,A,3,24,12,10,31,11,19,04,25,33,,,,0.88,0.45,0.76,3*0E
$GNGSA,A,3,40,07,10,14,08,33,43,13,42,28,37,41,0.88,0.45,0.76,4*03
$GNGSA,A,3,23,,,,,,,,,,,,0.88,0.45,0.76,4*05
$GPGSV,4,1,14,195,67,040,39,17,64,053,36,196,61,130,35,199,60,167,30,1*58
$GPGSV,4,2,14,19,60,003,42,06,50,326,42,194,45,170,25,41,38,242,43,1*5F
$GPGSV,4,3,14,14,34,178,34,09,29,115,32,11,24,276,40,20,21,225,17,1*68
$GPGSV,4,4,14,04,20,082,20,12,07,322,20,1*6A
$GPGSV,3,1,09,195,67,040,42,196,61,130,37,199,60,167,41,06,50,326,48,8*5D
$GPGSV,3,2,09,194,45,170,36,14,34,178,32,09,29,115,36,11,24,276,47,8*52
$GPGSV,3,3,09,04,20,082,21,8*5B
$GLGSV,2,1,08,67,49,078,36,68,39,154,33,82,37,025,37,80,32,239,41,1*78
$GLGSV,2,2,08,83,30,330,30,73,22,300,37,66,13,032,23,79,08,191,18,1*7C
$GAGSV,3,1,09,24,56,255,43,12,50,005,40,10,48,323,40,31,35,183,29,7*71
$GAGSV,3,2,09,11,33,291,37,19,29,094,22,04,22,158,33,25,22,313,32,7*74
$GAGSV,3,3,09,33,18,058,32,7*4F
$GAGSV,3,1,09,24,56,255,46,12,50,005,40,10,48,323,46,31,35,183,34,1*78
$GAGSV,3,2,09,11,33,291,38,19,29,094,27,04,22,158,33,25,22,313,35,1*7F
$GAGSV,3,3,09,33,18,058,18,1*41
$GBGSV,4,1,14,40,83,088,42,07,83,272,37,10,71,302,39,14,60,101,39,1*75
$GBGSV,4,2,14,08,59,260,42,33,55,157,31,43,54,041,41,13,49,250,40,1*78
$GBGSV,4,3,14,42,44,063,35,11,35,071,11,28,33,317,43,23,24,227,18,1*70
$GBGSV,4,4,14,37,18,281,33,41,14,197,17,1*7C
$GBGSV,2,1,08,40,83,088,44,33,55,157,40,43,54,041,40,42,44,063,40,4*70
$GBGSV,2,2,08,28,33,317,43,23,24,227,19,37,18,281,37,41,14,197,14,4*73
$GNGGA,032652.000,2500.8202019,N,12132.4470042,E,4,62,0.45,17.668,M,15.25,M,3,3335*4F
$GNRMC,032652.000,A,2500.8202019,N,12132.4470042,E,0.00,160.66,270623,,,R,V*19
$GPHDT,5.332,T*32
$GNGGA,032652.200,2500.8202008,N,12132.4470000,E,4,62,0.45,17.692,M,15.25,M,3,3335*4E
$GNRMC,032652.200,A,2500.8202008,N,12132.4470000,E,0.00,160.66,270623,,,R,V*1D
$GPHDT,6.188,T*32
$GNGGA,032652.400,2500.8202043,N,12132.4469970,E,4,63,0.45,17.695,M,15.25,M,3,3335*47
$GNRMC,032652.400,A,2500.8202043,N,12132.4469970,E,0.00,160.66,270623,,,R,V*12
$GPHDT,6.066,T*33
$GNGGA,032652.600,2500.8202019,N,12132.4469997,E,4,63,0.45,17.688,M,15.25,M,3,3335*4F
$GNRMC,032652.600,A,2500.8202019,N,12132.4469997,E,0.00,160.66,270623,,,R,V*16
$GPHDT,6.220,T*33
$GNGGA,032652.800,2500.8202010,N,12132.4470075,E,4,63,0.45,17.671,M,15.25,M,3,3335*43
$GNRMC,032652.800,A,2500.8202010,N,12132.4470075,E,0.00,160.66,270623,,,R,V*1C
$GPHDT,5.742,T*31
$GNGSA,A,3,195,17,196,199,19,06,194,14,09,11,04,,0.75,0.45,0.60,1*0A
$GNGSA,A,3,67,68,82,80,83,73,,,,,,,0.75,0.45,0.60,2*05
$GNGSA,A,3,24,12,10,31,11,19,04,25,33,,,,0.75,0.45,0.60,3*0B
$GNGSA,A,3,40,07,10,14,08,33,43,13,42,28,23,37,0.75,0.45,0.60,4*02
$GNGSA,A,3,41,,,,,,,,,,,,0.75,0.45,0.60,4*04
$GPGSV,4,1,14,195,67,040,40,17,64,053,38,196,61,130,35,199,60,167,25,1*5C
$GPGSV,4,2,14,19,60,003,42,06,50,326,43,194,45,170,26,41,38,242,43,1*5D
$GPGSV,4,3,14,14,34,178,36,09,29,115,32,11,24,277,39,20,21,225,17,1*65
$GPGSV,4,4,14,04,20,082,23,12,07,322,19,1*63
$GPGSV,3,1,09,195,67,040,42,196,61,130,37,199,60,167,42,06,50,326,48,8*5E
$GPGSV,3,2,09,194,45,170,31,14,34,178,34,09,29,115,35,11,24,277,47,8*51
$GPGSV,3,3,09,04,20,082,22,8*58
$GLGSV,2,1,08,67,49,078,36,68,39,154,32,82,37,025,38,80,32,239,41,1*76
$GLGSV,2,2,08,83,30,330,27,73,22,300,39,66,13,032,20,79,08,191,17,1*78
$GAGSV,3,1,09,24,56,255,42,12,50,005,41,10,48,323,41,31,35,183,30,7*78
$GAGSV,3,2,09,11,33,291,38,19,29,094,21,04,22,158,31,25,22,313,33,7*7B
$GAGSV,3,3,09,33,18,058,28,7*44
$GAGSV,3,1,09,24,56,255,46,12,50,005,41,10,48,323,46,31,35,183,34,1*79
$GAGSV,3,2,09,11,33,291,38,19,29,094,26,04,22,158,33,25,22,313,36,1*7D
$GAGSV,3,3,09,33,18,058,19,1*40
$GBGSV,4,1,14,40,83,088,42,07,83,272,39,10,71,302,39,14,60,101,39,1*7B
$GBGSV,4,2,14,08,59,260,42,33,55,157,30,43,54,041,42,13,49,250,40,1*7A
$GBGSV,4,3,14,42,44,063,36,11,35,071,13,28,33,317,40,23,24,227,18,1*72
$GBGSV,4,4,14,37,18,281,33,41,14,197,18,1*73
$GBGSV,2,1,08,40,83,088,45,33,55,157,40,43,54,041,41,42,44,063,42,4*72
$GBGSV,2,2,08,28,33,317,43,23,24,227,18,37,18,281,37,41,14,197,13,4*75
$GNGGA,032653.000,2500.8202027,N,12132.4470068,E,4,64,0.45,17.673,M,15.25,M,4,3335*40
$GNRMC,032653.000,A,2500.8202027,N,12132.4470068,E,0.04,160.66,270623,,,R,V*19
$GPHDT,5.747,T*34
$GNGGA,032653.200,2500.8202030,N,12132.4470064,E,4,63,0.45,17.686,M,15.25,M,4,3335*45
$GNRMC,032653.200,A,2500.8202030,N,12132.4470064,E,0.05,160.66,270623,,,R,V*10
$GPHDT,5.795,T*3B
$GNGGA,032653.400,2500.8201988,N,12132.4470059,E,4,63,0.45,17.671,M,15.25,M,2,3335*4A
$GNRMC,032653.400,A,2500.8201988,N,12132.4470059,E,0.03,160.66,270623,,,R,V*17
$GPHDT,5.664,T*34
$GNGGA,032653.600,2500.8202036,N,12132.4470029,E,4,63,0.45,17.666,M,15.25,M,1,3335*45
$GNRMC,032653.600,A,2500.8202036,N,12132.4470029,E,0.04,160.66,270623,,,R,V*1A
$GPHDT,5.855,T*38
$GNGGA,032653.800,2500.8202063,N,12132.4469969,E,4,63,0.45,17.650,M,15.25,M,1,3335*4B
$GNRMC,032653.800,A,2500.8202063,N,12132.4469969,E,0.01,160.66,270623,,,R,V*14
$GPHDT,6.696,T*3A
$GNGSA,A,3,195,17,196,199,19,06,194,14,09,11,04,,0.75,0.45,0.60,1*0A
$GNGSA,A,3,67,68,82,80,83,73,,,,,,,0.75,0.45,0.60,2*05
$GNGSA,A,3,24,12,10,31,11,19,04,25,33,,,,0.75,0.45,0.60,3*0B
$GNGSA,A,3,40,07,10,14,08,33,43,13,42,28,23,37,0.75,0.45,0.60,4*02
$GNGSA,A,3,41,,,,,,,,,,,,0.75,0.45,0.60,4*04
$GPGSV,4,1,14,195,67,040,40,17,64,054,38,196,61,130,35,199,60,167,24,1*5A
$GPGSV,4,2,14,19,60,003,42,06,50,326,44,194,45,170,29,41,38,242,43,1*55
$GPGSV,4,3,14,14,34,178,38,09,29,115,33,11,24,277,40,20,21,225,17,1*64
$GPGSV,4,4,14,04,20,082,22,12,07,322,15,1*6E
$GPGSV,3,1,09,195,67,040,42,196,61,130,37,199,60,167,42,06,50,326,46,8*50
$GPGSV,3,2,09,194,45,170,28,14,34,178,34,09,29,115,35,11,24,277,47,8*59
$GPGSV,3,3,09,04,20,082,21,8*5B
$GLGSV,2,1,08,67,49,078,36,68,39,154,30,82,37,025,38,80,32,239,41,1*74
$GLGSV,2,2,08,83,30,330,26,73,22,300,38,66,13,032,20,79,08,191,17,1*78
$GAGSV,3,1,09,24,56,255,41,12,50,005,41,10,48,323,42,31,35,183,29,7*70
$GAGSV,3,2,09,11,33,291,38,19,29,094,23,04,22,158,30,25,22,313,31,7*7A
$GAGSV,3,3,09,33,18,058,27,7*4B
$GAGSV,3,1,09,24,56,255,46,12,50,005,42,10,48,323,44,31,35,183,34,1*78
$GAGSV,3,2,09,11,33,291,39,19,29,094,26,04,22,158,32,25,22,313,34,1*7F
$GAGSV,3,3,09,33,18,058,21,1*4B
$GBGSV,4,1,14,40,83,088,41,07,83,272,40,10,71,302,40,14,60,101,39,1*78
$GBGSV,4,2,14,08,59,260,41,33,55,157,32,43,54,041,42,13,49,250,41,1*7A
$GBGSV,4,3,14,42,44,063,37,11,35,071,15,28,33,317,39,23,24,227,19,1*7A
$GBGSV,4,4,14,37,18,281,32,41,14,197,13,1*79
$GBGSV,2,1,08,40,83,088,45,33,55,157,41,43,54,041,42,42,44,063,42,4*70
$GBGSV,2,2,08,28,33,317,43,23,24,227,20,37,18,281,36,41,14,197,15,4*79
$GNGGA,032654.000,2500.8202001,N,12132.4470047,E,4,64,0.45,17.669,M,15.25,M,2,3335*43
$GNRMC,032654.000,A,2500.8202001,N,12132.4470047,E,0.03,160.66,270623,,,R,V*10
$GPHDT,5.892,T*33
$GNGGA,032654.200,2500.8202001,N,12132.4469989,E,4,65,0.45,17.670,M,15.25,M,2,3335*4B
$GNRMC,032654.200,A,2500.8202001,N,12132.4469989,E,0.02,160.66,270623,,,R,V*10
$GPHDT,6.295,T*3D
$GNGGA,032654.400,2500.8202027,N,12132.4470007,E,4,65,0.45,17.669,M,15.25,M,2,3335*46
$GNRMC,032654.400,A,2500.8202027,N,12132.4470007,E,0.04,160.66,270623,,,R,V*13
$GPHDT,6.816,T*3C
$GNGGA,032654.600,2500.8202028,N,12132.4470029,E,4,65,0.45,17.674,M,15.25,M,2,3335*4B
$GNRMC,032654.600,A,2500.8202028,N,12132.4470029,E,0.05,160.66,270623,,,R,V*13
$GPHDT,6.443,T*30
$GNGGA,032654.800,2500.8202017,N,12132.4470023,E,4,64,0.45,17.656,M,15.25,M,2,3335*42
$GNRMC,032654.800,A,2500.8202017,N,12132.4470023,E,0.05,160.66,270623,,,R,V*1B
$GPHDT,6.233,T*31
$GNGSA,A,3,195,17,196,199,19,06,194,14,09,11,04,,0.75,0.45,0.60,1*0A
$GNGSA,A,3,67,68,82,80,83,73,,,,,,,0.75,0.45,0.60,2*05
$GNGSA,A,3,24,12,10,31,11,19,04,25,33,,,,0.75,0.45,0.60,3*0B
$GNGSA,A,3,40,07,10,14,08,33,43,13,42,28,23,37,0.75,0.45,0.60,4*02
$GNGSA,A,3,41,,,,,,,,,,,,0.75,0.45,0.60,4*04
$GPGSV,4,1,14,195,67,040,39,17,64,054,40,196,61,130,38,199,60,167,27,1*55
$GPGSV,4,2,14,19,60,003,42,06,50,326,44,194,45,170,31,41,38,242,43,1*5C
$GPGSV,4,3,14,14,34,178,39,09,29,115,31,11,24,277,39,20,22,225,17,1*6A
$GPGSV,4,4,14,04,20,082,19,12,07,322,16,1*65
$GPGSV,3,1,09,195,67,040,43,196,61,130,39,199,60,167,43,06,50,326,46,8*5E
$GPGSV,3,2,09,194,45,170,36,14,34,178,33,09,29,115,34,11,24,277,45,8*52
$GPGSV,3,3,09,04,20,082,20,8*5A
$GLGSV,2,1,08,67,49,078,35,68,39,154,31,82,37,025,36,80,32,239,42,1*7B
$GLGSV,2,2,08,83,30,330,26,73,22,300,39,66,13,032,19,79,08,191,17,1*73
$GAGSV,3,1,09,24,56,255,41,12,50,005,40,10,48,323,42,31,35,183,32,7*7B
$GAGSV,3,2,09,11,33,291,38,19,29,094,22,04,22,158,29,25,22,313,31,7*73
$GAGSV,3,3,09,33,18,058,27,7*4B
$GAGSV,3,1,09,24,56,255,44,12,50,005,42,10,48,323,44,31,35,183,34,1*7A
$GAGSV,3,2,09,11,33,291,40,19,29,094,25,04,22,158,30,25,22,313,36,1*72
$GAGSV,3,3,09,33,18,058,24,1*4E
$GBGSV,4,1,14,40,83,088,41,07,83,272,42,10,71,302,39,14,60,101,41,1*7B
$GBGSV,4,2,14,08,59,260,39,33,55,157,35,43,54,041,39,13,49,250,42,1*7D
$GBGSV,4,3,14,42,44,063,38,11,35,071,13,28,33,317,43,23,24,227,19,1*7E
$GBGSV,4,4,14,37,18,281,31,41,14,197,13,1*7A
$GBGSV,2,1,08,40,83,088,45,33,55,157,42,43,54,041,42,42,44,063,42,4*73
$GBGSV,2,2,08,28,33,317,41,23,24,227,21,37,18,281,35,41,14,197,15,4*79
$GNGGA,032655.000,2500.8202019,N,12132.4470007,E,4,64,0.45,17.680,M,15.25,M,3,3335*49
$GNRMC,032655.000,A,2500.8202019,N,12132.4470007,E,0.04,160.66,270623,,,R,V*1B
$GPHDT,6.315,T*34
$GNGGA,032655.200,2500.8202037,N,12132.4469986,E,4,64,0.45,17.687,M,15.25,M,3,3335*48
$GNRMC,032655.200,A,2500.8202037,N,12132.4469986,E,0.05,160.66,270623,,,R,V*1C
$GPHDT,6.494,T*3A
$GNGGA,032655.400,2500.8202002,N,12132.4469992,E,4,64,0.45,17.684,M,15.25,M,3,3335*4E
$GNRMC,032655.400,A,2500.8202002,N,12132.4469992,E,0.04,160.66,270623,,,R,V*18
$GPHDT,6.132,T*33
$GNGGA,032655.600,2500.8201986,N,12132.4470006,E,4,64,0.45,17.692,M,15.25,M,3,3335*41
$GNRMC,032655.600,A,2500.8201986,N,12132.4470006,E,0.04,160.66,270623,,,R,V*10
$GPHDT,5.972,T*3C
$GNGGA,032655.800,2500.8201981,N,12132.4469988,E,4,64,0.45,17.690,M,15.25,M,3,3335*4D
$GNRMC,032655.800,A,2500.8201981,N,12132.4469988,E,0.03,160.66,270623,,,R,V*19
$GPHDT,6.724,T*32
$GNGSA,A,3,195,17,196,199,19,06,194,14,09,11,04,,0.75,0.45,0.60,1*0A
$GNGSA,A,3,67,68,82,80,83,73,,,,,,,0.75,0.45,0.60,2*05
$GNGSA,A,3,24,12,10,31,11,19,04,25,33,,,,0.75,0.45,0.60,3*0B
$GNGSA,A,3,40,07,10,14,08,33,43,13,42,28,23,37,0.75,0.45,0.60,4*02
$GNGSA,A,3,41,,,,,,,,,,,,0.75,0.45,0.60,4*04
$GPGSV,4,1,14,195,67,040,37,17,64,054,39,196,61,130,38,199,60,167,27,1*55
$GPGSV,4,2,14,19,60,003,42,06,50,326,44,194,45,170,32,41,38,242,43,1*5F
$GPGSV,4,3,14,14,34,178,38,09,29,115,30,11,24,277,41,20,22,225,16,1*64
$GPGSV,4,4,14,04,20,082,18,12,07,322,16,1*64
$GPGSV,3,1,09,195,67,040,43,196,61,130,42,199,60,167,42,06,50,326,46,8*53
$GPGSV,3,2,09,194,45,170,38,14,34,178,34,09,29,115,34,11,24,277,47,8*59
$GPGSV,3,3,09,04,20,082,23,8*59
$GLGSV,2,1,08,67,49,078,32,68,39,154,32,82,37,025,37,80,32,239,42,1*7E
$GLGSV,2,2,08,83,30,330,28,73,22,300,37,66,13,032,18,79,08,191,17,1*72
$GAGSV,3,1,09,24,56,255,41,12,50,005,40,10,48,323,42,31,35,183,33,7*7A
$GAGSV,3,2,09,11,33,291,38,19,29,094,20,04,22,158,29,25,22,313,33,7*73
$GAGSV,3,3,09,33,18,058,28,7*44
$GAGSV,3,1,09,24,56,255,45,12,50,005,42,10,48,323,43,31,35,183,33,1*7B
$GAGSV,3,2,09,11,33,291,39,19,29,094,26,04,22,158,28,25,22,313,35,1*75
$GAGSV,3,3,09,33,18,058,23,1*49
$GBGSV,4,1,14,40,83,088,43,07,83,272,42,10,71,302,37,14,60,101,41,1*77
$GBGSV,4,2,14,08,59,260,39,33,55,157,37,43,54,041,41,13,49,250,42,1*70
$GBGSV,4,3,14,42,44,063,36,11,35,071,13,28,33,317,42,23,24,227,17,1*7F
$GBGSV,4,4,14,37,18,281,31,41,14,197,16,1*7F
$GBGSV,2,1,08,40,83,088,47,33,55,157,43,43,54,041,42,42,44,063,40,4*72
$GBGSV,2,2,08,28,33,317,43,23,24,227,19,37,18,281,35,41,14,197,16,4*73
$GNGGA,032656.000,2500.8202031,N,12132.4470012,E,4,64,0.45,17.709,M,15.25,M,3,3335*44
$GNRMC,032656.000,A,2500.8202031,N,12132.4470012,E,0.02,160.66,270623,,,R,V*10
$GPHDT,6.183,T*39
$GNGGA,032656.200,2500.8202079,N,12132.4469994,E,4,64,0.45,17.679,M,15.25,M,1,3335*41
$GNRMC,032656.200,A,2500.8202079,N,12132.4469994,E,0.03,160.66,270623,,,R,V*10
$GPHDT,6.366,T*30
$GNGGA,032656.400,2500.8202086,N,12132.4469976,E,4,64,0.45,17.694,M,15.25,M,1,3335*48
$GNRMC,032656.400,A,2500.8202086,N,12132.4469976,E,0.05,160.66,270623,,,R,V*1C
$GPHDT,6.362,T*34
$GNGGA,032656.600,2500.8201996,N,12132.4469997,E,4,63,0.45,17.672,M,15.25,M,0,3335*40
$GNRMC,032656.600,A,2500.8201996,N,12132.4469997,E,0.05,160.66,270623,,,R,V*1A
$GPHDT,6.628,T*3F
$GNGGA,032656.800,2500.8201952,N,12132.4470007,E,4,63,0.45,17.638,M,15.25,M,0,3335*40
$GNRMC,032656.800,A,2500.8201952,N,12132.4470007,E,0.07,160.66,270623,,,R,V*16
$GPHDT,6.416,T*30
$GNGSA,A,3,195,17,196,199,19,06,14,09,11,194,04,,0.75,0.45,0.60,1*0A
$GNGSA,A,3,67,68,82,80,83,73,,,,,,,0.75,0.45,0.60,2*05
$GNGSA,A,3,24,12,10,31,11,19,04,25,33,,,,0.75,0.45,0.60,3*0B
$GNGSA,A,3,40,07,10,14,08,33,43,13,42,28,23,37,0.75,0.45,0.60,4*02
$GNGSA,A,3,41,,,,,,,,,,,,0.75,0.45,0.60,4*04
$GPGSV,4,1,14,195,67,040,40,17,64,054,42,196,61,130,37,199,60,167,29,1*58
$GPGSV,4,2,14,19,60,003,43,06,50,326,46,194,45,170,29,41,38,242,43,1*56
$GPGSV,4,3,14,14,34,178,38,09,29,115,34,11,24,277,41,20,22,225,17,1*61
$GPGSV,4,4,14,04,20,082,19,12,07,322,17,1*64
$GPGSV,3,1,09,195,67,040,45,196,61,130,42,199,60,167,39,06,50,326,47,8*58
$GPGSV,3,2,09,194,45,170,39,14,34,178,31,09,29,115,36,11,24,277,47,8*5F
$GPGSV,3,3,09,04,20,082,19,8*50
$GLGSV,2,1,08,67,49,078,34,68,39,154,33,82,37,025,38,80,32,239,42,1*76
$GLGSV,2,2,08,83,30,330,25,73,22,300,40,66,13,032,17,79,08,191,17,1*70
$GAGSV,3,1,09,24,56,255,40,12,50,005,40,10,48,323,43,31,35,183,32,7*7B
$GAGSV,3,2,09,11,33,291,38,19,29,094,24,04,22,158,30,25,22,313,30,7*7C
$GAGSV,3,3,09,33,18,058,30,7*4D
$GAGSV,3,1,09,24,56,255,44,12,50,005,42,10,48,323,44,31,35,183,35,1*7B
$GAGSV,3,2,09,11,33,291,40,19,29,094,30,04,22,158,29,25,22,313,36,1*7E
$GAGSV,3,3,09,33,18,058,23,1*49
$GBGSV,4,1,14,40,83,088,43,07,83,272,41,10,71,302,38,14,60,101,41,1*7B
$GBGSV,4,2,14,08,59,260,39,33,55,157,37,43,54,041,41,13,49,250,42,1*70
$GBGSV,4,3,14,42,44,063,38,11,35,071,13,28,33,317,42,23,24,227,17,1*71
$GBGSV,4,4,14,37,18,281,33,41,14,197,17,1*7C
$GBGSV,2,1,08,40,83,088,47,33,55,157,40,43,54,041,41,42,44,063,39,4*7C
$GBGSV,2,2,08,28,33,317,42,23,24,227,20,37,18,281,36,41,14,197,12,4*7F
$GNGGA,032657.000,2500.8201959,N,12132.4470001,E,4,62,0.45,17.642,M,15.25,M,1,3335*49
$GNRMC,032657.000,A,2500.8201959,N,12132.4470001,E,0.06,160.66,270623,,,R,V*13
$GPHDT,6.564,T*34
$GNGGA,032657.200,2500.8201965,N,12132.4470054,E,4,62,0.45,17.643,M,15.25,M,1,3335*45
$GNRMC,032657.200,A,2500.8201965,N,12132.4470054,E,0.05,160.66,270623,,,R,V*1D
$GPHDT,6.152,T*35
$GNGGA,032657.400,2500.8202016,N,12132.4470051,E,4,63,0.45,17.646,M,15.25,M,1,3335*4C
$GNRMC,032657.400,A,2500.8202016,N,12132.4470051,E,0.05,160.66,270623,,,R,V*10
$GPHDT,6.033,T*33
$GNGGA,032657.600,2500.8201938,N,12132.4470019,E,4,63,0.45,17.652,M,15.25,M,1,3335*41
$GNRMC,032657.600,A,2500.8201938,N,12132.4470019,E,0.04,160.66,270623,,,R,V*19
$GPHDT,6.393,T*3A
$GNGGA,032657.800,2500.8202019,N,12132.4470039,E,4,63,0.45,17.655,M,15.25,M,1,3335*43
$GNRMC,032657.800,A,2500.8202019,N,12132.4470039,E,0.05,160.66,270623,,,R,V*1D
$GPHDT,6.257,T*33
$GNGSA,A,3,195,17,196,199,19,06,194,14,09,11,04,,0.75,0.45,0.60,1*0A
$GNGSA,A,3,67,68,82,80,83,73,,,,,,,0.75,0.45,0.60,2*05
$GNGSA,A,3,24,12,10,31,11,19,25,04,33,,,,0.75,0.45,0.60,3*0B
$GNGSA,A,3,40,07,10,14,08,33,43,13,42,28,37,41,0.75,0.45,0.60,4*06
$GNGSA,A,3,23,,,,,,,,,,,,0.75,0.45,0.60,4*00
$GPGSV,4,1,14,195,67,040,41,17,64,054,43,196,61,130,34,199,60,167,31,1*52
$GPGSV,4,2,14,19,60,003,43,06,50,326,45,194,44,170,42,41,38,242,43,1*59
$GPGSV,4,3,14,14,34,178,44,09,29,115,36,11,24,277,39,20,22,225,18,1*68
$GPGSV,4,4,14,04,20,082,22,12,07,322,19,1*62
$GPGSV,3,1,09,195,67,040,46,196,61,130,42,199,60,167,42,06,50,326,47,8*57
$GPGSV,3,2,09,194,44,170,43,14,34,178,43,09,29,115,34,11,24,277,46,8*55
$GPGSV,3,3,09,04,20,082,17,8*5E
$GLGSV,3,1,09,67,49,078,32,68,39,154,35,82,37,025,38,80,32,239,41,1*75
$GLGSV,3,2,09,83,30,330,29,73,22,300,39,66,13,032,19,79,08,191,17,1*7C
$GLGSV,3,3,09,69,01,187,,1*41
$GAGSV,3,1,09,24,56,255,40,12,50,005,40,10,48,323,43,31,35,183,38,7*71
$GAGSV,3,2,09,11,33,291,37,19,29,094,24,25,22,313,30,04,22,158,35,7*76
$GAGSV,3,3,09,33,18,058,32,7*4F
$GAGSV,3,1,09,24,56,255,44,12,50,005,42,10,48,323,44,31,35,183,40,1*79
$GAGSV,3,2,09,11,33,291,39,19,29,094,30,04,22,158,37,25,22,313,36,1*7F
$GAGSV,3,3,09,33,18,058,24,1*4E
$GBGSV,4,1,15,40,83,088,40,07,83,272,38,10,71,302,38,14,60,101,41,1*77
$GBGSV,4,2,15,08,59,260,40,33,55,157,39,43,54,041,42,13,49,250,41,1*71
$GBGSV,4,3,15,42,44,063,35,11,35,071,13,28,33,317,42,23,24,227,16,1*7C
$GBGSV,4,4,15,37,18,281,33,41,14,197,12,06,01,190,,1*47
$GBGSV,2,1,07,40,83,088,46,33,55,157,39,43,54,041,41,42,44,063,40,4*72
$GBGSV,2,2,07,28,33,317,41,23,24,227,21,37,18,281,35,4*4D
$GNGGA,032658.000,2500.8202026,N,12132.4469997,E,4,62,0.45,17.676,M,15.25,M,2,3335*4E
$GNRMC,032658.000,A,2500.8202026,N,12132.4469997,E,0.03,160.66,270623,,,R,V*15
$GPHDT,6.817,T*3D
$GNGGA,032658.200,2500.8202025,N,12132.4470025,E,4,62,0.45,17.672,M,15.25,M,2,3335*43
$GNRMC,032658.200,A,2500.8202025,N,12132.4470025,E,0.02,160.66,270623,,,R,V*1D
$GPHDT,6.092,T*38
$GNGGA,032658.400,2500.8201999,N,12132.4470022,E,4,64,0.45,17.666,M,15.25,M,2,3335*4C
$GNRMC,032658.400,A,2500.8201999,N,12132.4470022,E,0.01,160.66,270623,,,R,V*12
$GPHDT,6.391,T*38
$GNGGA,032658.600,2500.8202001,N,12132.4470035,E,4,62,0.45,17.670,M,15.25,M,2,3335*42
$GNRMC,032658.600,A,2500.8202001,N,12132.4470035,E,0.01,160.66,270623,,,R,V*1D
$GPHDT,6.297,T*3F
$GNGGA,032658.800,2500.8202013,N,12132.4470038,E,4,64,0.45,17.673,M,15.25,M,2,3335*47
$GNRMC,032658.800,A,2500.8202013,N,12132.4470038,E,0.01,160.66,270623,,,R,V*1D
$GPHDT,6.256,T*32
$GNGSA,A,3,195,17,196,199,19,06,194,14,09,11,04,,0.75,0.45,0.60,1*0A
$GNGSA,A,3,67,68,82,80,83,73,,,,,,,0.75,0.45,0.60,2*05
$GNGSA,A,3,24,12,10,31,11,19,04,25,33,,,,0.75,0.45,0.60,3*0B
$GNGSA,A,3,40,07,10,14,08,33,43,13,42,28,37,41,0.75,0.45,0.60,4*06
$GNGSA,A,3,23,,,,,,,,,,,,0.75,0.45,0.60,4*00
$GPGSV,4,1,14,195,67,040,42,17,64,054,43,196,61,130,37,199,60,167,36,1*55
$GPGSV,4,2,14,19,60,003,43,06,50,326,45,194,44,170,42,41,38,242,43,1*59
$GPGSV,4,3,14,14,34,178,45,09,29,115,31,11,24,277,38,20,22,225,22,1*66
$GPGSV,4,4,14,04,20,082,23,12,07,322,18,1*62
$GPGSV,3,1,09,195,67,040,45,196,61,130,42,199,60,167,44,06,50,326,47,8*52
$GPGSV,3,2,09,194,44,170,45,14,34,178,41,09,29,115,32,11,24,277,46,8*57
$GPGSV,3,3,09,04,20,082,20,8*5A
$GLGSV,2,1,08,67,49,078,36,68,39,154,42,82,37,025,37,80,32,239,41,1*7E
$GLGSV,2,2,08,83,30,330,29,73,22,300,39,66,13,032,19,79,08,191,17,1*7C
$GAGSV,3,1,09,24,56,255,40,12,50,005,40,10,48,323,43,31,35,183,40,7*7E
$GAGSV,3,2,09,11,33,291,37,19,29,094,24,04,22,158,38,25,22,313,29,7*73
$GAGSV,3,3,09,33,18,058,33,7*4E
$GAGSV,3,1,09,24,56,255,44,12,50,005,42,10,48,323,44,31,35,183,38,1*76
$GAGSV,3,2,09,11,33,291,39,19,29,094,29,04,22,158,39,25,22,313,36,1*79
$GAGSV,3,3,09,33,18,058,25,1*4F
$GBGSV,4,1,15,40,83,088,41,07,83,272,38,10,71,302,39,14,60,101,41,1*77
$GBGSV,4,2,15,08,59,260,40,33,55,157,44,43,54,041,41,13,49,250,41,1*78
$GBGSV,4,3,15,42,44,063,37,11,35,071,13,28,33,317,42,23,24,227,16,1*7E
$GBGSV,4,4,15,37,18,281,33,41,14,197,15,06,01,190,,1*40
$GBGSV,2,1,07,40,83,088,45,33,55,157,43,43,54,041,42,42,44,063,39,4*71
$GBGSV,2,2,07,28,33,317,41,23,24,227,20,37,18,281,36,4*4F
$GNGGA,032659.000,2500.8202017,N,12132.4470068,E,4,63,0.45,17.672,M,15.25,M,3,3335*48
$GNRMC,032659.000,A,2500.8202017,N,12132.4470068,E,0.01,160.66,270623,,,R,V*15
$GPHDT,6.074,T*30
$GNGGA,032659.200,2500.8202029,N,12132.4470063,E,4,62,0.45,17.673,M,15.25,M,3,3335*4C
$GNRMC,032659.200,A,2500.8202029,N,12132.4470063,E,0.00,160.66,270623,,,R,V*10
$GPHDT,6.238,T*3A
$GNGGA,032659.400,2500.8202010,N,12132.4470049,E,4,62,0.45,17.668,M,15.25,M,3,3335*42
$GNRMC,032659.400,A,2500.8202010,N,12132.4470049,E,0.01,160.66,270623,,,R,V*15
$GPHDT,6.308,T*38
$GNGGA,032659.600,2500.8202037,N,12132.4470080,E,4,62,0.45,17.674,M,15.25,M,3,3335*4D
$GNRMC,032659.600,A,2500.8202037,N,12132.4470080,E,0.00,160.66,270623,,,R,V*16
$GPHDT,6.057,T*31
$GNGGA,032659.800,2500.8202027,N,12132.4470039,E,4,64,0.45,17.671,M,15.25,M,3,3335*43
$GNRMC,032659.800,A,2500.8202027,N,12132.4470039,E,0.01,160.66,270623,,,R,V*1A
$GPHDT,6.303,T*33
$GNGSA,A,3,195,17,196,199,19,06,194,14,09,11,04,,0.77,0.45,0.62,1*0A
$GNGSA,A,3,67,68,82,80,83,73,,,,,,,0.77,0.45,0.62,2*05
$GNGSA,A,3,24,12,10,31,11,19,04,25,33,,,,0.77,0.45,0.62,3*0B
$GNGSA,A,3,40,07,10,14,08,33,43,13,42,28,23,37,0.77,0.45,0.62,4*02
$GPGSV,4,1,14,195,67,040,42,17,64,054,43,196,61,130,37,199,60,167,36,1*55
$GPGSV,4,2,14,19,60,003,43,06,50,326,45,194,44,170,42,41,38,242,43,1*59
$GPGSV,4,3,14,14,34,178,45,09,29,115,31,11,24,277,38,20,22,225,22,1*66
$GPGSV,4,4,14,04,20,082,25,12,07,322,18,1*64
$GPGSV,3,1,09,195,67,040,45,196,61,130,42,199,60,167,45,06,50,326,47,8*53
$GPGSV,3,2,09,194,44,170,45,14,34,178,41,09,29,115,32,11,24,277,46,8*57
$GPGSV,3,3,09,04,20,082,23,8*59
$GLGSV,2,1,08,67,49,078,38,68,39,154,42,82,37,025,37,80,32,239,41,1*70
$GLGSV,2,2,08,83,30,330,28,73,22,300,40,66,13,032,18,79,08,191,15,1*70
$GAGSV,3,1,09,24,56,255,40,12,50,005,40,10,48,323,43,31,35,183,40,7*7E
$GAGSV,3,2,09,11,33,291,37,19,29,094,23,04,22,158,39,25,22,313,30,7*7D
$GAGSV,3,3,09,33,18,058,33,7*4E
$GAGSV,3,1,09,24,56,255,44,12,50,005,42,10,48,323,44,31,35,183,39,1*77
$GAGSV,3,2,09,11,33,291,39,19,29,094,29,04,22,158,39,25,22,313,36,1*79
$GAGSV,3,3,09,33,18,058,26,1*4C
$GBGSV,4,1,16,40,83,088,41,07,83,272,38,10,71,302,39,14,60,101,41,1*74
$GBGSV,4,2,16,08,59,260,40,33,55,157,44,43,54,041,41,13,49,250,41,1*7B
$GBGSV,4,3,16,42,44,063,37,11,35,071,13,28,33,317,42,23,24,227,17,1*7C
$GBGSV,4,4,16,34,21,089,,37,18,281,32,41,14,197,16,21,02,035,,1*7C
$GBGSV,2,1,07,40,83,088,45,33,55,157,44,43,54,041,42,42,44,063,39,4*76
$GBGSV,2,2,07,28,33,317,41,23,24,227,23,37,18,281,35,4*4F
$GNGGA,032700.000,2500.8202025,N,12132.4470054,E,4,63,0.45,17.686,M,15.25,M,4,3335*47
$GNRMC,032700.000,A,2500.8202025,N,12132.4470054,E,0.01,160.66,270623,,,R,V*16
$GPHDT,6.111,T*32
$GNGGA,032700.200,2500.8202008,N,12132.4470057,E,4,63,0.45,17.662,M,15.25,M,1,3335*46
$GNRMC,032700.200,A,2500.8202008,N,12132.4470057,E,0.00,160.66,270623,,,R,V*19
$GPHDT,6.208,T*39
$GNGGA,032700.400,2500.8202018,N,12132.4470053,E,4,63,0.45,17.651,M,15.25,M,1,3335*45
$GNRMC,032700.400,A,2500.8202018,N,12132.4470053,E,0.01,160.66,270623,,,R,V*1B
$GPHDT,6.178,T*3D
