$FW : RTK35X,V1.1X0314AS,Lib20210517,1*54
$Tool : LOCOSYS , GNSS Firebird , v1.0.0.19*39
$---------------------------------------------------*2D
$GPHDT,317.377,T*33
$GNGGA,032711.800,2500.8202007,N,12132.4469959,E,4,63,0.43,17.677,M,15.25,M,1,3335*4E
$GNRMC,032711.800,A,2500.8202007,N,12132.4469959,E,0.03,160.66,270623,,,R,V*10
$GPHDT,317.090,T*39
$GNGSA,A,3,195,17,196,19,199,06,194,14,09,11,04,,0.74,0.43,0.60,1*0D
$GNGSA,A,3,67,68,82,80,83,73,,,,,,,0.74,0.43,0.60,2*02
$GNGSA,A,3,24,12,10,31,11,19,04,25,33,,,,0.74,0.43,0.60,3*0C
$GNGSA,A,3,40,07,10,14,08,33,43,13,42,11,28,37,0.74,0.43,0.60,4*04
$GNGSA,A,3,23,41,,,,,,,,,,,0.74,0.43,0.60,4*02
$GPGSV,4,1,13,195,67,040,41,17,64,054,43,196,61,130,37,19,60,003,42,1*68
$GPGSV,4,2,13,199,60,167,35,06,50,326,44,194,44,170,42,41,38,242,42,1*65
$GPGSV,4,3,13,14,34,178,44,09,29,115,26,11,24,277,38,04,20,082,13,1*6F
$GPGSV,4,4,13,12,07,322,16,1*56
$GPGSV,2,1,08,195,67,040,43,196,61,130,43,199,60,167,46,06,50,326,48,8*58
$GPGSV,2,2,08,194,44,170,45,14,34,178,46,11,24,277,44,04,20,082,30,8*5B
$GLGSV,2,1,08,67,49,077,42,68,39,154,42,82,37,025,34,80,31,239,40,1*73
$GLGSV,2,2,08,83,30,330,28,73,22,300,38,66,12,032,19,79,08,191,15,1*7F
$GAGSV,3,1,09,24,55,254,40,12,50,005,38,10,48,324,42,31,35,183,39,7*7B
$GAGSV,3,2,09,11,33,291,36,19,29,094,25,04,22,158,36,25,22,313,34,7*71
$GAGSV,3,3,09,33,18,058,31,7*4C
$GAGSV,3,1,09,24,55,254,46,12,50,005,41,10,48,324,46,31,35,183,42,1*7D
$GAGSV,3,2,09,11,33,291,39,19,29,094,26,25,22,313,35,04,22,158,37,1*7B
$GAGSV,3,3,09,33,18,058,16,1*4F
$GBGSV,4,1,14,40,83,088,40,07,83,271,39,10,71,302,38,14,60,101,38,1*7A
$GBGSV,4,2,14,08,59,260,40,33,55,157,45,43,54,041,38,13,49,250,40,1*77
$GBGSV,4,3,14,42,44,063,35,11,35,071,34,28,33,317,42,23,24,227,16,1*78
$GBGSV,4,4,14,37,18,281,35,41,14,197,16,1*7B
$GBGSV,2,1,08,40,83,088,44,33,55,157,45,43,54,041,41,42,44,063,39,4*7A
$GBGSV,2,2,08,28,33,317,36,23,24,227,18,37,18,281,35,41,14,197,22,4*77
$GNGGA,032712.000,2500.8201996,N,12132.4469975,E,4,62,0.43,17.668,M,15.25,M,2,3335*45
$GNRMC,032712.000,A,2500.8201996,N,12132.4469975,E,0.04,160.66,270623,,,R,V*10
$GPHDT,317.126,T*35
$GNGGA,032712.200,2500.8201991,N,12132.4469966,E,4,61,0.45,17.690,M,15.25,M,2,3335*40
$GNRMC,032712.200,A,2500.8201991,N,12132.4469966,E,0.04,160.66,270623,,,R,V*17
$GPHDT,316.927,T*3D
$GNGGA,032712.400,2500.8202000,N,12132.4469973,E,4,61,0.45,17.673,M,15.25,M,2,3335*4D
$GNRMC,032712.400,A,2500.8202000,N,12132.4469973,E,0.05,160.66,270623,,,R,V*16
$GPHDT,317.095,T*3C
$GNGGA,032712.600,2500.8201982,N,12132.4469970,E,4,61,0.45,17.683,M,15.25,M,2,3335*43
$GNRMC,032712.600,A,2500.8201982,N,12132.4469970,E,0.04,160.66,270623,,,R,V*16
$GPHDT,317.198,T*30
$GNGGA,032712.800,2500.8202004,N,12132.4469980,E,4,62,0.43,17.678,M,15.25,M,2,3335*47
$GNRMC,032712.800,A,2500.8202004,N,12132.4469980,E,0.03,160.66,270623,,,R,V*14
$GPHDT,317.207,T*35
$GNGSA,A,3,195,17,196,19,199,06,194,14,09,11,04,,0.76,0.45,0.61,1*08
$GNGSA,A,3,67,68,82,80,83,73,,,,,,,0.76,0.45,0.61,2*07
$GNGSA,A,3,24,12,10,31,11,19,04,25,33,,,,0.76,0.45,0.61,3*09
$GNGSA,A,3,40,07,10,14,08,33,43,13,42,11,28,37,0.76,0.45,0.61,4*01
$GNGSA,A,3,41,,,,,,,,,,,,0.76,0.45,0.61,4*06
$GPGSV,4,1,13,195,67,040,42,17,64,054,43,196,61,130,38,19,60,003,42,1*64
$GPGSV,4,2,13,199,60,167,33,06,50,326,44,194,44,170,42,41,38,242,42,1*63
$GPGSV,4,3,13,14,34,178,44,09,29,115,27,11,24,277,38,04,20,082,11,1*6C
$GPGSV,4,4,13,12,07,322,16,1*56
$GPGSV,2,1,08,195,67,040,43,196,61,130,43,199,60,167,46,06,50,326,48,8*58
$GPGSV,2,2,08,194,44,170,45,14,34,178,46,11,24,277,44,04,20,082,30,8*5B
$GLGSV,2,1,08,67,49,077,41,68,39,154,42,82,37,025,35,80,31,239,40,1*71
$GLGSV,2,2,08,83,30,330,27,73,22,300,39,66,12,032,21,79,08,191,14,1*7B
$GAGSV,3,1,09,24,55,254,40,12,50,005,38,10,48,324,41,31,35,183,39,7*78
$GAGSV,3,2,09,11,33,291,36,19,29,094,25,04,22,158,38,25,22,313,34,7*7F
$GAGSV,3,3,09,33,18,058,33,7*4E
$GAGSV,3,1,09,24,55,254,46,12,50,005,41,10,48,324,46,31,35,183,42,1*7D
$GAGSV,3,2,09,11,33,291,39,19,29,094,26,25,22,313,35,04,22,158,38,1*74
$GAGSV,3,3,09,33,18,058,16,1*4F
$GBGSV,4,1,14,40,83,088,40,07,83,271,39,10,71,301,35,14,60,101,39,1*75
$GBGSV,4,2,14,08,59,260,40,33,55,157,45,43,54,041,38,13,49,250,41,1*76
$GBGSV,4,3,14,42,44,063,35,11,35,071,34,28,33,317,42,23,24,227,17,1*79
$GBGSV,4,4,14,37,18,281,35,41,14,197,,1*7C
$GBGSV,2,1,07,40,83,088,45,33,55,157,45,43,54,041,41,42,44,063,39,4*74
$GBGSV,2,2,07,28,33,317,36,37,18,281,34,41,14,197,19,4*48
$GNGGA,032713.000,2500.8201993,N,12132.4469950,E,4,61,0.45,17.687,M,15.25,M,3,3335*43
$GNRMC,032713.000,A,2500.8201993,N,12132.4469950,E,0.02,160.66,270623,,,R,V*15
$GPHDT,317.128,T*3B
$GNGGA,032713.200,2500.8202027,N,12132.4469969,E,4,63,0.43,17.678,M,15.25,M,3,3335*4A
$GNRMC,032713.200,A,2500.8202027,N,12132.4469969,E,0.00,160.66,270623,,,R,V*1A
$GPHDT,316.813,T*3B
$GNGGA,032713.400,2500.8202023,N,12132.4469959,E,4,63,0.43,17.693,M,15.25,M,3,3335*4E
$GNRMC,032713.400,A,2500.8202023,N,12132.4469959,E,0.01,160.66,270623,,,R,V*1A
$GPHDT,317.116,T*36
$GNGGA,032713.600,2500.8201994,N,12132.4469953,E,4,63,0.43,17.679,M,15.25,M,3,3335*44
$GNRMC,032713.600,A,2500.8201994,N,12132.4469953,E,0.01,160.66,270623,,,R,V*14
$GPHDT,317.185,T*3C
$GNGGA,032713.800,2500.8201997,N,12132.4469976,E,4,62,0.45,17.672,M,15.25,M,3,3335*42
$GNRMC,032713.800,A,2500.8201997,N,12132.4469976,E,0.01,160.66,270623,,,R,V*1E
$GPHDT,317.036,T*35
$GNGSA,A,3,195,17,196,19,199,06,194,14,09,11,04,,0.74,0.43,0.60,1*0D
$GNGSA,A,3,67,68,82,80,83,73,,,,,,,0.74,0.43,0.60,2*02
$GNGSA,A,3,24,12,10,31,11,19,04,25,33,,,,0.74,0.43,0.60,3*0C
$GNGSA,A,3,40,07,10,14,08,33,43,13,42,11,28,23,0.74,0.43,0.60,4*01
$GNGSA,A,3,37,41,,,,,,,,,,,0.74,0.43,0.60,4*07
$GPGSV,4,1,13,195,67,040,42,17,64,054,43,196,61,130,40,19,60,003,42,1*6B
$GPGSV,4,2,13,199,60,167,35,06,50,326,44,194,44,170,41,41,38,242,42,1*66
$GPGSV,4,3,13,14,34,178,44,09,29,115,29,11,24,277,39,04,20,082,14,1*66
$GPGSV,4,4,13,12,07,322,16,1*56
$GPGSV,3,1,09,195,67,040,44,196,61,130,45,199,60,167,46,06,50,326,49,8*58
$GPGSV,3,2,09,194,44,170,45,14,34,178,46,09,29,115,30,11,24,277,44,8*50
$GPGSV,3,3,09,04,20,082,31,8*5A
$GLGSV,2,1,08,67,49,077,37,68,39,154,43,82,37,025,35,80,31,239,40,1*71
$GLGSV,2,2,08,83,30,330,27,73,22,300,39,66,12,032,21,79,08,191,15,1*7A
$GAGSV,3,1,09,24,55,254,40,12,50,005,38,10,48,324,41,31,35,183,39,7*78
$GAGSV,3,2,09,11,33,291,36,19,29,094,23,04,22,158,36,25,22,313,34,7*77
$GAGSV,3,3,09,33,18,058,29,7*45
$GAGSV,3,1,09,24,55,254,46,12,50,005,41,10,48,324,47,31,35,183,43,1*7D
$GAGSV,3,2,09,11,33,291,39,19,29,094,24,04,22,158,40,25,22,313,35,1*79
$GAGSV,3,3,09,33,18,058,16,1*4F
$GBGSV,4,1,14,40,83,088,41,07,83,271,40,10,71,301,35,14,60,101,40,1*74
$GBGSV,4,2,14,08,59,260,40,33,55,157,45,43,54,041,38,13,49,250,41,1*76
$GBGSV,4,3,14,42,44,063,36,11,35,071,30,28,33,317,43,23,24,227,17,1*7F
$GBGSV,4,4,14,37,18,281,35,41,14,197,,1*7C
$GBGSV,2,1,07,40,83,088,45,33,55,157,45,43,54,041,41,42,44,063,38,4*75
$GBGSV,2,2,07,28,33,317,36,37,18,281,33,41,14,197,20,4*45
$GNGGA,032714.000,2500.8202003,N,12132.4469962,E,4,63,0.43,17.685,M,15.25,M,4,3335*47
$GNRMC,032714.000,A,2500.8202003,N,12132.4469962,E,0.02,160.66,270623,,,R,V*10
$GPHDT,316.969,T*37
$GNGGA,032714.200,2500.8202016,N,12132.4469952,E,4,62,0.45,17.690,M,15.25,M,4,3335*41
$GNRMC,032714.200,A,2500.8202016,N,12132.4469952,E,0.02,160.66,270623,,,R,V*15
$GPHDT,317.179,T*3F
$GNGGA,032714.400,2500.8202004,N,12132.4469968,E,4,62,0.45,17.692,M,15.25,M,4,3335*4F
$GNRMC,032714.400,A,2500.8202004,N,12132.4469968,E,0.01,160.66,270623,,,R,V*1A
$GPHDT,316.832,T*38
$GNGGA,032714.600,2500.8201987,N,12132.4470015,E,4,62,0.45,17.683,M,15.25,M,4,3335*47
$GNRMC,032714.600,A,2500.8201987,N,12132.4470015,E,0.01,160.66,270623,,,R,V*12
$GPHDT,316.889,T*38
$GNGGA,032714.800,2500.8201974,N,12132.4470009,E,4,62,0.45,17.688,M,15.25,M,4,3335*43
$GNRMC,032714.800,A,2500.8201974,N,12132.4470009,E,0.03,160.66,270623,,,R,V*1F
$GPHDT,317.104,T*35
$GNGSA,A,3,195,17,196,19,199,06,194,14,09,11,04,,0.74,0.43,0.60,1*0D
$GNGSA,A,3,67,68,82,80,83,73,,,,,,,0.74,0.43,0.60,2*02
$GNGSA,A,3,24,12,10,31,11,19,04,25,33,,,,0.74,0.43,0.60,3*0C
$GNGSA,A,3,40,07,10,14,08,33,43,13,42,11,28,23,0.74,0.43,0.60,4*01
$GNGSA,A,3,37,41,,,,,,,,,,,0.74,0.43,0.60,4*07
$GPGSV,4,1,13,195,67,040,42,17,64,054,43,196,61,130,40,19,60,003,42,1*6B
$GPGSV,4,2,13,199,60,167,35,06,50,326,44,194,44,170,41,41,38,242,42,1*66
$GPGSV,4,3,13,14,34,178,44,09,29,115,29,11,24,277,40,04,20,082,,1*6D
$GPGSV,4,4,13,12,07,322,15,1*55
$GPGSV,3,1,09,195,67,040,44,196,61,130,45,199,60,167,46,06,50,326,49,8*58
$GPGSV,3,2,09,194,44,170,45,14,34,178,46,09,29,115,29,11,24,277,44,8*58
$GPGSV,3,3,09,04,20,082,31,8*5A
$GLGSV,2,1,08,67,49,077,37,68,39,154,43,82,37,025,35,80,31,239,41,1*70
$GLGSV,2,2,08,83,30,330,27,73,22,300,39,66,12,032,21,79,08,191,14,1*7B
$GAGSV,3,1,09,24,55,254,40,12,50,005,38,10,48,324,41,31,35,183,39,7*78
$GAGSV,3,2,09,11,33,291,37,19,29,094,23,04,22,158,36,25,22,313,34,7*76
$GAGSV,3,3,09,33,18,058,33,7*4E
$GAGSV,3,1,09,24,55,254,45,12,50,005,40,10,48,324,47,31,35,183,43,1*7F
$GAGSV,3,2,09,11,33,291,39,19,29,094,24,04,22,158,40,25,22,313,34,1*78
$GAGSV,3,3,09,33,18,058,16,1*4F
$GBGSV,4,1,14,40,83,088,41,07,83,271,40,10,71,301,35,14,60,101,40,1*74
$GBGSV,4,2,14,08,59,260,40,33,55,157,45,43,54,041,40,13,49,250,41,1*79
$GBGSV,4,3,14,42,44,063,37,11,35,071,31,28,33,317,43,23,23,227,17,1*78
$GBGSV,4,4,14,37,18,281,33,41,14,197,,1*7A
$GBGSV,2,1,07,40,83,088,45,33,55,157,44,43,54,041,41,42,44,063,37,4*7B
$GBGSV,2,2,07,28,33,317,36,37,18,281,33,41,14,197,20,4*45
$GNGGA,032715.000,2500.8201977,N,12132.4469996,E,4,63,0.43,17.689,M,15.25,M,5,3335*49
$GNRMC,032715.000,A,2500.8201977,N,12132.4469996,E,0.03,160.66,270623,,,R,V*12
$GPHDT,317.076,T*31
$GNGGA,032715.200,2500.8201981,N,12132.4469978,E,4,63,0.43,17.678,M,15.25,M,5,3335*4C
$GNRMC,032715.200,A,2500.8201981,N,12132.4469978,E,0.05,160.66,270623,,,R,V*1F
$GPHDT,317.127,T*34
$GNGGA,032715.400,2500.8201991,N,12132.4470032,E,4,63,0.43,17.673,M,15.25,M,5,3335*4F
$GNRMC,032715.400,A,2500.8201991,N,12132.4470032,E,0.06,160.66,270623,,,R,V*14
$GPHDT,316.650,T*32
$GNGGA,032715.600,2500.8201990,N,12132.4470016,E,4,63,0.43,17.688,M,15.25,M,5,3335*4E
$GNRMC,032715.600,A,2500.8201990,N,12132.4470016,E,0.06,160.66,270623,,,R,V*11
$GPHDT,316.702,T*34
$GNGGA,032715.800,2500.8201988,N,12132.4470008,E,4,62,0.45,17.682,M,15.25,M,5,3335*4B
$GNRMC,032715.800,A,2500.8201988,N,12132.4470008,E,0.07,160.66,270623,,,R,V*18
$GPHDT,316.739,T*3C
$GNGSA,A,3,195,17,196,19,199,06,194,14,09,11,04,,0.74,0.43,0.60,1*0D
$GNGSA,A,3,67,68,82,80,83,73,,,,,,,0.74,0.43,0.60,2*02
$GNGSA,A,3,24,12,10,31,11,19,04,25,33,,,,0.74,0.43,0.60,3*0C
$GNGSA,A,3,40,07,10,14,08,33,43,13,42,11,28,23,0.74,0.43,0.60,4*01
$GNGSA,A,3,37,41,,,,,,,,,,,0.74,0.43,0.60,4*07
$GPGSV,4,1,13,195,67,040,42,17,64,054,43,196,61,130,40,19,60,003,42,1*6B
$GPGSV,4,2,13,199,60,167,36,06,50,326,43,194,44,170,41,41,38,242,42,1*62
$GPGSV,4,3,13,14,34,178,43,09,29,115,30,11,24,277,41,04,20,082,,1*63
$GPGSV,4,4,13,12,07,322,17,1*57
$GPGSV,3,1,09,195,67,040,43,196,61,130,45,199,60,167,45,06,50,326,49,8*5C
$GPGSV,3,2,09,194,44,170,45,14,34,178,46,09,29,115,28,11,24,277,44,8*59
$GPGSV,3,3,09,04,20,082,30,8*5B
$GLGSV,2,1,08,67,49,077,37,68,39,154,43,82,37,025,35,80,31,239,41,1*70
$GLGSV,2,2,08,83,30,330,27,73,22,300,39,66,12,032,21,79,08,191,15,1*7A
$GAGSV,3,1,09,24,55,254,40,12,50,005,38,10,48,324,40,31,35,183,39,7*79
$GAGSV,3,2,09,11,33,291,37,19,29,094,24,04,22,158,36,25,22,313,34,7*71
$GAGSV,3,3,09,33,18,058,34,7*49
$GAGSV,3,1,09,24,55,254,44,12,50,005,40,10,48,324,47,31,35,183,43,1*7E
$GAGSV,3,2,09,11,33,291,39,19,29,094,24,04,22,158,40,25,22,313,33,1*7F
$GAGSV,3,3,09,33,18,058,13,1*4A
$GBGSV,4,1,14,40,83,088,41,07,83,271,40,10,71,301,35,14,60,101,39,1*7A
$GBGSV,4,2,14,08,59,260,41,33,55,157,45,43,54,041,40,13,49,250,41,1*78
$GBGSV,4,3,14,42,44,063,36,11,35,071,30,28,33,318,44,23,23,227,18,1*7F
$GBGSV,4,4,14,37,18,281,32,41,14,197,,1*7B
$GBGSV,2,1,07,40,83,088,45,33,55,157,44,43,54,041,41,42,44,063,35,4*79
$GBGSV,2,2,07,28,33,318,36,37,18,281,33,41,14,197,20,4*4A
$GNGGA,032716.000,2500.8201968,N,12132.4470021,E,4,63,0.43,17.687,M,15.25,M,6,3335*44
$GNRMC,032716.000,A,2500.8201968,N,12132.4470021,E,0.06,160.66,270623,,,R,V*17
$GPHDT,316.710,T*37
$GNGGA,032716.200,2500.8201981,N,12132.4470042,E,4,62,0.45,17.663,M,15.25,M,5,3335*4A
$GNRMC,032716.200,A,2500.8201981,N,12132.4470042,E,0.06,160.66,270623,,,R,V*17
$GPHDT,316.569,T*3B
$GNGGA,032716.400,2500.8201970,N,12132.4470021,E,4,63,0.43,17.673,M,15.25,M,5,3335*41
$GNRMC,032716.400,A,2500.8201970,N,12132.4470021,E,0.05,160.66,270623,,,R,V*19
$GPHDT,316.723,T*37
$GNGGA,032716.600,2500.8201946,N,12132.4469989,E,4,63,0.43,17.656,M,15.25,M,1,3335*46
$GNRMC,032716.600,A,2500.8201946,N,12132.4469989,E,0.05,160.66,270623,,,R,V*1D
$GPHDT,316.821,T*3A
$GNGGA,032716.800,2500.8201961,N,12132.4469994,E,4,63,0.43,17.656,M,15.25,M,1,3335*41
$GNRMC,032716.800,A,2500.8201961,N,12132.4469994,E,0.05,160.66,270623,,,R,V*1A
$GPHDT,316.770,T*31
$GNGSA,A,3,195,17,196,19,199,06,194,14,09,11,04,,0.74,0.43,0.60,1*0D
$GNGSA,A,3,67,68,82,80,83,73,,,,,,,0.74,0.43,0.60,2*02
$GNGSA,A,3,24,12,10,31,11,19,04,25,33,,,,0.74,0.43,0.60,3*0C
$GNGSA,A,3,40,07,10,14,08,33,43,13,42,11,28,23,0.74,0.43,0.60,4*01
$GNGSA,A,3,37,41,,,,,,,,,,,0.74,0.43,0.60,4*07
$GPGSV,3,1,12,195,67,040,42,17,64,054,42,196,61,130,40,19,60,003,42,1*6C
$GPGSV,3,2,12,199,60,167,36,06,50,326,43,194,44,170,41,41,38,242,42,1*64
$GPGSV,3,3,12,14,34,178,43,09,29,115,30,11,24,277,41,12,07,322,16,1*69
$GPGSV,3,1,09,195,67,040,43,196,61,130,45,199,60,167,45,06,50,326,49,8*5C
$GPGSV,3,2,09,194,44,170,45,14,34,178,46,09,29,115,28,11,24,277,44,8*59
$GPGSV,3,3,09,04,20,082,31,8*5A
$GLGSV,2,1,08,67,49,077,36,68,39,154,43,82,37,025,35,80,31,239,41,1*71
$GLGSV,2,2,08,83,30,330,27,73,22,300,39,66,12,032,22,79,08,191,13,1*7F
$GAGSV,3,1,09,24,55,254,40,12,50,005,38,10,48,324,40,31,35,183,39,7*79
$GAGSV,3,2,09,11,33,291,37,19,29,094,24,04,22,158,36,25,22,313,34,7*71
$GAGSV,3,3,09,33,18,058,34,7*49
$GAGSV,3,1,09,24,55,254,44,12,50,005,40,10,48,324,47,31,35,183,43,1*7E
$GAGSV,3,2,09,11,33,291,39,19,29,094,24,04,22,158,40,25,22,313,33,1*7F
$GAGSV,3,3,09,33,18,058,13,1*4A
$GBGSV,4,1,14,40,83,088,41,07,83,271,40,10,71,301,35,14,60,101,39,1*7A
$GBGSV,4,2,14,08,59,260,41,33,55,157,45,43,54,041,40,13,49,250,42,1*7B
$GBGSV,4,3,14,42,44,063,36,11,35,071,30,28,33,318,44,23,23,227,18,1*7F
$GBGSV,4,4,14,37,18,281,32,41,14,197,,1*7B
$GBGSV,2,1,07,40,83,088,45,33,55,157,44,43,54,041,41,42,44,063,35,4*79
$GBGSV,2,2,07,28,33,318,37,37,18,281,33,41,14,197,20,4*4B
$GNGGA,032717.000,2500.8202007,N,12132.4469996,E,4,63,0.43,17.651,M,15.25,M,1,3335*47
$GNRMC,032717.000,A,2500.8202007,N,12132.4469996,E,0.04,160.66,270623,,,R,V*1A
$GPHDT,316.734,T*31
$GNGGA,032717.200,2500.8201993,N,12132.4470007,E,4,63,0.43,17.666,M,15.25,M,1,3335*4F
$GNRMC,032717.200,A,2500.8201993,N,12132.4470007,E,0.04,160.66,270623,,,R,V*16
$GPHDT,316.653,T*31
$GNGGA,032717.400,2500.8201981,N,12132.4470026,E,4,63,0.43,17.656,M,15.25,M,1,3335*4A
$GNRMC,032717.400,A,2500.8201981,N,12132.4470026,E,0.05,160.66,270623,,,R,V*11
$GPHDT,316.950,T*3D
$GNGGA,032717.600,2500.8202014,N,12132.4469972,E,4,63,0.43,17.674,M,15.25,M,1,3335*4E
$GNRMC,032717.600,A,2500.8202014,N,12132.4469972,E,0.03,160.66,270623,,,R,V*13
$GPHDT,316.811,T*39
$GNGGA,032717.800,2500.8202011,N,12132.4469958,E,4,63,0.43,17.664,M,15.25,M,0,3335*4D
$GNRMC,032717.800,A,2500.8202011,N,12132.4469958,E,0.04,160.66,270623,,,R,V*17
$GPHDT,316.696,T*38
$GNGSA,A,3,195,17,196,19,199,06,194,14,09,11,04,,0.74,0.43,0.60,1*0D
$GNGSA,A,3,67,68,82,80,83,73,,,,,,,0.74,0.43,0.60,2*02
$GNGSA,A,3,24,12,10,31,11,19,04,25,33,,,,0.74,0.43,0.60,3*0C
$GNGSA,A,3,40,07,10,14,08,33,43,13,42,11,28,23,0.74,0.43,0.60,4*01
$GNGSA,A,3,37,41,,,,,,,,,,,0.74,0.43,0.60,4*07
$GPGSV,4,1,13,195,67,040,42,17,64,054,42,196,61,130,40,19,60,003,42,1*6A
$GPGSV,4,2,13,199,60,167,36,06,50,326,43,194,44,170,41,41,38,242,42,1*62
$GPGSV,4,3,13,14,34,178,43,09,29,115,30,11,24,277,40,04,20,082,,1*62
$GPGSV,4,4,13,12,07,322,16,1*56
$GPGSV,3,1,09,195,67,040,43,196,61,130,45,199,60,167,45,06,50,326,49,8*5C
$GPGSV,3,2,09,194,44,170,45,14,34,178,46,09,29,115,29,11,24,277,44,8*58
$GPGSV,3,3,09,04,20,082,32,8*59
$GLGSV,2,1,08,67,49,077,36,68,39,154,44,82,37,025,35,80,31,239,41,1*76
$GLGSV,2,2,08,83,30,330,26,73,22,300,39,66,12,032,22,79,08,191,14,1*79
$GAGSV,3,1,09,24,55,254,40,12,50,005,38,10,48,324,40,31,35,183,39,7*79
$GAGSV,3,2,09,11,33,291,37,19,29,094,24,04,22,158,36,25,22,313,34,7*71
$GAGSV,3,3,09,33,18,058,34,7*49
$GAGSV,3,1,09,24,55,254,44,12,50,005,40,10,48,324,47,31,35,183,43,1*7E
$GAGSV,3,2,09,11,33,291,39,19,29,094,24,04,22,158,40,25,22,313,33,1*7F
$GAGSV,3,3,09,33,18,058,12,1*4B
$GBGSV,4,1,14,40,83,088,41,07,83,271,40,10,71,301,35,14,60,101,39,1*7A
$GBGSV,4,2,14,08,59,260,41,33,55,157,45,43,54,041,40,13,49,250,42,1*7B
$GBGSV,4,3,14,42,44,063,34,11,35,071,30,28,33,318,44,23,23,227,19,1*7C
$GBGSV,4,4,14,37,18,281,33,41,14,197,,1*7A
$GBGSV,2,1,07,40,83,088,45,33,55,157,44,43,54,041,41,42,44,063,35,4*79
$GBGSV,2,2,07,28,33,318,37,37,18,281,34,41,14,197,20,4*4C
$GNGGA,032718.000,2500.8201972,N,12132.4469974,E,4,63,0.43,17.668,M,15.25,M,1,3335*46
$GNRMC,032718.000,A,2500.8201972,N,12132.4469974,E,0.03,160.66,270623,,,R,V*16
$GPHDT,317.127,T*34
$GNGGA,032718.200,2500.8202007,N,12132.4469977,E,4,60,0.46,17.670,M,15.25,M,1,3335*40
$GNRMC,032718.200,A,2500.8202007,N,12132.4469977,E,0.02,160.66,270623,,,R,V*1E
$GPHDT,316.930,T*3B
$GNGGA,032718.400,2500.8201989,N,12132.4469957,E,4,61,0.45,17.678,M,15.25,M,1,3335*42
$GNRMC,032718.400,A,2500.8201989,N,12132.4469957,E,0.03,160.66,270623,,,R,V*17
$GPHDT,316.891,T*31
$GNGGA,032718.600,2500.8201989,N,12132.4469993,E,4,61,0.45,17.662,M,15.25,M,1,3335*43
$GNRMC,032718.600,A,2500.8201989,N,12132.4469993,E,0.03,160.66,270623,,,R,V*1D
$GPHDT,317.020,T*32
$GNGGA,032718.800,2500.8201995,N,12132.4469967,E,4,62,0.43,17.665,M,15.25,M,1,3335*49
$GNRMC,032718.800,A,2500.8201995,N,12132.4469967,E,0.03,160.66,270623,,,R,V*15
$GPHDT,317.003,T*33
$GNGSA,A,3,195,17,196,199,19,06,194,14,09,11,04,,0.76,0.45,0.61,1*08
$GNGSA,A,3,67,68,82,80,83,73,,,,,,,0.76,0.45,0.61,2*07
$GNGSA,A,3,24,12,10,31,11,19,04,25,33,,,,0.76,0.45,0.61,3*09
$GNGSA,A,3,40,07,10,14,08,33,43,13,42,11,28,37,0.76,0.45,0.61,4*01
$GNGSA,A,3,41,,,,,,,,,,,,0.76,0.45,0.61,4*06
$GPGSV,4,1,14,195,67,040,42,17,64,054,42,196,61,130,40,199,60,167,36,1*54
$GPGSV,4,2,14,19,60,003,42,06,50,326,43,194,44,170,41,41,38,242,43,1*5D
$GPGSV,4,3,14,14,34,178,43,09,29,115,29,11,24,277,40,20,22,225,,1*66
$GPGSV,4,4,14,04,20,082,,12,07,322,15,1*6E
$GPGSV,3,1,09,195,67,040,43,196,61,130,45,199,60,167,45,06,50,326,49,8*5C
$GPGSV,3,2,09,194,44,170,45,14,34,178,46,09,29,115,28,11,24,277,44,8*59
$GPGSV,3,3,09,04,20,082,32,8*59
$GLGSV,2,1,08,67,49,077,35,68,39,154,44,82,37,025,35,80,31,239,41,1*75
$GLGSV,2,2,08,83,30,330,26,73,22,300,39,66,12,032,23,79,08,191,14,1*78
$GAGSV,3,1,09,24,55,254,40,12,50,005,38,10,48,324,40,31,35,183,39,7*79
$GAGSV,3,2,09,11,33,291,37,19,29,094,24,04,22,158,36,25,22,313,34,7*71
$GAGSV,3,3,09,33,18,058,34,7*49
$GAGSV,2,1,08,24,55,254,44,12,50,005,40,10,48,324,47,31,35,183,43,1*7E
$GAGSV,2,2,08,11,33,291,39,19,29,094,24,04,22,158,40,25,22,313,34,1*78
$GBGSV,4,1,14,40,83,089,41,07,83,271,40,10,71,301,35,14,60,101,39,1*7B
$GBGSV,4,2,14,08,59,260,41,33,55,157,45,43,54,042,40,13,49,250,42,1*78
$GBGSV,4,3,14,42,44,062,34,11,35,071,29,28,33,318,44,23,23,227,18,1*74
$GBGSV,4,4,14,37,18,281,32,41,15,197,,1*7A
$GBGSV,2,1,07,40,83,089,45,33,55,157,44,43,54,042,41,42,44,062,35,4*7A
$GBGSV,2,2,07,28,33,318,36,37,18,281,35,41,15,197,20,4*4D
$GNGGA,032719.000,2500.8201989,N,12132.4469988,E,4,61,0.45,17.672,M,15.25,M,2,3335*4C
$GNRMC,032719.000,A,2500.8201989,N,12132.4469988,E,0.02,160.66,270623,,,R,V*11
$GPHDT,316.668,T*39
$GNGGA,032719.200,2500.8201988,N,12132.4470003,E,4,63,0.43,17.660,M,15.25,M,2,3335*4A
$GNRMC,032719.200,A,2500.8201988,N,12132.4470003,E,0.02,160.66,270623,,,R,V*10
$GPHDT,316.936,T*3D
$GNGGA,032719.400,2500.8201982,N,12132.4470018,E,4,63,0.43,17.651,M,15.25,M,2,3335*4E
$GNRMC,032719.400,A,2500.8201982,N,12132.4470018,E,0.01,160.66,270623,,,R,V*15
$GPHDT,317.211,T*32
$GNGGA,032719.600,2500.8202015,N,12132.4469994,E,4,62,0.45,17.662,M,15.25,M,2,3335*4A
$GNRMC,032719.600,A,2500.8202015,N,12132.4469994,E,0.01,160.66,270623,,,R,V*16
$GPHDT,316.762,T*32
$GNGGA,032719.800,2500.8202015,N,12132.4470023,E,4,62,0.45,17.653,M,15.25,M,2,3335*4B
$GNRMC,032719.800,A,2500.8202015,N,12132.4470023,E,0.00,160.66,270623,,,R,V*14
$GPHDT,316.710,T*37
$GNGSA,A,3,195,17,196,199,19,06,194,14,09,11,04,,0.74,0.43,0.60,1*0D
$GNGSA,A,3,67,68,82,80,83,73,,,,,,,0.74,0.43,0.60,2*02
$GNGSA,A,3,24,12,10,31,11,19,04,25,33,,,,0.74,0.43,0.60,3*0C
$GNGSA,A,3,40,07,10,14,08,33,43,13,42,11,28,37,0.74,0.43,0.60,4*04
$GNGSA,A,3,23,41,,,,,,,,,,,0.74,0.43,0.60,4*02
$GPGSV,4,1,14,195,67,040,42,17,64,054,42,196,61,130,39,199,60,167,35,1*59
$GPGSV,4,2,14,19,60,003,42,06,50,326,43,194,44,170,41,41,38,242,43,1*5D
$GPGSV,4,3,14,14,34,178,43,09,29,115,29,11,24,277,40,20,22,225,,1*66
$GPGSV,4,4,14,04,20,082,20,12,07,322,14,1*6D
$GPGSV,3,1,09,195,67,040,43,196,61,130,45,199,60,167,45,06,50,326,49,8*5C
$GPGSV,3,2,09,194,44,170,45,14,34,178,45,09,29,115,28,11,24,277,44,8*5A
$GPGSV,3,3,09,04,20,082,31,8*5A
$GLGSV,2,1,08,67,49,077,35,68,39,154,44,82,37,025,33,80,31,239,42,1*70
$GLGSV,2,2,08,83,30,330,25,73,22,300,39,66,12,032,23,79,08,191,12,1*7D
$GAGSV,3,1,09,24,55,254,40,12,50,005,38,10,48,324,40,31,35,183,39,7*79
$GAGSV,3,2,09,11,33,291,37,19,29,094,25,04,22,158,36,25,22,313,34,7*70
$GAGSV,3,3,09,33,18,058,34,7*49
$GAGSV,2,1,08,24,55,254,44,12,50,005,40,10,48,324,47,31,35,183,43,1*7E
$GAGSV,2,2,08,11,33,291,38,19,29,094,24,04,22,158,40,25,22,313,34,1*79
$GBGSV,4,1,14,40,83,089,41,07,83,271,40,10,71,301,35,14,60,101,39,1*7B
$GBGSV,4,2,14,08,59,260,41,33,55,157,45,43,54,042,40,13,49,250,42,1*78
$GBGSV,4,3,14,42,44,062,35,11,35,071,28,28,33,318,44,23,23,227,18,1*74
$GBGSV,4,4,14,37,18,281,32,41,15,197,,1*7A
$GBGSV,2,1,08,40,83,089,45,33,55,157,44,43,54,042,41,42,44,062,35,4*75
$GBGSV,2,2,08,28,33,318,36,23,23,227,18,37,18,281,35,41,15,197,18,4*77
$GNGGA,032720.000,2500.8202003,N,12132.4469977,E,4,62,0.43,17.670,M,15.25,M,3,3335*48
$GNRMC,032720.000,A,2500.8202003,N,12132.4469977,E,0.00,160.66,270623,,,R,V*11
$GPHDT,316.791,T*3E
$GNGGA,032720.200,2500.8202014,N,12132.4470005,E,4,63,0.43,17.663,M,15.25,M,3,3335*4B
$GNRMC,032720.200,A,2500.8202014,N,12132.4470005,E,0.00,160.66,270623,,,R,V*11
$GPHDT,316.752,T*31
$GNGGA,032720.400,2500.8201995,N,12132.4470003,E,4,62,0.43,17.660,M,15.25,M,3,3335*4A
$GNRMC,032720.400,A,2500.8201995,N,12132.4470003,E,0.02,160.66,270623,,,R,V*10
$GPHDT,316.788,T*36
$GNGGA,032720.600,2500.8201984,N,12132.4470010,E,4,63,0.43,17.655,M,15.25,M,3,3335*4D
$GNRMC,032720.600,A,2500.8201984,N,12132.4470010,E,0.03,160.66,270623,,,R,V*11
$GPHDT,316.998,T*39
$GNGGA,032720.800,2500.8201981,N,12132.4470027,E,4,63,0.43,17.664,M,15.25,M,3,3335*40
$GNRMC,032720.800,A,2500.8201981,N,12132.4470027,E,0.04,160.66,270623,,,R,V*19
$GPHDT,316.813,T*3B
$GNGSA,A,3,195,17,196,199,19,06,194,14,09,11,04,,0.74,0.43,0.60,1*0D
$GNGSA,A,3,67,68,82,80,83,73,,,,,,,0.74,0.43,0.60,2*02
$GNGSA,A,3,24,12,10,31,11,19,25,04,33,,,,0.74,0.43,0.60,3*0C
$GNGSA,A,3,40,07,10,14,08,33,43,13,42,11,28,37,0.74,0.43,0.60,4*04
$GNGSA,A,3,23,41,,,,,,,,,,,0.74,0.43,0.60,4*02
$GPGSV,4,1,14,195,67,040,42,17,64,054,42,196,61,130,39,199,60,167,35,1*59
$GPGSV,4,2,14,19,60,003,42,06,50,326,41,194,44,170,41,41,38,242,43,1*5F
$GPGSV,4,3,14,14,34,178,43,09,29,115,31,11,24,277,41,20,22,225,,1*6E
$GPGSV,4,4,14,04,20,082,23,12,07,322,14,1*6E
$GPGSV,3,1,09,195,67,040,43,196,61,130,45,199,60,167,45,06,50,326,49,8*5C
$GPGSV,3,2,09,194,44,170,45,14,34,178,45,09,29,115,28,11,24,277,44,8*5A
$GPGSV,3,3,09,04,20,082,31,8*5A
$GLGSV,3,1,09,67,49,077,34,68,39,154,44,82,37,025,34,80,31,239,42,1*76
$GLGSV,3,2,09,83,30,330,25,73,22,300,39,66,12,032,22,79,08,191,14,1*7A
$GLGSV,3,3,09,69,02,187,,1*42
$GAGSV,3,1,09,24,55,254,40,12,50,005,38,10,48,324,40,31,35,183,39,7*79
$GAGSV,3,2,09,11,33,291,37,19,29,094,25,25,22,313,34,04,22,158,36,7*70
$GAGSV,3,3,09,33,18,058,34,7*49
$GAGSV,2,1,08,24,55,254,44,12,50,005,40,10,48,324,47,31,35,183,43,1*7E
$GAGSV,2,2,08,11,33,291,37,19,29,094,24,04,22,158,40,25,22,313,34,1*76
$GBGSV,4,1,15,40,83,089,41,07,83,271,40,10,71,301,35,14,60,101,39,1*7A
$GBGSV,4,2,15,08,59,260,41,33,55,157,45,43,54,042,40,13,49,250,42,1*79
$GBGSV,4,3,15,42,44,062,36,11,35,071,28,28,33,318,44,23,23,227,18,1*76
$GBGSV,4,4,15,37,18,281,32,41,15,197,,06,01,190,,1*44
$GBGSV,2,1,08,40,83,089,45,33,55,157,44,43,54,042,41,42,44,062,36,4*76
$GBGSV,2,2,08,28,33,318,37,23,23,227,19,37,18,281,35,41,15,197,18,4*77
$GNGGA,032721.000,2500.8202008,N,12132.4470039,E,4,63,0.43,17.658,M,15.25,M,4,3335*45
$GNRMC,032721.000,A,2500.8202008,N,12132.4470039,E,0.02,160.66,270623,,,R,V*12
$GPHDT,316.513,T*36
$GNGGA,032721.200,2500.8201967,N,12132.4470056,E,4,63,0.43,17.665,M,15.25,M,4,3335*43
$GNRMC,032721.200,A,2500.8201967,N,12132.4470056,E,0.02,160.66,270623,,,R,V*1A
$GPHDT,316.713,T*34
$GNGGA,032721.400,2500.8201993,N,12132.4470032,E,4,63,0.43,17.670,M,15.25,M,2,3335*4E
$GNRMC,032721.400,A,2500.8201993,N,12132.4470032,E,0.02,160.66,270623,,,R,V*15
$GPHDT,316.758,T*3B
$GNGGA,032721.600,2500.8201961,N,12132.4470058,E,4,62,0.43,17.640,M,15.25,M,1,3335*4C
$GNRMC,032721.600,A,2500.8201961,N,12132.4470058,E,0.02,160.66,270623,,,R,V*16
$GPHDT,316.633,T*37
$GNGGA,032721.800,2500.8201980,N,12132.4470024,E,4,62,0.43,17.647,M,15.25,M,0,3335*40
$GNRMC,032721.800,A,2500.8201980,N,12132.4470024,E,0.04,160.66,270623,,,R,V*1A
$GPHDT,316.848,T*35
$GNGSA,A,3,195,17,196,199,19,06,194,14,09,11,04,,0.87,0.44,0.75,1*02
$GNGSA,A,3,67,68,82,80,83,73,,,,,,,0.87,0.44,0.75,2*0D
$GNGSA,A,3,24,12,10,31,11,19,04,25,33,,,,0.87,0.44,0.75,3*03
$GNGSA,A,3,40,07,10,14,08,33,43,13,42,11,28,37,0.87,0.44,0.75,4*0B
$GNGSA,A,3,23,41,,,,,,,,,,,0.87,0.44,0.75,4*0D
$GPGSV,4,1,14,195,67,040,42,17,64,054,42,196,61,130,39,199,60,167,34,1*58
$GPGSV,4,2,14,19,60,003,42,06,50,326,40,194,44,170,41,41,38,242,43,1*5E
$GPGSV,4,3,14,14,34,178,43,09,29,115,29,11,24,277,42,20,22,225,,1*64
$GPGSV,4,4,14,04,20,082,24,12,07,322,15,1*68
$GPGSV,3,1,09,195,67,040,43,196,61,130,45,199,60,167,45,06,50,326,49,8*5C
$GPGSV,3,2,09,194,44,170,45,14,34,178,45,09,29,115,29,11,24,277,41,8*5E
$GPGSV,3,3,09,04,20,082,31,8*5A
$GLGSV,2,1,08,67,49,077,34,68,39,154,44,82,37,025,34,80,31,239,42,1*76
$GLGSV,2,2,08,83,30,330,25,73,22,300,39,66,12,032,23,79,08,191,17,1*78
$GAGSV,3,1,09,24,55,254,40,12,50,005,38,10,48,324,40,31,35,183,39,7*79
$GAGSV,3,2,09,11,33,291,38,19,29,094,25,04,22,158,35,25,22,313,34,7*7C
$GAGSV,3,3,09,33,18,058,34,7*49
$GAGSV,2,1,08,24,55,254,43,12,50,005,40,10,48,324,47,31,35,183,43,1*79
$GAGSV,2,2,08,11,33,291,35,19,29,094,23,04,22,158,40,25,22,313,34,1*73
$GBGSV,4,1,15,40,83,089,41,07,83,271,40,10,71,301,35,14,60,101,39,1*7A
$GBGSV,4,2,15,08,59,260,41,33,55,157,45,43,54,042,40,13,49,250,42,1*79
$GBGSV,4,3,15,42,44,062,37,11,35,071,28,28,33,318,45,23,23,227,18,1*76
$GBGSV,4,4,15,37,18,281,32,41,15,197,,06,01,190,,1*44
$GBGSV,2,1,08,40,83,089,45,33,55,157,45,43,54,042,41,42,44,062,37,4*76
$GBGSV,2,2,08,28,33,318,40,23,23,227,20,37,18,281,34,41,15,197,19,4*7D
$GNGGA,032722.000,2500.8202012,N,12132.4470012,E,4,62,0.44,17.656,M,15.25,M,1,3335*49
$GNRMC,032722.000,A,2500.8202012,N,12132.4470012,E,0.01,160.66,270623,,,R,V*10
$GPHDT,316.812,T*3A
$GNGGA,032722.200,2500.8202031,N,12132.4470011,E,4,63,0.44,17.655,M,15.25,M,1,3335*4B
$GNRMC,032722.200,A,2500.8202031,N,12132.4470011,E,0.01,160.66,270623,,,R,V*10
$GPHDT,316.830,T*3A
$GNGGA,032722.400,2500.8201997,N,12132.4470043,E,4,62,0.44,17.640,M,15.25,M,1,3335*49
$GNRMC,032722.400,A,2500.8201997,N,12132.4470043,E,0.00,160.66,270623,,,R,V*16
