$FW : RTK35X,V1.1X0314AS,Lib20210517,1*54
$Tool : LOCOSYS , GNSS Firebird , v1.0.0.19*39
$---------------------------------------------------*2D
$GPHDT,46.791,T*08
$GNGGA,032628.800,2500.8201969,N,12132.4470006,E,4,61,0.47,17.662,M,15.25,M,1,3335*4E
$GNRMC,032628.800,A,2500.8201969,N,12132.4470006,E,0.00,160.66,270623,,,R,V*11
$GPHDT,46.875,T*0D
$GNGSA,A,3,195,17,196,19,199,06,194,14,09,11,,,0.92,0.47,0.79,1*0D
$GNGSA,A,3,67,68,82,80,83,73,,,,,,,0.92,0.47,0.79,2*06
$GNGSA,A,3,24,12,10,31,11,19,04,25,33,,,,0.92,0.47,0.79,3*08
$GNGSA,A,3,07,40,10,14,08,33,43,13,42,28,23,37,0.92,0.47,0.79,4*01
$GNGSA,A,3,41,,,,,,,,,,,,0.92,0.47,0.79,4*07
$GPGSV,4,1,13,195,67,040,41,17,64,053,43,196,61,130,39,19,60,003,42,1*61
$GPGSV,4,2,13,199,60,167,35,06,50,326,43,194,45,170,41,41,38,242,43,1*61
$GPGSV,4,3,13,14,34,178,36,09,29,115,26,11,24,276,41,12,07,322,18,1*65
$GPGSV,4,4,13,04,,,32,1*63
$GPGSV,3,1,09,195,67,040,44,196,61,130,41,199,60,167,45,06,50,326,47,8*51
$GPGSV,3,2,09,194,45,170,42,14,34,178,36,09,29,115,29,11,24,276,45,8*59
$GPGSV,3,3,09,04,,,28,8*6A
$GLGSV,2,1,08,67,49,078,41,68,39,154,35,82,37,024,40,80,32,239,42,1*7C
$GLGSV,2,2,08,83,30,329,31,73,22,301,37,66,13,032,21,79,08,191,20,1*7D
$GAGSV,3,1,09,24,56,255,39,12,50,005,38,10,48,323,41,31,35,183,34,7*7E
$GAGSV,3,2,09,11,33,291,37,19,28,095,19,04,22,158,29,25,21,313,32,7*74
$GAGSV,3,3,09,33,18,057,33,7*41
$GAGSV,3,1,09,24,56,255,44,12,50,005,40,10,48,323,45,31,35,183,36,1*7B
$GAGSV,3,2,09,11,33,291,38,19,28,095,29,04,22,158,26,25,21,313,37,1*74
$GAGSV,3,3,09,33,18,057,27,1*42
$GBGSV,4,1,14,07,83,273,39,40,83,087,41,10,71,302,40,14,60,102,42,1*77
$GBGSV,4,2,14,08,59,259,39,33,55,157,43,43,54,041,45,13,49,250,43,1*7C
$GBGSV,4,3,14,42,44,063,45,11,35,070,14,28,33,317,44,23,24,228,26,1*76
$GBGSV,4,4,14,37,18,281,35,41,14,197,25,1*7B
$GBGSV,2,1,07,40,83,087,45,33,55,157,43,43,54,041,45,42,44,063,43,4*74
$GBGSV,2,2,07,28,33,317,41,37,18,281,37,41,14,197,21,4*40
$GNGGA,032629.000,2500.8201966,N,12132.4470031,E,4,62,0.47,17.634,M,15.25,M,1,3335*4C
$GNRMC,032629.000,A,2500.8201966,N,12132.4470031,E,0.00,160.66,270623,,,R,V*13
$GPHDT,46.909,T*07
$GNGGA,032629.200,2500.8201971,N,12132.4470045,E,4,62,0.47,17.626,M,15.25,M,1,3335*48
$GNRMC,032629.200,A,2500.8201971,N,12132.4470045,E,0.00,160.66,270623,,,R,V*14
$GPHDT,46.892,T*04
$GNGGA,032629.400,2500.8201964,N,12132.4470036,E,4,62,0.47,17.624,M,15.25,M,1,3335*4C
$GNRMC,032629.400,A,2500.8201964,N,12132.4470036,E,0.00,160.66,270623,,,R,V*12
$GPHDT,47.175,T*05
$GNGGA,032629.600,2500.8201939,N,12132.4470038,E,4,62,0.47,17.622,M,15.25,M,1,3335*4E
$GNRMC,032629.600,A,2500.8201939,N,12132.4470038,E,0.00,160.66,270623,,,R,V*16
$GPHDT,46.977,T*0E
$GNGGA,032629.800,2500.8201951,N,12132.4470018,E,4,62,0.47,17.626,M,15.25,M,1,3335*48
$GNRMC,032629.800,A,2500.8201951,N,12132.4470018,E,0.00,160.66,270623,,,R,V*14
$GPHDT,46.975,T*0C
$GNGSA,A,3,195,17,196,19,199,06,194,14,09,11,,,0.92,0.47,0.79,1*0D
$GNGSA,A,3,67,68,82,80,83,73,,,,,,,0.92,0.47,0.79,2*06
$GNGSA,A,3,24,12,10,31,11,19,04,25,33,,,,0.92,0.47,0.79,3*08
$GNGSA,A,3,07,40,10,14,08,33,43,13,42,28,23,37,0.92,0.47,0.79,4*01
$GNGSA,A,3,41,,,,,,,,,,,,0.92,0.47,0.79,4*07
$GPGSV,4,1,13,195,67,040,41,17,64,053,42,196,61,130,39,19,60,003,42,1*60
$GPGSV,4,2,13,199,60,167,35,06,50,326,43,194,45,170,38,41,38,242,43,1*6F
$GPGSV,4,3,13,14,34,178,32,09,29,115,29,11,24,276,41,12,07,322,19,1*6F
$GPGSV,4,4,13,04,,,30,1*61
$GPGSV,3,1,09,195,67,040,44,196,61,130,41,199,60,167,45,06,50,326,47,8*51
$GPGSV,3,2,09,194,45,170,42,14,34,178,35,09,29,115,29,11,24,276,45,8*5A
$GPGSV,3,3,09,04,,,28,8*6A
$GLGSV,2,1,08,67,49,078,41,68,39,154,37,82,37,024,40,80,32,239,42,1*7E
$GLGSV,2,2,08,83,30,329,31,73,22,301,37,66,13,032,22,79,08,191,18,1*75
$GAGSV,3,1,09,24,56,255,40,12,50,005,38,10,48,323,42,31,35,183,33,7*74
$GAGSV,3,2,09,11,33,291,37,19,29,094,19,04,22,158,30,25,21,313,30,7*7E
$GAGSV,3,3,09,33,18,057,33,7*41
$GAGSV,3,1,09,24,56,255,44,12,50,005,40,10,48,323,45,31,35,183,34,1*79
$GAGSV,3,2,09,11,33,291,38,19,29,094,29,04,22,158,29,25,21,313,37,1*7B
$GAGSV,3,3,09,33,18,057,27,1*42
$GBGSV,4,1,14,07,83,273,39,40,83,087,40,10,71,302,40,14,60,102,42,1*76
$GBGSV,4,2,14,08,59,259,39,33,55,157,43,43,54,041,44,13,49,250,43,1*7D
$GBGSV,4,3,14,42,44,063,44,11,35,070,13,28,33,317,45,23,24,228,26,1*71
$GBGSV,4,4,14,37,18,281,35,41,14,197,25,1*7B
$GBGSV,2,1,07,40,83,087,45,33,55,157,43,43,54,041,45,42,44,063,43,4*74
$GBGSV,2,2,07,28,33,317,41,37,18,281,37,41,14,197,20,4*41
$GNGGA,032630.000,2500.8201914,N,12132.4470044,E,4,62,0.47,17.628,M,15.25,M,2,3335*4D
$GNRMC,032630.000,A,2500.8201914,N,12132.4470044,E,0.00,160.66,270623,,,R,V*1C
$GPHDT,47.249,T*09
$GNGGA,032630.200,2500.8201941,N,12132.4470017,E,4,62,0.47,17.624,M,15.25,M,2,3335*45
$GNRMC,032630.200,A,2500.8201941,N,12132.4470017,E,0.00,160.66,270623,,,R,V*18
$GPHDT,47.210,T*05
$GNGGA,032630.400,2500.8201947,N,12132.4470031,E,4,62,0.47,17.631,M,15.25,M,2,3335*45
$GNRMC,032630.400,A,2500.8201947,N,12132.4470031,E,0.00,160.66,270623,,,R,V*1C
$GPHDT,47.089,T*07
$GNGGA,032630.600,2500.8201931,N,12132.4470038,E,4,62,0.47,17.616,M,15.25,M,2,3335*4A
$GNRMC,032630.600,A,2500.8201931,N,12132.4470038,E,0.00,160.66,270623,,,R,V*16
$GPHDT,47.066,T*06
$GNGGA,032630.800,2500.8201927,N,12132.4470028,E,4,61,0.47,17.615,M,15.25,M,2,3335*42
$GNRMC,032630.800,A,2500.8201927,N,12132.4470028,E,0.00,160.66,270623,,,R,V*1E
$GPHDT,47.113,T*05
$GNGSA,A,3,195,17,196,19,199,06,194,14,09,11,,,0.93,0.47,0.80,1*0A
$GNGSA,A,3,67,68,82,80,83,73,,,,,,,0.93,0.47,0.80,2*01
$GNGSA,A,3,24,12,10,31,11,19,04,25,33,,,,0.93,0.47,0.80,3*0F
$GNGSA,A,3,07,40,10,14,08,33,43,13,42,28,37,41,0.93,0.47,0.80,4*02
$GPGSV,4,1,13,195,67,040,41,17,64,053,42,196,61,130,39,19,60,003,42,1*60
$GPGSV,4,2,13,199,60,167,35,06,50,326,43,194,45,170,38,41,38,242,43,1*6F
$GPGSV,4,3,13,14,34,178,30,09,29,115,29,11,24,276,41,12,07,322,19,1*6D
$GPGSV,4,4,13,04,,,30,1*61
$GPGSV,3,1,09,195,67,040,44,196,61,130,41,199,60,167,45,06,50,326,47,8*51
$GPGSV,3,2,09,194,45,170,42,14,34,178,35,09,29,115,28,11,24,276,45,8*5B
$GPGSV,3,3,09,04,,,29,8*6B
$GLGSV,2,1,08,67,49,078,41,68,39,154,37,82,37,024,40,80,32,239,42,1*7E
$GLGSV,2,2,08,83,30,329,31,73,22,301,37,66,13,032,22,79,08,191,17,1*7A
$GAGSV,3,1,09,24,56,255,40,12,50,005,39,10,48,323,42,31,35,183,31,7*77
$GAGSV,3,2,09,11,33,291,37,19,29,094,18,04,22,158,30,25,22,313,31,7*7D
$GAGSV,3,3,09,33,18,057,33,7*41
$GAGSV,3,1,09,24,56,255,44,12,50,005,41,10,48,323,45,31,35,183,33,1*7F
$GAGSV,3,2,09,11,33,291,38,19,29,094,29,04,22,158,30,25,22,313,36,1*71
$GAGSV,3,3,09,33,18,057,27,1*42
$GBGSV,4,1,14,07,83,273,39,40,83,087,40,10,71,302,40,14,60,102,42,1*76
$GBGSV,4,2,14,08,59,259,39,33,55,157,43,43,54,041,44,13,49,250,42,1*7C
$GBGSV,4,3,14,42,44,063,44,11,35,070,14,28,33,317,45,23,24,228,21,1*71
$GBGSV,4,4,14,37,18,281,35,41,14,197,23,1*7D
$GBGSV,2,1,07,40,83,087,46,33,55,157,42,43,54,041,45,42,44,063,43,4*76
$GBGSV,2,2,07,28,33,317,41,37,18,281,38,41,14,197,20,4*4E
$GNGGA,032631.000,2500.8201922,N,12132.4470032,E,4,61,0.47,17.626,M,15.25,M,3,3335*44
$GNRMC,032631.000,A,2500.8201922,N,12132.4470032,E,0.00,160.66,270623,,,R,V*19
$GPHDT,47.208,T*0C
$GNGGA,032631.200,2500.8201938,N,12132.4470013,E,4,61,0.47,17.628,M,15.25,M,3,3335*40
$GNRMC,032631.200,A,2500.8201938,N,12132.4470013,E,0.00,160.66,270623,,,R,V*13
$GPHDT,47.192,T*0C
$GNGGA,032631.400,2500.8201947,N,12132.4470020,E,4,61,0.47,17.628,M,15.25,M,3,3335*4E
$GNRMC,032631.400,A,2500.8201947,N,12132.4470020,E,0.00,160.66,270623,,,R,V*1D
$GPHDT,47.343,T*02
$GNGGA,032631.600,2500.8201899,N,12132.4470041,E,4,61,0.47,17.611,M,15.25,M,3,3335*43
$GNRMC,032631.600,A,2500.8201899,N,12132.4470041,E,0.00,160.66,270623,,,R,V*1A
$GPHDT,47.056,T*05
$GNGGA,032631.800,2500.8201917,N,12132.4470047,E,4,61,0.47,17.618,M,15.25,M,3,3335*45
$GNRMC,032631.800,A,2500.8201917,N,12132.4470047,E,0.00,160.66,270623,,,R,V*15
$GPHDT,47.111,T*07
$GNGSA,A,3,195,17,196,19,199,06,194,14,09,11,,,0.93,0.47,0.80,1*0A
$GNGSA,A,3,67,68,82,80,83,73,,,,,,,0.93,0.47,0.80,2*01
$GNGSA,A,3,24,12,10,31,11,19,04,25,33,,,,0.93,0.47,0.80,3*0F
$GNGSA,A,3,07,40,10,14,08,33,43,13,42,28,37,41,0.93,0.47,0.80,4*02
$GPGSV,4,1,13,195,67,040,41,17,64,053,42,196,61,130,39,19,60,003,42,1*60
$GPGSV,4,2,13,199,60,167,34,06,50,326,43,194,45,170,38,41,38,242,43,1*6E
$GPGSV,4,3,13,14,34,178,30,09,29,115,30,11,24,276,41,12,07,322,18,1*64
$GPGSV,4,4,13,04,,,30,1*61
$GPGSV,3,1,09,195,67,040,43,196,61,130,41,199,60,167,45,06,50,326,47,8*56
$GPGSV,3,2,09,194,45,170,41,14,34,178,34,09,29,115,27,11,24,276,45,8*56
$GPGSV,3,3,09,04,,,29,8*6B
$GLGSV,2,1,08,67,49,078,41,68,39,154,36,82,37,024,39,80,32,239,42,1*71
$GLGSV,2,2,08,83,30,329,31,73,22,301,36,66,13,032,22,79,08,191,16,1*7A
$GAGSV,3,1,09,24,56,255,41,12,50,005,39,10,48,323,42,31,35,183,31,7*76
$GAGSV,3,2,09,11,33,291,37,19,29,094,17,04,22,158,30,25,22,313,30,7*73
$GAGSV,3,3,09,33,18,057,34,7*46
$GAGSV,3,1,09,24,56,255,44,12,50,005,41,10,48,323,45,31,35,183,33,1*7F
$GAGSV,3,2,09,11,33,291,38,19,29,094,30,04,22,158,28,25,22,313,36,1*70
$GAGSV,3,3,09,33,18,057,27,1*42
$GBGSV,4,1,14,07,83,273,39,40,83,087,40,10,71,302,40,14,60,102,42,1*76
$GBGSV,4,2,14,08,59,259,39,33,55,157,43,43,54,041,44,13,49,250,42,1*7C
$GBGSV,4,3,14,42,44,063,44,11,35,070,14,28,33,317,45,23,24,228,21,1*71
$GBGSV,4,4,14,37,18,281,35,41,14,197,23,1*7D
$GBGSV,2,1,07,40,83,087,46,33,55,157,42,43,54,041,45,42,44,063,43,4*76
$GBGSV,2,2,07,28,33,317,42,37,18,281,38,41,14,197,20,4*4D
$GNGGA,032632.000,2500.8201889,N,12132.4470045,E,4,61,0.47,17.623,M,15.25,M,4,3335*45
$GNRMC,032632.000,A,2500.8201889,N,12132.4470045,E,0.00,160.66,270623,,,R,V*1A
$GPHDT,47.081,T*0F
$GNGGA,032632.200,2500.8201946,N,12132.4470003,E,4,61,0.47,17.649,M,15.25,M,2,3335*4D
$GNRMC,032632.200,A,2500.8201946,N,12132.4470003,E,0.00,160.66,270623,,,R,V*18
$GPHDT,47.190,T*0E
$GNGGA,032632.400,2500.8201966,N,12132.4469998,E,4,61,0.47,17.630,M,15.25,M,1,3335*47
$GNRMC,032632.400,A,2500.8201966,N,12132.4469998,E,0.00,160.66,270623,,,R,V*1F
$GPHDT,47.256,T*07
$GNGGA,032632.600,2500.8201926,N,12132.4469998,E,4,62,0.47,17.646,M,15.25,M,0,3335*42
$GNRMC,032632.600,A,2500.8201926,N,12132.4469998,E,0.00,160.66,270623,,,R,V*19
$GPHDT,47.198,T*06
$GNGGA,032632.800,2500.8202069,N,12132.4469945,E,4,62,0.47,17.677,M,15.25,M,0,3335*4F
$GNRMC,032632.800,A,2500.8202069,N,12132.4469945,E,0.00,160.66,270623,,,R,V*16
$GPHDT,47.329,T*0E
$GNGSA,A,3,195,17,196,19,199,06,194,14,09,11,,,0.92,0.47,0.79,1*0D
$GNGSA,A,3,67,68,82,80,83,73,,,,,,,0.92,0.47,0.79,2*06
$GNGSA,A,3,24,12,10,31,11,19,04,25,33,,,,0.92,0.47,0.79,3*08
$GNGSA,A,3,07,40,10,14,08,33,43,13,42,28,37,41,0.92,0.47,0.79,4*05
$GNGSA,A,3,23,,,,,,,,,,,,0.92,0.47,0.79,4*03
$GPGSV,4,1,13,195,67,040,41,17,64,053,42,196,61,130,39,19,60,003,42,1*60
$GPGSV,4,2,13,199,60,167,34,06,50,326,43,194,45,170,38,41,38,242,43,1*6E
$GPGSV,4,3,13,14,34,178,29,09,29,115,30,11,24,276,41,12,07,322,18,1*6C
$GPGSV,4,4,13,04,,,30,1*61
$GPGSV,3,1,09,195,67,040,43,196,61,130,41,199,60,167,45,06,50,326,47,8*56
$GPGSV,3,2,09,194,45,170,41,14,34,178,34,09,29,115,27,11,24,276,45,8*56
$GPGSV,3,3,09,04,,,28,8*6A
$GLGSV,2,1,08,67,49,078,41,68,39,154,36,82,37,024,39,80,32,239,42,1*71
$GLGSV,2,2,08,83,30,329,31,73,22,301,36,66,13,032,22,79,08,191,17,1*7B
$GAGSV,3,1,09,24,56,255,41,12,50,005,39,10,48,323,42,31,35,183,31,7*76
$GAGSV,3,2,09,11,33,291,37,19,29,094,16,04,22,158,29,25,22,313,29,7*72
$GAGSV,3,3,09,33,18,058,34,7*49
$GAGSV,3,1,09,24,56,255,44,12,50,005,41,10,48,323,45,31,35,183,34,1*78
$GAGSV,3,2,09,11,33,291,38,19,29,094,30,04,22,158,29,25,22,313,36,1*71
$GAGSV,3,3,09,33,18,058,27,1*4D
$GBGSV,4,1,14,07,83,273,39,40,83,087,40,10,71,302,40,14,60,102,42,1*76
$GBGSV,4,2,14,08,59,259,39,33,55,157,43,43,54,041,44,13,49,250,42,1*7C
$GBGSV,4,3,14,42,44,063,44,11,35,070,11,28,33,317,45,23,24,228,20,1*75
$GBGSV,4,4,14,37,18,281,35,41,14,197,21,1*7F
$GBGSV,2,1,08,40,83,087,46,33,55,157,42,43,54,041,45,42,44,063,42,4*78
$GBGSV,2,2,08,28,33,317,42,23,24,228,24,37,18,281,38,41,14,197,20,4*7B
$GNGGA,032633.000,2500.8202065,N,12132.4469946,E,4,62,0.47,17.674,M,15.25,M,1,3335*4B
$GNRMC,032633.000,A,2500.8202065,N,12132.4469946,E,0.00,160.66,270623,,,R,V*10
$GPHDT,47.313,T*07
$GNGGA,032633.200,2500.8202068,N,12132.4469952,E,4,62,0.47,17.674,M,15.25,M,1,3335*41
$GNRMC,032633.200,A,2500.8202068,N,12132.4469952,E,0.00,160.66,270623,,,R,V*1A
$GPHDT,47.269,T*0B
$GNGGA,032633.400,2500.8202050,N,12132.4469954,E,4,62,0.47,17.678,M,15.25,M,1,3335*46
$GNRMC,032633.400,A,2500.8202050,N,12132.4469954,E,0.00,160.66,270623,,,R,V*11
$GPHDT,47.185,T*0A
$GNGGA,032633.600,2500.8202063,N,12132.4469960,E,4,62,0.47,17.674,M,15.25,M,1,3335*4F
$GNRMC,032633.600,A,2500.8202063,N,12132.4469960,E,0.00,160.66,270623,,,R,V*14
$GPHDT,47.277,T*04
$GNGGA,032633.800,2500.8202075,N,12132.4469945,E,4,62,0.47,17.680,M,15.25,M,1,3335*4A
$GNRMC,032633.800,A,2500.8202075,N,12132.4469945,E,0.00,160.66,270623,,,R,V*1A
$GPHDT,47.292,T*0F
$GNGSA,A,3,195,17,196,19,199,06,194,14,09,11,,,0.92,0.47,0.79,1*0D
$GNGSA,A,3,67,68,82,80,83,73,,,,,,,0.92,0.47,0.79,2*06
$GNGSA,A,3,24,12,10,31,11,19,04,25,33,,,,0.92,0.47,0.79,3*08
$GNGSA,A,3,07,40,10,14,08,33,43,13,42,28,37,41,0.92,0.47,0.79,4*05
$GNGSA,A,3,23,,,,,,,,,,,,0.92,0.47,0.79,4*03
$GPGSV,4,1,13,195,67,040,41,17,64,053,42,196,61,130,40,19,60,003,42,1*6E
$GPGSV,4,2,13,199,60,167,33,06,50,326,43,194,45,170,38,41,38,242,43,1*69
$GPGSV,4,3,13,14,34,178,29,09,29,115,30,11,24,276,41,12,07,322,18,1*6C
$GPGSV,4,4,13,04,,,26,1*66
$GPGSV,3,1,09,195,67,040,43,196,61,130,41,199,60,167,45,06,50,326,47,8*56
$GPGSV,3,2,09,194,45,170,41,14,34,178,33,09,29,115,26,11,24,276,45,8*50
$GPGSV,3,3,09,04,,,28,8*6A
$GLGSV,2,1,08,67,49,078,41,68,39,154,36,82,37,024,39,80,32,239,42,1*71
$GLGSV,2,2,08,83,30,329,31,73,22,301,36,66,13,032,22,79,08,191,17,1*7B
$GAGSV,3,1,09,24,56,255,41,12,50,005,39,10,48,323,42,31,35,183,31,7*76
$GAGSV,3,2,09,11,33,291,37,19,29,094,17,04,22,158,28,25,22,313,29,7*72
$GAGSV,3,3,09,33,18,058,34,7*49
$GAGSV,3,1,09,24,56,255,44,12,50,005,41,10,48,323,45,31,35,183,33,1*7F
$GAGSV,3,2,09,11,33,291,38,19,29,094,30,04,22,158,28,25,22,313,37,1*71
$GAGSV,3,3,09,33,18,058,27,1*4D
$GBGSV,4,1,14,07,83,273,39,40,83,087,40,10,71,302,40,14,60,102,42,1*76
$GBGSV,4,2,14,08,59,259,39,33,55,157,42,43,54,041,44,13,49,250,42,1*7D
$GBGSV,4,3,14,42,44,063,45,11,35,070,12,28,33,317,45,23,24,228,18,1*7C
$GBGSV,4,4,14,37,18,281,35,41,14,197,22,1*7C
$GBGSV,2,1,08,40,83,087,46,33,55,157,42,43,54,041,45,42,44,063,42,4*78
$GBGSV,2,2,08,28,33,317,42,23,24,228,23,37,18,281,38,41,14,197,20,4*7C
$GNGGA,032634.000,2500.8202069,N,12132.4469937,E,4,62,0.47,17.681,M,15.25,M,2,3335*4F
$GNRMC,032634.000,A,2500.8202069,N,12132.4469937,E,0.00,160.66,270623,,,R,V*1D
$GPHDT,47.245,T*05
$GNGGA,032634.200,2500.8202068,N,12132.4469938,E,4,62,0.47,17.669,M,15.25,M,2,3335*45
$GNRMC,032634.200,A,2500.8202068,N,12132.4469938,E,0.00,160.66,270623,,,R,V*11
$GPHDT,47.239,T*0E
$GNGGA,032634.400,2500.8202084,N,12132.4469944,E,4,62,0.47,17.691,M,15.25,M,2,3335*4D
$GNRMC,032634.400,A,2500.8202084,N,12132.4469944,E,0.00,160.66,270623,,,R,V*1E
$GPHDT,47.385,T*08
$GNGGA,032634.600,2500.8202101,N,12132.4469931,E,4,62,0.47,17.689,M,15.25,M,2,3335*48
$GNRMC,032634.600,A,2500.8202101,N,12132.4469931,E,0.00,160.66,270623,,,R,V*12
$GPHDT,47.380,T*0D
$GNGGA,032634.800,2500.8202084,N,12132.4469979,E,4,62,0.47,17.684,M,15.25,M,2,3335*4B
$GNRMC,032634.800,A,2500.8202084,N,12132.4469979,E,0.00,160.66,270623,,,R,V*1C
$GPHDT,47.142,T*01
$GNGSA,A,3,195,17,196,19,199,06,194,14,09,11,,,0.92,0.47,0.79,1*0D
$GNGSA,A,3,67,68,82,80,83,73,,,,,,,0.92,0.47,0.79,2*06
$GNGSA,A,3,24,12,10,31,11,19,04,25,33,,,,0.92,0.47,0.79,3*08
$GNGSA,A,3,07,40,10,14,08,33,43,13,42,28,37,41,0.92,0.47,0.79,4*05
$GNGSA,A,3,23,,,,,,,,,,,,0.92,0.47,0.79,4*03
$GPGSV,4,1,13,195,67,040,40,17,64,053,42,196,61,130,40,19,60,003,42,1*6F
$GPGSV,4,2,13,199,60,167,33,06,50,326,43,194,45,170,38,41,38,242,43,1*69
$GPGSV,4,3,13,14,34,178,31,09,29,115,30,11,24,276,41,12,07,322,18,1*65
$GPGSV,4,4,13,04,,,25,1*65
$GPGSV,3,1,09,195,67,040,43,196,61,130,41,199,60,167,45,06,50,326,47,8*56
$GPGSV,3,2,09,194,45,170,41,14,34,178,34,09,29,115,27,11,24,276,45,8*56
$GPGSV,3,3,09,04,,,28,8*6A
$GLGSV,2,1,08,67,49,078,42,68,39,154,38,82,37,024,39,80,32,239,42,1*7C
$GLGSV,2,2,08,83,30,329,31,73,22,300,36,66,13,032,25,79,08,191,17,1*7D
$GAGSV,3,1,09,24,56,255,41,12,50,005,39,10,48,323,42,31,35,183,31,7*76
$GAGSV,3,2,09,11,33,291,38,19,29,094,17,04,22,158,30,25,22,313,30,7*7C
$GAGSV,3,3,09,33,18,058,35,7*48
$GAGSV,3,1,09,24,56,255,44,12,50,005,41,10,48,323,45,31,35,183,32,1*7E
$GAGSV,3,2,09,11,33,291,38,19,29,094,30,04,22,158,28,25,22,313,37,1*71
$GAGSV,3,3,09,33,18,058,27,1*4D
$GBGSV,4,1,14,07,83,273,39,40,83,087,40,10,71,302,40,14,60,102,42,1*76
$GBGSV,4,2,14,08,59,259,39,33,55,157,42,43,54,041,44,13,49,250,42,1*7D
$GBGSV,4,3,14,42,44,063,45,11,35,070,12,28,33,317,45,23,24,228,18,1*7C
$GBGSV,4,4,14,37,18,281,35,41,14,197,22,1*7C
$GBGSV,2,1,08,40,83,087,46,33,55,157,42,43,54,041,45,42,44,063,42,4*78
$GBGSV,2,2,08,28,33,317,42,23,24,228,23,37,18,281,38,41,14,197,20,4*7C
$GNGGA,032635.000,2500.8202064,N,12132.4469969,E,4,62,0.47,17.682,M,15.25,M,3,3335*4A
$GNRMC,032635.000,A,2500.8202064,N,12132.4469969,E,0.00,160.66,270623,,,R,V*1A
$GPHDT,46.949,T*03
$GNGGA,032635.200,2500.8202077,N,12132.4469958,E,4,62,0.47,17.686,M,15.25,M,3,3335*4C
$GNRMC,032635.200,A,2500.8202077,N,12132.4469958,E,0.00,160.66,270623,,,R,V*18
$GPHDT,47.184,T*0B
$GNGGA,032635.400,2500.8202073,N,12132.4469945,E,4,62,0.47,17.701,M,15.25,M,3,3335*4C
$GNRMC,032635.400,A,2500.8202073,N,12132.4469945,E,0.00,160.66,270623,,,R,V*16
$GPHDT,47.374,T*06
$GNGGA,032635.600,2500.8202044,N,12132.4469973,E,4,63,0.47,17.684,M,15.25,M,3,3335*42
$GNRMC,032635.600,A,2500.8202044,N,12132.4469973,E,0.00,160.66,270623,,,R,V*15
$GPHDT,46.978,T*01
$GNGGA,032635.800,2500.8202070,N,12132.4469950,E,4,62,0.47,17.690,M,15.25,M,3,3335*4E
$GNRMC,032635.800,A,2500.8202070,N,12132.4469950,E,0.00,160.66,270623,,,R,V*1D
$GPHDT,47.173,T*03
$GNGSA,A,3,195,17,196,19,199,06,194,14,09,11,,,0.92,0.47,0.79,1*0D
$GNGSA,A,3,67,68,82,80,83,73,,,,,,,0.92,0.47,0.79,2*06
$GNGSA,A,3,24,12,10,31,11,19,04,25,33,,,,0.92,0.47,0.79,3*08
$GNGSA,A,3,07,40,10,14,08,33,43,13,42,28,23,37,0.92,0.47,0.79,4*01
$GNGSA,A,3,41,,,,,,,,,,,,0.92,0.47,0.79,4*07
$GPGSV,4,1,13,195,67,040,40,17,64,053,42,196,61,130,40,19,60,003,42,1*6F
$GPGSV,4,2,13,199,60,167,34,06,50,326,43,194,45,170,38,41,38,242,43,1*6E
$GPGSV,4,3,13,14,34,178,32,09,29,115,30,11,24,276,41,12,07,322,19,1*67
$GPGSV,4,4,13,04,,,20,1*60
$GPGSV,3,1,09,195,67,040,44,196,61,130,41,199,60,167,45,06,50,326,47,8*51
$GPGSV,3,2,09,194,45,170,41,14,34,178,34,09,29,115,28,11,24,276,45,8*59
$GPGSV,3,3,09,04,,,28,8*6A
$GLGSV,2,1,08,67,49,078,42,68,39,154,39,82,37,024,39,80,32,239,42,1*7D
$GLGSV,2,2,08,83,30,329,31,73,22,300,36,66,13,032,25,79,08,191,19,1*73
$GAGSV,3,1,09,24,56,255,41,12,50,005,39,10,48,323,42,31,35,183,32,7*75
$GAGSV,3,2,09,11,33,291,38,19,29,094,18,04,22,158,30,25,22,313,30,7*73
$GAGSV,3,3,09,33,18,058,35,7*48
$GAGSV,3,1,09,24,56,255,44,12,50,005,41,10,48,323,45,31,35,183,31,1*7D
$GAGSV,3,2,09,11,33,291,38,19,29,094,29,04,22,158,28,25,22,313,37,1*79
$GAGSV,3,3,09,33,18,058,27,1*4D
$GBGSV,4,1,14,07,83,273,39,40,83,087,40,10,71,302,40,14,60,102,42,1*76
$GBGSV,4,2,14,08,59,259,39,33,55,157,42,43,54,041,44,13,49,250,42,1*7D
$GBGSV,4,3,14,42,44,063,44,11,35,070,13,28,33,317,45,23,24,228,21,1*76
$GBGSV,4,4,14,37,18,281,35,41,14,197,23,1*7D
$GBGSV,2,1,08,40,83,087,46,33,55,157,42,43,54,041,45,42,44,063,42,4*78
$GBGSV,2,2,08,28,33,317,42,23,24,228,23,37,18,281,38,41,14,197,21,4*7D
$GNGGA,032636.000,2500.8202074,N,12132.4469953,E,4,63,0.47,17.676,M,15.25,M,4,3335*4C
$GNRMC,032636.000,A,2500.8202074,N,12132.4469953,E,0.00,160.66,270623,,,R,V*11
$GPHDT,47.083,T*0D
$GNGGA,032636.200,2500.8202088,N,12132.4469981,E,4,63,0.47,17.686,M,15.25,M,4,3335*4D
$GNRMC,032636.200,A,2500.8202088,N,12132.4469981,E,0.00,160.66,270623,,,R,V*1F
$GPHDT,47.313,T*07
$GNGGA,032636.400,2500.8202067,N,12132.4469964,E,4,63,0.47,17.692,M,15.25,M,4,3335*44
$GNRMC,032636.400,A,2500.8202067,N,12132.4469964,E,0.00,160.66,270623,,,R,V*13
$GPHDT,47.255,T*04
$GNGGA,032636.600,2500.8202093,N,12132.4469975,E,4,62,0.47,17.680,M,15.25,M,4,3335*4F
$GNRMC,032636.600,A,2500.8202093,N,12132.4469975,E,0.00,160.66,270623,,,R,V*1A
$GPHDT,47.150,T*02
$GNGGA,032636.800,2500.8202060,N,12132.4469966,E,4,62,0.47,17.689,M,15.25,M,4,3335*46
$GNRMC,032636.800,A,2500.8202060,N,12132.4469966,E,0.00,160.66,270623,,,R,V*1A
$GPHDT,47.261,T*03
$GNGSA,A,3,195,17,196,19,199,06,194,14,09,11,,,0.92,0.47,0.79,1*0D
$GNGSA,A,3,67,68,82,80,83,73,,,,,,,0.92,0.47,0.79,2*06
$GNGSA,A,3,24,12,10,31,11,19,04,25,33,,,,0.92,0.47,0.79,3*08
$GNGSA,A,3,07,40,10,14,08,33,43,13,42,28,37,41,0.92,0.47,0.79,4*05
$GNGSA,A,3,23,,,,,,,,,,,,0.92,0.47,0.79,4*03
$GPGSV,4,1,13,195,67,040,40,17,64,053,42,196,61,130,40,19,60,003,42,1*6F
$GPGSV,4,2,13,199,60,167,34,06,50,326,43,194,45,170,38,41,38,242,43,1*6E
$GPGSV,4,3,13,14,34,178,32,09,29,115,30,11,24,276,41,12,07,322,21,1*6C
$GPGSV,4,4,13,04,,,18,1*6B
$GPGSV,3,1,09,195,67,040,44,196,61,130,41,199,60,167,45,06,50,326,47,8*51
$GPGSV,3,2,09,194,45,170,41,14,34,178,34,09,29,115,28,11,24,276,45,8*59
$GPGSV,3,3,09,04,,,28,8*6A
$GLGSV,2,1,08,67,49,078,42,68,39,154,39,82,37,025,40,80,32,239,42,1*72
$GLGSV,2,2,08,83,30,330,31,73,22,300,36,66,13,032,25,79,08,191,19,1*7B
$GAGSV,3,1,09,24,56,255,41,12,50,005,39,10,48,323,42,31,35,183,32,7*75
$GAGSV,3,2,09,11,33,291,38,19,29,094,18,04,22,158,30,25,22,313,30,7*73
$GAGSV,3,3,09,33,18,058,35,7*48
$GAGSV,3,1,09,24,56,255,44,12,50,005,41,10,48,323,45,31,35,183,31,1*7D
$GAGSV,3,2,09,11,33,291,38,19,29,094,29,04,22,158,28,25,22,313,37,1*79
$GAGSV,3,3,09,33,18,058,27,1*4D
$GBGSV,4,1,14,07,83,273,39,40,83,087,40,10,71,302,40,14,60,102,42,1*76
$GBGSV,4,2,14,08,59,259,39,33,55,157,42,43,54,041,44,13,49,250,42,1*7D
$GBGSV,4,3,14,42,44,063,44,11,35,070,13,28,33,317,45,23,24,228,19,1*7D
$GBGSV,4,4,14,37,18,281,35,41,14,197,24,1*7A
$GBGSV,2,1,08,40,83,087,46,33,55,157,42,43,54,041,45,42,44,063,43,4*79
$GBGSV,2,2,08,28,33,317,42,23,24,228,24,37,18,281,38,41,14,197,22,4*79
$GNGGA,032637.000,2500.8202075,N,12132.4469976,E,4,62,0.47,17.690,M,15.25,M,5,3335*43
$GNRMC,032637.000,A,2500.8202075,N,12132.4469976,E,0.00,160.66,270623,,,R,V*16
$GPHDT,47.117,T*01
$GNGGA,032637.200,2500.8202082,N,12132.4469974,E,4,62,0.47,17.686,M,15.25,M,5,3335*4C
$GNRMC,032637.200,A,2500.8202082,N,12132.4469974,E,0.00,160.66,270623,,,R,V*1E
$GPHDT,47.386,T*0B
$GNGGA,032637.400,2500.8202080,N,12132.4469993,E,4,62,0.47,17.683,M,15.25,M,5,3335*44
$GNRMC,032637.400,A,2500.8202080,N,12132.4469993,E,0.00,160.66,270623,,,R,V*13
$GPHDT,47.238,T*0F
$GNGGA,032637.600,2500.8202102,N,12132.4469988,E,4,62,0.47,17.687,M,15.25,M,5,3335*43
$GNRMC,032637.600,A,2500.8202102,N,12132.4469988,E,0.00,160.66,270623,,,R,V*10
$GPHDT,47.160,T*01
$GNGGA,032637.800,2500.8202065,N,12132.4469981,E,4,62,0.47,17.685,M,15.25,M,5,3335*46
$GNRMC,032637.800,A,2500.8202065,N,12132.4469981,E,0.00,160.66,270623,,,R,V*17
$GPHDT,47.072,T*03
$GNGSA,A,3,195,17,196,19,199,06,194,14,09,11,,,0.92,0.47,0.79,1*0D
$GNGSA,A,3,67,68,82,80,83,73,,,,,,,0.92,0.47,0.79,2*06
$GNGSA,A,3,24,12,10,31,11,19,04,25,33,,,,0.92,0.47,0.79,3*08
$GNGSA,A,3,40,07,10,14,08,33,43,13,42,28,37,41,0.92,0.47,0.79,4*05
$GNGSA,A,3,23,,,,,,,,,,,,0.92,0.47,0.79,4*03
$GPGSV,3,1,12,195,67,040,40,17,64,053,42,196,61,130,40,19,60,003,42,1*69
$GPGSV,3,2,12,199,60,167,34,06,50,326,43,194,45,170,38,41,38,242,43,1*68
$GPGSV,3,3,12,14,34,178,33,09,29,115,30,11,24,276,41,12,07,322,20,1*6A
$GPGSV,2,1,08,195,67,040,44,196,61,130,41,199,60,167,45,06,50,326,47,8*51
$GPGSV,2,2,08,194,45,170,42,14,34,178,34,09,29,115,28,11,24,276,45,8*5A
$GLGSV,2,1,08,67,49,078,42,68,39,154,39,82,37,025,40,80,32,239,42,1*72
$GLGSV,2,2,08,83,30,330,31,73,22,300,35,66,13,032,24,79,08,191,19,1*79
$GAGSV,3,1,09,24,56,255,41,12,50,005,39,10,48,323,42,31,35,183,33,7*74
$GAGSV,3,2,09,11,33,291,38,19,29,094,17,04,22,158,30,25,22,313,30,7*7C
$GAGSV,3,3,09,33,18,058,35,7*48
$GAGSV,3,1,09,24,56,255,44,12,50,005,41,10,48,323,45,31,35,183,31,1*7D
$GAGSV,3,2,09,11,33,291,38,19,29,094,29,25,22,313,37,04,22,158,28,1*79
$GAGSV,3,3,09,33,18,058,27,1*4D
$GBGSV,4,1,14,40,83,087,40,07,83,273,39,10,71,302,40,14,60,102,42,1*76
$GBGSV,4,2,14,08,59,259,39,33,55,157,42,43,54,041,44,13,49,250,42,1*7D
$GBGSV,4,3,14,42,44,063,44,11,35,070,14,28,33,317,45,23,24,228,17,1*74
$GBGSV,4,4,14,37,18,281,35,41,14,197,23,1*7D
$GBGSV,2,1,08,40,83,087,46,33,55,157,42,43,54,041,45,42,44,063,43,4*79
$GBGSV,2,2,08,28,33,317,42,23,24,228,23,37,18,281,38,41,14,197,22,4*7E
$GNGGA,032638.000,2500.8202081,N,12132.4469988,E,4,62,0.47,17.688,M,15.25,M,6,3335*4C
$GNRMC,032638.000,A,2500.8202081,N,12132.4469988,E,0.00,160.66,270623,,,R,V*13
$GPHDT,47.224,T*02
$GNGGA,032638.200,2500.8202074,N,12132.4469965,E,4,62,0.47,17.689,M,15.25,M,6,3335*46
$GNRMC,032638.200,A,2500.8202074,N,12132.4469965,E,0.00,160.66,270623,,,R,V*18
$GPHDT,47.107,T*00
$GNGGA,032638.400,2500.8201904,N,12132.4470086,E,4,62,0.47,17.630,M,15.25,M,4,3335*41
$GNRMC,032638.400,A,2500.8201904,N,12132.4470086,E,0.00,160.66,270623,,,R,V*1F
$GPHDT,47.117,T*01
$GNGGA,032638.600,2500.8201898,N,12132.4470030,E,4,62,0.47,17.636,M,15.25,M,3,3335*4B
$GNRMC,032638.600,A,2500.8201898,N,12132.4470030,E,0.00,160.66,270623,,,R,V*14
$GPHDT,47.204,T*00
$GNGGA,032638.800,2500.8201971,N,12132.4470020,E,4,62,0.47,17.651,M,15.25,M,1,3335*41
$GNRMC,032638.800,A,2500.8201971,N,12132.4470020,E,0.00,160.66,270623,,,R,V*1D
$GPHDT,47.305,T*00
$GNGSA,A,3,195,17,196,19,199,06,194,14,09,11,,,0.92,0.47,0.79,1*0D
$GNGSA,A,3,67,68,82,80,83,73,,,,,,,0.92,0.47,0.79,2*06
$GNGSA,A,3,24,12,10,31,11,19,04,25,33,,,,0.92,0.47,0.79,3*08
$GNGSA,A,3,40,07,10,14,08,33,43,13,42,28,37,41,0.92,0.47,0.79,4*05
$GNGSA,A,3,23,,,,,,,,,,,,0.92,0.47,0.79,4*03
$GPGSV,3,1,12,195,67,040,41,17,64,053,42,196,61,130,40,19,60,003,42,1*68
$GPGSV,3,2,12,199,60,167,33,06,50,326,43,194,45,170,38,41,38,242,43,1*6F
$GPGSV,3,3,12,14,34,178,33,09,2