$FW : RTK35X,V1.1X0314AS,Lib20210517,1*54
$Tool : LOCOSYS , GNSS Firebird , v1.0.0.19*39
$---------------------------------------------------*2D
SV,4,4,14,37,18,280,24,41,15,197,28,1*76
$GBGSV,2,1,07,40,83,090,44,33,56,157,46,43,54,042,46,42,44,062,43,4*74
$GBGSV,2,2,07,28,33,318,40,37,18,280,28,41,15,197,23,4*42
$GNGGA,032759.000,2500.8203749,N,12132.4470485,E,2,64,0.45,17.974,M,15.25,M,1,3335*49
$GNRMC,032759.000,A,2500.8203749,N,12132.4470485,E,0.00,160.66,270623,,,D,V*09
$GPHDT,228.659,T*37
$GNGGA,032759.200,2500.8203749,N,12132.4470545,E,2,63,0.45,17.974,M,15.25,M,1,3335*41
$GNRMC,032759.200,A,2500.8203749,N,12132.4470545,E,0.00,160.66,270623,,,D,V*06
$GPHDT,228.528,T*32
$GNGGA,032759.400,2500.8203809,N,12132.4470605,E,2,63,0.45,17.972,M,15.25,M,1,3335*4D
$GNRMC,032759.400,A,2500.8203809,N,12132.4470605,E,0.00,160.66,270623,,,D,V*0C
$GPHDT,228.932,T*35
$GNGGA,032759.600,2500.8203869,N,12132.4470785,E,2,64,0.45,17.973,M,15.25,M,1,3335*46
$GNRMC,032759.600,A,2500.8203869,N,12132.4470785,E,0.00,160.66,270623,,,D,V*01
$GPHDT,228.548,T*34
$GNGGA,032759.800,2500.8203869,N,12132.4470905,E,2,64,0.45,17.967,M,15.25,M,1,3335*4B
$GNRMC,032759.800,A,2500.8203869,N,12132.4470905,E,0.00,160.66,270623,,,D,V*09
$GPHDT,228.715,T*3E
$GNGSA,A,3,195,17,196,19,199,06,194,14,09,11,04,,0.88,0.45,0.76,1*0F
$GNGSA,A,3,67,68,82,80,83,73,,,,,,,0.88,0.45,0.76,2*00
$GNGSA,A,3,24,12,10,31,11,19,04,25,33,,,,0.88,0.45,0.76,3*0E
$GNGSA,A,3,40,07,10,14,08,33,43,13,42,11,28,37,0.88,0.45,0.76,4*06
$GNGSA,A,3,41,,,,,,,,,,,,0.88,0.45,0.76,4*01
$GPGSV,4,1,13,195,67,040,38,17,64,055,41,196,61,130,39,19,60,004,43,1*6D
$GPGSV,4,2,13,199,60,167,34,06,50,327,41,194,44,170,43,41,38,242,44,1*67
$GPGSV,4,3,13,14,34,178,43,09,29,115,37,11,24,277,36,04,21,081,20,1*64
$GPGSV,4,4,13,12,07,322,18,1*58
$GPGSV,3,1,09,195,67,040,44,196,61,130,46,199,60,167,46,06,50,327,43,8*50
$GPGSV,3,2,09,194,44,170,45,14,34,178,45,09,29,115,40,11,24,277,31,8*56
$GPGSV,3,3,09,04,21,081,32,8*5B
$GLGSV,2,1,08,67,49,077,44,68,40,154,42,82,37,025,36,80,31,238,43,1*7B
$GLGSV,2,2,08,83,30,330,19,73,22,300,37,66,12,032,23,79,07,191,13,1*72
$GAGSV,3,1,09,24,55,254,41,12,50,005,38,10,48,324,40,31,34,183,40,7*77
$GAGSV,3,2,09,11,33,292,25,19,29,094,30,04,22,158,37,25,22,313,30,7*71
$GAGSV,3,3,09,33,17,058,35,7*47
$GAGSV,3,1,09,24,55,254,42,12,50,005,42,10,48,324,41,31,34,183,41,1*7F
$GAGSV,3,2,09,11,33,292,31,19,29,094,24,04,22,158,42,25,22,313,32,1*77
$GAGSV,3,3,09,33,17,058,29,1*4C
$GBGSV,4,1,14,40,83,090,42,07,83,270,41,10,71,301,40,14,60,100,42,1*7F
$GBGSV,4,2,14,08,59,260,38,33,56,157,46,43,54,042,44,13,49,250,41,1*71
$GBGSV,4,3,14,42,44,062,38,11,35,071,37,28,33,318,41,23,23,227,,1*7B
$GBGSV,4,4,14,37,18,280,22,41,15,197,28,1*70
$GBGSV,2,1,07,40,83,090,44,33,56,157,46,43,54,042,46,42,44,062,43,4*74
$GBGSV,2,2,07,28,33,318,40,37,18,280,28,41,15,197,23,4*42
$GNGGA,032800.000,2500.8203929,N,12132.4471025,E,2,64,0.45,17.972,M,15.25,M,1,3335*4B
$GNRMC,032800.000,A,2500.8203929,N,12132.4471025,E,0.00,160.66,270623,,,D,V*0D
$GPHDT,228.628,T*31
$GNGGA,032800.200,2500.8204049,N,12132.4471145,E,2,64,0.45,17.980,M,15.25,M,1,3335*4B
$GNRMC,032800.200,A,2500.8204049,N,12132.4471145,E,0.00,160.66,270623,,,D,V*00
$GPHDT,228.566,T*38
$GNGGA,032800.400,2500.8204049,N,12132.4471205,E,2,64,0.45,17.992,M,15.25,M,1,3335*49
$GNRMC,032800.400,A,2500.8204049,N,12132.4471205,E,0.00,160.66,270623,,,D,V*01
$GPHDT,228.370,T*39
$GNGGA,032800.600,2500.8204109,N,12132.4471325,E,2,64,0.45,18.000,M,15.25,M,1,3335*40
$GNRMC,032800.600,A,2500.8204109,N,12132.4471325,E,0.00,160.66,270623,,,D,V*05
$GPHDT,227.970,T*3C
$GNGGA,032800.800,2500.8204109,N,12132.4471445,E,2,64,0.45,18.008,M,15.25,M,1,3335*47
$GNRMC,032800.800,A,2500.8204109,N,12132.4471445,E,0.00,160.66,270623,,,D,V*0A
$GPHDT,227.795,T*39
$GNGSA,A,3,195,17,196,19,199,06,194,14,09,11,04,,0.88,0.45,0.76,1*0F
$GNGSA,A,3,67,68,82,80,83,73,,,,,,,0.88,0.45,0.76,2*00
$GNGSA,A,3,24,12,10,31,11,19,04,25,33,,,,0.88,0.45,0.76,3*0E
$GNGSA,A,3,40,07,10,14,08,33,43,13,42,11,28,37,0.88,0.45,0.76,4*06
$GNGSA,A,3,41,,,,,,,,,,,,0.88,0.45,0.76,4*01
$GPGSV,4,1,13,195,67,040,38,17,64,055,40,196,61,130,40,19,60,004,43,1*62
$GPGSV,4,2,13,199,60,167,36,06,50,327,41,194,44,170,43,41,38,242,44,1*65
$GPGSV,4,3,13,14,34,178,43,09,29,115,37,11,24,277,35,04,21,081,25,1*62
$GPGSV,4,4,13,12,07,322,15,1*55
$GPGSV,3,1,09,195,67,040,44,196,61,130,45,199,60,167,47,06,50,327,43,8*52
$GPGSV,3,2,09,194,44,170,45,14,34,178,45,09,29,115,40,11,24,277,29,8*5F
$GPGSV,3,3,09,04,21,081,30,8*59
$GLGSV,2,1,08,67,49,077,43,68,40,154,42,82,37,025,36,80,31,238,43,1*7C
$GLGSV,2,2,08,83,30,330,19,73,22,300,34,66,12,032,23,79,07,191,16,1*74
$GAGSV,3,1,09,24,55,254,42,12,50,005,38,10,48,324,40,31,34,183,40,7*74
$GAGSV,3,2,09,11,33,292,31,19,29,094,30,04,22,158,37,25,22,313,28,7*7D
$GAGSV,3,3,09,33,17,058,36,7*44
$GAGSV,3,1,09,24,55,254,44,12,50,005,42,10,48,324,41,31,34,183,42,1*7A
$GAGSV,3,2,09,11,33,292,32,19,29,094,22,04,22,158,42,25,22,313,32,1*72
$GAGSV,3,3,09,33,17,058,29,1*4C
$GBGSV,4,1,14,40,83,090,42,07,83,270,41,10,71,301,40,14,60,100,42,1*7F
$GBGSV,4,2,14,08,59,260,38,33,56,157,45,43,54,042,44,13,49,250,42,1*71
$GBGSV,4,3,14,42,44,062,40,11,35,071,38,28,33,318,41,23,23,227,,1*7B
$GBGSV,4,4,14,37,18,280,26,41,15,197,27,1*7B
$GBGSV,2,1,07,40,83,090,44,33,56,157,46,43,54,042,46,42,44,062,43,4*74
$GBGSV,2,2,07,28,33,318,37,37,18,280,25,41,15,197,23,4*4F
$GNGGA,032801.000,2500.8204109,N,12132.4471505,E,2,64,0.45,18.023,M,15.25,M,2,3335*41
$GNRMC,032801.000,A,2500.8204109,N,12132.4471505,E,0.00,160.66,270623,,,D,V*06
$GPHDT,228.222,T*3F
$GNGGA,032801.200,2500.8204109,N,12132.4471685,E,2,64,0.45,18.032,M,15.25,M,2,3335*48
$GNRMC,032801.200,A,2500.8204109,N,12132.4471685,E,0.00,160.66,270623,,,D,V*0F
$GPHDT,228.175,T*3E
$GNGGA,032801.400,2500.8204109,N,12132.4471685,E,2,63,0.45,18.048,M,15.25,M,2,3335*44
$GNRMC,032801.400,A,2500.8204109,N,12132.4471685,E,0.00,160.66,270623,,,D,V*09
$GPHDT,227.937,T*3F
$GNGGA,032801.600,2500.8204109,N,12132.4471745,E,2,63,0.45,18.056,M,15.25,M,2,3335*44
$GNRMC,032801.600,A,2500.8204109,N,12132.4471745,E,0.00,160.66,270623,,,D,V*06
$GPHDT,227.846,T*38
$GNGGA,032801.800,2500.8204169,N,12132.4471805,E,2,63,0.45,18.057,M,15.25,M,2,3335*46
$GNRMC,032801.800,A,2500.8204169,N,12132.4471805,E,0.00,160.66,270623,,,D,V*05
$GPHDT,228.036,T*38
$GNGSA,A,3,195,17,196,19,199,06,194,14,09,11,04,,0.88,0.45,0.76,1*0F
$GNGSA,A,3,67,68,82,80,83,73,,,,,,,0.88,0.45,0.76,2*00
$GNGSA,A,3,24,12,10,31,11,19,04,25,33,,,,0.88,0.45,0.76,3*0E
$GNGSA,A,3,40,07,10,14,08,33,43,13,42,11,28,37,0.88,0.45,0.76,4*06
$GNGSA,A,3,41,,,,,,,,,,,,0.88,0.45,0.76,4*01
$GPGSV,4,1,13,195,67,040,39,17,64,055,40,196,61,130,40,19,60,004,43,1*63
$GPGSV,4,2,13,199,60,167,36,06,50,327,40,194,44,170,44,41,38,242,44,1*63
$GPGSV,4,3,13,14,34,178,43,09,29,115,37,11,24,277,35,04,21,081,19,1*6D
$GPGSV,4,4,13,12,07,322,14,1*54
$GPGSV,3,1,09,195,67,040,44,196,61,130,45,199,60,167,46,06,50,327,44,8*54
$GPGSV,3,2,09,194,44,170,45,14,34,178,44,09,29,115,41,11,24,277,38,8*5F
$GPGSV,3,3,09,04,21,081,30,8*59
$GLGSV,2,1,08,67,49,077,43,68,40,154,43,82,37,025,34,80,31,238,43,1*7F
$GLGSV,2,2,08,83,30,330,18,73,22,300,33,66,12,032,23,79,07,191,16,1*72
$GAGSV,3,1,09,24,55,254,43,12,50,005,38,10,48,324,40,31,34,183,40,7*75
$GAGSV,3,2,09,11,33,292,32,19,29,094,29,04,22,158,38,25,22,313,30,7*70
$GAGSV,3,3,09,33,17,058,36,7*44
$GAGSV,3,1,09,24,55,254,45,12,50,005,42,10,48,324,42,31,34,183,42,1*78
$GAGSV,3,2,09,11,33,292,32,19,29,094,20,04,22,158,42,25,22,313,31,1*73
$GAGSV,3,3,09,33,17,058,30,1*44
$GBGSV,4,1,14,40,83,090,40,07,83,270,40,10,71,301,39,14,60,100,41,1*71
$GBGSV,4,2,14,08,59,260,39,33,56,157,45,43,54,042,44,13,49,250,42,1*70
$GBGSV,4,3,14,42,44,062,39,11,35,071,38,28,33,318,41,23,23,227,,1*75
$GBGSV,4,4,14,37,18,280,28,41,15,197,28,1*7A
$GBGSV,2,1,07,40,83,090,44,33,56,157,46,43,54,042,46,42,44,062,43,4*74
$GBGSV,2,2,07,28,33,318,36,37,18,280,31,41,15,197,21,4*49
$GNGGA,032802.000,2500.8204169,N,12132.4471865,E,2,63,0.45,18.059,M,15.25,M,3,3335*44
$GNRMC,032802.000,A,2500.8204169,N,12132.4471865,E,0.00,160.66,270623,,,D,V*08
$GPHDT,228.025,T*3A
$GNGGA,032802.200,2500.8201873,N,12132.4470063,E,4,63,0.45,17.661,M,15.25,M,3,3335*4A
$GNRMC,032802.200,A,2500.8201873,N,12132.4470063,E,0.00,160.66,270623,,,R,V*14
$GPHDT,228.175,T*3E
$GNGGA,032802.400,2500.8201879,N,12132.4470066,E,4,63,0.45,17.662,M,15.25,M,3,3335*40
$GNRMC,032802.400,A,2500.8201879,N,12132.4470066,E,0.00,160.66,270623,,,R,V*1D
$GPHDT,228.196,T*33
$GNGGA,032802.600,2500.8201883,N,12132.4470072,E,4,63,0.45,17.662,M,15.25,M,3,3335*42
$GNRMC,032802.600,A,2500.8201883,N,12132.4470072,E,0.00,160.66,270623,,,R,V*1F
$GPHDT,228.150,T*39
$GNGGA,032802.800,2500.8201879,N,12132.4470041,E,4,64,0.45,17.666,M,15.25,M,3,3335*4A
$GNRMC,032802.800,A,2500.8201879,N,12132.4470041,E,0.00,160.66,270623,,,R,V*14
$GPHDT,228.422,T*39
$GNGSA,A,3,195,17,196,19,199,06,194,14,09,11,04,,0.88,0.45,0.76,1*0F
$GNGSA,A,3,67,68,82,80,83,73,,,,,,,0.88,0.45,0.76,2*00
$GNGSA,A,3,24,12,10,31,11,19,04,25,33,,,,0.88,0.45,0.76,3*0E
$GNGSA,A,3,40,07,10,14,08,33,43,13,42,11,28,37,0.88,0.45,0.76,4*06
$GNGSA,A,3,41,,,,,,,,,,,,0.88,0.45,0.76,4*01
$GPGSV,4,1,13,195,67,040,39,17,64,055,40,196,61,130,39,19,60,004,43,1*6D
$GPGSV,4,2,13,199,60,167,35,06,50,327,39,194,44,170,44,41,38,242,44,1*6E
$GPGSV,4,3,13,14,34,178,43,09,29,115,37,11,24,277,35,04,21,081,20,1*67
$GPGSV,4,4,13,12,07,322,15,1*55
$GPGSV,3,1,09,195,67,040,45,196,61,130,45,199,60,167,46,06,50,327,44,8*55
$GPGSV,3,2,09,194,44,170,46,14,34,178,44,09,29,115,41,11,24,277,40,8*53
$GPGSV,3,3,09,04,21,081,31,8*58
$GLGSV,2,1,08,67,49,077,43,68,40,154,43,82,37,025,36,80,31,238,43,1*7D
$GLGSV,2,2,08,83,30,330,17,73,22,300,32,66,12,032,21,79,07,191,17,1*7F
$GAGSV,3,1,09,24,55,254,43,12,50,005,37,10,48,324,40,31,34,183,40,7*7A
$GAGSV,3,2,09,11,33,292,32,19,29,094,30,04,22,158,38,25,22,313,30,7*78
$GAGSV,3,3,09,33,17,058,36,7*44
$GAGSV,3,1,09,24,55,254,45,12,50,005,42,10,48,324,43,31,34,183,42,1*79
$GAGSV,3,2,09,11,33,292,33,19,29,094,20,04,22,158,42,25,22,313,32,1*71
$GAGSV,3,3,09,33,17,058,30,1*44
$GBGSV,4,1,14,40,83,090,40,07,83,270,40,10,71,301,37,14,60,100,41,1*7F
$GBGSV,4,2,14,08,59,260,39,33,56,157,45,43,54,042,44,13,49,250,43,1*71
$GBGSV,4,3,14,42,44,062,38,11,35,071,38,28,33,318,42,23,23,227,,1*77
$GBGSV,4,4,14,37,18,280,29,41,15,197,28,1*7B
$GBGSV,2,1,07,40,83,090,44,33,56,157,45,43,54,042,46,42,44,062,43,4*77
$GBGSV,2,2,07,28,33,318,37,37,18,280,36,41,15,197,21,4*4F
$GNGGA,032803.000,2500.8201878,N,12132.4470099,E,4,64,0.45,17.690,M,15.25,M,3,3335*4E
$GNRMC,032803.000,A,2500.8201878,N,12132.4470099,E,0.00,160.66,270623,,,R,V*19
$GPHDT,228.435,T*3F
$GNGGA,032803.200,2500.8201888,N,12132.4470063,E,4,64,0.45,17.672,M,15.25,M,1,3335*48
$GNRMC,032803.200,A,2500.8201888,N,12132.4470063,E,0.00,160.66,270623,,,R,V*11
$GPHDT,228.247,T*3C
$GNGGA,032803.400,2500.8201908,N,12132.4470051,E,4,64,0.45,17.680,M,15.25,M,1,3335*4B
$GNRMC,032803.400,A,2500.8201908,N,12132.4470051,E,0.00,160.66,270623,,,R,V*1F
$GPHDT,228.296,T*30
$GNGGA,032803.600,2500.8201891,N,12132.4470074,E,4,64,0.45,17.679,M,15.25,M,1,3335*49
$GNRMC,032803.600,A,2500.8201891,N,12132.4470074,E,0.00,160.66,270623,,,R,V*1B
$GPHDT,228.224,T*39
$GNGGA,032803.800,2500.8201894,N,12132.4470056,E,4,64,0.45,17.668,M,15.25,M,1,3335*42
$GNRMC,032803.800,A,2500.8201894,N,12132.4470056,E,0.00,160.66,270623,,,R,V*10
$GPHDT,228.187,T*33
$GNGSA,A,3,195,17,196,19,199,06,194,14,09,11,04,,0.88,0.45,0.76,1*0F
$GNGSA,A,3,67,68,82,80,83,73,,,,,,,0.88,0.45,0.76,2*00
$GNGSA,A,3,24,12,10,31,11,19,04,25,33,,,,0.88,0.45,0.76,3*0E
$GNGSA,A,3,40,07,10,14,08,33,43,13,42,11,28,37,0.88,0.45,0.76,4*06
$GNGSA,A,3,41,,,,,,,,,,,,0.88,0.45,0.76,4*01
$GPGSV,4,1,13,195,67,040,39,17,64,055,41,196,61,130,39,19,60,004,43,1*6C
$GPGSV,4,2,13,199,60,167,35,06,50,327,39,194,44,170,44,41,38,242,44,1*6E
$GPGSV,4,3,13,14,34,178,43,09,29,115,35,11,24,277,36,04,21,081,17,1*62
$GPGSV,4,4,13,12,07,322,16,1*56
$GPGSV,3,1,09,195,67,040,45,196,61,130,45,199,60,167,46,06,50,327,44,8*55
$GPGSV,3,2,09,194,44,170,46,14,34,178,44,09,29,115,41,11,24,277,41,8*52
$GPGSV,3,3,09,04,21,081,31,8*58
$GLGSV,2,1,08,67,49,077,43,68,40,154,43,82,37,025,37,80,31,238,43,1*7C
$GLGSV,2,2,08,83,30,330,21,73,22,300,32,66,12,032,19,79,07,191,15,1*73
$GAGSV,3,1,09,24,55,254,43,12,50,005,36,10,48,324,40,31,34,183,40,7*7B
$GAGSV,3,2,09,11,33,292,31,19,29,094,30,04,22,157,38,25,22,313,30,7*74
$GAGSV,3,3,09,33,17,058,36,7*44
$GAGSV,3,1,09,24,55,254,45,12,50,005,42,10,48,324,43,31,34,183,42,1*79
$GAGSV,3,2,09,11,33,292,33,19,29,094,22,04,22,157,42,25,22,313,31,1*7F
$GAGSV,3,3,09,33,17,058,30,1*44
$GBGSV,4,1,14,40,83,090,40,07,83,270,40,10,71,301,36,14,60,100,41,1*7E
$GBGSV,4,2,14,08,59,260,39,33,56,157,46,43,54,042,44,13,49,250,43,1*72
$GBGSV,4,3,14,42,44,062,37,11,35,071,38,28,33,318,42,23,23,227,,1*78
$GBGSV,4,4,14,37,18,280,29,41,15,197,27,1*74
$GBGSV,2,1,07,40,83,090,44,33,56,157,45,43,54,042,46,42,44,062,43,4*77
$GBGSV,2,2,07,28,33,318,37,37,18,280,36,41,15,197,22,4*4C
$GNGGA,032804.000,2500.8201901,N,12132.4470063,E,4,64,0.45,17.670,M,15.25,M,2,3335*4C
$GNRMC,032804.000,A,2500.8201901,N,12132.4470063,E,0.00,160.66,270623,,,R,V*14
$GPHDT,228.297,T*31
$GNGGA,032804.200,2500.8201895,N,12132.4470063,E,4,64,0.45,17.673,M,15.25,M,2,3335*41
$GNRMC,032804.200,A,2500.8201895,N,12132.4470063,E,0.00,160.66,270623,,,R,V*1A
$GPHDT,228.278,T*30
$GNGGA,032804.400,2500.8201879,N,12132.4470039,E,4,63,0.45,17.674,M,15.25,M,2,3335*4A
$GNRMC,032804.400,A,2500.8201879,N,12132.4470039,E,0.00,160.66,270623,,,R,V*11
$GPHDT,228.157,T*3E
$GNGGA,032804.600,2500.8201894,N,12132.4470057,E,4,64,0.45,17.673,M,15.25,M,2,3335*43
$GNRMC,032804.600,A,2500.8201894,N,12132.4470057,E,0.00,160.66,270623,,,R,V*18
$GPHDT,228.348,T*32
$GNGGA,032804.800,2500.8201899,N,12132.4470078,E,4,64,0.45,17.671,M,15.25,M,2,3335*4F
$GNRMC,032804.800,A,2500.8201899,N,12132.4470078,E,0.00,160.66,270623,,,R,V*16
$GPHDT,228.279,T*31
$GNGSA,A,3,195,17,196,19,199,06,194,14,09,11,04,,0.88,0.45,0.76,1*0F
$GNGSA,A,3,67,68,82,80,83,73,,,,,,,0.88,0.45,0.76,2*00
$GNGSA,A,3,24,12,10,31,11,19,04,25,33,,,,0.88,0.45,0.76,3*0E
$GNGSA,A,3,40,07,10,14,08,33,43,13,42,11,28,37,0.88,0.45,0.76,4*06
$GNGSA,A,3,41,,,,,,,,,,,,0.88,0.45,0.76,4*01
$GPGSV,4,1,13,195,67,040,38,17,64,055,41,196,61,130,39,19,60,004,43,1*6D
$GPGSV,4,2,13,199,60,167,35,06,50,327,39,194,44,170,44,41,38,242,44,1*6E
$GPGSV,4,3,13,14,34,178,43,09,29,115,35,11,24,277,36,04,21,081,15,1*60
$GPGSV,4,4,13,12,07,322,15,1*55
$GPGSV,3,1,09,195,67,040,45,196,61,130,45,199,60,167,46,06,50,327,44,8*55
$GPGSV,3,2,09,194,44,170,46,14,34,178,44,09,29,115,41,11,24,277,41,8*52
$GPGSV,3,3,09,04,21,081,30,8*59
$GLGSV,2,1,08,67,49,077,43,68,40,154,43,82,37,025,37,80,31,238,43,1*7C
$GLGSV,2,2,08,83,30,330,21,73,22,300,32,66,12,032,20,79,07,191,16,1*7A
$GAGSV,3,1,09,24,55,254,43,12,50,005,36,10,48,324,40,31,34,183,40,7*7B
$GAGSV,3,2,09,11,33,292,31,19,29,094,30,04,22,157,38,25,22,313,30,7*74
$GAGSV,3,3,09,33,17,058,36,7*44
$GAGSV,3,1,09,24,55,254,45,12,50,005,42,10,48,324,43,31,34,183,42,1*79
$GAGSV,3,2,09,11,33,292,33,19,29,094,19,04,22,157,42,25,22,313,31,1*77
$GAGSV,3,3,09,33,17,058,31,1*45
$GBGSV,4,1,14,40,83,090,40,07,83,270,40,10,71,301,36,14,60,100,41,1*7E
$GBGSV,4,2,14,08,59,260,40,33,56,157,46,43,54,042,44,13,49,250,43,1*7C
$GBGSV,4,3,14,42,44,062,38,11,35,071,38,28,33,318,42,23,23,227,,1*77
$GBGSV,4,4,14,37,18,280,30,41,15,197,27,1*7C
$GBGSV,2,1,07,40,83,090,44,33,56,157,45,43,54,042,46,42,44,062,43,4*77
$GBGSV,2,2,07,28,33,318,37,37,18,280,36,41,15,197,21,4*4F
$GNGGA,032805.000,2500.8201882,N,12132.4470039,E,4,64,0.45,17.678,M,15.25,M,3,3335*41
$GNRMC,032805.000,A,2500.8201882,N,12132.4470039,E,0.00,160.66,270623,,,R,V*10
$GPHDT,228.345,T*3F
$GNGGA,032805.200,2500.8201888,N,12132.4470084,E,4,64,0.45,17.684,M,15.25,M,3,3335*4C
$GNRMC,032805.200,A,2500.8201888,N,12132.4470084,E,0.00,160.66,270623,,,R,V*1E
$GPHDT,228.293,T*35
$GNGGA,032805.400,2500.8201896,N,12132.4470061,E,4,63,0.45,17.682,M,15.25,M,3,3335*4F
$GNRMC,032805.400,A,2500.8201896,N,12132.4470061,E,0.00,160.66,270623,,,R,V*1C
$GPHDT,228.336,T*3B
$GNGGA,032805.600,2500.8201871,N,12132.4470077,E,4,63,0.45,17.672,M,15.25,M,3,3335*4C
$GNRMC,032805.600,A,2500.8201871,N,12132.4470077,E,0.00,160.66,270623,,,R,V*10
$GPHDT,228.296,T*30
$GNGGA,032805.800,2500.8201857,N,12132.4470093,E,4,63,0.45,17.669,M,15.25,M,2,3335*47
$GNRMC,032805.800,A,2500.8201857,N,12132.4470093,E,0.00,160.66,270623,,,R,V*10
$GPHDT,228.439,T*33
$GNGSA,A,3,195,17,196,19,199,06,194,14,09,11,04,,0.88,0.45,0.76,1*0F
$GNGSA,A,3,67,68,82,80,83,73,,,,,,,0.88,0.45,0.76,2*00
$GNGSA,A,3,24,12,10,31,11,19,04,25,33,,,,0.88,0.45,0.76,3*0E
$GNGSA,A,3,40,07,10,14,08,33,43,13,42,11,28,37,0.88,0.45,0.76,4*06
$GNGSA,A,3,41,,,,,,,,,,,,0.88,0.45,0.76,4*01
$GPGSV,4,1,13,195,67,040,38,17,64,055,41,196,61,130,39,19,60,004,43,1*6D
$GPGSV,4,2,13,199,60,167,34,06,50,327,39,194,44,170,44,41,38,242,44,1*6F
$GPGSV,4,3,13,14,34,178,43,09,29,115,35,11,24,277,35,04,21,081,17,1*61
$GPGSV,4,4,13,12,07,322,16,1*56
$GPGSV,3,1,09,195,67,040,45,196,61,130,45,199,60,167,46,06,50,327,44,8*55
$GPGSV,3,2,09,194,44,170,46,14,34,178,44,09,29,115,41,11,24,277,41,8*52
$GPGSV,3,3,09,04,21,081,30,8*59
$GLGSV,2,1,08,67,49,077,43,68,40,154,43,82,37,025,37,80,31,238,44,1*7B
$GLGSV,2,2,08,83,30,330,19,73,22,300,31,66,12,032,20,79,07,191,16,1*72
$GAGSV,3,1,09,24,55,254,43,12,50,006,36,10,48,324,40,31,34,183,40,7*78
$GAGSV,3,2,09,11,33,292,32,19,29,094,29,04,22,157,38,25,22,313,29,7*77
$GAGSV,3,3,09,33,17,058,36,7*44
$GAGSV,3,1,09,24,55,254,45,12,50,006,42,10,48,324,43,31,34,183,42,1*7A
$GAGSV,3,2,09,11,33,292,33,19,29,094,18,04,22,157,42,25,22,313,31,1*76
$GAGSV,3,3,09,33,17,058,31,1*45
$GBGSV,4,1,14,40,83,090,40,07,83,270,40,10,71,301,36,14,60,100,41,1*7E
$GBGSV,4,2,14,08,59,260,40,33,56,157,46,43,54,042,44,13,49,250,43,1*7C
$GBGSV,4,3,14,42,44,062,38,11,35,071,39,28,33,318,42,23,23,227,,1*76
$GBGSV,4,4,14,37,18,280,33,41,15,197,28,1*70
$GBGSV,2,1,07,40,83,090,44,33,56,157,45,43,54,042,46,42,44,062,43,4*77
$GBGSV,2,2,07,28,33,318,37,37,18,280,36,41,15,197,21,4*4F
$GNGGA,032806.000,2500.8201887,N,12132.4470081,E,4,63,0.45,17.667,M,15.25,M,3,3335*4D
$GNRMC,032806.000,A,2500.8201887,N,12132.4470081,E,0.00,160.66,270623,,,R,V*15
$GPHDT,228.214,T*3A
$GNGGA,032806.200,2500.8201875,N,12132.4470098,E,4,63,0.45,17.672,M,15.25,M,1,3335*4C
$GNRMC,032806.200,A,2500.8201875,N,12132.4470098,E,0.00,160.66,270623,,,R,V*12
$GPHDT,228.219,T*37
$GNGGA,032806.400,2500.8201925,N,12132.4470095,E,4,63,0.45,17.697,M,15.25,M,1,3335*48
$GNRMC,032806.400,A,2500.8201925,N,12132.4470095,E,0.00,160.66,270623,,,R,V*1D
$GPHDT,228.416,T*3E
$GNGGA,032806.600,2500.8201897,N,12132.4470047,E,4,63,0.45,17.685,M,15.25,M,0,3335*4F
$GNRMC,032806.600,A,2500.8201897,N,12132.4470047,E,0.00,160.66,270623,,,R,V*18
$GPHDT,228.624,T*3D
$GNGGA,032806.800,2500.8201896,N,12132.4470054,E,4,63,0.45,17.696,M,15.25,M,0,3335*40
$GNRMC,032806.800,A,2500.8201896,N,12132.4470054,E,0.00,160.66,270623,,,R,V*15
$GPHDT,228.528,T*32
$GNGSA,A,3,195,17,196,19,199,06,194,14,09,11,04,,0.88,0.45,0.76,1*0F
$GNGSA,A,3,67,68,82,80,83,73,,,,,,,0.88,0.45,0.76,2*00
$GNGSA,A,3,24,12,10,31,11,19,04,25,33,,,,0.88,0.45,0.76,3*0E
$GNGSA,A,3,40,07,10,14,08,33,43,13,42,11,28,37,0.88,0.45,0.76,4*06
$GNGSA,A,3,41,,,,,,,,,,,,0.88,0.45,0.76,4*01
$GPGSV,4,1,13,195,67,040,38,17,64,055,41,196,61,130,38,19,60,004,43,1*6C
$GPGSV,4,2,13,199,60,167,34,06,50,327,39,194,44,170,44,41,38,242,44,1*6F
$GPGSV,4,3,13,14,34,178,42,09,29,115,35,11,24,277,34,04,21,081,16,1*60
$GPGSV,4,4,13,12,07,322,18,1*58
$GPGSV,3,1,09,195,67,040,45,196,61,130,45,199,60,167,46,06,50,327,43,8*52
$GPGSV,3,2,09,194,44,170,46,14,34,178,44,09,29,115,41,11,24,277,39,8*5D
$GPGSV,3,3,09,04,21,081,31,8*58
$GLGSV,2,1,08,67,49,077,43,68,40,154,43,82,37,025,37,80,31,238,44,1*7B
$GLGSV,2,2,08,83,30,330,19,73,22,300,31,66,12,032,20,79,07,191,16,1*72
$GAGSV,3,1,09,24,55,254,43,12,50,006,36,10,48,324,40,31,34,183,40,7*78
$GAGSV,3,2,09,11,33,292,32,19,29,094,29,04,22,157,38,25,22,313,26,7*78
$GAGSV,3,3,09,33,17,058,36,7*44
$GAGSV,3,1,09,24,55,254,45,12,50,006,41,10,48,324,43,31,34,183,42,1*79
$GAGSV,3,2,09,11,33,292,33,19,29,094,18,04,22,157,42,25,22,313,31,1*76
$GAGSV,3,3,09,33,17,058,31,1*45
$GBGSV,4,1,14,40,83,090,40,07,83,270,40,10,71,301,37,14,60,100,41,1*7F
$GBGSV,4,2,14,08,59,260,40,33,56,157,46,43,54,042,44,13,49,250,43,1*7C
$GBGSV,4,3,14,42,44,062,39,11,35,071,39,28,33,318,42,23,23,227,,1*77
$GBGSV,4,4,14,37,18,280,31,41,15,197,27,1*7D
$GBGSV,2,1,07,40,83,090,44,33,56,157,45,43,54,042,45,42,44,062,43,4*74
$GBGSV,2,2,07,28,33,318,37,37,18,280,36,41,15,197,21,4*4F
$GNGGA,032807.000,2500.8201904,N,12132.4470061,E,4,63,0.45,17.707,M,15.25,M,1,3335*4D
$GNRMC,032807.000,A,2500.8201904,N,12132.4470061,E,0.00,160.66,270623,,,R,V*10
$GPHDT,228.597,T*36
$GNGGA,032807.200,2500.8201922,N,12132.4470034,E,4,63,0.45,17.678,M,15.25,M,1,3335*42
$GNRMC,032807.200,A,2500.8201922,N,12132.4470034,E,0.00,160.66,270623,,,R,V*16
$GPHDT,228.177,T*3C
$GNGGA,032807.400,2500.8201920,N,12132.4470036,E,4,63,0.45,17.694,M,15.25,M,1,3335*46
$GNRMC,032807.400,A,2500.8201920,N,12132.4470036,E,0.00,160.66,270623,,,R,V*10
$GPHDT,228.600,T*3B
$GNGGA,032807.600,2500.8201926,N,12132.4470011,E,4,63,0.45,17.687,M,15.25,M,1,3335*45
$GNRMC,032807.600,A,2500.8201926,N,12132.4470011,E,0.00,160.66,270623,,,R,V*11
$GPHDT,228.293,T*35
$GNGGA,032807.800,2500.8201900,N,12132.4470015,E,4,63,0.45,17.696,M,15.25,M,1,3335*4B
$GNRMC,032807.800,A,2500.8201900,N,12132.4470015,E,0.00,160.66,270623,,,R,V*1F
$GPHDT,228.482,T*33
$GNGSA,A,3,195,17,196,19,199,06,194,14,09,11,04,,0.88,0.45,0.76,1*0F
$GNGSA,A,3,67,68,82,80,83,73,,,,,,,0.88,0.45,0.76,2*00
$GNGSA,A,3,24,12,10,31,11,19,04,25,33,,,,0.88,0.45,0.76,3*0E
$GNGSA,A,3,40,07,10,14,08,33,43,13,42,11,28,37,0.88,0.45,0.76,4*06
$GNGSA,A,3,41,,,,,,,,,,,,0.88,0.45,0.76,4*01
$GPGSV,4,1,13,195,67,040,37,17,64,055,41,196,61,130,38,19,60,004,43,1*63
$GPGSV,4,2,13,199,60,167,34,06,50,327,39,194,44,170,44,41,38,242,44,1*6F
$GPGSV,4,3,13,14,34,178,42,09,29,115,34,11,24,277,34,04,21,081,18,1*6F
$GPGSV,4,4,13,12,07,322,18,1*58
$GPGSV,3,1,09,195,67,040,45,196,61,130,45,199,60,167,46,06,50,327,43,8*52
$GPGSV,3,2,09,194,44,170,46,14,34,178,44,09,29,115,41,11,24,277,39,8*5D
$GPGSV,3,3,09,04,21,081,30,8*59
$GLGSV,2,1,08,67,49,077,43,68,40,154,43,82,37,025,36,80,31,238,44,1*7A
$GLGSV,2,2,08,83,30,330,19,73,22,300,31,66,12,032,22,79,07,191,14,1*72
$GAGSV,3,1,09,24,55,254,43,12,50,006,36,10,48,324,40,31,34,183,40,7*78
$GAGSV,3,2,09,11,33,292,33,19,29,094,29,04,22,157,38,25,22,313,26,7*79
$GAGSV,3,3,09,33,17,058,36,7*44
$GAGSV,3,1,09,24,55,254,45,12,50,006,41,10,48,324,43,31,34,183,42,1*79
$GAGSV,3,2,09,11,33,292,32,19,29,094,18,04,22,157,42,25,22,313,31,1*77
$GAGSV,3,3,09,33,17,058,31,1*45
$GBGSV,4,1,14,40,83,090,40,07,83,270,40,10,71,301,37,14,60,100,41,1*7F
$GBGSV,4,2,14,08,59,260,41,33,56,157,46,43,54,042,45,13,49,250,43,1*7C
$GBGSV,4,3,14,42,44,062,40,11,35,071,39,28,33,318,42,23,23,227,,1*79
$GBGSV,4,4,14,37,18,280,31,41,15,197,26,1*7C
$GBGSV,2,1,07,40,83,090,44,33,56,157,45,43,54,042,45,42,44,062,43,4*74
$GBGSV,2,2,07,28,33,318,37,37,18,280,36,41,15,197,21,4*4F
$GNGGA,032808.000,2500.8201917,N,12132.4470016,E,4,63,0.45,17.695,M,15.25,M,2,3335*49
$GNRMC,032808.000,A,2500.8201917,N,12132.4470016,E,0.00,160.66,270623,,,R,V*1D
$GPHDT,228.041,T*38
$GNGGA,032808.200,2500.8201898,N,12132.4470028,E,4,63,0.45,17.706,M,15.25,M,2,3335*4B
$GNRMC,032808.200,A,2500.8201898,N,12132.4470028,E,0.00,160.66,270623,,,R,V*14
$GPHDT,228.393,T*34
$GNGGA,032808.400,2500.8201901,N,12132.4470026,E,4,63,0.45,17.687,M,15.25,M,2,3335*4A
$GNRMC,032808.400,A,2500.8201901,N,12132.4470026,E,0.00,160.66,270623,,,R,V*1D
$GPHDT,228.263,T*3A
$GNGGA,032808.600,2500.8201870,N,12132.4470025,E,4,63,0.45,17.694,M,15.25,M,2,3335*4E
$GNRMC,032808.600,A,2500.8201870,N,12132.4470025,E,0.00,160.66,270623,,,R,V*1B
$GPHDT,228.402,T*3B
$GNGGA,032808.800,2500.8201902,N,12132.4470058,E,4,63,0.45,17.697,M,15.25,M,2,3335*4D
$GNRMC,032808.800,A,2500.8201902,N,12132.4470058,E,0.00,160.66,270623,,,R,V*1B
$GPHDT,228.215,T*3B
$GNGSA,A,3,195,17,196,19,199,06,194,14,09,11,04,,0.88,0.45,0.76,1*0F
$GNGSA,A,3,67,68,82,80,83,73,,,,,,,0.88,0.45,0.76,2*00
$GNGSA,A,3,24,12,10,31,11,19,04,25,33,,,,0.88,0.45,0.76,3*0E
$GNGSA,A,3,40,07,10,14,08,33,43,13,42,11,28,37,0.88,0.45,0.76,4*06
$GNGSA,A,3,41,,,,,,,,,,,,0.88,0.45,0.76,4*01
$GPGSV,4,1,13,195,67,040,37,17,64,055,42,196,61,130,38,19,60,004,43,1*60
$GPGSV,4,2,13,199,60,167,34,06,50,327,39,194,44,170,44,41,38,242,44,1*6F
$GPGSV,4,3,13,14,34,178,42,09,29,115,33,11,24,277,35,04,21,081,18,1*69
$GPGSV,4,4,13,12,07,322,17,1*57
$GPGSV,3,1,09,195,67,040,45,196,61,130,45,199,60,167,46,06,50,327,43,8*52
$GPGSV,3,2,09,194,44,170,46,14,34,178,44,09,29,115,41,11,24,277,39,8*5D
$GPGSV,3,3,09,04,21,081,31,8*58
$GLGSV,2,1,07,67,49,077,43,68,40,154,43,82,37,025,36,80,31,238,44,1*75
$GLGSV,2,2,07,83,30,330,18,73,22,300,31,79,07,191,14,1*4E
$GAGSV,3,1,09,24,55,254,43,12,50,006,36,10,48,324,40,31,34,183,40,7*78
$GAGSV,3,2,09,11,33,292,33,19,29,094,29,04,22,157,38,25,22,313,26,7*79
$GAGSV,3,3,09,33,17,058,36,7*44
$GAGSV,3,1,09,24,55,254,45,12,50,006,41,10,48,324,43,31,34,183,42,1*79
$GAGSV,3,2,09,11,33,292,32,19,29,094,18,04,22,157,42,25,22,313,31,1*77
$GAGSV,3,3,09,33,17,058,31,1*45
$GBGSV,4,1,14,40,83,090,40,07,83,270,40,10,71,301,37,14,60,100,41,1*7F
$GBGSV,4,2,14,08,59,260,41,33,56,157,46,43,54,042,45,13,49,250,43,1*7C
$GBGSV,4,3,14,42,44,062,38,11,35,071,39,28,33,318,42,23,23,227,,1*76
$GBGSV,4,4,14,37,18,280,31,41,15,197,28,1*72
$GBGSV,2,1,07,40,83,090,44,33,56,157,45,43,54,042,45,42,44,062,43,4*74
$GBGSV,2,2,07,28,33,318,37,37,18,280,36,41,15,197,21,4*4F
$GNGGA,032809.000,2500.8201900,N,12132.4470054,E,4,63,0.45,17.681,M,15.25,M,3,3335*4C
$GNRMC,032809.000,A,2500.8201900,N,12132.4470054,E,0.00,160.66,270623,,,R,V*1C
$GPHDT,228.318,T*37
$GNGGA,032809.200,2500.8201898,N,12132.4470075,E,4,63,0.45,17.676,M,15.25,M,3,3335*45
$GNRMC,032809.200,A,2500.8201898,N,12132.4470075,E,0.00,160.66,270623,,,R,V*1D
$GPHDT,228.327,T*3B
$GNGGA,032809.400,2500.8201892,N,12132.4470072,E,4,63,0.45,17.675,M,15.25,M,3,3335*4D
$GNRMC,032809.400,A,2500.8201892,N,12132.4470072,E,0.00,160.66,270623,,,R,V*16
$GPHDT,228.397,T*30
$GNGGA,032809.600,2500.8201866,N,12132.4470093,E,4,63,0.45,17.683,M,15.25,M,3,3335*42
$GNRMC,032809.600,A,2500.8201866,N,12132.4470093,E,0.00,160.66,270623,,,R,V*10
$GPHDT,228.287,T*30
$GNGGA,032809.800,2500.8201879,N,12132.4470084,E,4,64,0.45,17.680,M,15.25,M,3,3335*40
$GNRMC,032809.800,A,2500.8201879,N,12132.4470084,E,0.00,160.66,270623,,,R,V*16
$GPHDT,228.523,T*39
$GNGSA,A,3,195,17,196,19,199,06,194,14,09,11,04,,0.88,0.45,0.76,1*0F
$GNGSA,A,3,67,68,82,80,83,73,,,,,,,0.88,0.45,0.76,2*00
$GNGSA,A,3,24,12,10,31,11,19,04,25,33,,,,0.88,0.45,0.76,3*0E
$GNGSA,A,3,40,07,10,14,08,33,43,13,42,11,28,37,0.88,0.45,0.76,4*06
$GNGSA,A,3,41,,,,,,,,,,,,0.88,0.45,0.76,4*01
$GPGSV,4,1,13,195,67,040,37,17,64,055,42,196,61,130,38,19,60,004,43,1*60
$GPGSV,4,2,13,199,60,167,34,06,50,327,39,194,44,170,44,41,38,242,44,1*6F
$GPGSV,4,3,13,14,34,178,42,09,29,115,33,11,24,277,35,04,21,081,20,1*62
$GPGSV,4,4,13,12,07,322,15,1*55
$GPGSV,3,1,09,195,67,040,45,196,61,130,45,199,60,167,46,06,50,327,43,8*52
$GPGSV,3,2,09,194,44,170,46,14,34,178,44,09,29,115,40,11,24,277,39,8*5C
$GPGSV,3,3,09,04,21,081,30,8*59
$GLGSV,2,1,07,67,49,077,43,68,40,154,43,82,37,025,36,80,31,238,44,1*75
$GLGSV,2,2,07,83,30,330,18,73,22,300,30,79,07,191,1