$FW : RTK35X,V1.1X0314AS,Lib20210517,1*54
$Tool : LOCOSYS , GNSS Firebird , v1.0.0.19*39
$---------------------------------------------------*2D
$GPHDT,,T*1B
$GNACCURACY,6.5*15
$GNGGA,035644.800,2500.7992062,N,12132.4337043,E,4,41,0.70,16.787,M,15.25,M,0,3335*46
$GNRMC,035644.800,A,2500.7992062,N,12132.4337043,E,0.17,165.80,090324,,,R,V*10
$GPHDT,137.210,T*33
$GNACCURACY,6.4*14
$GNGGA,035644.900,2500.7992038,N,12132.4336995,E,4,41,0.70,16.770,M,15.25,M,0,3335*43
$GNRMC,035644.900,A,2500.7992038,N,12132.4336995,E,0.14,165.80,090324,,,R,V*1E
$GPHDT,,T*1B
$GNACCURACY,6.4*14
$GNGGA,035645.000,2500.7992032,N,12132.4337004,E,4,41,0.72,16.764,M,15.25,M,1,3335*47
$GNRMC,035645.000,A,2500.7992032,N,12132.4337004,E,0.09,165.80,090324,,,R,V*10
$GPHDT,136.742,T*30
$GNACCURACY,6.4*14
$GNGGA,035645.100,2500.7992012,N,12132.4336951,E,4,41,0.72,16.744,M,15.25,M,1,3335*4E
$GNRMC,035645.100,A,2500.7992012,N,12132.4336951,E,0.04,165.80,090324,,,R,V*16
$GPHDT,,T*1B
$GNGSA,A,3,08,194,195,199,21,27,16,26,,,,,1.02,0.72,0.72,1*3F
$GNGSA,A,3,88,78,77,79,,,,,,,,,1.02,0.72,0.72,2*00
$GNGSA,A,3,13,21,27,,,,,,,,,,1.02,0.72,0.72,3*04
$GNGSA,A,3,09,16,23,43,40,07,39,10,25,37,34,,1.02,0.72,0.72,4*03
$GPGSV,3,1,12,08,66,344,48,194,64,050,42,195,63,117,38,50,60,167,39,1*62
$GPGSV,3,2,12,199,60,167,36,21,54,161,43,02,42,178,34,27,38,033,23,1*55
$GPGSV,3,3,12,07,36,319,24,16,30,069,30,196,20,170,15,26,11,095,17,1*50
$GPGSV,2,1,07,08,66,344,48,194,64,050,44,195,63,117,45,199,60,167,45,8*5D
$GPGSV,2,2,07,27,38,033,36,196,20,170,18,26,11,095,20,8*68
$GLGSV,2,1,05,88,61,038,44,78,54,026,39,77,26,103,26,79,21,330,24,1*7B
$GLGSV,2,2,05,87,08,026,22,1*4E
$GAGSV,1,1,04,13,54,089,44,21,53,004,37,26,39,173,35,27,30,074,33,7*78
$GAGSV,1,1,04,13,54,089,43,21,53,004,43,26,39,173,34,27,30,074,41,1*7E
$GBGSV,3,1,11,09,74,276,41,16,71,197,43,23,70,017,45,43,63,040,46,1*74
$GBGSV,3,2,11,40,62,325,43,07,61,304,24,39,61,184,39,10,51,286,17,1*70
$GBGSV,3,3,11,25,41,112,45,37,26,320,28,34,16,039,25,1*41
$GBGSV,2,1,06,23,70,017,47,43,63,040,42,40,62,325,41,39,61,184,44,4*74
$GBGSV,2,2,06,25,41,112,45,37,26,320,19,4*7D
$GNACCURACY,6.4*14
$PAIRSAT,1,18,2,0,200,3,0,200,4,0,200,7,0,1,8,0,21,16,0,1,20,0,200,21,0,201,22,0,200,23,0,200,24,0,200,25,0,200,26,0,220,27,0,221,194,0,21,195,0,621,196,0,200,199,0,621*47
$PAIRSAT,2,15,70,0,200,71,0,200,73,0,200,74,0,200,75,0,200,76,0,200,77,0,1,78,0,201,79,0,201,80,0,200,84,0,200,85,0,200,86,0,200,87,0,201,88,0,201*5B
$PAIRSAT,3,16,2,0,1200,3,0,1200,4,0,1200,5,0,200,7,0,200,8,0,200,9,0,200,13,0,21,21,0,21,25,0,1000,26,0,1000,27,0,1021,30,0,1000,31,0,1000,33,0,1200,36,0,200*7D
$PAIRSAT,4,36,3,0,400,7,0,1,9,0,201,10,0,201,11,0,200,12,0,200,13,0,200,14,0,200,16,0,201,19,0,400,20,0,400,21,0,400,22,0,400,23,0,421,24,0,400,25,0,421,26,0,400,27,0,400,28,0,400,29,0,400,30,0,400,32,0,400,33,0,400,34,0,421,35,0,400,36,0,400,37,0,421,38,0,400,39,0,421,40,0,421,41,0,400,42,0,400,43,0,421,44,0,400,45,0,400,46,0,400*4A
$PAIRDGP,0*45
$GNGGA,035645.200,2500.7992043,N,12132.4337009,E,4,41,0.72,16.733,M,15.25,M,1,3335*4C
$GNRMC,035645.200,A,2500.7992043,N,12132.4337009,E,0.11,165.80,090324,,,R,V*10
$GPHDT,136.987,T*37
$GNACCURACY,6.4*14
$GNGGA,035645.300,2500.7992000,N,12132.4336967,E,4,40,0.72,16.728,M,15.25,M,1,3335*41
$GNRMC,035645.300,A,2500.7992000,N,12132.4336967,E,0.03,165.80,090324,,,R,V*15
$GPHDT,,T*1B
$GNACCURACY,6.4*14
$GNGGA,035645.400,2500.7992080,N,12132.4336998,E,4,40,0.72,16.720,M,15.25,M,1,3335*46
$GNRMC,035645.400,A,2500.7992080,N,12132.4336998,E,0.10,165.80,090324,,,R,V*18
$GPHDT,136.865,T*3A
$GNACCURACY,6.5*15
$GNGGA,035645.500,2500.7992023,N,12132.4336994,E,4,42,0.70,16.743,M,15.25,M,1,3335*47
$GNRMC,035645.500,A,2500.7992023,N,12132.4336994,E,0.07,165.80,090324,,,R,V*1A
$GPHDT,,T*1B
$GNACCURACY,6.5*15
$GNGGA,035645.600,2500.7992040,N,12132.4336878,E,4,42,0.70,16.699,M,15.25,M,0,3335*45
$GNRMC,035645.600,A,2500.7992040,N,12132.4336878,E,0.11,165.80,090324,,,R,V*18
$GPHDT,135.834,T*3D
$GNACCURACY,6.5*15
$GNGGA,035645.700,2500.7992064,N,12132.4336928,E,4,42,0.70,16.701,M,15.25,M,0,3335*46
$GNRMC,035645.700,A,2500.7992064,N,12132.4336928,E,0.16,165.80,090324,,,R,V*1C
$GPHDT,,T*1B
$GNACCURACY,6.4*14
$GNGGA,035645.800,2500.7992007,N,12132.4336911,E,4,42,0.70,16.720,M,15.25,M,0,3335*45
$GNRMC,035645.800,A,2500.7992007,N,12132.4336911,E,0.13,165.80,090324,,,R,V*19
$GPHDT,135.806,T*3C
$GNACCURACY,6.3*13
$GNGGA,035645.900,2500.7992008,N,12132.4336873,E,4,42,0.70,16.677,M,15.25,M,0,3335*4D
$GNRMC,035645.900,A,2500.7992008,N,12132.4336873,E,0.16,165.80,090324,,,R,V*17
$GPHDT,,T*1B
$GNACCURACY,6.3*13
$GNGGA,035646.000,2500.7992022,N,12132.4336915,E,4,42,0.70,16.709,M,15.25,M,1,3335*47
$GNRMC,035646.000,A,2500.7992022,N,12132.4336915,E,0.14,165.80,090324,,,R,V*16
$GPHDT,135.454,T*37
$GNACCURACY,6.3*13
$GNGGA,035646.100,2500.7992019,N,12132.4336894,E,4,42,0.70,16.701,M,15.25,M,1,3335*4E
$GNRMC,035646.100,A,2500.7992019,N,12132.4336894,E,0.11,165.80,090324,,,R,V*12
$GPHDT,,T*1B
$GNGSA,A,3,08,194,195,199,21,27,16,26,,,,,1.02,0.72,0.72,1*3F
$GNGSA,A,3,88,78,77,79,,,,,,,,,1.02,0.72,0.72,2*00
$GNGSA,A,3,13,21,27,,,,,,,,,,1.02,0.72,0.72,3*04
$GNGSA,A,3,09,16,23,43,40,07,39,10,25,37,34,,1.02,0.72,0.72,4*03
$GPGSV,3,1,12,08,66,344,48,194,64,050,40,195,63,117,39,50,60,167,39,1*61
$GPGSV,3,2,12,199,60,167,36,21,54,161,43,02,42,178,34,27,38,033,35,1*52
$GPGSV,3,3,12,07,36,319,25,16,30,069,24,196,20,170,16,26,11,095,16,1*56
$GPGSV,2,1,07,08,66,344,48,194,64,050,44,195,63,117,45,199,60,167,45,8*5D
$GPGSV,2,2,07,27,38,033,40,196,20,170,18,26,11,095,21,8*68
$GLGSV,2,1,05,88,61,038,44,78,54,026,40,77,26,103,24,79,21,330,25,1*76
$GLGSV,2,2,05,87,08,026,20,1*4C
$GAGSV,1,1,04,13,54,089,43,21,53,004,39,26,39,173,33,27,30,074,32,7*76
$GAGSV,1,1,04,13,54,089,43,21,53,004,43,26,39,173,38,27,30,074,41,1*72
$GBGSV,3,1,11,09,74,276,40,16,71,197,43,23,70,017,45,43,63,040,46,1*75
$GBGSV,3,2,11,40,62,325,42,07,61,304,20,39,61,184,39,10,51,286,17,1*75
$GBGSV,3,3,11,25,41,112,44,37,26,320,30,34,16,039,25,1*49
$GBGSV,2,1,06,23,70,017,47,43,63,040,43,40,62,325,41,39,61,184,44,4*75
$GBGSV,2,2,06,25,41,112,45,37,26,320,20,4*77
$GNACCURACY,6.3*13
$PAIRSAT,1,18,2,0,200,3,0,200,4,0,200,7,0,1,8,0,21,16,0,1,20,0,200,21,0,201,22,0,200,23,0,200,24,0,200,25,0,200,26,0,220,27,0,221,194,0,21,195,0,621,196,0,200,199,0,621*47
$PAIRSAT,2,15,70,0,200,71,0,200,73,0,200,74,0,200,75,0,200,76,0,200,77,0,1,78,0,201,79,0,201,80,0,200,84,0,200,85,0,200,86,0,200,87,0,201,88,0,201*5B
$PAIRSAT,3,16,2,0,1200,3,0,1200,4,0,1200,5,0,200,7,0,200,8,0,200,9,0,200,13,0,21,21,0,21,25,0,1000,26,0,1000,27,0,1021,30,0,1000,31,0,1000,33,0,1200,36,0,200*7D
$PAIRSAT,4,36,3,0,400,7,0,1,9,0,201,10,0,201,11,0,200,12,0,200,13,0,200,14,0,200,16,0,201,19,0,400,20,0,400,21,0,400,22,0,400,23,0,421,24,0,400,25,0,421,26,0,400,27,0,400,28,0,400,29,0,400,30,0,400,32,0,400,33,0,400,34,0,421,35,0,400,36,0,400,37,0,421,38,0,400,39,0,421,40,0,421,41,0,400,42,0,400,43,0,421,44,0,400,45,0,400,46,0,400*4A
$PAIRDGP,6,7,8,16,21,26,27*49
$GNGGA,035646.200,2500.7992011,N,12132.4336927,E,4,41,0.72,16.704,M,15.25,M,1,3335*48
$GNRMC,035646.200,A,2500.7992011,N,12132.4336927,E,0.07,165.80,090324,,,R,V*17
$GPHDT,135.459,T*3A
$GNACCURACY,6.3*13
$GNGGA,035646.300,2500.7992061,N,12132.4336958,E,4,41,0.72,16.723,M,15.25,M,1,3335*43
$GNRMC,035646.300,A,2500.7992061,N,12132.4336958,E,0.11,165.80,090324,,,R,V*1E
$GPHDT,,T*1B
$GNACCURACY,6.3*13
$GNGGA,035646.400,2500.7992049,N,12132.4336926,E,4,41,0.72,16.719,M,15.25,M,1,3335*4E
$GNRMC,035646.400,A,2500.7992049,N,12132.4336926,E,0.11,165.80,090324,,,R,V*1A
$GPHDT,136.176,T*31
$GNACCURACY,6.3*13
$GNGGA,035646.500,2500.7992037,N,12132.4336971,E,4,41,0.72,16.748,M,15.25,M,1,3335*40
$GNRMC,035646.500,A,2500.7992037,N,12132.4336971,E,0.13,165.80,090324,,,R,V*12
$GPHDT,,T*1B
$GNACCURACY,6.3*13
$GNGGA,035646.600,2500.7992064,N,12132.4336953,E,4,41,0.72,16.740,M,15.25,M,0,3335*4C
$GNRMC,035646.600,A,2500.7992064,N,12132.4336953,E,0.14,165.80,090324,,,R,V*10
$GPHDT,136.150,T*35
$GNACCURACY,6.3*13
$GNGGA,035646.700,2500.7992038,N,12132.4336966,E,4,41,0.72,16.733,M,15.25,M,0,3335*46
$GNRMC,035646.700,A,2500.7992038,N,12132.4336966,E,0.16,165.80,090324,,,R,V*1C
$GPHDT,,T*1B
$GNACCURACY,6.3*13
$GNGGA,035646.800,2500.7992030,N,12132.4337008,E,4,42,0.70,16.767,M,15.25,M,0,3335*41
$GNRMC,035646.800,A,2500.7992030,N,12132.4337008,E,0.17,165.80,090324,,,R,V*1A
$GPHDT,136.691,T*3F
$GNACCURACY,6.3*13
$GNGGA,035646.900,2500.7992038,N,12132.4337033,E,4,42,0.70,16.762,M,15.25,M,0,3335*45
$GNRMC,035646.900,A,2500.7992038,N,12132.4337033,E,0.20,165.80,090324,,,R,V*1F
$GPHDT,,T*1B
$GNACCURACY,6.3*13
$GNGGA,035647.000,2500.7992041,N,12132.4336983,E,4,42,0.70,16.747,M,15.25,M,1,3335*46
$GNRMC,035647.000,A,2500.7992041,N,12132.4336983,E,0.15,165.80,090324,,,R,V*1C
$GPHDT,136.476,T*34
$GNACCURACY,6.1*11
$GNGGA,035647.100,2500.7992044,N,12132.4336982,E,4,43,0.66,16.750,M,15.25,M,1,3335*43
$GNRMC,035647.100,A,2500.7992044,N,12132.4336982,E,0.13,165.80,090324,,,R,V*1F
$GPHDT,,T*1B
$GNGSA,A,3,08,194,195,199,21,27,07,16,26,,,,0.96,0.65,0.70,1*30
$GNGSA,A,3,88,78,77,79,,,,,,,,,0.96,0.65,0.70,2*08
$GNGSA,A,3,13,21,26,27,,,,,,,,,0.96,0.65,0.70,3*08
$GNGSA,A,3,09,16,23,43,40,07,39,10,25,37,34,,0.96,0.65,0.70,4*0B
$GPGSV,3,1,12,08,66,344,48,194,64,050,40,195,63,117,38,50,60,167,39,1*60
$GPGSV,3,2,12,199,60,167,36,21,54,161,43,02,42,178,34,27,38,033,40,1*50
$GPGSV,3,3,12,07,36,319,24,16,30,069,34,196,20,170,18,26,11,095,17,1*59
$GPGSV,2,1,07,08,66,344,48,194,64,050,42,195,63,117,45,199,60,167,45,8*5B
$GPGSV,2,2,07,27,38,033,42,196,20,170,21,26,11,095,20,8*61
$GLGSV,2,1,05,88,61,038,44,78,54,026,41,77,26,104,24,79,21,330,25,1*70
$GLGSV,2,2,05,87,08,026,16,1*49
$GAGSV,1,1,04,13,54,089,43,21,53,004,38,26,39,173,33,27,30,074,33,7*76
$GAGSV,1,1,04,13,54,089,44,21,53,004,42,26,39,173,38,27,30,074,41,1*74
$GBGSV,3,1,11,09,74,276,39,16,71,197,43,23,70,017,45,43,63,040,45,1*78
$GBGSV,3,2,11,40,62,325,42,07,61,304,19,39,61,184,39,10,51,286,19,1*71
$GBGSV,3,3,11,25,41,112,44,37,26,320,30,34,16,039,23,1*4F
$GBGSV,2,1,06,23,70,017,47,43,63,040,42,40,62,325,40,39,61,184,44,4*75
$GBGSV,2,2,06,25,41,112,45,37,26,320,18,4*7C
$GNACCURACY,6.2*12
$PAIRSAT,1,18,2,0,200,3,0,200,4,0,200,7,0,1,8,0,21,16,0,1,20,0,200,21,0,201,22,0,200,23,0,200,24,0,200,25,0,200,26,0,220,27,0,221,194,0,21,195,0,621,196,0,200,199,0,621*47
$PAIRSAT,2,15,70,0,200,71,0,200,73,0,200,74,0,200,75,0,200,76,0,200,77,0,1,78,0,201,79,0,201,80,0,200,84,0,200,85,0,200,86,0,200,87,0,201,88,0,201*5B
$PAIRSAT,3,16,2,0,1200,3,0,1200,4,0,1200,5,0,200,7,0,200,8,0,200,9,0,200,13,0,21,21,0,21,25,0,1000,26,0,1001,27,0,1021,30,0,1000,31,0,1000,33,0,1200,36,0,200*7C
$PAIRSAT,4,36,3,0,400,7,0,1,9,0,201,10,0,201,11,0,200,12,0,200,13,0,200,14,0,200,16,0,201,19,0,400,20,0,400,21,0,400,22,0,400,23,0,421,24,0,400,25,0,421,26,0,400,27,0,400,28,0,400,29,0,400,30,0,400,32,0,400,33,0,400,34,0,421,35,0,400,36,0,400,37,0,421,38,0,400,39,0,421,40,0,421,41,0,400,42,0,400,43,0,421,44,0,400,45,0,400,46,0,400*4A
$PAIRDGP,6,7,8,16,21,26,27*49
$GNGGA,035647.200,2500.7992042,N,12132.4337002,E,4,44,0.65,16.759,M,15.25,M,1,3335*4B
$GNRMC,035647.200,A,2500.7992042,N,12132.4337002,E,0.10,165.80,090324,,,R,V*19
$GPHDT,136.849,T*34
$GNACCURACY,6.2*12
$GNGGA,035647.300,2500.7992039,N,12132.4336989,E,4,44,0.65,16.768,M,15.25,M,1,3335*4F
$GNRMC,035647.300,A,2500.7992039,N,12132.4336989,E,0.09,165.80,090324,,,R,V*17
$GPHDT,,T*1B
$GNACCURACY,6.2*12
$GNGGA,035647.400,2500.7992033,N,12132.4336997,E,4,44,0.65,16.764,M,15.25,M,1,3335*41
$GNRMC,035647.400,A,2500.7992033,N,12132.4336997,E,0.09,165.80,090324,,,R,V*15
$GPHDT,136.471,T*33
$GNACCURACY,6.2*12
$GNGGA,035647.500,2500.7992056,N,12132.4337001,E,4,44,0.65,16.753,M,15.25,M,1,3335*40
$GNRMC,035647.500,A,2500.7992056,N,12132.4337001,E,0.10,165.80,090324,,,R,V*18
$GPHDT,,T*1B
$GNACCURACY,6.1*11
$GNGGA,035647.600,2500.7992039,N,12132.4336993,E,4,44,0.65,16.761,M,15.25,M,0,3335*49
$GNRMC,035647.600,A,2500.7992039,N,12132.4336993,E,0.10,165.80,090324,,,R,V*11
$GPHDT,136.657,T*35
$GNACCURACY,6.1*11
$GNGGA,035647.700,2500.7992026,N,12132.4336946,E,4,44,0.65,16.745,M,15.25,M,0,3335*48
$GNRMC,035647.700,A,2500.7992026,N,12132.4336946,E,0.12,165.80,090324,,,R,V*14
$GPHDT,,T*1B
$GNACCURACY,6.1*11
$GNGGA,035647.800,2500.7992052,N,12132.4336985,E,4,44,0.65,16.765,M,15.25,M,0,3335*49
$GNRMC,035647.800,A,2500.7992052,N,12132.4336985,E,0.16,165.80,090324,,,R,V*13
$GPHDT,136.864,T*3B
$GNACCURACY,6.1*11
$GNGGA,035647.900,2500.7992029,N,12132.4336992,E,4,44,0.65,16.772,M,15.25,M,0,3335*44
$GNRMC,035647.900,A,2500.7992029,N,12132.4336992,E,0.16,165.80,090324,,,R,V*18
$GPHDT,,T*1B
$GNACCURACY,6.1*11
$GNGGA,035648.000,2500.7992048,N,12132.4336986,E,4,44,0.65,16.758,M,15.25,M,1,3335*49
$GNRMC,035648.000,A,2500.7992048,N,12132.4336986,E,0.15,165.80,090324,,,R,V*1F
$GPHDT,136.718,T*3F
$GNACCURACY,6.1*11
$GNGGA,035648.100,2500.7992051,N,12132.4336990,E,4,44,0.65,16.749,M,15.25,M,1,3335*47
$GNRMC,035648.100,A,2500.7992051,N,12132.4336990,E,0.08,165.80,090324,,,R,V*1D
$GPHDT,,T*1B
$GNGSA,A,3,08,194,195,199,21,27,07,16,26,,,,0.96,0.65,0.70,1*30
$GNGSA,A,3,88,78,77,79,,,,,,,,,0.96,0.65,0.70,2*08
$GNGSA,A,3,13,21,26,27,,,,,,,,,0.96,0.65,0.70,3*08
$GNGSA,A,3,09,16,23,43,40,07,39,10,25,37,34,,0.96,0.65,0.70,4*0B
$GPGSV,3,1,12,08,66,344,48,194,64,050,40,195,63,117,38,50,60,167,39,1*60
$GPGSV,3,2,12,199,60,167,37,21,54,161,43,02,42,178,35,27,38,033,40,1*50
$GPGSV,3,3,12,07,36,319,24,16,30,069,33,196,20,170,18,26,11,095,17,1*5E
$GPGSV,2,1,07,08,66,344,48,194,64,050,42,195,63,117,45,199,60,167,45,8*5B
$GPGSV,2,2,07,27,38,033,42,196,20,170,23,26,11,095,19,8*69
$GLGSV,2,1,05,88,61,038,44,78,54,026,41,77,26,104,25,79,21,330,24,1*70
$GLGSV,2,2,05,87,08,026,16,1*49
$GAGSV,1,1,04,13,54,089,43,21,53,004,38,26,39,173,34,27,30,074,31,7*73
$GAGSV,1,1,04,13,54,089,44,21,53,004,42,26,39,173,38,27,30,074,41,1*74
$GBGSV,3,1,11,09,74,276,40,16,71,197,43,23,70,017,45,43,63,040,45,1*76
$GBGSV,3,2,11,40,62,325,42,07,61,304,20,39,61,184,39,10,51,286,19,1*7B
$GBGSV,3,3,11,25,41,112,44,37,26,320,30,34,16,039,20,1*4C
$GBGSV,2,1,06,23,70,017,47,43,63,040,42,40,62,325,40,39,61,184,44,4*75
$GBGSV,2,2,06,25,41,112,45,37,26,320,17,4*73
$GNACCURACY,6.1*11
$PAIRSAT,1,18,2,0,200,3,0,200,4,0,200,7,0,1,8,0,21,16,0,1,20,0,200,21,0,201,22,0,200,23,0,200,24,0,200,25,0,200,26,0,220,27,0,221,194,0,21,195,0,621,196,0,200,199,0,621*47
$PAIRSAT,2,15,70,0,200,71,0,200,73,0,200,74,0,200,75,0,200,76,0,200,77,0,1,78,0,201,79,0,201,80,0,200,84,0,200,85,0,200,86,0,200,87,0,201,88,0,201*5B
$PAIRSAT,3,16,2,0,1200,3,0,1200,4,0,1200,5,0,200,7,0,200,8,0,200,9,0,200,13,0,21,21,0,21,25,0,1000,26,0,1001,27,0,1021,30,0,1000,31,0,1000,33,0,1200,36,0,200*7C
$PAIRSAT,4,36,3,0,400,7,0,1,9,0,201,10,0,201,11,0,200,12,0,200,13,0,200,14,0,200,16,0,201,19,0,400,20,0,400,21,0,400,22,0,400,23,0,421,24,0,400,25,0,421,26,0,400,27,0,400,28,0,400,29,0,400,30,0,400,32,0,400,33,0,400,34,0,421,35,0,400,36,0,400,37,0,421,38,0,400,39,0,421,40,0,421,41,0,400,42,0,400,43,0,421,44,0,400,45,0,400,46,0,400*4A
$PAIRDGP,6,7,8,16,21,26,27*49
$GNGGA,035648.200,2500.7992050,N,12132.4336965,E,4,44,0.65,16.749,M,15.25,M,1,3335*4F
$GNRMC,035648.200,A,2500.7992050,N,12132.4336965,E,0.05,165.80,090324,,,R,V*18
$GPHDT,136.828,T*33
$GNACCURACY,6.2*12
$GNGGA,035648.300,2500.7992064,N,12132.4336970,E,4,44,0.65,16.743,M,15.25,M,1,3335*47
$GNRMC,035648.300,A,2500.7992064,N,12132.4336970,E,0.07,165.80,090324,,,R,V*18
$GPHDT,,T*1B
$GNACCURACY,6.2*12
$GNGGA,035648.400,2500.7992038,N,12132.4336981,E,4,44,0.65,16.733,M,15.25,M,1,3335*40
$GNRMC,035648.400,A,2500.7992038,N,12132.4336981,E,0.06,165.80,090324,,,R,V*19
$GPHDT,136.013,T*33
$GNACCURACY,6.2*12
$GNGGA,035648.500,2500.7992071,N,12132.4336975,E,4,44,0.65,16.723,M,15.25,M,1,3335*46
$GNRMC,035648.500,A,2500.7992071,N,12132.4336975,E,0.10,165.80,090324,,,R,V*19
$GPHDT,,T*1B
$GNACCURACY,6.2*12
$GNGGA,035648.600,2500.7992047,N,12132.4336995,E,4,45,0.65,16.743,M,15.25,M,1,3335*49
$GNRMC,035648.600,A,2500.7992047,N,12132.4336995,E,0.10,165.80,090324,,,R,V*11
$GPHDT,136.523,T*35
$GNACCURACY,6.2*12
$GNGGA,035648.700,2500.7992066,N,12132.4337040,E,4,45,0.65,16.751,M,15.25,M,0,3335*49
$GNRMC,035648.700,A,2500.7992066,N,12132.4337040,E,0.12,165.80,090324,,,R,V*11
$GPHDT,,T*1B
$GNACCURACY,6.2*12
$GNGGA,035648.800,2500.7992076,N,12132.4337020,E,4,45,0.65,16.755,M,15.25,M,0,3335*45
$GNRMC,035648.800,A,2500.7992076,N,12132.4337020,E,0.14,165.80,090324,,,R,V*1F
$GPHDT,136.595,T*38
$GNACCURACY,6.2*12
$GNGGA,035648.900,2500.7992051,N,12132.4337019,E,4,45,0.65,16.731,M,15.25,M,0,3335*49
$GNRMC,035648.900,A,2500.7992051,N,12132.4337019,E,0.16,165.80,090324,,,R,V*13
$GPHDT,,T*1B
$GNACCURACY,6.2*12
$GNGGA,035649.000,2500.7992065,N,12132.4337014,E,4,45,0.65,16.759,M,15.25,M,1,3335*44
$GNRMC,035649.000,A,2500.7992065,N,12132.4337014,E,0.13,165.80,090324,,,R,V*14
$GPHDT,136.434,T*32
$GNACCURACY,6.2*12
$GNGGA,035649.100,2500.7992070,N,12132.4337044,E,4,45,0.65,16.744,M,15.25,M,1,3335*48
$GNRMC,035649.100,A,2500.7992070,N,12132.4337044,E,0.10,165.80,090324,,,R,V*17
$GPHDT,,T*1B
$GNGSA,A,3,08,194,195,199,21,27,07,16,26,,,,0.96,0.65,0.70,1*30
$GNGSA,A,3,88,78,77,79,,,,,,,,,0.96,0.65,0.70,2*08
$GNGSA,A,3,13,21,26,27,,,,,,,,,0.96,0.65,0.70,3*08
$GNGSA,A,3,09,16,23,43,40,07,39,10,25,37,34,,0.96,0.65,0.70,4*0B
$GPGSV,3,1,12,08,66,344,48,194,64,050,40,195,63,117,39,50,60,167,40,1*6F
$GPGSV,3,2,12,199,60,167,37,21,54,161,43,02,42,178,35,27,38,033,40,1*50
$GPGSV,3,3,12,07,36,319,23,16,30,069,33,196,20,170,18,26,11,095,18,1*56
$GPGSV,2,1,07,08,66,344,48,194,64,050,42,195,63,117,45,199,60,167,44,8*5A
$GPGSV,2,2,07,27,38,033,42,196,20,170,20,26,11,095,17,8*64
$GLGSV,2,1,05,88,61,038,44,78,54,026,41,77,26,104,22,79,21,330,24,1*77
$GLGSV,2,2,05,87,08,026,16,1*49
$GAGSV,1,1,04,13,54,089,43,21,53,004,38,26,39,173,33,27,30,074,32,7*77
$GAGSV,1,1,04,13,54,089,44,21,53,004,42,26,39,173,38,27,30,074,41,1*74
$GBGSV,3,1,11,09,74,275,40,16,71,197,43,23,70,017,45,43,63,040,45,1*75
$GBGSV,3,2,11,40,62,325,42,07,61,304,20,39,61,184,39,10,51,286,18,1*7A
$GBGSV,3,3,11,25,41,112,45,37,26,320,28,34,16,039,20,1*44
$GBGSV,2,1,07,23,70,017,47,43,63,040,42,40,62,325,40,39,61,184,44,4*74
$GBGSV,2,2,07,25,41,112,45,37,26,320,15,34,16,039,19,4*42
$GNACCURACY,6.2*12
$PAIRSAT,1,18,2,0,200,3,0,200,4,0,200,7,0,1,8,0,21,16,0,1,20,0,200,21,0,201,22,0,200,23,0,200,24,0,200,25,0,200,26,0,220,27,0,221,194,0,21,195,0,621,196,0,200,199,0,621*47
$PAIRSAT,2,15,70,0,200,71,0,200,73,0,200,74,0,200,75,0,200,76,0,200,77,0,1,78,0,201,79,0,201,80,0,200,84,0,200,85,0,200,86,0,200,87,0,201,88,0,201*5B
$PAIRSAT,3,16,2,0,1200,3,0,1200,4,0,1200,5,0,200,7,0,200,8,0,200,9,0,200,13,0,21,21,0,21,25,0,1000,26,0,1001,27,0,1021,30,0,1000,31,0,1000,33,0,1200,36,0,200*7C
$PAIRSAT,4,36,3,0,400,7,0,1,9,0,201,10,0,201,11,0,200,12,0,200,13,0,200,14,0,200,16,0,201,19,0,400,20,0,400,21,0,400,22,0,400,23,0,421,24,0,400,25,0,421,26,0,400,27,0,400,28,0,400,29,0,400,30,0,400,32,0,400,33,0,400,34,0,421,35,0,400,36,0,400,37,0,421,38,0,400,39,0,421,40,0,421,41,0,400,42,0,400,43,0,421,44,0,400,45,0,400,46,0,400*4A
$PAIRDGP,6,7,8,16,21,26,27*49
$GNGGA,035649.200,2500.7992063,N,12132.4337020,E,4,45,0.65,16.745,M,15.25,M,1,3335*4A
$GNRMC,035649.200,A,2500.7992063,N,12132.4337020,E,0.08,165.80,090324,,,R,V*1D
$GPHDT,136.064,T*33
$GNACCURACY,6.2*12
$GNGGA,035649.300,2500.7992081,N,12132.4337030,E,4,45,0.65,16.744,M,15.25,M,1,3335*47
$GNRMC,035649.300,A,2500.7992081,N,12132.4337030,E,0.09,165.80,090324,,,R,V*10
$GPHDT,,T*1B
$GNACCURACY,6.2*12
$GNGGA,035649.400,2500.7992065,N,12132.4337047,E,4,45,0.65,16.750,M,15.25,M,1,3335*4F
$GNRMC,035649.400,A,2500.7992065,N,12132.4337047,E,0.06,165.80,090324,,,R,V*12
$GPHDT,136.173,T*34
$GNACCURACY,6.2*12
$GNGGA,035649.500,2500.7992063,N,12132.4337033,E,4,45,0.65,16.755,M,15.25,M,1,3335*4E
$GNRMC,035649.500,A,2500.7992063,N,12132.4337033,E,0.09,165.80,090324,,,R,V*19
$GPHDT,,T*1B
$GNACCURACY,6.1*11
$GNGGA,035649.600,2500.7992052,N,12132.4337031,E,4,45,0.65,16.742,M,15.25,M,1,3335*4B
$GNRMC,035649.600,A,2500.7992052,N,12132.4337031,E,0.11,165.80,090324,,,R,V*13
$GPHDT,136.535,T*32
$GNACCURACY,6.2*12
$GNGGA,035649.700,2500.7992075,N,12132.4336968,E,4,45,0.65,16.728,M,15.25,M,0,3335*46
$GNRMC,035649.700,A,2500.7992075,N,12132.4336968,E,0.12,165.80,090324,,,R,V*10
$GPHDT,,T*1B
$GNACCURACY,6.1*11
$GNGGA,035649.800,2500.7992075,N,12132.4337013,E,4,45,0.65,16.745,M,15.25,M,0,3335*46
$GNRMC,035649.800,A,2500.7992075,N,12132.4337013,E,0.16,165.80,090324,,,R,V*1F
$GPHDT,137.290,T*3B
$GNACCURACY,6.1*11
$GNGGA,035649.900,2500.7992062,N,12132.4336988,E,4,45,0.65,16.741,M,15.25,M,0,3335*4F
$GNRMC,035649.900,A,2500.7992062,N,12132.4336988,E,0.16,165.80,090324,,,R,V*12
$GPHDT,,T*1B
$GNACCURACY,6.1*11
$GNGGA,035650.000,2500.7992080,N,12132.4336971,E,4,45,0.65,16.727,M,15.25,M,1,3335*45
$GNRMC,035650.000,A,2500.7992080,N,12132.4336971,E,0.14,165.80,090324,,,R,V*1B
$GPHDT,137.393,T*39
$GNACCURACY,6.1*11
$GNGGA,035650.100,2500.7992078,N,12132.4337012,E,4,45,0.65,16.743,M,15.25,M,1,3335*4C
$GNRMC,035650.100,A,2500.7992078,N,12132.4337012,E,0.08,165.80,090324,,,R,V*1D
$GPHDT,,T*1B
$GNGSA,A,3,08,194,195,199,21,27,07,16,26,,,,0.96,0.65,0.70,1*30
$GNGSA,A,3,88,78,77,79,,,,,,,,,0.96,0.65,0.70,2*08
$GNGSA,A,3,13,21,26,27,,,,,,,,,0.96,0.65,0.70,3*08
$GNGSA,A,3,09,16,23,43,40,07,39,10,25,37,34,,0.96,0.65,0.70,4*0B
$GPGSV,3,1,12,08,66,344,48,194,64,050,40,195,63,117,39,50,60,167,40,1*6F
$GPGSV,3,2,12,199,60,167,37,21,54,161,43,02,42,178,35,27,38,033,40,1*50
$GPGSV,3,3,12,07,36,319,25,16,30,069,33,196,20,170,19,26,11,095,18,1*51
$GPGSV,2,1,07,08,66,344,48,194,64,050,42,195,63,117,45,199,60,167,44,8*5A
$GPGSV,2,2,07,27,38,033,42,196,20,170,21,26,11,095,18,8*6A
$GLGSV,2,1,05,88,61,038,44,78,54,026,42,77,26,104,22,79,21,330,25,1*75
$GLGSV,2,2,05,87,08,026,18,1*47
$GAGSV,1,1,04,13,54,089,43,21,53,004,38,26,39,173,33,27,30,074,31,7*74
$GAGSV,1,1,04,13,54,089,44,21,53,004,42,26,39,173,38,27,30,074,41,1*74
$GBGSV,3,1,11,09,74,275,40,16,71,197,43,23,70,017,45,43,63,040,45,1*75
$GBGSV,3,2,11,40,62,325,42,07,61,304,22,39,61,184,39,10,51,286,18,1*78
$GBGSV,3,3,11,25,40,112,45,37,26,320,29,34,16,039,20,1*44
$GBGSV,2,1,07,23,70,017,47,43,63,040,42,40,62,325,40,39,61,184,44,4*74
$GBGSV,2,2,07,25,40,112,45,37,26,320,18,34,16,039,21,4*45
$GNACCURACY,6.1*11
$PAIRSAT,1,18,2,0,200,3,0,200,4,0,200,7,0,1,8,0,21,16,0,1,20,0,200,21,0,201,22,0,200,23,0,200,24,0,200,25,0,200,26,0,220,27,0,221,194,0,21,195,0,621,196,0,200,199,0,621*47
$PAIRSAT,2,15,70,0,200,71,0,200,73,0,200,74,0,200,75,0,200,76,0,200,77,0,1,78,0,201,79,0,201,80,0,200,84,0,200,85,0,200,86,0,200,87,0,201,88,0,201*5B
$PAIRSAT,3,16,2,0,1200,3,0,1200,4,0,1200,5,0,200,7,0,200,8,0,200,9,0,200,13,0,21,21,0,21,25,0,1000,26,0,1001,27,0,1021,30,0,1000,31,0,1000,33,0,1200,36,0,200*7C
$PAIRSAT,4,36,3,0,400,7,0,1,9,0,201,10,0,201,11,0,200,12,0,200,13,0,200,14,0,200,16,0,201,19,0,400,20,0,400,21,0,400,22,0,400,23,0,421,24,0,400,25,0,421,26,0,400,27,0,400,28,0,400,29,0,400,30,0,400,32,0,400,33,0,400,34,0,421,35,0,400,36,0,400,37,0,421,38,0,400,39,0,421,40,0,421,41,0,400,42,0,400,43,0,421,44,0,400,45,0,400,46,0,400*4A
$PAIRDGP,6,7,8,16,21,26,27*49
$GNGGA,035650.200,2500.7992069,N,12132.4336993,E,4,45,0.65,16.732,M,15.25,M,1,3335*48
$GNRMC,035650.200,A,2500.7992069,N,12132.4336993,E,0.06,165.80,090324,,,R,V*11
$GPHDT,136.982,T*32
$GNACCURACY,6.1*11
$GNGGA,035650.300,2500.7992069,N,12132.4336978,E,4,45,0.65,16.736,M,15.25,M,1,3335*48
$GNRMC,035650.300,A,2500.7992069,N,12132.4336978,E,0.05,165.80,090324,,,R,V*16
$GPHDT,,T*1B
$GNACCURACY,6.1*11
$GNGGA,035650.400,2500.7992102,N,12132.4336988,E,4,45,0.65,16.743,M,15.25,M,1,3335*4E
$GNRMC,035650.400,A,2500.7992102,N,12132.4336988,E,0.07,165.80,090324,,,R,V*10
$GPHDT,137.404,T*30
$GNACCURACY,6.1*11
$GNGGA,035650.500,2500.7992074,N,12132.4336978,E,4,45,0.65,16.734,M,15.25,M,1,3335*40
$GNRMC,035650.500,A,2500.7992074,N,12132.4336978,E,0.08,165.80,090324,,,R,V*11
$GPHDT,,T*1B
$GNACCURACY,6.0*10
$GNGGA,035650.600,2500.7992082,N,12132.4337006,E,4,45,0.65,16.739,M,15.25,M,0,3335*47
$GNRMC,035650.600,A,2500.7992082,N,12132.4337006,E,0.08,165.80,090324,,,R,V*1A
$GPHDT,137.027,T*35
$GNACCURACY,6.1*11
$GNGGA,035650.700,2500.7992076,N,12132.4337023,E,4,45,0.65,16.739,M,15.25,M,0,3335*4A
$GNRMC,035650.700,A,2500.7992076,N,12132.4337023,E,0.11,165.80,090324,,,R,V*1F
$GPHDT,,T*1B
$GNACCURACY,6.1*11
$GNGGA,035650.800,2500.7992070,N,12132.4337003,E,4,45,0.65,16.746,M,15.25,M,0,3335*49
$GNRMC,035650.800,A,2500.7992070,N,12132.4337003,E,0.12,165.80,090324,,,R,V*17
$GPHDT,136.801,T*38
$GNACCURACY,6.1*11
$GNGGA,035650.900,2500.7992075,N,12132.4336978,E,4,45,0.65,16.736,M,15.25,M,0,3335*4E
$GNRMC,035650.900,A,2500.7992075,N,12132.4336978,E,0.14,165.80,090324,,,R,V*11
$GPHDT,,T*1B
$GNACCURACY,6.0*10
$GNGGA,035651.000,2500.7992085,N,12132.4337006,E,4,45,0.65,16.746,M,15.25,M,1,3335*4E
$GNRMC,035651.000,A,2500.7992085,N,12132.4337006,E,0.13,165.80,090324,,,R,V*10
$GPHDT,136.601,T*36
$GNACCURACY,6.0*10
$GNGGA,035651.100,2500.7992078,N,12132.4337021,E,4,45,0.65,16.750,M,15.25,M,1,3335*4F
$GNRMC,035651.100,A,2500.7992078,N,12132.4337021,E,0.07,165.80,090324,,,R,V*13
$GPHDT,,T*1B
$GNGSA,A,3,08,194,195,199,21,27,07,16,26,,,,0.96,0.65,0.70,1*30
$GNGSA,A,3,88,78,77,79,,,,,,,,,0.96,0.65,0.70,2*08
$GNGSA,A,3,13,21,26,27,,,,,,,,,0.96,0.65,0.70,3*08
$GNGSA,A,3,09,16,23,43,40,07,39,10,25,37,34,,0.96,0.65,0.70,4*0B
$GPGSV,3,1,12,08,66,344,48,194,64,050,40,195,63,117,39,50,60,167,40,1*6F
$GPGSV,3,2,12,199,60,167,37,21,54,161,43,02,42,178,35,27,38,033,40,1*50
$GPGSV,3,3,12,07,36,319,25,16,30,069,33,196,20,170,20,26,11,095,19,1*5A
$GPGSV,2,1,07,08,66,344,48,194,64,050,42,195,63,117,45,199,60,167,44,8*5A
$GPGSV,2,2,07,27,38,033,42,196,20,170,22,26,11,095,19,8*68
$GLGSV,2,1,05,88,61,038,44,78,54,026,42,77,26,104,22,79,21,330,25,1*75
$GLGSV,2,2,05,87,08,026,19,1*46
$GAGSV,1,1,04,13,54,089,43,21,53,004,38,26,39,173,33,27,30,074,31,7*74
$GAGSV,1,1,04,13,54,089,44,21,53,004,42,26,39,173,38,27,30,074,41,1*74
$GBGSV,3,1,11,09,74,275,40,16,71,197,43,23,70,017,45,43,63,040,45,1*75
$GBGSV,3,2,11,40,62,325,42,07,61,304,20,39,61,184,39,10,51,286,18,1*7A
$GBGSV,3,3,11,25,40,112,45,37,26,320,30,34,15,039,20,1*4F
$GBGSV,2,1,07,23,70,017,47,43,63,040,42,40,62,325,40,39,61,184,44,4*74
$GBGSV,2,2,07,25,40,112,45,37,26,320,21,34,15,039,22,4*4F
$GNACCURACY,6.0*10
$PAIRSAT,1,18,2,0,200,3,0,200,4,0,200,7,0,1,8,0,21,16,0,1,20,0,200,21,0,201,22,0,200,23,0,200,24,0,200,25,0,200,26,0,220,27,0,221,194,0,21,195,0,621,196,0,200,199,0,621*47
$PAIRSAT,2,15,70,0,200,71,0,200,73,0,200,74,0,200,75,0,200,76,0,200,77,0,1,78,0,201,79,0,201,80,0,200,84,0,200,85,0,200,86,0,200,87,0,201,88,0,201*5B
$PAIRSAT,3,16,2,0,1200,3,0,1200,4,0,1200,5,0,200,7,0,200,8,0,200,9,0,200,13,0,21,21,0,21,25,0,1000,26,0,1001,27,0,1021,30,0,1000,31,0,1000,33,0,1200,36,0,200*7C
$PAIRSAT,4,36,3,0,400,7,0,1,9,0,201,10,0,201,11,0,200,12,0,200,13,0,200,14,0,200,16,0,201,19,0,400,20,0,400,21,0,400,22,0,400,23,0,421,24,0,400,25,0,421,26,0,400,27,0,400,28,0,400,29,0,400,30,0,400,32,0,400,33,0,400,34,0,421,35,0,400,36,0,400,37,0,421,38,0,400,39,0,421,40,0,421,41,0,400,42,0,400,43,0,421,44,0,400,45,0,400,46,0,400*4A
$PAIRDGP,6,7,8,16,21,26,27*49
$GNGGA,035651.200,2500.7992072,N,12132.4337042,E,4,45,0.65,16.738,M,15.25,M,1,3335*4D
$GNRMC,035651.200,A,2500.7992072,N,12132.4337042,E,0.07,165.80,090324,,,R,V*1F
$GPHDT,137.626,T*32
$GNACCURACY,6.1*11
$GNGGA,035651.300,2500.7992064,N,12132.4337027,E,4,44,0.66,16.750,M,15.25,M,1,3335*44
$GNRMC,035651.300,A,2500.7992064,N,12132.4337027,E,0.06,165.80,090324,,,R,V*1B
$GPHDT,,T*1B
$GNACCURACY,6.1*11
$GNGGA,035651.400,2500.7992085,N,12132.4337059,E,4,45,0.65,16.759,M,15.25,M,1,3335*4E
$GNRMC,035651.400,A,2500.7992085,N,12132.4337059,E,0.06,165.80,090324,,,R,V*1A
$GPHDT,137.240,T*36
$GNACCURACY,6.1*11
$GNGGA,035651.500,2500.7992044,N,12132.4336981,E,4,44,0.66,16.724,M,15.25,M,0,3335*46
$GNRMC,035651.500,A,2500.7992044,N,12132.4336981,E,0.06,165.80,090324,,,R,V*1B
$GPHDT,,T*1B
$GNACCURACY,6.1*11
$GNGGA,035651.600,2500.7992067,N,12132.4336992,E,4,44,0.66,16.743,M,15.25,M,0,3335*47
$GNRMC,035651.600,A,2500.7992067,N,12132.4336992,E,0.09,165.80,090324,,,R,V*14
$GPHDT,137.670,T*31
$GNACCURACY,6.0*10
$GNGGA,035651.700,2500.7992060,N,12132.4336937,E,4,44,0.66,16.722,M,15.25,M,0,3335*49
$GNRMC,035651.700,A,2500.7992060,N,12132.4336937,E,0.11,165.80,090324,,,R,V*14
$GPHDT,,T*1B
$GNACCURACY,6.0*10
$GNGGA,035651.800,2500.7992053,N,12132.4336969,E,4,44,0.66,16.725,M,15.25,M,0,3335*4A
$GNRMC,035651.800,A,2500.7992053,N,12132.4336969,E,0.13,165.80,090324,,,R,V*12
$GPHDT,137.188,T*31
$GNACCURACY,6.0*10
$GNGGA,035651.900,2500.7992064,N,12132.4336993,E,4,44,0.66,16.726,M,15.25,M,0,3335*49
$GNRMC,035651.900,A,2500.7992064,N,12132.4336993,E,0.16,165.80,090324,,,R,V*17
$GPHDT,,T*1B
$GNACCURACY,6.0*10
$GNGGA,035652.000,2500.7992070,N,12132.4336996,E,4,44,0.66,16.740,M,15.25,M,1,3335*42
$GNRMC,035652.000,A,2500.7992070,N,12132.4336996,E,0.11,165.80,090324,,,R,V*1A
$GPHDT,137.721,T*34
$GNACCURACY,6.0*10
$GNGGA,035652.100,2500.7992060,N,12132.4336974,E,4,44,0.66,16.721,M,15.25,M,1,3335*49
$GNRMC,035652.100,A,2500.7992060,N,12132.4336974,E,0.07,165.80,090324,,,R,V*11
$GPHDT,,T*1B
$GNGSA,A,3,08,194,195,199,21,27,07,16,26,,,,0.96,0.66,0.70,1*33
$GNGSA,A,3,88,78,77,79,,,,,,,,,0.96,0.66,0.70,2*0B
$GNGSA,A,3,13,21,26,27,,,,,,,,,0.96,0.66,0.70,3*0B
$GNGSA,A,3,09,16,23,43,40,39,10,25,37,34,,,0.96,0.66,0.70,4*0F
$GPGSV,3,1,12,08,66,344,48,194,64,050,40,195,63,117,39,50,60,167,40,1*6F
$GPGSV,3,2,12,199,60,167,37,21,54,161,43,02,42,178,35,27,38,033,40,1*50
$GPGSV,3,3,12,07,36,319,27,16,30,069,34,196,20,170,17,26,11,095,18,1*5A
$GPGSV,2,1,07,08,66,344,48,194,64,050,42,195,63,117,45,199,60,167,44,8*5A
$GPGSV,2,2,07,27,38,033,43,196,20,170,22,26,11,095,19,8*69
$GLGSV,2,1,05,88,61,038,44,78,54,026,42,77,26,104,20,79,21,330,21,1*73
$GLGSV,2,2,05,87,08,026,19,1*46
$GAGSV,1,1,04,13,54,089,43,21,53,004,38,26,39,173,34,27,30,074,31,7*73
$GAGSV,1,1,04,13,54,089,44,21,53,004,42,26,39,173,38,27,30,074,42,1*77
$GBGSV,3,1,11,09,74,275,40,16,71,197,43,23,70,017,45,43,63,040,45,1*75
$GBGSV,3,2,11,40,62,325,42,07,61,304,19,39,61,184,39,10,51,286,18,1*70
$GBGSV,3,3,11,25,40,112,45,37,26,320,30,34,15,039,18,1*44
$GBGSV,2,1,07,23,70,017,47,43,63,040,42,40,62,325,40,39,61,184,44,4*74
$GBGSV,2,2,07,25,40,112,45,37,26,320,22,34,15,039,23,4*4D
$GNACCURACY,6.0*10
$PAIRSAT,1,18,2,0,200,3,0,200,4,0,200,7,0,1,8,0,21,16,0,1,20,0,200,21,0,201,22,0,200,23,0,200,24,0,200,25,0,200,26,0,220,27,0,221,194,0,21,195,0,621,196,0,200,199,0,621*47
$PAIRSAT,2,15,70,0,200,71,0,200,73,0,200,74,0,200,75,0,200,76,0,200,77,0,1,78,0,201,79,0,201,80,0,200,84,0,200,85,0,200,86,0,200,87,0,201,88,0,201*5B
$PAIRSAT,3,16,2,0,1200,3,0,1200,4,0,1200,5,0,200,7,0,200,8,0,200,9,0,200,13,0,21,21,0,21,25,0,1000,26,0,1001,27,0,1021,30,0,1000,31,0,1000,33,0,1200,36,0,200*7C
$PAIRSAT,4,36,3,0,400,7,0,1,9,0,201,10,0,201,11,0,200,12,0,200,13,0,200,14,0,200,16,0,201,19,0,400,20,0,400,21,0,400,22,0,400,23,0,421,24,0,400,25,0,421,26,0,400,27,0,400,28,0,400,29,0,400,30,0,400,32,0,400,33,0,400,34,0,421,35,0,400,36,0,400,37,0,421,38,0,400,39,0,421,40,0,421,41,0,400,42,0,400,43,0,421,44,0,400,45,0,400,46,0,400*4A
$PAIRDGP,6,7,8,16,21,26,27*49
$GNGGA,035652.200,2500.7992065,N,12132.4336985,E,4,44,0.66,16.736,M,15.25,M,1,3335*47
$GNRMC,035652.200,A,2500.7992065,N,12132.4336985,E,0.05,165.80,090324,,,R,V*1B
$GPHDT,137.332,T*32
$GNACCURACY,6.0*10
$GNGGA,035652.300,2500.7992043,N,12132.4336981,E,4,44,0.66,16.722,M,15.25,M,1,3335*43
$GNRMC,035652.300,A,2500.7992043,N,12132.4336981,E,0.06,165.80,090324,,,R,V*19
$GPHDT,,T*1B
$GNACCURACY,6.0*10
$GNGGA,035652.400,2500.7992080,N,12132.4336985,E,4,44,0.66,16.738,M,15.25,M,1,3335*44
$GNRMC,035652.400,A,2500.7992080,N,12132.4336985,E,0.08,165.80,090324,,,R,V*1B
$GPHDT,137.604,T*32
$GNACCURACY,6.0*10
$GNGGA,035652.500,2500.7992075,N,12132.4336989,E,4,44,0.66,16.733,M,15.25,M,1,3335*48
$GNRMC,035652.500,A,2500.7992075,N,12132.4336989,E,0.09,165.80,090324,,,R,V*1D
$GPHDT,,T*1B
$GNACCURACY,6.0*10
$GNGGA,035652.600,2500.7992049,N,12132.4336981,E,4,44,0.66,16.728,M,15.25,M,1,3335*46
$GNRMC,035652.600,A,2500.7992049,N,12132.4336981,E,0.07,165.80,090324,,,R,V*17
$GPHDT,136.799,T*36
$GNACCURACY,6.0*10
$GNGGA,035652.700,2500.7992090,N,12132.4336998,E,4,44,0.66,16.735,M,15.25,M,0,3335*46
$GNRMC,035652.700,A,2500.7992090,N,12132.4336998,E,0.13,165.80,090324,,,R,V*1F
$GPHDT,,T*1B
$GNACCURACY,6.0*10
$GNGGA,035652.800,2500.7992079,N,12132.4336969,E,4,44,0.66,16.731,M,15.25,M,0,3335*44
$GNRMC,035652.800,A,2500.7992079,N,12132.4336969,E,0.14,165.80,090324,,,R,V*1E
$GPHDT,136.727,T*33
$GNACCURACY,6.0*10
$GNGGA,035652.900,2500.7992082,N,12132.4337034,E,4,44,0.66,16.748,M,15.25,M,0,3335*4F
$GNRMC,035652.900,A,2500.7992082,N,12132.4337034,E,0.14,165.80,090324,,,R,V*1B
$GPHDT,,T*1B
$GNACCURACY,6.0*10
$GNGGA,035653.000,2500.7992074,N,12132.4336996,E,4,44,0.66,16.725,M,15.25,M,1,3335*44
$GNRMC,035653.000,A,2500.7992074,N,12132.4336996,E,0.11,165.80,090324,,,R,V*1F
$GPHDT,137.254,T*33
$GNACCURACY,6.0*10
$GNGGA,035653.100,2500.7992098,N,12132.4337003,E,4,44,0.66,16.748,M,15.25,M,1,3335*48
$GNRMC,035653.100,A,2500.7992098,N,12132.4337003,E,0.08,165.80,090324,,,R,V*10
$GPHDT,,T*1B
$GNGSA,A,3,08,194,195,199,21,27,07,16,26,,,,0.96,0.66,0.70,1*33
$GNGSA,A,3,88,78,77,79,,,,,,,,,0.96,0.66,0.70,2*0B
$GNGSA,A,3,13,21,26,27,,,,,,,,,0.96,0.66,0.70,3*0B
$GNGSA,A,3,09,16,23,43,40,39,10,25,37,34,,,0.96,0.66,0.70,4*0F
$GPGSV,3,1,12,08,66,344,48,194,64,050,40,195,63,117,39,50,60,167,40,1*6F
$GPGSV,3,2,12,199,60,167,37,21,54,161,43,02,42,178,35,27,38,033,40,1*50
$GPGSV,3,3,12,07,36,319,25,16,30,069,34,196,20,170,19,26,11,095,15,1*5B
$GPGSV,2,1,07,08,66,344,48,194,64,050,42,195,63,117,45,199,60,167,44,8*5A
$GPGSV,2,2,07,27,38,033,43,196,20,170,22,26,11,095,19,8*69
$GLGSV,2,1,05,88,61,038,45,78,54,026,42,77,26,104,20,79,21,330,23,1*70
$GLGSV,2,2,05,87,08,026,19,1*46
$GAGSV,1,1,04,13,54,089,43,21,53,004,38,26,39,173,34,27,30,074,30,7*72
$GAGSV,1,1,04,13,54,089,44,21,53,004,42,26,39,173,38,27,30,074,42,1*77
$GBGSV,3,1,11,09,74,275,40,16,71,197,43,23,70,017,45,43,63,040,45,1*75
$GBGSV,3,2,11,40,62,325,42,07,61,304,19,39,61,184,39,10,51,286,18,1*70
$GBGSV,3,3,11,25,40,112,45,37,26,320,30,34,15,039,19,1*45
$GBGSV,2,1,07,23,70,017,47,43,63,040,42,40,62,325,40,39,61,184,44,4*74
$GBGSV,2,2,07,25,40,112,45,37,26,320,23,34,15,039,23,4*4C
$GNACCURACY,6.0*10
$PAIRSAT,1,18,2,0,200,3,0,200,4,0,200,7,0,1,8,0,21,16,0,1,20,0,200,21,0,201,22,0,200,23,0,200,24,0,200,25,0,200,26,0,220,27,0,221,194,0,21,195,0,621,196,0,200,199,0,621*47
$PAIRSAT,2,15,70,0,200,71,0,200,73,0,200,74,0,200,75,0,200,76,0,200,77,0,1,78,0,201,79,0,201,80,0,200,84,0,200,85,0,200,86,0,200,87,0,201,88,0,201*5B
$PAIRSAT,3,17,2,0,1200,3,0,1200,4,0,1200,5,0,200,7,0,200,8,0,200,9,0,200,10,0,200,13,0,21,21,0,21,25,0,1000,26,0,1001,27,0,1021,30,0,1000,31,0,1000,33,0,1200,36,0,200*52
$PAIRSAT,4,36,3,0,400,7,0,1,9,0,201,10,0,201,11,0,200,12,0,200,13,0,200,14,0,200,16,0,201,19,0,400,20,0,400,21,0,400,22,0,400,23,0,421,24,0,400,25,0,421,26,0,400,27,0,400,28,0,400,29,0,400,30,0,400,32,0,400,33,0,400,34,0,421,35,0,400,36,0,400,37,0,421,38,0,400,39,0,421,40,0,421,41,0,400,42,0,400,43,0,421,44,0,400,45,0,400,46,0,400*4A
$PAIRDGP,6,7,8,16,21,26,27*49
$GNGGA,035653.200,2500.7992089,N,12132.4336991,E,4,44,0.66,16.734,M,15.25,M,1,3335*43
$GNRMC,035653.200,A,2500.7992089,N,12132.4336991,E,0.06,165.80,090324,,,R,V*1E
$GPHDT,137.194,T*3C
$GNACCURACY,6.0*10
$GNGGA,035653.300,2500.7992094,N,12132.4337026,E,4,44,0.66,16.735,M,15.25,M,1,3335*4B
$GNRMC,035653.300,A,2500.7992094,N,12132.4337026,E,0.06,165.80,090324,,,R,V*17
$GPHDT,,T*1B
$GNACCURACY,6.1*11
$GNGGA,035653.400,2500.7992085,N,12132.4337019,E,4,44,0.66,16.736,M,15.25,M,1,3335*43
$GNRMC,035653.400,A,2500.7992085,N,12132.4337019,E,0.06,165.80,090324,,,R,V*1C
$GPHDT,137.559,T*39
$GNACCURACY,6.1*11
$GNGGA,035653.500,2500.7992073,N,12132.4336975,E,4,44,0.66,16.714,M,15.25,M,0,3335*48
$GNRMC,035653.500,A,2500.7992073,N,12132.4336975,E,0.10,165.80,090324,,,R,V*11
$GPHDT,,T*1B
$GNACCURACY,6.1*11
$GNGGA,035653.600,2500.7992059,N,12132.4337010,E,4,44,0.66,16.730,M,15.25,M,0,3335*4E
$GNRMC,035653.600,A,2500.7992059,N,12132.4337010,E,0.10,165.80,090324,,,R,V*11
$GPHDT,137.685,T*3B
$GNACCURACY,6.1*11
$GNGGA,035653.700,2500.7992041,N,12132.4336991,E,4,44,0.66,16.707,M,15.25,M,0,3335*43
$GNRMC,035653.700,A,2500.7992041,N,12132.4336991,E,0.09,165.80,090324,,,R,V*10
$GPHDT,,T*1B
$GNACCURACY,6.1*11
$GNGGA,035653.800,2500.7992080,N,12132.4336977,E,4,45,0.65,16.728,M,15.25,M,0,3335*46
$GNRMC,035653.800,A,2500.7992080,N,12132.4336977,E,0.15,165.80,090324,,,R,V*17
$GPHDT,137.876,T*39
$GNACCURACY,6.1*11
$GNGGA,035653.900,2500.7992070,N,12132.4337025,E,4,44,0.66,16.721,M,15.25,M,0,3335*4C
$GNRMC,035653.900,A,2500.7992070,N,12132.4337025,E,0.14,165.80,090324,,,R,V*17
$GPHDT,,T*1B
$GNACCURACY,6.2*12
$GNGGA,035654.000,2500.7992108,N,12132.4337137,E,4,44,0.65,16.782,M,15.25,M,1,3335*45
$GNRMC,035654.000,A,2500.7992108,N,12132.4337137,E,0.12,165.80,090324,,,R,V*13
$GPHDT,138.121,T*3D
$GNACCURACY,6.2*12
$GNGGA,035654.100,2500.7992094,N,12132.4337092,E,4,45,0.65,16.764,M,15.25,M,1,3335*47
$GNRMC,035654.100,A,2500.7992094,N,12132.4337092,E,0.08,165.80,090324,,,R,V*13
$GPHDT,,T*1B
$GNGSA,A,3,08,194,195,199,21,27,07,16,26,,,,0.96,0.66,0.70,1*33
$GNGSA,A,3,88,78,77,79,,,,,,,,,0.96,0.66,0.70,2*0B
$GNGSA,A,3,13,21,26,27,,,,,,,,,0.96,0.66,0.70,3*0B
$GNGSA,A,3,09,16,23,43,40,39,10,25,37,34,,,0.96,0.66,0.70,4*0F
$GPGSV,3,1,12,08,66,344,48,194,64,050,40,195,63,117,39,50,60,167,40,1*6F
$GPGSV,3,2,12,199,60,167,37,21,54,161,43,02,42,178,36,27,38,033,40,1*53
$GPGSV,3,3,12,07,36,319,22,16,30,069,33,196,20,170,19,26,11,095,14,1*5A
$GPGSV,2,1,07,08,66,344,48,194,64,050,42,195,63,117,44,199,60,167,44,8*5B
$GPGSV,2,2,07,27,38,033,43,196,20,170,23,26,11,095,19,8*68
$GLGSV,2,1,05,88,61,038,45,78,54,026,42,77,26,104,20,79,21,330,23,1*70
$GLGSV,2,2,05,87,08,026,19,1*46
$GAGSV,1,1,04,13,54,089,43,21,53,004,38,26,39,173,34,27,30,074,29,7*7A
$GAGSV,1,1,04,13,54,089,44,21,53,004,42,26,39,173,38,27,30,074,42,1*77
$GBGSV,3,1,11,09,74,275,40,16,71,197,43,23,70,017,45,43,63,040,45,1*75
$GBGSV,3,2,11,40,62,325,42,07,61,304,17,39,61,184,39,10,51,286,18,1*7E
$GBGSV,3,3,11,25,40,112,45,37,26,320,28,34,15,039,20,1*46
$GBGSV,2,1,07,23,70,017,47,43,63,040,42,40,62,325,40,39,61,184,44,4*74
$GBGSV,2,2,07,25,40,112,45,37,26,320,24,34,15,039,23,4*4B
$GNACCURACY,6.2*12
$PAIRSAT,1,18,2,0,200,3,0,200,4,0,200,7,0,1,8,0,21,16,0,1,20,0,200,21,0,201,22,0,200,23,0,200,24,0,200,25,0,200,26,0,220,27,0,221,194,0,21,195,0,621,196,0,200,199,0,621*47
$PAIRSAT,2,15,70,0,200,71,0,200,73,0,200,74,0,200,75,0,200,76,0,200,77,0,1,78,0,201,79,0,201,80,0,200,84,0,200,85,0,200,86,0,200,87,0,201,88,0,201*5B
$PAIRSAT,3,17,2,0,1200,3,0,1200,4,0,1200,5,0,200,7,0,200,8,0,200,9,0,200,10,0,200,13,0,21,21,0,21,25,0,1000,26,0,1001,27,0,1021,30,0,1000,31,0,1000,33,0,1200,36,0,200*52
$PAIRSAT,4,36,3,0,400,7,0,1,9,0,201,10,0,201,11,0,200,12,0,200,13,0,200,14,0,200,16,0,201,19,0,400,20,0,400,21,0,400,22,0,400,23,0,421,24,0,400,25,0,421,26,0,400,27,0,400,28,0,400,29,0,400,30,0,400,32,0,400,33,0,400,34,0,421,35,0,400,36,0,400,37,0,421,38,0,400,39,0,421,40,0,421,41,0,400,42,0,400,43,0,421,44,0,400,45,0,400,46,0,400*4A
$PAIRDGP,6,7,8,16,21,26,27*49
$GNGGA,035654.200,2500.7992071,N,12132.4337045,E,4,43,0.66,16.748,M,15.25,M,1,3335*4E
$GNRMC,035654.200,A,2500.7992071,N,12132.4337045,E,0.06,165.80,090324,,,R,V*1F
$GPHDT,137.832,T*39
$GNACCURACY,6.2*12
$GNGGA,035654.300,2500.7992075,N,12132.4337001,E,4,43,0.66,16.718,M,15.25,M,1,3335*4E
$GNRMC,035654.300,A,2500.7992075,N,12132.4337001,E,0.07,165.80,090324,,,R,V*1B
$GPHDT,,T*1B
$GNACCURACY,6.2*12
$GNGGA,035654.400,2500.7992103,N,12132.4337142,E,4,42,0.67,16.779,M,15.25,M,1,3335*48
$GNRMC,035654.400,A,2500.7992103,N,12132.4337142,E,0.07,165.80,090324,,,R,V*1A
$GPHDT,138.047,T*3C
$GNACCURACY,6.2*12
$GNGGA,035654.500,2500.7992076,N,12132.4336978,E,4,42,0.67,16.707,M,15.25,M,1,3335*43
$GNRMC,035654.500,A,2500.7992076,N,12132.4336978,E,0.10,165.80,090324,,,R,V*1E
$GPHDT,,T*1B
$GNACCURACY,6.2*12
$GNGGA,035654.600,2500.7992071,N,12132.4337044,E,4,42,0.67,16.744,M,15.25,M,1,3335*47
$GNRMC,035654.600,A,2500.7992071,N,12132.4337044,E,0.09,165.80,090324,,,R,V*15
$GPHDT,138.319,T*34
$GNACCURACY,6.3*13
$GNGGA,035654.700,2500.7992096,N,12132.4337000,E,4,42,0.67,16.731,M,15.25,M,0,3335*4C
$GNRMC,035654.700,A,2500.7992096,N,12132.4337000,E,0.13,165.80,090324,,,R,V*16
$GPHDT,,T*1B
$GNACCURACY,6.3*13
$GNGGA,035654.800,2500.7992090,N,12132.4337009,E,4,43,0.66,16.718,M,15.25,M,0,3335*47
$GNRMC,035654.800,A,2500.7992090,N,12132.4337009,E,0.14,165.80,090324,,,R,V*11
$GPHDT,137.990,T*30
$GNACCURACY,6.3*13
$GNGGA,035654.900,2500.7992094,N,12132.4336977,E,4,43,0.66,16.713,M,15.25,M,0,3335*48
$GNRMC,035654.900,A,2500.7992094,N,12132.4336977,E,0.17,165.80,090324,,,R,V*16
$GPHDT,,T*1B
$GNACCURACY,6.2*12
$GNGGA,035655.000,2500.7992085,N,12132.4337026,E,4,44,0.65,16.720,M,15.25,M,1,3335*49
$GNRMC,035655.000,A,2500.7992085,N,12132.4337026,E,0.12,165.80,090324,,,R,V*17
$GPHDT,137.991,T*31
$GNACCURACY,6.2*12
$GNGGA,035655.100,2500.7992086,N,12132.4337026,E,4,44,0.65,16.728,M,15.25,M,1,3335*43
$GNRMC,035655.100,A,2500.7992086,N,12132.4337026,E,0.07,165.80,090324,,,R,V*11
$GPHDT,,T*1B
$GNGSA,A,3,08,194,195,199,21,27,07,16,26,,,,0.96,0.65,0.70,1*30
$GNGSA,A,3,88,78,77,79,,,,,,,,,0.96,0.65,0.70,2*08
$GNGSA,A,3,13,21,26,27,,,,,,,,,0.96,0.65,0.70,3*08
$GNGSA,A,3,09,16,23,43,40,07,39,10,25,37,34,,0.96,0.65,0.70,4*0B
$GPGSV,3,1,12,08,66,344,48,194,64,050,40,195,63,117,39,50,60,167,40,1*6F
$GPGSV,3,2,12,199,60,167,37,21,54,161,43,02,42,178,36,27,38,033,40,1*53
$GPGSV,3,3,12,07,37,319,22,16,30,069,31,196,20,170,18,26,11,095,15,1*59
$GPGSV,2,1,07,08,66,344,49,194,64,050,43,195,63,117,44,199,60,167,45,8*5A
$GPGSV,2,2,07,27,38,033,43,196,20,170,21,26,11,095,18,8*6B
$GLGSV,2,1,05,88,61,038,45,78,54,026,43,77,26,104,22,79,21,330,24,1*74
$GLGSV,2,2,05,87,08,026,22,1*4E
$GAGSV,1,1,04,13,54,089,43,21,53,004,39,26,39,173,34,27,30,074,30,7*73
$GAGSV,1,1,04,13,54,089,44,21,53,004,42,26,39,173,39,27,30,074,42,1*76
$GBGSV,3,1,11,09,74,275,40,16,71,197,43,23,70,017,45,43,63,040,45,1*75
$GBGSV,3,2,11,40,62,325,42,07,61,304,21,39,61,184,39,10,51,286,18,1*7B
$GBGSV,3,3,11,25,40,112,45,37,26,320,28,34,15,039,20,1*46
$GBGSV,2,1,07,23,70,017,47,43,63,040,44,40,62,325,40,39,61,184,44,4*72
$GBGSV,2,2,07,25,40,112,45,37,26,320,23,34,15,039,22,4*4D
$GNACCURACY,6.2*12
$PAIRSAT,1,18,2,0,200,3,0,200,4,0,200,7,0,1,8,0,21,16,0,1,20,0,200,21,0,201,22,0,200,23,0,200,24,0,200,25,0,200,26,0,220,27,0,221,194,0,21,195,0,621,196,0,200,199,0,621*47
$PAIRSAT,2,15,70,0,200,71,0,200,73,0,200,74,0,200,75,0,200,76,0,200,77,0,1,78,0,201,79,0,201,80,0,200,84,0,200,85,0,200,86,0,200,87,0,201,88,0,201*5B
$PAIRSAT,3,17,2,0,1200,3,0,1200,4,0,1200,5,0,200,7,0,200,8,0,200,9,0,200,10,0,200,13,0,21,21,0,21,25,0,1000,26,0,1001,27,0,1021,30,0,1000,31,0,1000,33,0,1200,36,0,200*52
$PAIRSAT,4,36,3,0,400,7,0,1,9,0,201,10,0,201,11,0,200,12,0,200,13,0,200,14,0,200,16,0,201,19,0,400,20,0,400,21,0,400,22,0,400,23,0,421,24,0,400,25,0,421,26,0,400,27,0,400,28,0,400,29,0,400,30,0,400,32,0,400,33,0,400,34,0,421,35,0,400,36,0,400,37,0,421,38,0,400,39,0,421,40,0,421,41,0,400,42,0,400,43,0,421,44,0,400,45,0,400,46,0,400*4A
$PAIRDGP,6,7,8,16,21,26,27*49
$GNGGA,035655.200,2500.7992131,N,12132.4337110,E,4,44,0.65,16.762,M,15.25,M,1,3335*47
$GNRMC,035655.200,A,2500.7992131,N,12132.4337110,E,0.07,165.80,090324,,,R,V*1B
$GPHDT,137.915,T*3D
$GNACCURACY,6.2*12
$GNGGA,035655.300,2500.7992096,N,12132.4336981,E,4,44,0.65,16.701,M,15.25,M,1,3335*4E
$GNRMC,035655.300,A,2500.7992096,N,12132.4336981,E,0.06,165.80,090324,,,R,V*16
$GPHDT,,T*1B
$GNACCURACY,6.2*12
$GNGGA,035655.400,2500.7992096,N,12132.4336992,E,4,44,0.68,16.725,M,15.25,M,1,3335*40
$GNRMC,035655.400,A,2500.7992096,N,12132.4336992,E,0.02,165.80,090324,,,R,V*17
$GPHDT,138.995,T*3A
$GNACCURACY,6.2*12
$GNGGA,035655.500,2500.7992095,N,12132.4337137,E,4,44,0.68,16.764,M,15.25,M,0,3335*40
$GNRMC,035655.500,A,2500.7992095,N,12132.4337137,E,0.03,165.80,090324,,,R,V*12
$GPHDT,,T*1B
$GNACCURACY,6.2*12
$GNGGA,035655.600,2500.7992109,N,12132.4337093,E,4,44,0.68,16.747,M,15.25,M,0,3335*49
$GNRMC,035655.600,A,2500.7992109,N,12132.4337093,E,0.02,165.80,090324,,,R,V*1B
$GPHDT,139.007,T*39
$GNACCURACY,6.2*12
$GNGGA,035655.700,2500.7992115,N,12132.4337120,E,4,44,0.68,16.757,M,15.25,M,0,3335*4D
$GNRMC,035655.700,A,2500.7992115,N,12132.4337120,E,0.03,165.80,090324,,,R,V*1F
$GPHDT,,T*1B
$GNACCURACY,6.2*12
$GNGGA,035655.800,2500.7992098,N,12132.4337119,E,4,44,0.68,16.758,M,15.25,M,0,3335*43
$GNRMC,035655.800,A,2500.7992098,N,12132.4337119,E,0.01,165.80,090324,,,R,V*1C
$GPHDT,139.415,T*3E
$GNACCURACY,6.2*12
$GNGGA,035655.900,2500.7992136,N,12132.4337141,E,4,44,0.68,16.775,M,15.25,M,0,3335*45
$GNRMC,035655.900,A,2500.7992136,N,12132.4337141,E,0.03,165.80,090324,,,R,V*17
$GPHDT,,T*1B
$GNACCURACY,6.2*12
$GNGGA,035656.000,2500.7992098,N,12132.4337145,E,4,44,0.68,16.782,M,15.25,M,1,3335*47
$GNRMC,035656.000,A,2500.7992098,N,12132.4337145,E,0.01,165.80,090324,,,R,V*1E
