$FW : RTK35X,V1.1X0314AS,Lib20210517,1*54
$Tool : LOCOSYS , GNSS Firebird , v1.0.0.19*39
$---------------------------------------------------*2D
0.7992068,N,12132.4336936,E,0.05,165.80,090324,,,R,V*18
$GPHDT,,T*1B
$GNGSA,A,3,08,194,195,199,21,02,27,07,16,26,,,1.19,0.64,1.00,1*33
$GNGSA,A,3,88,78,77,79,,,,,,,,,1.19,0.64,1.00,2*09
$GNGSA,A,3,13,21,26,27,,,,,,,,,1.19,0.64,1.00,3*09
$GNGSA,A,3,09,16,23,43,40,39,07,10,25,37,,,1.19,0.64,1.00,4*0D
$GPGSV,3,1,12,08,66,344,46,194,64,050,42,195,63,117,40,50,60,167,41,1*6C
$GPGSV,3,2,12,199,60,167,38,21,54,161,48,02,42,178,44,27,38,033,43,1*51
$GPGSV,3,3,12,07,37,319,34,16,30,070,25,196,20,170,31,26,11,095,17,1*5A
$GPGSV,2,1,07,08,66,344,46,194,64,050,45,195,63,117,43,199,60,167,47,8*56
$GPGSV,2,2,07,27,38,033,47,196,20,170,32,26,11,095,15,8*60
$GLGSV,2,1,05,88,61,038,44,78,54,027,43,77,26,104,19,79,21,330,22,1*7A
$GLGSV,2,2,05,87,08,026,25,1*49
$GAGSV,2,1,05,13,54,089,40,21,53,005,42,26,39,173,42,27,30,074,33,7*7D
$GAGSV,2,2,05,04,12,303,,7*41
$GAGSV,1,1,04,13,54,089,42,21,53,005,44,26,39,173,42,27,30,074,38,1*76
$GBGSV,4,1,14,09,74,275,42,16,71,197,45,23,70,017,48,43,63,040,45,1*7E
$GBGSV,4,2,14,40,62,325,38,39,61,184,42,07,61,304,26,10,51,286,15,1*72
$GBGSV,4,3,14,28,51,216,,25,40,112,39,37,26,320,20,34,15,039,14,1*7B
$GBGSV,4,4,14,38,08,169,,27,06,218,,1*76
$GBGSV,2,1,06,23,70,017,48,43,63,040,46,40,62,325,38,39,61,184,45,4*70
$GBGSV,2,2,06,25,40,112,37,37,26,320,20,4*73
$GNACCURACY,5.4*17
$PAIRSAT,1,18,2,0,201,3,0,200,4,0,200,7,0,1,8,0,21,16,0,1,20,0,200,21,0,201,22,0,200,23,0,200,24,0,200,25,0,200,26,0,220,27,0,221,194,0,21,195,0,621,196,0,200,199,0,621*46
$PAIRSAT,2,15,70,0,200,71,0,200,73,0,200,74,0,200,75,0,200,76,0,200,77,0,1,78,0,201,79,0,201,80,0,200,84,0,200,85,0,200,86,0,200,87,0,201,88,0,201*5B
$PAIRSAT,3,17,2,0,1200,3,0,1200,4,0,1200,5,0,200,7,0,200,8,0,200,9,0,200,10,0,200,13,0,21,21,0,21,25,0,1000,26,0,1001,27,0,1021,30,0,1000,31,0,1000,33,0,1200,36,0,200*52
$PAIRSAT,4,36,3,0,400,7,0,1,9,0,201,10,0,201,11,0,200,12,0,200,13,0,200,14,0,200,16,0,201,19,0,400,20,0,400,21,0,400,22,0,400,23,0,421,24,0,400,25,0,421,26,0,400,27,0,400,28,0,400,29,0,400,30,0,400,32,0,400,33,0,400,34,0,421,35,0,400,36,0,400,37,0,421,38,0,400,39,0,421,40,0,421,41,0,400,42,0,400,43,0,421,44,0,400,45,0,400,46,0,400*4A
$PAIRDGP,7,2,7,8,16,21,26,27*56
$GNGGA,035703.200,2500.7992033,N,12132.4336965,E,4,44,0.64,16.771,M,15.25,M,1,3335*4E
$GNRMC,035703.200,A,2500.7992033,N,12132.4336965,E,0.05,165.80,090324,,,R,V*13
$GPHDT,91.149,T*01
$GNACCURACY,5.4*17
$GNGGA,035703.300,2500.7992033,N,12132.4336953,E,4,44,0.64,16.768,M,15.25,M,1,3335*42
$GNRMC,035703.300,A,2500.7992033,N,12132.4336953,E,0.05,165.80,090324,,,R,V*17
$GPHDT,,T*1B
$GNACCURACY,5.4*17
$GNGGA,035703.400,2500.7992049,N,12132.4336947,E,4,43,0.64,16.777,M,15.25,M,1,3335*44
$GNRMC,035703.400,A,2500.7992049,N,12132.4336947,E,0.05,165.80,090324,,,R,V*18
$GPHDT,91.538,T*03
$GNACCURACY,5.5*16
$GNGGA,035703.500,2500.7992037,N,12132.4336930,E,4,43,0.64,16.748,M,15.25,M,1,3335*40
$GNRMC,035703.500,A,2500.7992037,N,12132.4336930,E,0.05,165.80,090324,,,R,V*10
$GPHDT,,T*1B
$GNACCURACY,5.5*16
$GNGGA,035703.600,2500.7992007,N,12132.4336997,E,4,43,0.64,16.758,M,15.25,M,1,3335*4C
$GNRMC,035703.600,A,2500.7992007,N,12132.4336997,E,0.05,165.80,090324,,,R,V*1D
$GPHDT,90.929,T*0E
$GNACCURACY,5.5*16
$GNGGA,035703.700,2500.7992052,N,12132.4336963,E,4,43,0.64,16.782,M,15.25,M,0,3335*40
$GNRMC,035703.700,A,2500.7992052,N,12132.4336963,E,0.05,165.80,090324,,,R,V*17
$GPHDT,,T*1B
$GNACCURACY,5.6*15
$GNGGA,035703.800,2500.7992034,N,12132.4336978,E,4,44,0.64,16.777,M,15.25,M,0,3335*48
$GNRMC,035703.800,A,2500.7992034,N,12132.4336978,E,0.05,165.80,090324,,,R,V*12
$GPHDT,91.691,T*03
$GNACCURACY,5.6*15
$GNGGA,035703.900,2500.7992026,N,12132.4336973,E,4,44,0.64,16.767,M,15.25,M,0,3335*40
$GNRMC,035703.900,A,2500.7992026,N,12132.4336973,E,0.05,165.80,090324,,,R,V*1B
$GPHDT,,T*1B
$GNACCURACY,5.6*15
$GNGGA,035704.000,2500.7992028,N,12132.4336995,E,4,45,0.64,16.766,M,15.25,M,1,3335*49
$GNRMC,035704.000,A,2500.7992028,N,12132.4336995,E,0.05,165.80,090324,,,R,V*13
$GPHDT,91.338,T*05
$GNACCURACY,5.6*15
$GNGGA,035704.100,2500.7992015,N,12132.4336977,E,4,45,0.64,16.766,M,15.25,M,1,3335*4A
$GNRMC,035704.100,A,2500.7992015,N,12132.4336977,E,0.05,165.80,090324,,,R,V*10
$GPHDT,,T*1B
$GNGSA,A,3,08,194,195,199,21,02,27,07,16,26,,,1.15,0.64,0.96,1*31
$GNGSA,A,3,88,78,77,79,,,,,,,,,1.15,0.64,0.96,2*0B
$GNGSA,A,3,13,21,26,27,,,,,,,,,1.15,0.64,0.96,3*0B
$GNGSA,A,3,09,16,23,43,40,07,39,10,25,37,34,,1.15,0.64,0.96,4*08
$GPGSV,3,1,12,08,66,344,46,194,64,050,42,195,63,117,40,50,60,167,41,1*6C
$GPGSV,3,2,12,199,60,167,38,21,54,161,48,02,42,178,46,27,38,033,42,1*52
$GPGSV,3,3,12,07,37,319,32,16,30,070,28,196,20,170,31,26,11,095,17,1*51
$GPGSV,2,1,07,08,66,344,47,194,64,050,43,195,63,117,42,199,60,167,48,8*5F
$GPGSV,2,2,07,27,38,033,48,196,20,170,33,26,11,095,13,8*68
$GLGSV,2,1,05,88,61,038,45,78,54,027,43,77,26,104,18,79,21,330,21,1*79
$GLGSV,2,2,05,87,08,026,26,1*4A
$GAGSV,2,1,05,13,54,089,41,21,53,005,42,26,39,173,42,27,30,074,35,7*7A
$GAGSV,2,2,05,04,12,303,,7*41
$GAGSV,1,1,04,13,54,089,43,21,53,005,44,26,39,173,42,27,30,074,37,1*78
$GBGSV,3,1,11,09,74,275,42,16,71,197,45,23,70,017,47,43,63,040,42,1*74
$GBGSV,3,2,11,40,62,325,41,07,61,304,25,39,61,184,39,10,51,286,16,1*72
$GBGSV,3,3,11,25,40,112,39,37,26,320,19,34,15,039,12,1*4E
$GBGSV,2,1,07,23,70,017,49,43,63,040,46,40,62,325,40,39,61,184,45,4*7F
$GBGSV,2,2,07,25,40,112,38,37,26,320,23,34,15,039,22,4*47
$GNACCURACY,5.6*15
$PAIRSAT,1,18,2,0,201,3,0,200,4,0,200,7,0,1,8,0,21,16,0,1,20,0,200,21,0,201,22,0,200,23,0,200,24,0,200,25,0,200,26,0,220,27,0,221,194,0,21,195,0,621,196,0,200,199,0,621*46
$PAIRSAT,2,15,70,0,200,71,0,200,73,0,200,74,0,200,75,0,200,76,0,200,77,0,1,78,0,201,79,0,201,80,0,200,84,0,200,85,0,200,86,0,200,87,0,201,88,0,201*5B
$PAIRSAT,3,17,2,0,1200,3,0,1200,4,0,1200,5,0,200,7,0,200,8,0,200,9,0,200,10,0,200,13,0,21,21,0,21,25,0,1000,26,0,1001,27,0,1021,30,0,1000,31,0,1000,33,0,1200,36,0,200*52
$PAIRSAT,4,36,3,0,400,7,0,1,9,0,201,10,0,201,11,0,200,12,0,200,13,0,200,14,0,200,16,0,201,19,0,400,20,0,400,21,0,400,22,0,400,23,0,421,24,0,400,25,0,421,26,0,400,27,0,400,28,0,400,29,0,400,30,0,400,32,0,400,33,0,400,34,0,421,35,0,400,36,0,400,37,0,421,38,0,400,39,0,421,40,0,421,41,0,400,42,0,400,43,0,421,44,0,400,45,0,400,46,0,400*4A
$PAIRDGP,7,2,7,8,16,21,26,27*56
$GNGGA,035704.200,2500.7992042,N,12132.4336977,E,4,45,0.64,16.764,M,15.25,M,1,3335*49
$GNRMC,035704.200,A,2500.7992042,N,12132.4336977,E,0.05,165.80,090324,,,R,V*11
$GPHDT,91.462,T*0D
$GNACCURACY,5.6*15
$GNGGA,035704.300,2500.7992036,N,12132.4336965,E,4,43,0.64,16.769,M,15.25,M,1,3335*43
$GNRMC,035704.300,A,2500.7992036,N,12132.4336965,E,0.05,165.80,090324,,,R,V*10
$GPHDT,,T*1B
$GNACCURACY,5.6*15
$GNGGA,035704.400,2500.7992023,N,12132.4336974,E,4,43,0.64,16.774,M,15.25,M,1,3335*4C
$GNRMC,035704.400,A,2500.7992023,N,12132.4336974,E,0.05,165.80,090324,,,R,V*13
$GPHDT,91.355,T*0E
$GNACCURACY,5.6*15
$GNGGA,035704.500,2500.7992032,N,12132.4337025,E,4,43,0.64,16.769,M,15.25,M,1,3335*4D
$GNRMC,035704.500,A,2500.7992032,N,12132.4337025,E,0.06,165.80,090324,,,R,V*1D
$GPHDT,,T*1B
$GNACCURACY,5.6*15
$GNGGA,035704.600,2500.7992051,N,12132.4337015,E,4,44,0.64,16.779,M,15.25,M,0,3335*4F
$GNRMC,035704.600,A,2500.7992051,N,12132.4337015,E,0.06,165.80,090324,,,R,V*18
$GPHDT,91.788,T*0A
$GNACCURACY,5.5*16
$GNGGA,035704.700,2500.7992028,N,12132.4336973,E,4,45,0.64,16.786,M,15.25,M,0,3335*49
$GNRMC,035704.700,A,2500.7992028,N,12132.4336973,E,0.06,165.80,090324,,,R,V*1F
$GPHDT,,T*1B
$GNACCURACY,5.6*15
$GNGGA,035704.800,2500.7992039,N,12132.4337019,E,4,45,0.64,16.742,M,15.25,M,0,3335*4A
$GNRMC,035704.800,A,2500.7992039,N,12132.4337019,E,0.07,165.80,090324,,,R,V*15
$GPHDT,91.516,T*0F
$GNACCURACY,5.5*16
$GNGGA,035704.900,2500.7992045,N,12132.4337042,E,4,45,0.64,16.751,M,15.25,M,0,3335*4C
$GNRMC,035704.900,A,2500.7992045,N,12132.4337042,E,0.08,165.80,090324,,,R,V*1E
$GPHDT,,T*1B
$GNACCURACY,5.5*16
$GNGGA,035705.000,2500.7992030,N,12132.4337050,E,4,45,0.64,16.773,M,15.25,M,1,3335*44
$GNRMC,035705.000,A,2500.7992030,N,12132.4337050,E,0.08,165.80,090324,,,R,V*17
$GPHDT,91.746,T*08
$GNACCURACY,5.5*16
$GNGGA,035705.100,2500.7992043,N,12132.4337050,E,4,45,0.64,16.764,M,15.25,M,1,3335*47
$GNRMC,035705.100,A,2500.7992043,N,12132.4337050,E,0.07,165.80,090324,,,R,V*1D
$GPHDT,,T*1B
$GNGSA,A,3,08,194,195,199,21,02,27,07,16,26,,,1.15,0.64,0.96,1*31
$GNGSA,A,3,88,78,77,79,,,,,,,,,1.15,0.64,0.96,2*0B
$GNGSA,A,3,13,21,26,27,,,,,,,,,1.15,0.64,0.96,3*0B
$GNGSA,A,3,09,16,23,43,40,07,39,10,25,37,34,,1.15,0.64,0.96,4*08
$GPGSV,3,1,12,08,66,344,46,194,64,050,42,195,63,117,40,50,60,167,41,1*6C
$GPGSV,3,2,12,199,60,167,38,21,54,161,48,02,42,178,45,27,38,033,42,1*51
$GPGSV,3,3,12,07,37,319,29,16,30,070,32,196,20,170,33,26,11,095,15,1*50
$GPGSV,2,1,07,08,66,344,46,194,64,050,44,195,63,117,42,199,60,167,48,8*59
$GPGSV,2,2,07,27,38,033,48,196,20,170,31,26,11,095,14,8*6D
$GLGSV,2,1,05,88,61,038,45,78,54,027,44,77,26,104,22,79,21,330,22,1*74
$GLGSV,2,2,05,87,08,026,28,1*44
$GAGSV,2,1,05,13,54,089,41,21,53,005,41,26,39,173,41,27,30,074,34,7*7B
$GAGSV,2,2,05,04,12,303,,7*41
$GAGSV,1,1,04,13,54,089,43,21,53,005,44,26,39,173,42,27,30,074,38,1*77
$GBGSV,3,1,11,09,74,275,42,16,71,197,45,23,70,017,47,43,63,040,43,1*75
$GBGSV,3,2,11,40,62,325,41,07,61,304,27,39,61,184,40,10,51,286,16,1*7E
$GBGSV,3,3,11,25,40,112,36,37,26,320,19,34,15,039,17,1*44
$GBGSV,2,1,07,23,70,017,48,43,63,040,45,40,62,325,38,39,61,184,45,4*72
$GBGSV,2,2,07,25,40,112,37,37,26,320,18,34,15,039,19,4*48
$GNACCURACY,5.5*16
$PAIRSAT,1,18,2,0,201,3,0,200,4,0,200,7,0,1,8,0,21,16,0,1,20,0,200,21,0,201,22,0,200,23,0,200,24,0,200,25,0,200,26,0,220,27,0,221,194,0,21,195,0,621,196,0,200,199,0,621*46
$PAIRSAT,2,15,70,0,200,71,0,200,73,0,200,74,0,200,75,0,200,76,0,200,77,0,1,78,0,201,79,0,201,80,0,200,84,0,200,85,0,200,86,0,200,87,0,201,88,0,201*5B
$PAIRSAT,3,17,2,0,1200,3,0,1200,4,0,1200,5,0,200,7,0,200,8,0,200,9,0,200,10,0,200,13,0,21,21,0,21,25,0,1000,26,0,1001,27,0,1021,30,0,1000,31,0,1000,33,0,1200,36,0,200*52
$PAIRSAT,4,36,3,0,400,7,0,1,9,0,201,10,0,201,11,0,200,12,0,200,13,0,200,14,0,200,16,0,201,19,0,400,20,0,400,21,0,400,22,0,400,23,0,421,24,0,400,25,0,421,26,0,400,27,0,400,28,0,400,29,0,400,30,0,400,32,0,400,33,0,400,34,0,421,35,0,400,36,0,400,37,0,421,38,0,400,39,0,421,40,0,421,41,0,400,42,0,400,43,0,421,44,0,400,45,0,400,46,0,400*4A
$PAIRDGP,7,2,7,8,16,21,26,27*56
$GNGGA,035705.200,2500.7992039,N,12132.4337070,E,4,45,0.64,16.779,M,15.25,M,1,3335*47
$GNRMC,035705.200,A,2500.7992039,N,12132.4337070,E,0.07,165.80,090324,,,R,V*11
$GPHDT,91.886,T*0B
$GNACCURACY,5.6*15
$GNGGA,035705.300,2500.7992041,N,12132.4337077,E,4,45,0.64,16.777,M,15.25,M,1,3335*40
$GNRMC,035705.300,A,2500.7992041,N,12132.4337077,E,0.07,165.80,090324,,,R,V*18
$GPHDT,,T*1B
$GNACCURACY,5.6*15
$GNGGA,035705.400,2500.7992056,N,12132.4337061,E,4,45,0.64,16.748,M,15.25,M,1,3335*4A
$GNRMC,035705.400,A,2500.7992056,N,12132.4337061,E,0.07,165.80,090324,,,R,V*1E
$GPHDT,91.791,T*02
$GNACCURACY,5.6*15
$GNGGA,035705.500,2500.7992032,N,12132.4337069,E,4,45,0.64,16.773,M,15.25,M,1,3335*49
$GNRMC,035705.500,A,2500.7992032,N,12132.4337069,E,0.07,165.80,090324,,,R,V*15
$GPHDT,,T*1B
$GNACCURACY,5.6*15
$GNGGA,035705.600,2500.7992073,N,12132.4337015,E,4,45,0.64,16.761,M,15.25,M,0,3335*46
$GNRMC,035705.600,A,2500.7992073,N,12132.4337015,E,0.08,165.80,090324,,,R,V*17
$GPHDT,92.030,T*0D
$GNACCURACY,5.6*15
$GNGGA,035705.700,2500.7992084,N,12132.4337034,E,4,45,0.64,16.759,M,15.25,M,0,3335*47
$GNRMC,035705.700,A,2500.7992084,N,12132.4337034,E,0.08,165.80,090324,,,R,V*1D
$GPHDT,,T*1B
$GNACCURACY,5.6*15
$GNGGA,035705.800,2500.7992072,N,12132.4337024,E,4,45,0.64,16.776,M,15.25,M,0,3335*4D
$GNRMC,035705.800,A,2500.7992072,N,12132.4337024,E,0.08,165.80,090324,,,R,V*1A
$GPHDT,91.801,T*04
$GNACCURACY,5.7*14
$GNGGA,035705.900,2500.7992048,N,12132.4336985,E,4,46,0.64,16.781,M,15.25,M,0,3335*4D
$GNRMC,035705.900,A,2500.7992048,N,12132.4336985,E,0.09,165.80,090324,,,R,V*10
$GPHDT,,T*1B
$GNACCURACY,5.7*14
$GNGGA,035706.000,2500.7992044,N,12132.4337004,E,4,45,0.64,16.779,M,15.25,M,1,3335*4F
$GNRMC,035706.000,A,2500.7992044,N,12132.4337004,E,0.08,165.80,090324,,,R,V*16
$GPHDT,91.643,T*0C
$GNACCURACY,5.7*14
$GNGGA,035706.100,2500.7992056,N,12132.4336966,E,4,45,0.64,16.777,M,15.25,M,1,3335*4F
$GNRMC,035706.100,A,2500.7992056,N,12132.4336966,E,0.08,165.80,090324,,,R,V*18
$GPHDT,,T*1B
$GNGSA,A,3,08,194,195,199,21,02,27,07,16,26,,,1.15,0.64,0.96,1*31
$GNGSA,A,3,88,78,77,79,,,,,,,,,1.15,0.64,0.96,2*0B
$GNGSA,A,3,13,21,26,27,,,,,,,,,1.15,0.64,0.96,3*0B
$GNGSA,A,3,09,16,23,43,40,07,39,10,25,37,34,,1.15,0.64,0.96,4*08
$GPGSV,3,1,12,08,66,344,46,194,64,050,42,195,63,117,41,50,60,167,40,1*6C
$GPGSV,3,2,12,199,60,167,37,21,54,161,48,02,42,178,45,27,38,033,42,1*5E
$GPGSV,3,3,12,07,37,319,27,16,30,070,32,196,20,170,33,26,11,095,15,1*5E
$GPGSV,2,1,07,08,66,344,46,194,64,050,45,195,63,117,43,199,60,167,48,8*59
$GPGSV,2,2,07,27,38,033,47,196,20,170,31,26,11,095,16,8*60
$GLGSV,2,1,05,88,61,038,44,78,54,027,44,77,26,104,24,79,21,330,22,1*73
$GLGSV,2,2,05,87,08,026,27,1*4B
$GAGSV,2,1,05,13,54,089,39,21,53,005,41,26,39,173,41,27,30,074,35,7*75
$GAGSV,2,2,05,04,12,303,,7*41
$GAGSV,1,1,04,13,54,089,43,21,53,005,44,26,39,173,40,27,30,074,38,1*75
$GBGSV,3,1,11,09,74,275,42,16,71,197,46,23,70,017,47,43,63,040,44,1*71
$GBGSV,3,2,11,40,62,325,38,07,61,304,25,39,61,184,40,10,51,286,15,1*71
$GBGSV,3,3,11,25,40,112,37,37,26,320,20,34,15,039,19,1*41
$GBGSV,2,1,07,23,70,017,48,43,63,040,44,40,62,325,38,39,61,184,46,4*70
$GBGSV,2,2,07,25,40,112,40,37,26,320,19,34,15,039,19,4*49
$GNACCURACY,5.7*14
$PAIRSAT,1,19,2,0,201,3,0,200,4,0,200,7,0,1,8,0,21,16,0,1,20,0,200,21,0,201,22,0,200,23,0,200,24,0,200,25,0,200,26,0,220,27,0,221,28,0,200,194,0,21,195,0,621,196,0,200,199,0,621*63
$PAIRSAT,2,15,70,0,200,71,0,200,73,0,200,74,0,200,75,0,200,76,0,200,77,0,1,78,0,201,79,0,201,80,0,200,84,0,200,85,0,200,86,0,200,87,0,201,88,0,201*5B
$PAIRSAT,3,17,2,0,1200,3,0,1200,4,0,1200,5,0,200,7,0,200,8,0,200,9,0,200,10,0,200,13,0,21,21,0,21,25,0,1000,26,0,1001,27,0,1021,30,0,1000,31,0,1000,33,0,1200,36,0,200*52
$PAIRSAT,4,36,3,0,400,7,0,1,9,0,201,10,0,201,11,0,200,12,0,200,13,0,200,14,0,200,16,0,201,19,0,400,20,0,400,21,0,400,22,0,400,23,0,421,24,0,400,25,0,421,26,0,400,27,0,400,28,0,400,29,0,400,30,0,400,32,0,400,33,0,400,34,0,421,35,0,400,36,0,400,37,0,421,38,0,400,39,0,421,40,0,421,41,0,400,42,0,400,43,0,421,44,0,400,45,0,400,46,0,400*4A
$PAIRDGP,7,2,7,8,16,21,26,27*56
$GNGGA,035706.200,2500.7992056,N,12132.4336994,E,4,46,0.64,16.776,M,15.25,M,1,3335*43
$GNRMC,035706.200,A,2500.7992056,N,12132.4336994,E,0.08,165.80,090324,,,R,V*16
$GPHDT,91.711,T*0A
$GNACCURACY,5.7*14
$GNGGA,035706.300,2500.7992075,N,12132.4336959,E,4,45,0.64,16.771,M,15.25,M,1,3335*46
$GNRMC,035706.300,A,2500.7992075,N,12132.4336959,E,0.08,165.80,090324,,,R,V*17
$GPHDT,,T*1B
$GNACCURACY,5.7*14
$GNGGA,035706.400,2500.7992077,N,12132.4336993,E,4,45,0.64,16.783,M,15.25,M,1,3335*48
$GNRMC,035706.400,A,2500.7992077,N,12132.4336993,E,0.08,165.80,090324,,,R,V*14
$GPHDT,92.185,T*02
$GNACCURACY,5.7*14
$GNGGA,035706.500,2500.7992088,N,12132.4336959,E,4,45,0.64,16.781,M,15.25,M,1,3335*4D
$GNRMC,035706.500,A,2500.7992088,N,12132.4336959,E,0.08,165.80,090324,,,R,V*13
$GPHDT,,T*1B
$GNACCURACY,5.8*1B
$GNGGA,035706.600,2500.7992070,N,12132.4337001,E,4,45,0.64,16.788,M,15.25,M,1,3335*45
$GNRMC,035706.600,A,2500.7992070,N,12132.4337001,E,0.08,165.80,090324,,,R,V*12
$GPHDT,92.216,T*0B
$GNACCURACY,5.8*1B
$GNGGA,035706.700,2500.7992054,N,12132.4337015,E,4,45,0.64,16.778,M,15.25,M,0,3335*49
$GNRMC,035706.700,A,2500.7992054,N,12132.4337015,E,0.08,165.80,090324,,,R,V*10
$GPHDT,,T*1B
$GNACCURACY,5.8*1B
$GNGGA,035706.800,2500.7992062,N,12132.4337022,E,4,45,0.64,16.792,M,15.25,M,0,3335*43
$GNRMC,035706.800,A,2500.7992062,N,12132.4337022,E,0.09,165.80,090324,,,R,V*1F
$GPHDT,92.389,T*0C
$GNACCURACY,5.8*1B
$GNGGA,035706.900,2500.7992058,N,12132.4337009,E,4,44,0.65,16.768,M,15.25,M,0,3335*47
$GNRMC,035706.900,A,2500.7992058,N,12132.4337009,E,0.09,165.80,090324,,,R,V*1E
$GPHDT,,T*1B
$GNACCURACY,5.9*1A
$GNGGA,035707.000,2500.7992070,N,12132.4337032,E,4,44,0.64,16.777,M,15.25,M,1,3335*43
$GNRMC,035707.000,A,2500.7992070,N,12132.4337032,E,0.09,165.80,090324,,,R,V*14
$GPHDT,92.463,T*0F
$GNACCURACY,5.9*1A
$GNGGA,035707.100,2500.7992042,N,12132.4337048,E,4,43,0.65,16.783,M,15.25,M,1,3335*43
$GNRMC,035707.100,A,2500.7992042,N,12132.4337048,E,0.08,165.80,090324,,,R,V*18
$GPHDT,,T*1B
$GNGSA,A,3,08,194,195,199,21,02,27,16,26,,,,1.18,0.65,0.98,1*34
$GNGSA,A,3,88,78,77,79,,,,,,,,,1.18,0.65,0.98,2*09
$GNGSA,A,3,13,21,26,27,,,,,,,,,1.18,0.65,0.98,3*09
$GNGSA,A,3,09,16,23,43,40,07,39,10,25,37,34,,1.18,0.65,0.98,4*0A
$GPGSV,3,1,12,08,66,344,47,194,64,050,42,195,63,117,42,50,60,167,39,1*60
$GPGSV,3,2,12,199,60,167,35,21,54,161,47,02,42,178,45,27,38,033,42,1*53
$GPGSV,3,3,12,07,37,319,23,16,30,070,33,196,20,170,32,26,11,095,14,1*5B
$GPGSV,2,1,07,08,66,344,46,194,64,050,44,195,63,117,43,199,60,167,48,8*58
$GPGSV,2,2,07,27,38,033,47,196,20,170,31,26,11,095,16,8*60
$GLGSV,2,1,05,88,61,038,44,78,54,027,45,77,26,104,25,79,21,330,20,1*71
$GLGSV,2,2,05,87,08,026,27,1*4B
$GAGSV,1,1,04,13,54,089,41,21,53,005,41,26,39,173,41,27,30,074,36,7*7B
$GAGSV,1,1,04,13,54,089,43,21,53,005,44,26,39,173,40,27,30,074,39,1*74
$GBGSV,3,1,11,09,74,275,41,16,71,197,46,23,70,017,46,43,63,040,47,1*70
$GBGSV,3,2,11,40,62,325,38,07,61,304,27,39,61,184,41,10,51,286,15,1*72
$GBGSV,3,3,11,25,40,112,36,37,26,320,22,34,15,039,18,1*43
$GBGSV,2,1,07,23,70,017,48,43,63,040,44,40,62,325,38,39,61,184,46,4*70
$GBGSV,2,2,07,25,40,112,40,37,26,320,23,34,15,039,19,4*40
$GNACCURACY,5.9*1A
$PAIRSAT,1,19,2,0,201,3,0,200,4,0,200,7,0,1,8,0,21,16,0,1,20,0,200,21,0,201,22,0,200,23,0,200,24,0,200,25,0,200,26,0,220,27,0,221,28,0,200,194,0,21,195,0,621,196,0,200,199,0,621*63
$PAIRSAT,2,15,70,0,200,71,0,200,73,0,200,74,0,200,75,0,200,76,0,200,77,0,1,78,0,201,79,0,201,80,0,200,84,0,200,85,0,200,86,0,200,87,0,201,88,0,201*5B
$PAIRSAT,3,17,2,0,1200,3,0,1200,4,0,1200,5,0,200,7,0,200,8,0,200,9,0,200,10,0,200,13,0,21,21,0,21,25,0,1000,26,0,1001,27,0,1021,30,0,1000,31,0,1000,33,0,1200,36,0,200*52
$PAIRSAT,4,36,3,0,400,7,0,1,9,0,201,10,0,201,11,0,200,12,0,200,13,0,200,14,0,200,16,0,201,19,0,400,20,0,400,21,0,400,22,0,400,23,0,421,24,0,400,25,0,421,26,0,400,27,0,400,28,0,400,29,0,400,30,0,400,32,0,400,33,0,400,34,0,421,35,0,400,36,0,400,37,0,421,38,0,400,39,0,421,40,0,421,41,0,400,42,0,400,43,0,421,44,0,400,45,0,400,46,0,400*4A
$PAIRDGP,7,2,7,8,16,21,26,27*56
$GNGGA,035707.200,2500.7992069,N,12132.4337061,E,4,44,0.65,16.782,M,15.25,M,1,3335*44
$GNRMC,035707.200,A,2500.7992069,N,12132.4337061,E,0.08,165.80,090324,,,R,V*19
$GPHDT,92.501,T*0A
$GNACCURACY,5.9*1A
$GNGGA,035707.300,2500.7992059,N,12132.4337059,E,4,44,0.65,16.781,M,15.25,M,1,3335*4E
$GNRMC,035707.300,A,2500.7992059,N,12132.4337059,E,0.08,165.80,090324,,,R,V*10
$GPHDT,,T*1B
$GNACCURACY,5.9*1A
$GNGGA,035707.400,2500.7992064,N,12132.4337080,E,4,44,0.65,16.790,M,15.25,M,1,3335*43
$GNRMC,035707.400,A,2500.7992064,N,12132.4337080,E,0.08,165.80,090324,,,R,V*1D
$GPHDT,92.423,T*0B
$GNACCURACY,6.0*10
$GNGGA,035707.500,2500.7992074,N,12132.4337022,E,4,45,0.64,16.786,M,15.25,M,1,3335*4C
$GNRMC,035707.500,A,2500.7992074,N,12132.4337022,E,0.08,165.80,090324,,,R,V*15
$GPHDT,,T*1B
$GNACCURACY,5.9*1A
$GNGGA,035707.600,2500.7992070,N,12132.4337028,E,4,45,0.64,16.778,M,15.25,M,0,3335*41
$GNRMC,035707.600,A,2500.7992070,N,12132.4337028,E,0.08,165.80,090324,,,R,V*18
$GPHDT,92.126,T*0B
$GNACCURACY,5.9*1A
$GNGGA,035707.700,2500.7992071,N,12132.4337033,E,4,45,0.64,16.778,M,15.25,M,0,3335*4B
$GNRMC,035707.700,A,2500.7992071,N,12132.4337033,E,0.09,165.80,090324,,,R,V*13
$GPHDT,,T*1B
$GNACCURACY,5.8*1B
$GNGGA,035707.800,2500.7992083,N,12132.4337058,E,4,45,0.64,16.791,M,15.25,M,0,3335*43
$GNRMC,035707.800,A,2500.7992083,N,12132.4337058,E,0.09,165.80,090324,,,R,V*1C
$GPHDT,91.969,T*0B
$GNACCURACY,5.8*1B
$GNGGA,035707.900,2500.7992078,N,12132.4337075,E,4,45,0.64,16.800,M,15.25,M,0,3335*4E
$GNRMC,035707.900,A,2500.7992078,N,12132.4337075,E,0.10,165.80,090324,,,R,V*1E
$GPHDT,,T*1B
$GNACCURACY,5.7*14
$GNGGA,035708.000,2500.7992083,N,12132.4337019,E,4,44,0.64,16.802,M,15.25,M,1,3335*44
$GNRMC,035708.000,A,2500.7992083,N,12132.4337019,E,0.09,165.80,090324,,,R,V*1E
$GPHDT,91.889,T*04
$GNACCURACY,5.7*14
$GNGGA,035708.100,2500.7992098,N,12132.4337030,E,4,44,0.64,16.775,M,15.25,M,1,3335*4B
$GNRMC,035708.100,A,2500.7992098,N,12132.4337030,E,0.09,165.80,090324,,,R,V*1E
$GPHDT,,T*1B
$GNGSA,A,3,08,194,195,199,21,02,27,07,16,26,,,1.15,0.64,0.96,1*31
$GNGSA,A,3,88,78,77,79,,,,,,,,,1.15,0.64,0.96,2*0B
$GNGSA,A,3,13,21,26,27,,,,,,,,,1.15,0.64,0.96,3*0B
$GNGSA,A,3,09,16,23,43,40,07,39,10,25,37,34,,1.15,0.64,0.96,4*08
$GPGSV,3,1,12,08,66,344,46,194,64,050,43,195,63,117,43,50,60,167,39,1*61
$GPGSV,3,2,12,199,60,167,36,21,54,161,47,02,42,178,44,27,38,033,42,1*51
$GPGSV,3,3,12,07,37,319,28,16,30,070,34,196,20,170,30,26,11,095,13,1*52
$GPGSV,2,1,07,08,66,344,44,194,64,050,44,195,63,117,43,199,60,167,48,8*5A
$GPGSV,2,2,07,27,38,033,46,196,20,170,31,26,11,095,16,8*61
$GLGSV,2,1,05,88,61,038,43,78,54,027,46,77,26,104,24,79,21,330,24,1*70
$GLGSV,2,2,05,87,08,026,24,1*48
$GAGSV,1,1,04,13,54,089,42,21,53,005,41,26,39,173,41,27,30,074,36,7*78
$GAGSV,1,1,04,13,54,089,42,21,53,005,44,26,39,173,42,27,30,074,40,1*79
$GBGSV,3,1,11,09,74,275,40,16,71,197,46,23,70,017,44,43,63,040,47,1*73
$GBGSV,3,2,11,40,62,325,38,07,61,304,26,39,61,185,43,10,51,286,15,1*70
$GBGSV,3,3,11,25,40,112,31,37,26,320,23,34,15,039,23,1*4D
$GBGSV,2,1,07,23,70,017,48,43,63,040,42,40,62,325,37,39,61,185,46,4*78
$GBGSV,2,2,07,25,40,112,40,37,26,320,23,34,15,039,19,4*40
$GNACCURACY,5.7*14
$PAIRSAT,1,19,2,0,201,3,0,200,4,0,200,7,0,1,8,0,21,16,0,1,20,0,200,21,0,201,22,0,200,23,0,200,24,0,200,25,0,200,26,0,220,27,0,221,28,0,200,194,0,21,195,0,621,196,0,200,199,0,621*63
$PAIRSAT,2,15,70,0,200,71,0,200,73,0,200,74,0,200,75,0,200,76,0,200,77,0,1,78,0,201,79,0,201,80,0,200,84,0,200,85,0,200,86,0,200,87,0,201,88,0,201*5B
$PAIRSAT,3,17,2,0,1200,3,0,1200,4,0,1200,5,0,200,7,0,200,8,0,200,9,0,200,10,0,200,13,0,21,21,0,21,25,0,1000,26,0,1001,27,0,1021,30,0,1000,31,0,1000,33,0,1200,36,0,200*52
$PAIRSAT,4,36,3,0,400,7,0,1,9,0,201,10,0,201,11,0,200,12,0,200,13,0,200,14,0,200,16,0,201,19,0,400,20,0,400,21,0,400,22,0,400,23,0,421,24,0,400,25,0,421,26,0,400,27,0,400,28,0,400,29,0,400,30,0,400,32,0,400,33,0,400,34,0,421,35,0,400,36,0,400,37,0,421,38,0,400,39,0,421,40,0,421,41,0,400,42,0,400,43,0,421,44,0,400,45,0,400,46,0,400*4A
$PAIRDGP,7,2,7,8,16,21,26,27*56
$GNGGA,035708.200,2500.7992073,N,12132.4337007,E,4,45,0.64,16.774,M,15.25,M,1,3335*49
$GNRMC,035708.200,A,2500.7992073,N,12132.4337007,E,0.08,165.80,090324,,,R,V*1D
$GPHDT,91.527,T*0D
$GNACCURACY,5.7*14
$GNGGA,035708.300,2500.7992082,N,12132.4337017,E,4,45,0.64,16.779,M,15.25,M,1,3335*4A
$GNRMC,035708.300,A,2500.7992082,N,12132.4337017,E,0.08,165.80,090324,,,R,V*13
$GPHDT,,T*1B
$GNACCURACY,5.7*14
$GNGGA,035708.400,2500.7992069,N,12132.4337005,E,4,45,0.64,16.778,M,15.25,M,1,3335*4A
$GNRMC,035708.400,A,2500.7992069,N,12132.4337005,E,0.08,165.80,090324,,,R,V*12
$GPHDT,91.826,T*01
$GNACCURACY,5.7*14
$GNGGA,035708.500,2500.7992090,N,12132.4336979,E,4,45,0.64,16.770,M,15.25,M,1,3335*46
$GNRMC,035708.500,A,2500.7992090,N,12132.4336979,E,0.08,165.80,090324,,,R,V*16
$GPHDT,,T*1B
$GNACCURACY,5.7*14
$GNGGA,035708.600,2500.7992094,N,12132.4336993,E,4,45,0.64,16.777,M,15.25,M,1,3335*42
$GNRMC,035708.600,A,2500.7992094,N,12132.4336993,E,0.08,165.80,090324,,,R,V*15
$GPHDT,91.745,T*0B
$GNACCURACY,5.7*14
$GNGGA,035708.700,2500.7992079,N,12132.4336948,E,4,45,0.64,16.764,M,15.25,M,0,3335*45
$GNRMC,035708.700,A,2500.7992079,N,12132.4336948,E,0.08,165.80,090324,,,R,V*11
$GPHDT,,T*1B
$GNACCURACY,5.7*14
$GNGGA,035708.800,2500.7992077,N,12132.4336954,E,4,45,0.64,16.761,M,15.25,M,0,3335*4C
$GNRMC,035708.800,A,2500.7992077,N,12132.4336954,E,0.08,165.80,090324,,,R,V*1D
$GPHDT,91.504,T*0C
$GNACCURACY,5.7*14
$GNGGA,035708.900,2500.7992077,N,12132.4336971,E,4,45,0.64,16.770,M,15.25,M,0,3335*4A
$GNRMC,035708.900,A,2500.7992077,N,12132.4336971,E,0.09,165.80,090324,,,R,V*1A
$GPHDT,,T*1B
$GNACCURACY,5.7*14
$GNGGA,035709.000,2500.7992071,N,12132.4336959,E,4,45,0.64,16.762,M,15.25,M,1,3335*4C
$GNRMC,035709.000,A,2500.7992071,N,12132.4336959,E,0.09,165.80,090324,,,R,V*1E
$GPHDT,91.469,T*06
$GNACCURACY,5.7*14
$GNGGA,035709.100,2500.7992083,N,12132.4336960,E,4,45,0.64,16.761,M,15.25,M,1,3335*49
$GNRMC,035709.100,A,2500.7992083,N,12132.4336960,E,0.08,165.80,090324,,,R,V*19
$GPHDT,,T*1B
$GNGSA,A,3,08,194,195,199,21,02,27,07,16,26,,,1.15,0.64,0.96,1*31
$GNGSA,A,3,88,78,77,79,,,,,,,,,1.15,0.64,0.96,2*0B
$GNGSA,A,3,13,21,26,27,,,,,,,,,1.15,0.64,0.96,3*0B
$GNGSA,A,3,09,16,23,43,40,07,39,10,25,37,34,,1.15,0.64,0.96,4*08
$GPGSV,3,1,12,08,66,344,46,194,64,050,43,195,63,117,42,50,60,167,38,1*61
$GPGSV,3,2,12,199,60,167,35,21,54,161,47,02,42,178,43,27,38,033,43,1*54
$GPGSV,3,3,12,07,37,319,25,16,30,070,34,196,20,170,30,26,11,095,10,1*5C
$GPGSV,2,1,07,08,66,344,45,194,64,050,43,195,63,117,43,199,60,167,48,8*5C
$GPGSV,2,2,07,27,38,033,46,196,20,170,30,26,11,095,17,8*61
$GLGSV,2,1,05,88,61,038,44,78,54,027,46,77,26,104,23,79,21,330,23,1*77
$GLGSV,2,2,05,87,08,026,27,1*4B
$GAGSV,1,1,04,13,54,089,42,21,53,005,41,26,39,173,41,27,30,074,37,7*79
$GAGSV,1,1,04,13,54,089,42,21,53,005,44,26,39,173,41,27,30,074,39,1*74
$GBGSV,3,1,11,09,74,275,40,16,71,197,46,23,70,017,45,43,63,040,47,1*72
$GBGSV,3,2,11,40,62,325,38,07,61,304,27,39,61,185,42,10,51,286,15,1*70
$GBGSV,3,3,11,25,40,112,33,37,26,320,22,34,15,039,20,1*4D
$GBGSV,2,1,07,23,70,017,48,43,63,040,42,40,62,325,37,39,61,185,46,4*78
$GBGSV,2,2,07,25,40,112,41,37,26,320,23,34,15,039,19,4*41
$GNACCURACY,5.7*14
$PAIRSAT,1,19,2,0,201,3,0,200,4,0,200,7,0,1,8,0,21,16,0,1,20,0,200,21,0,201,22,0,200,23,0,200,24,0,200,25,0,200,26,0,220,27,0,221,28,0,200,194,0,21,195,0,621,196,0,200,199,0,621*63
$PAIRSAT,2,15,70,0,200,71,0,200,73,0,200,74,0,200,75,0,200,76,0,200,77,0,1,78,0,201,79,0,201,80,0,200,84,0,200,85,0,200,86,0,200,87,0,201,88,0,201*5B
$PAIRSAT,3,17,2,0,1200,3,0,1200,4,0,1200,5,0,200,7,0,200,8,0,200,9,0,200,10,0,200,13,0,21,21,0,21,25,0,1000,26,0,1001,27,0,1021,30,0,1000,31,0,1000,33,0,1200,36,0,200*52
$PAIRSAT,4,36,3,0,400,7,0,1,9,0,201,10,0,201,11,0,200,12,0,200,13,0,200,14,0,200,16,0,201,19,0,400,20,0,400,21,0,400,22,0,400,23,0,421,24,0,400,25,0,421,26,0,400,27,0,400,28,0,400,29,0,400,30,0,400,32,0,400,33,0,400,34,0,421,35,0,400,36,0,400,37,0,421,38,0,400,39,0,421,40,0,421,41,0,400,42,0,400,43,0,421,44,0,400,45,0,400,46,0,400*4A
$PAIRDGP,7,2,7,8,16,21,26,27*56
$GNGGA,035709.200,2500.7992077,N,12132.4336973,E,4,45,0.64,16.762,M,15.25,M,1,3335*40
$GNRMC,035709.200,A,2500.7992077,N,12132.4336973,E,0.08,165.80,090324,,,R,V*13
$GPHDT,91.540,T*0C
$GNACCURACY,5.7*14
$GNGGA,035709.300,2500.7992072,N,12132.4336978,E,4,45,0.64,16.787,M,15.25,M,1,3335*44
$GNRMC,035709.300,A,2500.7992072,N,12132.4336978,E,0.07,165.80,090324,,,R,V*13
$GPHDT,,T*1B
$GNACCURACY,5.7*14
$GNGGA,035709.400,2500.7992066,N,12132.4336946,E,4,45,0.64,16.755,M,15.25,M,1,3335*44
$GNRMC,035709.400,A,2500.7992066,N,12132.4336946,E,0.07,165.80,090324,,,R,V*1C
$GPHDT,91.419,T*01
$GNACCURACY,5.7*14
$GNGGA,035709.500,2500.7992073,N,12132.4336916,E,4,45,0.64,16.748,M,15.25,M,1,3335*48
$GNRMC,035709.500,A,2500.7992073,N,12132.4336916,E,0.08,165.80,090324,,,R,V*13
$GPHDT,,T*1B
$GNACCURACY,5.7*14
$GNGGA,035709.600,2500.7992056,N,12132.4336958,E,4,45,0.64,16.767,M,15.25,M,1,3335*4B
$GNRMC,035709.600,A,2500.7992056,N,12132.4336958,E,0.08,165.80,090324,,,R,V*1D
$GPHDT,91.483,T*02
$GNACCURACY,5.6*15
$GNGGA,035709.700,2500.7992048,N,12132.4336956,E,4,45,0.64,16.826,M,15.25,M,1,3335*41
$GNRMC,035709.700,A,2500.7992048,N,12132.4336956,E,0.08,165.80,090324,,,R,V*1D
$GPHDT,,T*1B
$GNACCURACY,5.6*15
$GNGGA,035709.800,2500.7992065,N,12132.4337042,E,4,45,0.64,16.773,M,15.25,M,0,3335*42
$GNRMC,035709.800,A,2500.7992065,N,12132.4337042,E,0.09,165.80,090324,,,R,V*11
$GPHDT,91.680,T*03
$GNACCURACY,5.6*15
$GNGGA,035709.900,2500.7992032,N,12132.4337042,E,4,45,0.64,16.802,M,15.25,M,0,3335*48
$GNRMC,035709.900,A,2500.7992032,N,12132.4337042,E,0.09,165.80,090324,,,R,V*12
$GPHDT,,T*1B
$GNACCURACY,5.5*16
$GNGGA,035710.000,2500.7992056,N,12132.4336977,E,4,44,0.66,16.803,M,15.25,M,1,3335*46
$GNRMC,035710.000,A,2500.7992056,N,12132.4336977,E,0.09,165.80,090324,,,R,V*1F
$GPHDT,91.578,T*07
$GNACCURACY,5.5*16
$GNGGA,035710.100,2500.7992048,N,12132.4336914,E,4,44,0.66,16.794,M,15.25,M,1,3335*4C
$GNRMC,035710.100,A,2500.7992048,N,12132.4336914,E,0.08,165.80,090324,,,R,V*15
$GPHDT,,T*1B
$GNGSA,A,3,08,194,195,199,21,02,27,07,16,26,,,1.16,0.66,0.96,1*30
$GNGSA,A,3,88,78,77,79,,,,,,,,,1.16,0.66,0.96,2*0A
$GNGSA,A,3,13,21,26,27,,,,,,,,,1.16,0.66,0.96,3*0A
$GNGSA,A,3,09,16,23,43,40,07,39,25,34,37,,,1.16,0.66,0.96,4*08
$GPGSV,3,1,12,08,66,344,46,194,64,050,42,195,63,117,40,50,60,167,41,1*6C
$GPGSV,3,2,12,199,60,167,38,21,54,161,47,02,42,178,44,27,38,033,43,1*5E
$GPGSV,3,3,12,07,37,319,29,16,30,070,33,196,20,170,33,26,11,095,12,1*56
$GPGSV,2,1,07,08,66,344,48,194,64,050,44,195,63,117,41,199,60,167,46,8*5A
$GPGSV,2,2,07,27,38,033,46,196,20,170,31,26,11,095,17,8*60
$GLGSV,2,1,05,88,61,038,46,78,54,027,43,77,26,104,21,79,21,330,19,1*7B
$GLGSV,2,2,05,87,08,026,28,1*44
$GAGSV,1,1,04,13,54,089,41,21,53,005,41,26,39,173,42,27,30,074,35,7*7B
$GAGSV,1,1,04,13,54,089,42,21,53,005,45,26,39,173,42,27,30,074,39,1*76
$GBGSV,3,1,11,09,74,275,42,16,71,197,45,23,70,017,46,43,63,040,41,1*76
$GBGSV,3,2,11,40,62,325,43,07,61,304,29,39,61,185,42,10,51,286,13,1*74
$GBGSV,3,3,11,25,40,112,36,37,26,320,20,34,15,039,21,1*4B
$GBGSV,2,1,07,23,70,017,48,43,63,040,46,40,62,325,40,39,61,185,45,4*7F
$GBGSV,2,2,07,25,40,112,37,37,26,320,21,34,15,039,22,4*4A
$GNACCURACY,5.5*16
$PAIRSAT,1,19,2,0,201,3,0,200,4,0,200,7,0,1,8,0,21,16,0,1,20,0,200,21,0,201,22,0,200,23,0,200,24,0,200,25,0,200,26,0,220,27,0,221,28,0,200,194,0,21,195,0,621,196,0,200,199,0,621*63
$PAIRSAT,2,15,70,0,200,71,0,200,73,0,200,74,0,200,75,0,200,76,0,200,77,0,1,78,0,201,79,0,201,80,0,200,84,0,200,85,0,200,86,0,200,87,0,201,88,0,201*5B
$PAIRSAT,3,17,2,0,1200,3,0,1200,4,0,1200,5,0,200,7,0,200,8,0,200,9,0,200,10,0,200,13,0,21,21,0,21,25,0,1000,26,0,1001,27,0,1021,30,0,1000,31,0,1000,33,0,1200,36,0,200*52
$PAIRSAT,4,36,3,0,400,7,0,1,9,0,201,10,0,201,11,0,200,12,0,200,13,0,200,14,0,200,16,0,201,19,0,400,20,0,400,21,0,400,22,0,400,23,0,421,24,0,400,25,0,421,26,0,400,27,0,400,28,0,400,29,0,400,30,0,400,32,0,400,33,0,400,34,0,421,35,0,400,36,0,400,37,0,421,38,0,400,39,0,421,40,0,421,41,0,400,42,0,400,43,0,421,44,0,400,45,0,400,46,0,400*4A
$PAIRDGP,7,2,7,8,16,21,26,27*56
$GNGGA,035710.200,2500.7992048,N,12132.4336936,E,4,43,0.66,16.786,M,15.25,M,1,3335*4B
$GNRMC,035710.200,A,2500.7992048,N,12132.4336936,E,0.08,165.80,090324,,,R,V*16
$GPHDT,91.774,T*09
$GNACCURACY,5.5*16
$GNGGA,035710.300,2500.7992048,N,12132.4337031,E,4,43,0.66,16.745,M,15.25,M,1,3335*4A
$GNRMC,035710.300,A,2500.7992048,N,12132.4337031,E,0.08,165.80,090324,,,R,V*18
$GPHDT,,T*1B
$GNACCURACY,5.5*16
$GNGGA,035710.400,2500.7992054,N,12132.4337023,E,4,43,0.66,16.732,M,15.25,M,1,3335*43
$GNRMC,035710.400,A,2500.7992054,N,12132.4337023,E,0.08,165.80,090324,,,R,V*11
$GPHDT,91.866,T*05
$GNACCURACY,5.5*16
$GNGGA,035710.500,2500.7992068,N,12132.4337017,E,4,43,0.66,16.725,M,15.25,M,0,3335*4D
$GNRMC,035710.500,A,2500.7992068,N,12132.4337017,E,0.08,165.80,090324,,,R,V*18
$GPHDT,,T*1B
$GNACCURACY,5.5*16
$GNGGA,035710.600,2500.7992060,N,12132.4337020,E,4,43,0.66,16.724,M,15.25,M,0,3335*43
$GNRMC,035710.600,A,2500.7992060,N,12132.4337020,E,0.08,165.80,090324,,,R,V*17
$GPHDT,91.964,T*06
$GNACCURACY,5.5*16
$GNGGA,035710.700,2500.7992042,N,12132.4337034,E,4,42,0.66,16.736,M,15.25,M,0,3335*45
$GNRMC,035710.700,A,2500.7992042,N,12132.4337034,E,0.08,165.80,090324,,,R,V*13
$GPHDT,,T*1B
$GNACCURACY,5.6*15
$GNGGA,035710.800,2500.7992051,N,12132.4337069,E,4,42,0.66,16.726,M,15.25,M,0,3335*41
$GNRMC,035710.800,A,2500.7992051,N,12132.4337069,E,0.09,165.80,090324,,,R,V*17
$GPHDT,91.820,T*07
$GNACCURACY,5.6*15
$GNGGA,035710.900,2500.7992041,N,12132.4337043,E,4,43,0.66,16.736,M,15.25,M,0,3335*49
$GNRMC,035710.900,A,2500.7992041,N,12132.4337043,E,0.09,165.80,090324,,,R,V*1F
$GPHDT,,T*1B
$GNACCURACY,5.6*15
$GNGGA,035711.000,2500.7992044,N,12132.4337027,E,4,43,0.66,16.743,M,15.25,M,1,3335*45
$GNRMC,035711.000,A,2500.7992044,N,12132.4337027,E,0.09,165.80,090324,,,R,V*10
$GPHDT,91.610,T*0A
$GNACCURACY,5.6*15
$GNGGA,035711.100,2500.7992054,N,12132.4337045,E,4,43,0.66,16.742,M,15.25,M,1,3335*40
$GNRMC,035711.100,A,2500.7992054,N,12132.4337045,E,0.08,165.80,090324,,,R,V*15
$GPHDT,,T*1B
$GNGSA,A,3,08,194,195,199,21,02,27,07,16,26,,,1.16,0.66,0.96,1*30
$GNGSA,A,3,88,78,77,79,,,,,,,,,1.16,0.66,0.96,2*0A
$GNGSA,A,3,13,21,26,27,,,,,,,,,1.16,0.66,0.96,3*0A
$GNGSA,A,3,09,16,23,43,40,07,39,25,34,37,,,1.16,0.66,0.96,4*08
$GPGSV,3,1,12,08,66,344,46,194,64,050,41,195,63,117,40,50,60,167,41,1*6F
$GPGSV,3,2,12,199,60,167,38,21,54,161,47,02,42,178,45,27,38,033,43,1*5F
$GPGSV,3,3,12,07,37,318,26,16,30,070,33,196,20,170,33,26,11,095,14,1*5E
$GPGSV,2,1,07,08,66,344,49,194,64,050,44,195,63,117,42,199,60,167,46,8*58
$GPGSV,2,2,07,27,38,033,46,196,20,170,33,26,11,095,15,8*60
$GLGSV,2,1,05,88,61,038,45,78,54,027,43,77,26,104,20,79,21,330,19,1*79
$GLGSV,2,2,05,87,08,026,29,1*45
$GAGSV,1,1,04,13,54,089,41,21,53,005,42,26,39,173,43,27,30,074,35,7*79
$GAGSV,1,1,04,13,54,089,42,21,53,005,46,26,39,173,42,27,30,074,39,1*75
$GBGSV,3,1,11,09,74,275,42,16,71,197,45,23,70,017,46,43,63,040,42,1*75
$GBGSV,3,2,11,40,62,325,44,07,61,304,30,39,61,185,42,10,51,286,12,1*7A
$GBGSV,3,3,11,25,40,112,36,37,26,320,20,34,15,039,20,1*4A
$GBGSV,2,1,07,23,70,017,48,43,63,040,46,40,62,325,40,39,61,185,45,4*7F
$GBGSV,2,2,07,25,40,112,36,37,26,320,21,34,15,039,22,4*4B
$GNACCURACY,5.7*14
$PAIRSAT,1,19,2,0,201,3,0,200,4,0,200,7,0,1,8,0,21,16,0,1,20,0,200,21,0,201,22,0,200,23,0,200,24,0,200,25,0,200,26,0,220,27,0,221,28,0,200,194,0,21,195,0,621,196,0,200,199,0,621*63
$PAIRSAT,2,15,70,0,200,71,0,200,73,0,200,74,0,200,75,0,200,76,0,200,77,0,1,78,0,201,79,0,201,80,0,200,84,0,200,85,0,200,86,0,200,87,0,201,88,0,201*5B
$PAIRSAT,3,17,2,0,1200,3,0,1200,4,0,1200,5,0,200,7,0,200,8,0,200,9,0,200,10,0,200,13,0,21,21,0,21,25,0,1000,26,0,1001,27,0,1021,30,0,1000,31,0,1000,33,0,1200,36,0,200*52
$PAIRSAT,4,36,3,0,400,7,0,1,9,0,201,10,0,201,11,0,200,12,0,200,13,0,200,14,0,200,16,0,201,19,0,400,20,0,400,21,0,400,22,0,400,23,0,421,24,0,400,25,0,421,26,0,400,27,0,400,28,0,400,29,0,400,30,0,400,32,0,400,33,0,400,34,0,421,35,0,400,36,0,400,37,0,421,38,0,400,39,0,421,40,0,421,41,0,400,42,0,400,43,0,421,44,0,400,45,0,400,46,0,400*4A
$PAIRDGP,7,2,7,8,16,21,26,27*56
$GNGGA,035711.200,2500.7992063,N,12132.4337038,E,4,43,0.66,16.735,M,15.25,M,1,3335*4D
$GNRMC,035711.200,A,2500.7992063,N,12132.4337038,E,0.08,165.80,090324,,,R,V*18
$GPHDT,91.803,T*06
$GNACCURACY,5.7*14
$GNGGA,035711.300,2500.7992050,N,12132.4337030,E,4,44,0.66,16.750,M,15.25,M,1,3335*40
$GNRMC,035711.300,A,2500.7992050,N,12132.4337030,E,0.08,165.80,090324,,,R,V*11
$GPHDT,,T*1B
$GNACCURACY,5.7*14
$GNGGA,035711.400,2500.7992085,N,12132.4337001,E,4,43,0.66,16.755,M,15.25,M,0,3335*4E
$GNRMC,035711.400,A,2500.7992085,N,12132.4337001,E,0.08,165.80,090324,,,R,V*1C
$GPHDT,91.831,T*07
$GNACCURACY,5.7*14
$GNGGA,035711.500,2500.7992050,N,12132.4336982,E,4,44,0.66,16.801,M,15.25,M,0,3335*4D
$GNRMC,035711.500,A,2500.7992050,N,12132.4336982,E,0.08,165.80,090324,,,R,V*16
$GPHDT,,T*1B
$GNACCURACY,5.7*14
$GNGGA,035711.600,2500.7992059,N,12132.4336981,E,4,44,0.66,16.800,M,15.25,M,0,3335*45
$GNRMC,035711.600,A,2500.7992059,N,12132.4336981,E,0.08,165.80,090324,,,R,V*1F
$GPHDT,91.669,T*04
$GNACCURACY,5.7*14
$GNGGA,035711.700,2500.7992055,N,12132.4336990,E,4,44,0.66,16.794,M,15.25,M,0,3335*4A
$GNRMC,035711.700,A,2500.7992055,N,12132.4336990,E,0.08,165.80,090324,,,R,V*12
$GPHDT,,T*1B
$GNACCURACY,5.7*14
$GNGGA,035711.800,2500.7992041,N,12132.4336980,E,4,44,0.66,16.806,M,15.25,M,0,3335*45
$GNRMC,035711.800,A,2500.7992041,N,12132.4336980,E,0.09,165.80,090324,,,R,V*18
$GPHDT,91.223,T*0E
$GNACCURACY,5.7*14
$GNGGA,035711.900,2500.7992048,N,12132.4336961,E,4,44,0.66,16.789,M,15.25,M,0,3335*4A
$GNRMC,035711.900,A,2500.7992048,N,12132.4336961,E,0.09,165.80,090324,,,R,V*1F
$GPHDT,,T*1B
$GNACCURACY,5.8*1B
$GNGGA,035712.000,2500.7992054,N,12132.4336999,E,4,44,0.66,16.813,M,15.25,M,1,3335*47
$GNRMC,035712.000,A,2500.7992054,N,12132.4336999,E,0.09,165.80,090324,,,R,V*1F
$GPHDT,91.500,T*08
$GNACCURACY,5.7*14
$GNGGA,035712.100,2500.7992061,N,12132.4336956,E,4,44,0.66,16.800,M,15.25,M,1,3335*41
$GNRMC,035712.100,A,2500.7992061,N,12132.4336956,E,0.09,165.80,090324,,,R,V*1B
$GPHDT,,T*1B
$GNGSA,A,3,08,194,195,199,21,02,27,07,16,26,,,1.16,0.66,0.96,1*30
$GNGSA,A,3,88,78,77,79,,,,,,,,,1.16,0.66,0.96,2*0A
$GNGSA,A,3,13,21,26,27,,,,,,,,,1.16,0.66,0.96,3*0A
$GNGSA,A,3,09,16,23,43,40,07,39,25,37,34,,,1.16,0.66,0.96,4*08
$GPGSV,4,1,13,08,66,344,46,194,64,050,41,195,63,117,40,50,60,167,41,1*69
$GPGSV,4,2,13,199,60,167,38,21,54,161,47,02,42,178,45,27,38,033,43,1*59
$GPGSV,4,3,13,07,37,318,27,16,29,070,30,04,22,206,,196,20,170,34,1*58
$GPGSV,4,4,13,26,11,095,16,1*59
$GPGSV,2,1,07,08,66,344,49,194,64,050,44,195,63,117,42,199,60,167,46,8*58
$GPGSV,2,2,07,27,38,033,46,196,20,170,33,26,11,095,14,8*61
$GLGSV,2,1,05,88,61,038,45,78,54,027,43,77,26,104,17,79,21,330,19,1*7D
$GLGSV,2,2,05,87,08,026,28,1*44
$GAGSV,1,1,04,13,54,089,41,21,53,005,42,26,39,173,43,27,30,074,35,7*79
$GAGSV,1,1,04,13,54,089,42,21,53,005,46,26,39,173,42,27,30,074,39,1*75
$GBGSV,3,1,11,09,74,275,41,16,71,197,45,23,70,017,46,43,63,040,41,1*75
$GBGSV,3,2,11,40,62,325,44,07,61,304,30,39,61,185,42,10,51,286,14,1*7C
$GBGSV,3,3,11,25,40,112,36,37,26,320,23,34,15,039,22,1*4B
$GBGSV,2,1,07,23,70,017,48,43,63,040,45,40,62,325,40,39,61,185,45,4*7C
$GBGSV,2,2,07,25,40,112,36,37,26,320,22,34,15,039,22,4*48
$GNACCURACY,5.6*15
$PAIRSAT,1,20,2,0,201,3,0,200,4,0,200,5,0,200,7,0,1,8,0,21,16,0,1,20,0,200,21,0,201,22,0,200,23,0,200,24,0,200,25,0,200,26,0,220,27,0,221,28,0,200,194,0,21,195,0,621,196,0,200,199,0,621*72
$PAIRSAT,2,15,70,0,200,71,0,200,73,0,200,74,0,200,75,0,200,76,0,200,77,0,1,78,0,201,79,0,201,80,0,200,84,0,200,85,0,200,86,0,200,87,0,201,88,0,201*5B
$PAIRSAT,3,18,2,0,1200,3,0,1200,4,0,1200,5,0,200,7,0,1200,8,0,200,9,0,200,10,0,200,13,0,21,21,0,21,25,0,1000,26,0,1001,27,0,1021,30,0,1000,31,0,1000,33,0,1200,34,0,1000,36,0,200*76
$PAIRSAT,4,36,3,0,400,7,0,1,9,0,201,10,0,201,11,0,200,12,0,200,13,0,200,14,0,200,16,0,201,19,0,400,20,0,400,21,0,400,22,0,400,23,0,421,24,0,400,25,0,421,26,0,400,27,0,400,28,0,400,29,0,400,30,0,400,32,0,400,33,0,400,34,0,421,35,0,400,36,0,400,37,0,421,38,0,400,39,0,421,40,0,421,41,0,400,42,0,400,43,0,421,44,0,400,45,0,400,46,0,400*4A
$PAIRDGP,7,2,7,8,16,21,26,27*56
$GNGGA,035712.200,2500.7992050,N,12132.4336948,E,4,44,0.66,16.805,M,15.25,M,1,3335*4A
$GNRMC,035712.200,A,2500.7992050,N,12132.4336948,E,0.08,165.80,090324,,,R,V*14
$GPHDT,91.588,T*08
$GNACCURACY,5.6*15
$GNGGA,035712.300,2500.7992068,N,12132.4336951,E,4,44,0.66,16.787,M,15.25,M,1,3335*4D
$GNRMC,035712.300,A,2500.7992068,N,12132.4336951,E,0.08,165.80,090324,,,R,V*16
$GPHDT,,T*1B
$GNACCURACY,5.6*15
$GNGGA,035712.400,2500.7992064,N,12132.4336961,E,4,44,0.66,16.798,M,15.25,M,0,3335*4A
$GNRMC,035712.400,A,2500.7992064,N,12132.4336961,E,0.08,165.80,090324,,,R,V*1E
$GPHDT,91.804,T*01
$GNACCURACY,5.6*15
$GNGGA,035712.500,2500.7992049,N,12132.4336982,E,4,44,0.66,16.804,M,15.25,M,0,3335*43
$GNRMC,035712.500,A,2500.7992049,N,12132.4336982,E,0.08,165.80,090324,,,R,V*1D
$GPHDT,,T*1B
$GNACCURACY,5.6*15
$GNGGA,035712.600,2500.7992058,N,12132.4336955,E,4,44,0.66,16.797,M,15.25,M,0,3335*4F
$GNRMC,035712.600,A,2500.7992058,N,12132.4336955,E,0.08,165.80,090324,,,R,V*14
$GPHDT,91.840,T*01
$GNACCURACY,5.6*15
$GNGGA,035712.700,2500.7992055,N,12132.4336947,E,4,44,0.66,16.810,M,15.25,M,0,3335*40
$GNRMC,035712.700,A,2500.7992055,N,12132.4336947,E,0.08,165.80,090324,,,R,V*1B
$GPHDT,,T*1B
$GNACCURACY,5.6*15
$GNGGA,035712.800,2500.7992067,N,12132.4336965,E,4,44,0.66,16.797,M,15.25,M,0,3335*4E
$GNRMC,035712.800,A,2500.7992067,N,12132.4336965,E,0.09,165.80,090324,,,R,V*14
$GPHDT,91.997,T*0A
$GNACCURACY,5.6*15
$GNGGA,035712.900,2500.7992061,N,12132.4336936,E,4,44,0.66,16.805,M,15.25,M,0,3335*4B
$GNRMC,035712.900,A,2500.7992061,N,12132.4336936,E,0.09,165.80,090324,,,R,V*15
$GPHDT,,T*1B
