$FW : RTK35X,V1.1X0314AS,Lib20210517,1*54
$Tool : LOCOSYS , GNSS Firebird , v1.0.0.19*39
$---------------------------------------------------*2D
$GPHDT,,T*1B
$GNACCURACY,5.6*15
$GNGGA,035722.600,2500.7992073,N,12132.4336741,E,4,42,0.67,16.775,M,15.25,M,0,3335*45
$GNRMC,035722.600,A,2500.7992073,N,12132.4336741,E,0.01,165.80,090324,,,R,V*1C
$GPHDT,316.825,T*3E
$GNACCURACY,5.6*15
$GNGGA,035722.700,2500.7992073,N,12132.4336788,E,4,42,0.67,16.782,M,15.25,M,0,3335*49
$GNRMC,035722.700,A,2500.7992073,N,12132.4336788,E,0.01,165.80,090324,,,R,V*18
$GPHDT,,T*1B
$GNACCURACY,5.6*15
$GNGGA,035722.800,2500.7992086,N,12132.4336780,E,4,43,0.66,16.780,M,15.25,M,0,3335*46
$GNRMC,035722.800,A,2500.7992086,N,12132.4336780,E,0.01,165.80,090324,,,R,V*15
$GPHDT,316.598,T*35
$GNACCURACY,5.6*15
$GNGGA,035722.900,2500.7992042,N,12132.4336777,E,4,43,0.66,16.770,M,15.25,M,0,3335*48
$GNRMC,035722.900,A,2500.7992042,N,12132.4336777,E,0.01,165.80,090324,,,R,V*14
$GPHDT,,T*1B
$GNACCURACY,5.6*15
$GNGGA,035723.000,2500.7992048,N,12132.4336696,E,4,43,0.66,16.732,M,15.25,M,1,3335*43
$GNRMC,035723.000,A,2500.7992048,N,12132.4336696,E,0.00,165.80,090324,,,R,V*19
$GPHDT,317.938,T*32
$GNACCURACY,5.5*16
$GNGGA,035723.100,2500.7992063,N,12132.4336865,E,4,43,0.66,16.769,M,15.25,M,1,3335*47
$GNRMC,035723.100,A,2500.7992063,N,12132.4336865,E,0.01,165.80,090324,,,R,V*12
$GPHDT,,T*1B
$GNGSA,A,3,08,194,195,199,21,02,07,27,16,26,,,1.16,0.66,0.96,1*30
$GNGSA,A,3,88,78,77,79,,,,,,,,,1.16,0.66,0.96,2*0A
$GNGSA,A,3,13,21,26,27,,,,,,,,,1.16,0.66,0.96,3*0A
$GNGSA,A,3,09,16,23,43,40,07,39,25,37,34,,,1.16,0.66,0.96,4*08
$GPGSV,3,1,12,08,66,344,45,194,64,050,41,195,63,117,44,50,60,167,38,1*66
$GPGSV,3,2,12,199,60,167,36,21,54,161,41,02,42,178,37,07,37,318,29,1*59
$GPGSV,3,3,12,27,37,033,45,16,29,070,34,196,20,170,16,26,11,095,19,1*56
$GPGSV,2,1,06,08,66,344,48,194,64,050,44,195,63,117,43,199,60,167,44,8*5B
$GPGSV,2,2,06,27,37,033,43,196,20,170,22,8*57
$GLGSV,2,1,05,88,61,038,45,78,54,027,45,77,26,104,26,79,22,330,26,1*76
$GLGSV,2,2,05,87,08,026,18,1*47
$GAGSV,1,1,04,13,54,089,44,21,53,005,35,26,39,173,34,27,30,074,37,7*7E
$GAGSV,1,1,04,13,54,089,46,21,53,005,42,26,39,173,40,27,30,074,37,1*79
$GBGSV,3,1,11,09,74,275,42,16,71,197,39,23,70,018,45,43,63,040,43,1*73
$GBGSV,3,2,11,40,62,325,44,07,61,304,26,39,61,185,41,10,51,286,13,1*7F
$GBGSV,3,3,11,25,40,112,43,37,26,320,23,34,15,039,18,1*40
$GBGSV,2,1,06,23,70,018,44,43,63,040,44,40,62,325,40,39,61,185,43,4*79
$GBGSV,2,2,06,25,40,112,42,37,26,320,33,4*73
$GNACCURACY,5.5*16
$PAIRSAT,1,20,2,0,201,3,0,200,4,0,200,5,0,200,7,0,1,8,0,21,16,0,1,20,0,200,21,0,201,22,0,200,23,0,200,24,0,200,25,0,200,26,0,220,27,0,221,28,0,200,194,0,21,195,0,621,196,0,200,199,0,621*72
$PAIRSAT,2,15,70,0,200,71,0,200,73,0,200,74,0,200,75,0,200,76,0,200,77,0,1,78,0,201,79,0,201,80,0,200,84,0,200,85,0,200,86,0,200,87,0,201,88,0,201*5B
$PAIRSAT,3,20,2,0,1200,3,0,1200,4,0,1200,5,0,200,7,0,1200,8,0,200,9,0,200,10,0,200,11,0,200,12,0,200,13,0,21,21,0,21,25,0,1000,26,0,1021,27,0,1021,30,0,1000,31,0,1000,33,0,1200,34,0,1000,36,0,200*7C
$PAIRSAT,4,36,3,0,400,7,0,1,9,0,201,10,0,201,11,0,200,12,0,200,13,0,200,14,0,200,16,0,201,19,0,600,20,0,400,21,0,400,22,0,400,23,0,421,24,0,400,25,0,421,26,0,400,27,0,400,28,0,400,29,0,400,30,0,400,32,0,400,33,0,400,34,0,421,35,0,400,36,0,400,37,0,421,38,0,400,39,0,421,40,0,421,41,0,400,42,0,400,43,0,421,44,0,400,45,0,400,46,0,400*48
$PAIRDGP,7,2,7,8,16,21,26,27*56
$GNGGA,035723.200,2500.7992045,N,12132.4336834,E,4,43,0.66,16.784,M,15.25,M,1,3335*47
$GNRMC,035723.200,A,2500.7992045,N,12132.4336834,E,0.00,165.80,090324,,,R,V*10
$GPHDT,317.297,T*3C
$GNACCURACY,5.5*16
$GNGGA,035723.300,2500.7992022,N,12132.4336767,E,4,42,0.67,16.757,M,15.25,M,1,3335*40
$GNRMC,035723.300,A,2500.7992022,N,12132.4336767,E,0.00,165.80,090324,,,R,V*19
$GPHDT,,T*1B
$GNACCURACY,5.5*16
$GNGGA,035723.400,2500.7992058,N,12132.4336780,E,4,42,0.67,16.752,M,15.25,M,1,3335*46
$GNRMC,035723.400,A,2500.7992058,N,12132.4336780,E,0.01,165.80,090324,,,R,V*1B
$GPHDT,317.534,T*32
$GNACCURACY,5.5*16
$GNGGA,035723.500,2500.7992029,N,12132.4336798,E,4,42,0.67,16.768,M,15.25,M,0,3335*40
$GNRMC,035723.500,A,2500.7992029,N,12132.4336798,E,0.00,165.80,090324,,,R,V*14
$GPHDT,,T*1B
$GNACCURACY,5.4*17
$GNGGA,035723.600,2500.7992051,N,12132.4336796,E,4,42,0.67,16.764,M,15.25,M,0,3335*4E
$GNRMC,035723.600,A,2500.7992051,N,12132.4336796,E,0.00,165.80,090324,,,R,V*16
$GPHDT,316.792,T*3D
$GNACCURACY,5.4*17
$GNGGA,035723.700,2500.7992046,N,12132.4336746,E,4,42,0.67,16.737,M,15.25,M,0,3335*42
$GNRMC,035723.700,A,2500.7992046,N,12132.4336746,E,0.00,165.80,090324,,,R,V*1C
$GPHDT,,T*1B
$GNACCURACY,5.4*17
$GNGGA,035723.800,2500.7992036,N,12132.4336751,E,4,42,0.67,16.754,M,15.25,M,0,3335*49
$GNRMC,035723.800,A,2500.7992036,N,12132.4336751,E,0.00,165.80,090324,,,R,V*12
$GPHDT,317.407,T*33
$GNACCURACY,5.4*17
$GNGGA,035723.900,2500.7992047,N,12132.4336666,E,4,42,0.67,16.742,M,15.25,M,0,3335*4C
$GNRMC,035723.900,A,2500.7992047,N,12132.4336666,E,0.00,165.80,090324,,,R,V*10
$GPHDT,,T*1B
$GNACCURACY,5.4*17
$GNGGA,035724.000,2500.7992048,N,12132.4336705,E,4,42,0.67,16.740,M,15.25,M,1,3335*4A
$GNRMC,035724.000,A,2500.7992048,N,12132.4336705,E,0.00,165.80,090324,,,R,V*15
$GPHDT,318.130,T*3D
$GNACCURACY,5.4*17
$GNGGA,035724.100,2500.7992035,N,12132.4336694,E,4,42,0.67,16.738,M,15.25,M,1,3335*47
$GNRMC,035724.100,A,2500.7992035,N,12132.4336694,E,0.00,165.80,090324,,,R,V*17
$GPHDT,,T*1B
$GNGSA,A,3,08,194,195,199,21,02,07,27,16,26,,,1.21,0.67,1.01,1*3A
$GNGSA,A,3,88,78,77,79,,,,,,,,,1.21,0.67,1.01,2*00
$GNGSA,A,3,13,21,26,27,,,,,,,,,1.21,0.67,1.01,3*00
$GNGSA,A,3,09,16,23,43,40,07,39,25,37,,,,1.21,0.67,1.01,4*05
$GPGSV,3,1,12,08,66,344,45,194,64,050,43,195,63,117,44,50,60,167,41,1*6A
$GPGSV,3,2,12,199,60,167,38,21,54,161,44,02,42,178,38,07,37,318,31,1*54
$GPGSV,3,3,12,27,37,033,45,16,29,070,35,196,20,170,18,26,11,095,19,1*59
$GPGSV,2,1,06,08,66,344,48,194,64,050,43,195,63,117,44,199,60,167,45,8*5A
$GPGSV,2,2,06,27,37,033,43,196,20,170,22,8*57
$GLGSV,2,1,05,88,61,038,45,78,54,027,44,77,26,104,24,79,22,330,25,1*76
$GLGSV,2,2,05,87,08,026,19,1*46
$GAGSV,1,1,04,13,54,089,44,21,53,005,36,26,39,173,28,27,30,074,37,7*70
$GAGSV,1,1,04,13,54,089,45,21,53,005,42,26,39,173,38,27,30,074,38,1*7A
$GBGSV,3,1,11,09,74,275,41,16,71,197,40,23,70,018,45,43,63,040,44,1*79
$GBGSV,3,2,11,40,62,325,44,07,61,304,26,39,60,185,42,10,51,286,14,1*7A
$GBGSV,3,3,11,25,40,112,42,37,26,320,24,34,15,039,18,1*46
$GBGSV,2,1,06,23,70,018,45,43,63,040,44,40,62,325,40,39,60,185,44,4*7E
$GBGSV,2,2,06,25,40,112,42,37,26,320,31,4*71
$GNACCURACY,5.4*17
$PAIRSAT,1,20,2,0,201,3,0,200,4,0,200,5,0,200,7,0,1,8,0,21,16,0,1,20,0,200,21,0,201,22,0,200,23,0,200,24,0,200,25,0,200,26,0,220,27,0,221,28,0,200,194,0,21,195,0,621,196,0,200,199,0,621*72
$PAIRSAT,2,15,70,0,200,71,0,200,73,0,200,74,0,200,75,0,200,76,0,200,77,0,1,78,0,201,79,0,201,80,0,200,84,0,200,85,0,200,86,0,200,87,0,201,88,0,201*5B
$PAIRSAT,3,20,2,0,1200,3,0,1200,4,0,1200,5,0,200,7,0,1200,8,0,200,9,0,200,10,0,200,11,0,200,12,0,200,13,0,21,21,0,21,25,0,1000,26,0,1021,27,0,1021,30,0,1000,31,0,1000,33,0,1200,34,0,1000,36,0,200*7C
$PAIRSAT,4,36,3,0,400,7,0,1,9,0,201,10,0,201,11,0,200,12,0,200,13,0,200,14,0,200,16,0,201,19,0,600,20,0,400,21,0,400,22,0,400,23,0,421,24,0,400,25,0,421,26,0,400,27,0,400,28,0,400,29,0,400,30,0,400,32,0,400,33,0,400,34,0,421,35,0,400,36,0,400,37,0,421,38,0,400,39,0,421,40,0,421,41,0,400,42,0,400,43,0,421,44,0,400,45,0,400,46,0,400*48
$PAIRDGP,7,2,7,8,16,21,26,27*56
$GNGGA,035724.200,2500.7992023,N,12132.4336753,E,4,42,0.67,16.752,M,15.25,M,1,3335*45
$GNRMC,035724.200,A,2500.7992023,N,12132.4336753,E,0.00,165.80,090324,,,R,V*19
$GPHDT,318.147,T*3D
$GNACCURACY,5.4*17
$GNGGA,035724.300,2500.7992012,N,12132.4336738,E,4,42,0.67,16.739,M,15.25,M,1,3335*46
$GNRMC,035724.300,A,2500.7992012,N,12132.4336738,E,0.00,165.80,090324,,,R,V*17
$GPHDT,,T*1B
$GNACCURACY,5.5*16
$GNGGA,035724.400,2500.7992038,N,12132.4336778,E,4,42,0.67,16.746,M,15.25,M,1,3335*45
$GNRMC,035724.400,A,2500.7992038,N,12132.4336778,E,0.00,165.80,090324,,,R,V*1C
$GPHDT,317.799,T*37
$GNACCURACY,5.5*16
$GNGGA,035724.500,2500.7992052,N,12132.4336676,E,4,42,0.67,16.744,M,15.25,M,1,3335*45
$GNRMC,035724.500,A,2500.7992052,N,12132.4336676,E,0.00,165.80,090324,,,R,V*1E
$GPHDT,,T*1B
$GNACCURACY,5.4*17
$GNGGA,035724.600,2500.7992028,N,12132.4336713,E,4,42,0.67,16.765,M,15.25,M,1,3335*4A
$GNRMC,035724.600,A,2500.7992028,N,12132.4336713,E,0.00,165.80,090324,,,R,V*12
$GPHDT,318.811,T*37
$GNACCURACY,5.5*16
$GNGGA,035724.700,2500.7992016,N,12132.4336749,E,4,42,0.67,16.760,M,15.25,M,0,3335*4D
$GNRMC,035724.700,A,2500.7992016,N,12132.4336749,E,0.00,165.80,090324,,,R,V*11
$GPHDT,,T*1B
$GNACCURACY,5.5*16
$GNGGA,035724.800,2500.7992034,N,12132.4336821,E,4,42,0.67,16.771,M,15.25,M,0,3335*43
$GNRMC,035724.800,A,2500.7992034,N,12132.4336821,E,0.00,165.80,090324,,,R,V*1F
$GPHDT,317.901,T*38
$GNACCURACY,5.5*16
$GNGGA,035724.900,2500.7992036,N,12132.4336822,E,4,43,0.66,16.759,M,15.25,M,0,3335*49
$GNRMC,035724.900,A,2500.7992036,N,12132.4336822,E,0.00,165.80,090324,,,R,V*1F
$GPHDT,,T*1B
$GNACCURACY,5.5*16
$GNGGA,035725.000,2500.7992039,N,12132.4336788,E,4,43,0.66,16.756,M,15.25,M,1,3335*4F
$GNRMC,035725.000,A,2500.7992039,N,12132.4336788,E,0.00,165.80,090324,,,R,V*17
$GPHDT,318.326,T*38
$GNACCURACY,5.6*15
$GNGGA,035725.100,2500.7992035,N,12132.4336762,E,4,43,0.66,16.754,M,15.25,M,1,3335*44
$GNRMC,035725.100,A,2500.7992035,N,12132.4336762,E,0.00,165.80,090324,,,R,V*1E
$GPHDT,,T*1B
$GNGSA,A,3,08,194,195,199,21,02,07,27,16,26,,,1.16,0.66,0.96,1*30
$GNGSA,A,3,88,78,77,79,,,,,,,,,1.16,0.66,0.96,2*0A
$GNGSA,A,3,13,21,26,27,,,,,,,,,1.16,0.66,0.96,3*0A
$GNGSA,A,3,09,16,23,43,40,07,39,25,37,34,,,1.16,0.66,0.96,4*08
$GPGSV,3,1,12,08,66,344,45,194,64,050,43,195,63,117,44,50,60,167,41,1*6A
$GPGSV,3,2,12,199,60,167,38,21,54,161,44,02,42,178,39,07,37,318,31,1*55
$GPGSV,3,3,12,27,37,033,45,16,29,070,32,196,20,170,18,26,11,095,18,1*5F
$GPGSV,2,1,06,08,66,344,48,194,64,050,43,195,63,117,42,199,60,167,45,8*5C
$GPGSV,2,2,06,27,37,033,42,196,20,170,21,8*55
$GLGSV,2,1,05,88,61,038,45,78,54,027,44,77,26,104,28,79,22,330,18,1*74
$GLGSV,2,2,05,87,08,026,18,1*47
$GAGSV,1,1,04,13,54,089,44,21,53,005,36,26,39,173,32,27,30,074,37,7*7B
$GAGSV,1,1,04,13,54,089,45,21,53,005,42,26,39,173,39,27,30,074,38,1*7B
$GBGSV,3,1,11,09,74,275,41,16,71,197,40,23,70,018,45,43,63,040,44,1*79
$GBGSV,3,2,11,40,62,325,43,07,61,304,26,39,60,185,43,10,51,286,13,1*7B
$GBGSV,3,3,11,25,40,112,43,37,26,320,25,34,15,039,18,1*46
$GBGSV,2,1,07,23,70,018,45,43,63,040,44,40,62,325,40,39,60,185,44,4*7F
$GBGSV,2,2,07,25,40,112,41,37,26,320,29,34,15,039,20,4*41
$GNACCURACY,5.5*16
$PAIRSAT,1,20,2,0,201,3,0,200,4,0,200,5,0,200,7,0,1,8,0,21,16,0,1,20,0,200,21,0,201,22,0,200,23,0,200,24,0,200,25,0,200,26,0,220,27,0,221,28,0,200,194,0,21,195,0,621,196,0,200,199,0,621*72
$PAIRSAT,2,15,70,0,200,71,0,200,73,0,200,74,0,200,75,0,200,76,0,200,77,0,1,78,0,201,79,0,201,80,0,200,84,0,200,85,0,200,86,0,200,87,0,201,88,0,201*5B
$PAIRSAT,3,20,2,0,1200,3,0,1200,4,0,1200,5,0,200,7,0,1200,8,0,200,9,0,200,10,0,200,11,0,200,12,0,200,13,0,21,21,0,21,25,0,1000,26,0,1021,27,0,1021,30,0,1000,31,0,1000,33,0,1200,34,0,1000,36,0,200*7C
$PAIRSAT,4,36,3,0,400,7,0,1,9,0,201,10,0,201,11,0,200,12,0,200,13,0,200,14,0,200,16,0,201,19,0,600,20,0,400,21,0,400,22,0,400,23,0,421,24,0,400,25,0,421,26,0,400,27,0,400,28,0,400,29,0,400,30,0,400,32,0,400,33,0,400,34,0,421,35,0,400,36,0,400,37,0,421,38,0,400,39,0,421,40,0,421,41,0,400,42,0,400,43,0,421,44,0,400,45,0,400,46,0,400*48
$PAIRDGP,7,2,7,8,16,21,26,27*56
$GNGGA,035725.200,2500.7992027,N,12132.4336775,E,4,43,0.66,16.756,M,15.25,M,1,3335*40
$GNRMC,035725.200,A,2500.7992027,N,12132.4336775,E,0.00,165.80,090324,,,R,V*18
$GPHDT,318.788,T*38
$GNACCURACY,5.5*16
$GNGGA,035725.300,2500.7992018,N,12132.4336760,E,4,43,0.66,16.761,M,15.25,M,1,3335*4D
$GNRMC,035725.300,A,2500.7992018,N,12132.4336760,E,0.01,165.80,090324,,,R,V*10
$GPHDT,,T*1B
$GNACCURACY,5.4*17
$GNGGA,035725.400,2500.7992014,N,12132.4336777,E,4,44,0.66,16.752,M,15.25,M,1,3335*47
$GNRMC,035725.400,A,2500.7992014,N,12132.4336777,E,0.01,165.80,090324,,,R,V*1D
$GPHDT,319.007,T*39
$GNACCURACY,5.4*17
$GNGGA,035725.500,2500.7992026,N,12132.4336772,E,4,43,0.66,16.765,M,15.25,M,0,3335*40
$GNRMC,035725.500,A,2500.7992026,N,12132.4336772,E,0.01,165.80,090324,,,R,V*18
$GPHDT,,T*1B
$GNACCURACY,5.4*17
$GNGGA,035725.600,2500.7992002,N,12132.4336768,E,4,44,0.66,16.769,M,15.25,M,0,3335*45
$GNRMC,035725.600,A,2500.7992002,N,12132.4336768,E,0.01,165.80,090324,,,R,V*16
$GPHDT,318.674,T*3A
$GNACCURACY,5.4*17
$GNGGA,035725.700,2500.7992013,N,12132.4336771,E,4,44,0.66,16.768,M,15.25,M,0,3335*4D
$GNRMC,035725.700,A,2500.7992013,N,12132.4336771,E,0.01,165.80,090324,,,R,V*1F
$GPHDT,,T*1B
$GNACCURACY,5.4*17
$GNGGA,035725.800,2500.7992022,N,12132.4336773,E,4,44,0.66,16.758,M,15.25,M,0,3335*41
$GNRMC,035725.800,A,2500.7992022,N,12132.4336773,E,0.01,165.80,090324,,,R,V*10
$GPHDT,318.456,T*38
$GNACCURACY,5.4*17
$GNGGA,035725.900,2500.7992012,N,12132.4336787,E,4,44,0.66,16.759,M,15.25,M,0,3335*49
$GNRMC,035725.900,A,2500.7992012,N,12132.4336787,E,0.01,165.80,090324,,,R,V*19
$GPHDT,,T*1B
$GNACCURACY,5.4*17
$GNGGA,035726.000,2500.7992009,N,12132.4336753,E,4,44,0.66,16.757,M,15.25,M,1,3335*4F
$GNRMC,035726.000,A,2500.7992009,N,12132.4336753,E,0.01,165.80,090324,,,R,V*10
$GPHDT,319.033,T*3E
$GNACCURACY,5.4*17
$GNGGA,035726.100,2500.7992017,N,12132.4336762,E,4,44,0.66,16.762,M,15.25,M,1,3335*45
$GNRMC,035726.100,A,2500.7992017,N,12132.4336762,E,0.01,165.80,090324,,,R,V*1C
$GPHDT,,T*1B
$GNGSA,A,3,08,194,195,199,21,02,07,27,16,26,,,1.16,0.66,0.96,1*30
$GNGSA,A,3,88,78,77,79,,,,,,,,,1.16,0.66,0.96,2*0A
$GNGSA,A,3,13,21,26,27,,,,,,,,,1.16,0.66,0.96,3*0A
$GNGSA,A,3,09,16,23,43,40,07,39,25,37,34,,,1.16,0.66,0.96,4*08
$GPGSV,3,1,12,08,66,344,45,194,64,050,43,195,63,117,44,50,60,167,41,1*6A
$GPGSV,3,2,12,199,60,167,38,21,54,161,46,02,42,178,42,07,37,318,31,1*5B
$GPGSV,3,3,12,27,37,033,45,16,29,070,34,196,20,170,28,26,11,095,18,1*5A
$GPGSV,2,1,06,08,66,344,48,194,64,050,43,195,63,117,43,199,60,167,46,8*5E
$GPGSV,2,2,06,27,37,033,43,196,20,170,26,8*53
$GLGSV,2,1,05,88,61,038,45,78,54,027,44,77,26,104,27,79,22,330,19,1*7A
$GLGSV,2,2,05,87,08,026,17,1*48
$GAGSV,1,1,04,13,54,089,44,21,53,005,37,26,39,173,38,27,30,074,37,7*70
$GAGSV,1,1,04,13,54,089,45,21,53,005,42,26,39,173,41,27,30,074,38,1*74
$GBGSV,3,1,11,09,74,275,41,16,71,197,41,23,70,018,45,43,63,040,44,1*78
$GBGSV,3,2,11,40,62,325,43,07,61,304,26,39,60,185,43,10,51,286,13,1*7B
$GBGSV,3,3,11,25,40,112,43,37,26,320,27,34,15,039,19,1*45
$GBGSV,2,1,07,23,70,018,45,43,63,040,44,40,62,325,40,39,60,185,44,4*7F
$GBGSV,2,2,07,25,40,112,43,37,26,320,31,34,15,039,22,4*48
$GNACCURACY,5.4*17
$PAIRSAT,1,20,2,0,201,3,0,200,4,0,200,5,0,200,7,0,1,8,0,21,16,0,1,20,0,200,21,0,201,22,0,200,23,0,200,24,0,200,25,0,200,26,0,220,27,0,221,28,0,200,194,0,21,195,0,621,196,0,200,199,0,621*72
$PAIRSAT,2,15,70,0,200,71,0,200,73,0,200,74,0,200,75,0,200,76,0,200,77,0,1,78,0,201,79,0,201,80,0,200,84,0,200,85,0,200,86,0,200,87,0,201,88,0,201*5B
$PAIRSAT,3,20,2,0,1200,3,0,1200,4,0,1200,5,0,200,7,0,1200,8,0,200,9,0,200,10,0,200,11,0,200,12,0,200,13,0,21,21,0,21,25,0,1000,26,0,1021,27,0,1021,30,0,1000,31,0,1000,33,0,1200,34,0,1000,36,0,200*7C
$PAIRSAT,4,36,3,0,400,7,0,1,9,0,201,10,0,201,11,0,200,12,0,200,13,0,200,14,0,200,16,0,201,19,0,600,20,0,400,21,0,400,22,0,400,23,0,421,24,0,400,25,0,421,26,0,400,27,0,400,28,0,400,29,0,400,30,0,400,32,0,400,33,0,400,34,0,421,35,0,400,36,0,400,37,0,421,38,0,400,39,0,421,40,0,421,41,0,400,42,0,400,43,0,421,44,0,400,45,0,400,46,0,400*48
$PAIRDGP,7,2,7,8,16,21,26,27*56
$GNGGA,035726.200,2500.7992003,N,12132.4336760,E,4,43,0.66,16.758,M,15.25,M,1,3335*4F
$GNRMC,035726.200,A,2500.7992003,N,12132.4336760,E,0.01,165.80,090324,,,R,V*18
$GPHDT,319.077,T*3E
$GNACCURACY,5.4*17
$GNGGA,035726.300,2500.7992022,N,12132.4336748,E,4,43,0.66,16.766,M,15.25,M,1,3335*4A
$GNRMC,035726.300,A,2500.7992022,N,12132.4336748,E,0.01,165.80,090324,,,R,V*10
$GPHDT,,T*1B
$GNACCURACY,5.4*17
$GNGGA,035726.400,2500.7992007,N,12132.4336776,E,4,43,0.66,16.765,M,15.25,M,1,3335*44
$GNRMC,035726.400,A,2500.7992007,N,12132.4336776,E,0.01,165.80,090324,,,R,V*1D
$GPHDT,319.310,T*3C
$GNACCURACY,5.5*16
$GNGGA,035726.500,2500.7991991,N,12132.4336782,E,4,43,0.66,16.767,M,15.25,M,1,3335*49
$GNRMC,035726.500,A,2500.7991991,N,12132.4336782,E,0.01,165.80,090324,,,R,V*12
$GPHDT,,T*1B
$GNACCURACY,5.5*16
$GNGGA,035726.600,2500.7992008,N,12132.4336761,E,4,43,0.66,16.761,M,15.25,M,1,3335*4B
$GNRMC,035726.600,A,2500.7992008,N,12132.4336761,E,0.01,165.80,090324,,,R,V*16
$GPHDT,319.342,T*3B
$GNACCURACY,5.5*16
$GNGGA,035726.700,2500.7992020,N,12132.4336771,E,4,43,0.66,16.767,M,15.25,M,0,3335*46
$GNRMC,035726.700,A,2500.7992020,N,12132.4336771,E,0.01,165.80,090324,,,R,V*1C
$GPHDT,,T*1B
$GNACCURACY,5.5*16
$GNGGA,035726.800,2500.7992009,N,12132.4336773,E,4,43,0.66,16.753,M,15.25,M,0,3335*47
$GNRMC,035726.800,A,2500.7992009,N,12132.4336773,E,0.01,165.80,090324,,,R,V*1A
$GPHDT,319.093,T*34
$GNACCURACY,5.5*16
$GNGGA,035726.900,2500.7992024,N,12132.4336762,E,4,44,0.66,16.754,M,15.25,M,0,3335*49
$GNRMC,035726.900,A,2500.7992024,N,12132.4336762,E,0.01,165.80,090324,,,R,V*14
$GPHDT,,T*1B
$GNACCURACY,5.5*16
$GNGGA,035727.000,2500.7992009,N,12132.4336784,E,4,44,0.66,16.766,M,15.25,M,1,3335*46
$GNRMC,035727.000,A,2500.7992009,N,12132.4336784,E,0.00,165.80,090324,,,R,V*1A
$GPHDT,318.740,T*3C
$GNACCURACY,5.5*16
$GNGGA,035727.100,2500.7992014,N,12132.4336802,E,4,44,0.66,16.762,M,15.25,M,1,3335*4E
$GNRMC,035727.100,A,2500.7992014,N,12132.4336802,E,0.00,165.80,090324,,,R,V*16
$GPHDT,,T*1B
$GNGSA,A,3,08,194,195,199,21,02,07,27,16,26,,,1.16,0.66,0.96,1*30
$GNGSA,A,3,88,78,77,79,,,,,,,,,1.16,0.66,0.96,2*0A
$GNGSA,A,3,13,21,26,27,,,,,,,,,1.16,0.66,0.96,3*0A
$GNGSA,A,3,09,16,23,43,40,07,39,25,37,34,,,1.16,0.66,0.96,4*08
$GPGSV,3,1,12,08,66,345,45,194,64,050,43,195,63,117,44,50,60,167,41,1*6B
$GPGSV,3,2,12,199,60,167,38,21,54,161,46,02,42,178,42,07,37,318,30,1*5A
$GPGSV,3,3,12,27,37,033,45,16,29,070,35,196,20,170,28,26,11,095,17,1*54
$GPGSV,2,1,06,08,66,345,48,194,64,050,43,195,63,117,43,199,60,167,46,8*5F
$GPGSV,2,2,06,27,37,033,43,196,20,170,26,8*53
$GLGSV,2,1,05,88,61,038,45,78,54,027,44,77,26,104,23,79,22,330,18,1*7F
$GLGSV,2,2,05,87,08,026,17,1*48
$GAGSV,1,1,04,13,54,089,44,21,53,005,37,26,39,173,38,27,30,074,36,7*71
$GAGSV,1,1,04,13,54,089,45,21,53,005,42,26,39,173,41,27,30,074,38,1*74
$GBGSV,3,1,11,09,74,275,41,16,71,197,41,23,70,018,46,43,63,040,44,1*7B
$GBGSV,3,2,11,40,62,325,43,07,61,304,25,39,60,185,43,10,51,286,14,1*7F
$GBGSV,3,3,11,25,40,112,43,37,26,320,29,34,15,039,19,1*4B
$GBGSV,2,1,07,23,70,018,44,43,63,040,43,40,62,325,40,39,60,185,44,4*79
$GBGSV,2,2,07,25,40,112,43,37,26,320,31,34,15,039,21,4*4B
$GNACCURACY,5.5*16
$PAIRSAT,1,20,2,0,201,3,0,200,4,0,200,5,0,200,7,0,1,8,0,21,16,0,1,20,0,200,21,0,201,22,0,200,23,0,200,24,0,200,25,0,200,26,0,220,27,0,221,28,0,200,194,0,21,195,0,621,196,0,200,199,0,621*72
$PAIRSAT,2,15,70,0,200,71,0,200,73,0,200,74,0,200,75,0,200,76,0,200,77,0,1,78,0,201,79,0,201,80,0,200,84,0,200,85,0,200,86,0,200,87,0,201,88,0,201*5B
$PAIRSAT,3,20,2,0,1200,3,0,1200,4,0,1200,5,0,200,7,0,1200,8,0,200,9,0,200,10,0,200,11,0,200,12,0,200,13,0,21,21,0,21,25,0,1000,26,0,1021,27,0,1021,30,0,1000,31,0,1000,33,0,1200,34,0,1000,36,0,200*7C
$PAIRSAT,4,36,3,0,400,7,0,1,9,0,201,10,0,201,11,0,200,12,0,200,13,0,200,14,0,200,16,0,201,19,0,600,20,0,400,21,0,400,22,0,400,23,0,421,24,0,400,25,0,421,26,0,400,27,0,400,28,0,400,29,0,400,30,0,400,32,0,400,33,0,400,34,0,421,35,0,400,36,0,400,37,0,421,38,0,400,39,0,421,40,0,421,41,0,400,42,0,400,43,0,421,44,0,400,45,0,400,46,0,400*48
$PAIRDGP,7,2,7,8,16,21,26,27*56
$GNGGA,035727.200,2500.7992017,N,12132.4336794,E,4,44,0.66,16.765,M,15.25,M,1,3335*49
$GNRMC,035727.200,A,2500.7992017,N,12132.4336794,E,0.01,165.80,090324,,,R,V*17
$GPHDT,318.607,T*3E
$GNACCURACY,5.5*16
$GNGGA,035727.300,2500.7992017,N,12132.4336786,E,4,44,0.66,16.763,M,15.25,M,1,3335*4D
$GNRMC,035727.300,A,2500.7992017,N,12132.4336786,E,0.01,165.80,090324,,,R,V*15
$GPHDT,,T*1B
$GNACCURACY,5.5*16
$GNGGA,035727.400,2500.7992018,N,12132.4336770,E,4,44,0.66,16.763,M,15.25,M,1,3335*4C
$GNRMC,035727.400,A,2500.7992018,N,12132.4336770,E,0.01,165.80,090324,,,R,V*14
$GPHDT,318.749,T*35
$GNACCURACY,5.5*16
$GNGGA,035727.500,2500.7991992,N,12132.4336798,E,4,44,0.66,16.772,M,15.25,M,1,3335*43
$GNRMC,035727.500,A,2500.7991992,N,12132.4336798,E,0.01,165.80,090324,,,R,V*1B
$GPHDT,,T*1B
$GNACCURACY,5.5*16
$GNGGA,035727.600,2500.7992008,N,12132.4336754,E,4,44,0.66,16.748,M,15.25,M,1,3335*40
$GNRMC,035727.600,A,2500.7992008,N,12132.4336754,E,0.01,165.80,090324,,,R,V*11
$GPHDT,319.282,T*36
$GNACCURACY,5.5*16
$GNGGA,035727.700,2500.7991993,N,12132.4336784,E,4,44,0.66,16.767,M,15.25,M,1,3335*49
$GNRMC,035727.700,A,2500.7991993,N,12132.4336784,E,0.01,165.80,090324,,,R,V*15
$GPHDT,,T*1B
$GNACCURACY,5.5*16
$GNGGA,035727.800,2500.7992002,N,12132.4336782,E,4,44,0.66,16.767,M,15.25,M,0,3335*43
$GNRMC,035727.800,A,2500.7992002,N,12132.4336782,E,0.01,165.80,090324,,,R,V*1E
$GPHDT,319.020,T*3C
$GNACCURACY,5.5*16
$GNGGA,035727.900,2500.7991995,N,12132.4336799,E,4,44,0.66,16.759,M,15.25,M,0,3335*41
$GNRMC,035727.900,A,2500.7991995,N,12132.4336799,E,0.01,165.80,090324,,,R,V*11
$GPHDT,,T*1B
$GNACCURACY,5.5*16
$GNGGA,035728.000,2500.7991992,N,12132.4336801,E,4,44,0.66,16.768,M,15.25,M,1,3335*4D
$GNRMC,035728.000,A,2500.7991992,N,12132.4336801,E,0.01,165.80,090324,,,R,V*1E
$GPHDT,319.412,T*39
$GNACCURACY,5.5*16
$GNGGA,035728.100,2500.7991977,N,12132.4336827,E,4,44,0.66,16.767,M,15.25,M,1,3335*4C
$GNRMC,035728.100,A,2500.7991977,N,12132.4336827,E,0.01,165.80,090324,,,R,V*10
$GPHDT,,T*1B
$GNGSA,A,3,08,194,195,199,21,02,07,27,16,26,,,1.16,0.66,0.96,1*30
$GNGSA,A,3,88,78,77,79,,,,,,,,,1.16,0.66,0.96,2*0A
$GNGSA,A,3,13,21,26,27,,,,,,,,,1.16,0.66,0.96,3*0A
$GNGSA,A,3,09,16,23,43,40,07,39,25,37,34,,,1.16,0.66,0.96,4*08
$GPGSV,3,1,12,08,66,345,45,194,64,050,43,195,63,117,44,50,60,167,41,1*6B
$GPGSV,3,2,12,199,60,167,38,21,54,161,46,02,42,178,42,07,37,318,30,1*5A
$GPGSV,3,3,12,27,37,033,45,16,29,070,35,196,20,170,29,26,11,095,17,1*55
$GPGSV,2,1,06,08,66,345,48,194,64,050,43,195,63,117,43,199,60,167,46,8*5F
$GPGSV,2,2,06,27,37,033,43,196,20,170,26,8*53
$GLGSV,2,1,05,88,61,038,44,78,54,027,44,77,26,104,23,79,22,330,18,1*7E
$GLGSV,2,2,05,87,08,026,17,1*48
$GAGSV,1,1,04,13,54,089,44,21,53,005,37,26,39,173,38,27,30,074,36,7*71
$GAGSV,1,1,04,13,54,089,45,21,53,005,42,26,39,173,41,27,30,074,38,1*74
$GBGSV,3,1,11,09,74,275,41,16,71,197,41,23,70,018,46,43,63,040,44,1*7B
$GBGSV,3,2,11,40,62,325,43,07,61,304,23,39,60,185,43,10,51,286,13,1*7E
$GBGSV,3,3,11,25,40,112,43,37,26,320,25,34,15,039,19,1*47
$GBGSV,2,1,07,23,70,018,44,43,63,040,43,40,62,325,40,39,60,185,44,4*79
$GBGSV,2,2,07,25,40,112,43,37,26,320,31,34,15,039,21,4*4B
$GNACCURACY,5.5*16
$PAIRSAT,1,20,2,0,201,3,0,200,4,0,200,5,0,200,7,0,1,8,0,21,16,0,1,20,0,200,21,0,201,22,0,200,23,0,200,24,0,200,25,0,200,26,0,220,27,0,221,28,0,200,194,0,21,195,0,621,196,0,200,199,0,621*72
$PAIRSAT,2,15,70,0,200,71,0,200,73,0,200,74,0,200,75,0,200,76,0,200,77,0,1,78,0,201,79,0,201,80,0,200,84,0,200,85,0,200,86,0,200,87,0,201,88,0,201*5B
$PAIRSAT,3,20,2,0,1200,3,0,1200,4,0,1200,5,0,200,7,0,1200,8,0,200,9,0,200,10,0,200,11,0,200,12,0,200,13,0,21,21,0,21,25,0,1000,26,0,1021,27,0,1021,30,0,1000,31,0,1000,33,0,1200,34,0,1000,36,0,200*7C
$PAIRSAT,4,36,3,0,400,7,0,1,9,0,201,10,0,201,11,0,200,12,0,200,13,0,200,14,0,200,16,0,201,19,0,600,20,0,400,21,0,400,22,0,400,23,0,421,24,0,400,25,0,421,26,0,400,27,0,400,28,0,400,29,0,400,30,0,400,32,0,400,33,0,400,34,0,421,35,0,400,36,0,400,37,0,421,38,0,400,39,0,421,40,0,421,41,0,400,42,0,400,43,0,421,44,0,400,45,0,400,46,0,400*48
$PAIRDGP,7,2,7,8,16,21,26,27*56
$GNGGA,035728.200,2500.7991980,N,12132.4336766,E,4,44,0.66,16.767,M,15.25,M,1,3335*4D
$GNRMC,035728.200,A,2500.7991980,N,12132.4336766,E,0.01,165.80,090324,,,R,V*11
$GPHDT,319.495,T*36
$GNACCURACY,5.5*16
$GNGGA,035728.300,2500.7992012,N,12132.4336762,E,4,44,0.66,16.756,M,15.25,M,1,3335*4B
$GNRMC,035728.300,A,2500.7992012,N,12132.4336762,E,0.01,165.80,090324,,,R,V*15
$GPHDT,,T*1B
$GNACCURACY,5.5*16
$GNGGA,035728.400,2500.7992002,N,12132.4336743,E,4,43,0.66,16.755,M,15.25,M,0,3335*4B
$GNRMC,035728.400,A,2500.7992002,N,12132.4336743,E,0.01,165.80,090324,,,R,V*10
$GPHDT,319.456,T*39
$GNACCURACY,5.5*16
$GNGGA,035728.500,2500.7992006,N,12132.4336763,E,4,44,0.66,16.763,M,15.25,M,0,3335*4E
$GNRMC,035728.500,A,2500.7992006,N,12132.4336763,E,0.11,165.80,090324,,,R,V*16
$GPHDT,,T*1B
$GNACCURACY,5.5*16
$GNGGA,035728.600,2500.7992004,N,12132.4336735,E,4,44,0.66,16.750,M,15.25,M,0,3335*4C
$GNRMC,035728.600,A,2500.7992004,N,12132.4336735,E,0.10,165.80,090324,,,R,V*15
$GPHDT,319.796,T*36
$GNACCURACY,5.5*16
$GNGGA,035728.700,2500.7991995,N,12132.4336774,E,4,44,0.66,16.767,M,15.25,M,0,3335*4E
$GNRMC,035728.700,A,2500.7991995,N,12132.4336774,E,0.08,165.80,090324,,,R,V*1A
$GPHDT,,T*1B
$GNACCURACY,5.5*16
$GNGGA,035728.800,2500.7992010,N,12132.4336752,E,4,44,0.66,16.754,M,15.25,M,0,3335*42
$GNRMC,035728.800,A,2500.7992010,N,12132.4336752,E,0.05,165.80,090324,,,R,V*1B
$GPHDT,319.993,T*3D
$GNACCURACY,5.5*16
$GNGGA,035728.900,2500.7992018,N,12132.4336734,E,4,44,0.66,16.751,M,15.25,M,0,3335*4E
$GNRMC,035728.900,A,2500.7992018,N,12132.4336734,E,0.05,165.80,090324,,,R,V*12
$GPHDT,,T*1B
$GNACCURACY,5.5*16
$GNGGA,035729.000,2500.7992019,N,12132.4336739,E,4,44,0.66,16.748,M,15.25,M,1,3335*43
$GNRMC,035729.000,A,2500.7992019,N,12132.4336739,E,0.02,165.80,090324,,,R,V*11
$GPHDT,320.127,T*30
$GNACCURACY,5.5*16
$GNGGA,035729.100,2500.7992012,N,12132.4336746,E,4,43,0.66,16.750,M,15.25,M,1,3335*4F
$GNRMC,035729.100,A,2500.7992012,N,12132.4336746,E,0.03,165.80,090324,,,R,V*12
$GPHDT,,T*1B
$GNGSA,A,3,08,194,195,199,21,02,07,27,16,26,,,1.16,0.66,0.96,1*30
$GNGSA,A,3,88,78,77,79,,,,,,,,,1.16,0.66,0.96,2*0A
$GNGSA,A,3,13,21,26,27,,,,,,,,,1.16,0.66,0.96,3*0A
$GNGSA,A,3,09,16,23,43,40,07,39,25,34,37,,,1.16,0.66,0.96,4*08
$GPGSV,3,1,12,08,66,345,45,194,64,050,43,195,63,117,44,50,60,167,41,1*6B
$GPGSV,3,2,12,199,60,167,38,21,54,161,46,02,42,178,43,07,37,318,28,1*52
$GPGSV,3,3,12,27,37,033,45,16,29,070,35,196,20,170,29,26,10,095,17,1*54
$GPGSV,2,1,06,08,66,345,48,194,64,050,43,195,63,117,43,199,60,167,46,8*5F
$GPGSV,2,2,06,27,37,033,43,196,20,170,27,8*52
$GLGSV,2,1,05,88,61,038,44,78,54,027,44,77,26,104,23,79,22,330,16,1*70
$GLGSV,2,2,05,87,08,026,17,1*48
$GAGSV,1,1,04,13,54,089,44,21,53,005,37,26,39,173,38,27,30,074,37,7*70
$GAGSV,1,1,04,13,54,089,45,21,53,005,42,26,39,173,42,27,30,074,38,1*77
$GBGSV,3,1,11,09,74,275,41,16,71,197,41,23,70,018,46,43,63,040,44,1*7B
$GBGSV,3,2,11,40,62,325,43,07,61,304,23,39,60,185,43,10,51,286,13,1*7E
$GBGSV,3,3,11,25,40,112,43,37,26,320,20,34,15,039,19,1*42
$GBGSV,2,1,07,23,70,018,44,43,63,040,43,40,62,325,40,39,60,185,44,4*79
$GBGSV,2,2,07,25,40,112,43,37,26,320,31,34,15,039,22,4*48
$GNACCURACY,5.5*16
$PAIRSAT,1,20,2,0,201,3,0,200,4,0,200,5,0,200,7,0,1,8,0,21,16,0,1,20,0,200,21,0,201,22,0,200,23,0,200,24,0,200,25,0,200,26,0,220,27,0,221,28,0,200,194,0,21,195,0,621,196,0,200,199,0,621*72
$PAIRSAT,2,15,70,0,200,71,0,200,73,0,200,74,0,200,75,0,200,76,0,200,77,0,1,78,0,201,79,0,201,80,0,200,84,0,200,85,0,200,86,0,200,87,0,201,88,0,201*5B
$PAIRSAT,3,20,2,0,1200,3,0,1200,4,0,1200,5,0,200,7,0,1200,8,0,200,9,0,200,10,0,200,11,0,200,12,0,200,13,0,21,21,0,21,25,0,1000,26,0,1021,27,0,1021,30,0,1000,31,0,1000,33,0,1200,34,0,1000,36,0,200*7C
$PAIRSAT,4,36,3,0,400,7,0,1,9,0,201,10,0,201,11,0,200,12,0,200,13,0,200,14,0,200,16,0,201,19,0,600,20,0,400,21,0,400,22,0,400,23,0,421,24,0,400,25,0,421,26,0,400,27,0,400,28,0,400,29,0,400,30,0,400,32,0,400,33,0,400,34,0,421,35,0,400,36,0,400,37,0,421,38,0,400,39,0,421,40,0,421,41,0,400,42,0,400,43,0,421,44,0,400,45,0,400,46,0,400*48
$PAIRDGP,7,2,7,8,16,21,26,27*56
$GNGGA,035729.200,2500.7992023,N,12132.4336737,E,4,43,0.66,16.748,M,15.25,M,1,3335*41
$GNRMC,035729.200,A,2500.7992023,N,12132.4336737,E,0.02,165.80,090324,,,R,V*14
$GPHDT,319.905,T*32
$GNACCURACY,5.5*16
$GNGGA,035729.300,2500.7992015,N,12132.4336780,E,4,43,0.66,16.752,M,15.25,M,1,3335*42
$GNRMC,035729.300,A,2500.7992015,N,12132.4336780,E,0.04,165.80,090324,,,R,V*1A
$GPHDT,,T*1B
$GNACCURACY,5.6*15
$GNGGA,035729.400,2500.7992030,N,12132.4336739,E,4,42,0.66,16.760,M,15.25,M,1,3335*40
$GNRMC,035729.400,A,2500.7992030,N,12132.4336739,E,0.04,165.80,090324,,,R,V*18
$GPHDT,319.893,T*3C
$GNACCURACY,5.6*15
$GNGGA,035729.500,2500.7992014,N,12132.4336773,E,4,42,0.66,16.749,M,15.25,M,1,3335*42
$GNRMC,035729.500,A,2500.7992014,N,12132.4336773,E,0.04,165.80,090324,,,R,V*11
$GPHDT,,T*1B
$GNACCURACY,5.6*15
$GNGGA,035729.600,2500.7992011,N,12132.4336793,E,4,42,0.66,16.760,M,15.25,M,1,3335*41
$GNRMC,035729.600,A,2500.7992011,N,12132.4336793,E,0.06,165.80,090324,,,R,V*1B
$GPHDT,319.563,T*3E
$GNACCURACY,5.6*15
$GNGGA,035729.700,2500.7992002,N,12132.4336792,E,4,42,0.66,16.758,M,15.25,M,0,3335*49
$GNRMC,035729.700,A,2500.7992002,N,12132.4336792,E,0.07,165.80,090324,,,R,V*18
$GPHDT,,T*1B
$GNACCURACY,5.6*15
$GNGGA,035729.800,2500.7992003,N,12132.4336811,E,4,42,0.66,16.767,M,15.25,M,0,3335*4F
$GNRMC,035729.800,A,2500.7992003,N,12132.4336811,E,0.17,165.80,090324,,,R,V*13
$GPHDT,319.303,T*3E
$GNACCURACY,5.5*16
$GNGGA,035729.900,2500.7991988,N,12132.4336823,E,4,43,0.66,16.773,M,15.25,M,0,3335*42
$GNRMC,035729.900,A,2500.7991988,N,12132.4336823,E,0.14,165.80,090324,,,R,V*19
$GPHDT,,T*1B
$GNACCURACY,5.5*16
$GNGGA,035730.000,2500.7991999,N,12132.4336834,E,4,43,0.66,16.767,M,15.25,M,1,3335*41
$GNRMC,035730.000,A,2500.7991999,N,12132.4336834,E,0.08,165.80,090324,,,R,V*13
$GPHDT,319.302,T*3F
$GNACCURACY,5.5*16
$GNGGA,035730.100,2500.7991978,N,12132.4336816,E,4,43,0.66,16.767,M,15.25,M,1,3335*4F
$GNRMC,035730.100,A,2500.7991978,N,12132.4336816,E,0.04,165.80,090324,,,R,V*11
$GPHDT,,T*1B
$GNGSA,A,3,08,194,195,199,21,02,27,07,16,26,,,1.16,0.66,0.96,1*30
$GNGSA,A,3,88,78,77,79,,,,,,,,,1.16,0.66,0.96,2*0A
$GNGSA,A,3,13,21,26,27,,,,,,,,,1.16,0.66,0.96,3*0A
$GNGSA,A,3,09,16,23,43,40,07,39,25,34,37,,,1.16,0.66,0.96,4*08
$GPGSV,4,1,13,08,66,345,45,194,64,050,43,195,63,117,43,50,60,167,41,1*6A
$GPGSV,4,2,13,199,60,167,38,21,54,161,46,02,42,178,43,27,37,033,45,1*57
$GPGSV,4,3,13,07,37,318,28,16,29,070,34,04,21,206,,196,20,170,29,1*5C
$GPGSV,4,4,13,26,10,095,16,1*58
$GPGSV,2,1,06,08,66,345,48,194,64,050,43,195,63,117,43,199,60,167,46,8*5F
$GPGSV,2,2,06,27,37,033,43,196,20,170,28,8*5D
$GLGSV,2,1,05,88,61,038,44,78,54,027,44,77,26,104,26,79,22,330,14,1*77
$GLGSV,2,2,05,87,08,026,17,1*48
$GAGSV,1,1,04,13,54,089,44,21,53,005,37,26,39,173,38,27,30,074,37,7*70
$GAGSV,1,1,04,13,54,089,45,21,53,005,42,26,39,173,42,27,30,074,37,1*78
$GBGSV,3,1,11,09,74,275,41,16,71,197,41,23,70,018,46,43,63,040,44,1*7B
$GBGSV,3,2,11,40,62,325,43,07,61,304,24,39,60,185,43,10,51,286,14,1*7E
$GBGSV,3,3,11,25,40,112,43,37,26,320,20,34,15,039,20,1*48
$GBGSV,2,1,07,23,70,018,44,43,63,040,43,40,62,325,40,39,60,185,44,4*79
$GBGSV,2,2,07,25,40,112,43,37,26,320,31,34,15,039,20,4*4A
$GNACCURACY,5.5*16
$PAIRSAT,1,20,2,0,201,3,0,200,4,0,200,5,0,200,7,0,1,8,0,21,16,0,1,20,0,200,21,0,201,22,0,200,23,0,200,24,0,200,25,0,200,26,0,220,27,0,221,28,0,200,194,0,21,195,0,621,196,0,200,199,0,621*72
$PAIRSAT,2,15,70,0,200,71,0,200,73,0,200,74,0,200,75,0,200,76,0,200,77,0,1,78,0,201,79,0,201,80,0,200,84,0,200,85,0,200,86,0,200,87,0,201,88,0,201*5B
$PAIRSAT,3,20,2,0,1200,3,0,1200,4,0,1200,5,0,200,7,0,1200,8,0,200,9,0,200,10,0,200,11,0,200,12,0,200,13,0,21,21,0,21,25,0,1000,26,0,1021,27,0,1021,30,0,1000,31,0,1000,33,0,1200,34,0,1000,36,0,200*7C
$PAIRSAT,4,36,3,0,400,7,0,1,9,0,201,10,0,201,11,0,200,12,0,200,13,0,200,14,0,200,16,0,201,19,0,600,20,0,400,21,0,400,22,0,400,23,0,421,24,0,400,25,0,421,26,0,400,27,0,400,28,0,400,29,0,400,30,0,400,32,0,400,33,0,400,34,0,421,35,0,400,36,0,400,37,0,421,38,0,400,39,0,421,40,0,421,41,0,400,42,0,400,43,0,421,44,0,400,45,0,400,46,0,400*48
$PAIRDGP,7,2,7,8,16,21,26,27*56
$GNGGA,035730.200,2500.7992000,N,12132.4336828,E,4,43,0.66,16.763,M,15.25,M,1,3335*40
$GNRMC,035730.200,A,2500.7992000,N,12132.4336828,E,0.07,165.80,090324,,,R,V*19
$GPHDT,319.272,T*39
$GNACCURACY,5.4*17
$GNGGA,035730.300,2500.7991993,N,12132.4336822,E,4,43,0.66,16.759,M,15.25,M,1,3335*42
$GNRMC,035730.300,A,2500.7991993,N,12132.4336822,E,0.06,165.80,090324,,,R,V*13
$GPHDT,,T*1B
$GNACCURACY,5.4*17
$GNGGA,035730.400,2500.7991997,N,12132.4336823,E,4,43,0.66,16.766,M,15.25,M,1,3335*4C
$GNRMC,035730.400,A,2500.7991997,N,12132.4336823,E,0.06,165.80,090324,,,R,V*11
$GPHDT,319.024,T*38
$GNACCURACY,5.4*17
$GNGGA,035730.500,2500.7992008,N,12132.4336812,E,4,43,0.66,16.751,M,15.25,M,0,3335*46
$GNRMC,035730.500,A,2500.7992008,N,12132.4336812,E,0.05,165.80,090324,,,R,V*1D
$GPHDT,,T*1B
$GNACCURACY,5.5*16
$GNGGA,035730.600,2500.7991996,N,12132.4336835,E,4,43,0.66,16.764,M,15.25,M,0,3335*4B
$GNRMC,035730.600,A,2500.7991996,N,12132.4336835,E,0.05,165.80,090324,,,R,V*16
$GPHDT,318.803,T*34
$GNACCURACY,5.5*16
$GNGGA,035730.700,2500.7991996,N,12132.4336821,E,4,44,0.64,16.768,M,15.25,M,0,3335*46
$GNRMC,035730.700,A,2500.7991996,N,12132.4336821,E,0.04,165.80,090324,,,R,V*13
$GPHDT,,T*1B
$GNACCURACY,5.5*16
$GNGGA,035730.800,2500.7991998,N,12132.4336849,E,4,44,0.66,16.768,M,15.25,M,0,3335*4B
$GNRMC,035730.800,A,2500.7991998,N,12132.4336849,E,0.04,165.80,090324,,,R,V*1C
$GPHDT,319.309,T*34
$GNACCURACY,5.5*16
$GNGGA,035730.900,2500.7992005,N,12132.4336823,E,4,44,0.66,16.761,M,15.25,M,0,3335*41
$GNRMC,035730.900,A,2500.7992005,N,12132.4336823,E,0.03,165.80,090324,,,R,V*18
$GPHDT,,T*1B
$GNACCURACY,5.5*16
$GNGGA,035731.000,2500.7992016,N,12132.4336845,E,4,44,0.66,16.761,M,15.25,M,1,3335*4A
$GNRMC,035731.000,A,2500.7992016,N,12132.4336845,E,0.01,165.80,090324,,,R,V*10
$GPHDT,319.126,T*3B
$GNACCURACY,5.5*16
$GNGGA,035731.100,2500.7992005,N,12132.4336820,E,4,43,0.67,16.755,M,15.25,M,1,3335*4B
$GNRMC,035731.100,A,2500.7992005,N,12132.4336820,E,0.02,165.80,090324,,,R,V*13
$GPHDT,,T*1B
$GNGSA,A,3,08,194,195,199,21,02,07,27,16,,,,1.26,0.67,1.06,1*3E
$GNGSA,A,3,88,78,77,79,,,,,,,,,1.26,0.67,1.06,2*00
$GNGSA,A,3,13,21,26,27,,,,,,,,,1.26,0.67,1.06,3*00
$GNGSA,A,3,09,16,23,43,40,07,39,25,37,34,,,1.26,0.67,1.06,4*02
$GPGSV,3,1,12,08,66,345,45,194,64,050,43,195,63,117,43,50,60,167,41,1*6C
$GPGSV,3,2,12,199,60,167,38,21,54,161,46,02,42,178,44,07,37,318,29,1*54
$GPGSV,3,3,12,27,37,033,45,16,29,070,34,196,20,170,29,26,10,095,16,1*54
$GPGSV,2,1,06,08,66,345,48,194,64,050,43,195,63,117,43,199,60,167,46,8*5F
$GPGSV,2,2,06,27,37,033,43,196,20,170,28,8*5D
$GLGSV,2,1,05,88,61,038,44,78,54,027,44,77,26,104,28,79,22,330,13,1*7E
$GLGSV,2,2,05,87,08,026,19,1*46
$GAGSV,2,1,05,13,54,089,44,21,53,005,36,26,39,173,39,27,30,074,37,7*72
$GAGSV,2,2,05,04,12,303,,7*41
$GAGSV,1,1,04,13,54,089,45,21,53,005,42,26,39,173,42,27,30,074,37,1*78
$GBGSV,3,1,12,09,74,275,41,16,71,197,41,23,70,018,46,43,63,040,44,1*78
$GBGSV,3,2,12,40,62,325,43,07,61,304,24,39,60,185,43,10,51,286,14,1*7D
$GBGSV,3,3,12,25,40,112,43,37,26,320,20,34,15,039,21,27,06,218,,1*72
$GBGSV,2,1,07,23,70,018,44,43,63,040,43,40,62,325,40,39,60,185,44,4*79
$GBGSV,2,2,07,25,40,112,43,37,26,320,30,34,15,039,21,4*4A
$GNACCURACY,5.5*16
$PAIRSAT,1,20,2,0,201,3,0,200,4,0,200,5,0,200,7,0,1,8,0,21,16,0,1,20,0,200,21,0,201,22,0,200,23,0,200,24,0,200,25,0,200,26,0,220,27,0,221,28,0,200,194,0,21,195,0,621,196,0,200,199,0,621*72
$PAIRSAT,2,15,70,0,200,71,0,200,73,0,200,74,0,200,75,0,200,76,0,200,77,0,1,78,0,201,79,0,201,80,0,200,84,0,200,85,0,200,86,0,200,87,0,201,88,0,201*5B
$PAIRSAT,3,20,2,0,1200,3,0,1200,4,0,1200,5,0,200,7,0,1200,8,0,200,9,0,200,10,0,200,11,0,200,12,0,200,13,0,21,21,0,21,25,0,1000,26,0,1021,27,0,1021,30,0,1000,31,0,1000,33,0,1200,34,0,1000,36,0,200*7C
$PAIRSAT,4,36,3,0,400,7,0,1,9,0,201,10,0,201,11,0,200,12,0,200,13,0,200,14,0,200,16,0,201,19,0,600,20,0,400,21,0,400,22,0,400,23,0,421,24,0,400,25,0,421,26,0,400,27,0,400,28,0,400,29,0,400,30,0,400,32,0,400,33,0,400,34,0,421,35,0,400,36,0,400,37,0,421,38,0,400,39,0,421,40,0,421,41,0,400,42,0,400,43,0,421,44,0,400,45,0,400,46,0,400*48
$PAIRDGP,7,2,7,8,16,21,26,27*56
$GNGGA,035731.200,2500.7992016,N,12132.4336823,E,4,43,0.67,16.759,M,15.25,M,1,3335*45
$GNRMC,035731.200,A,2500.7992016,N,12132.4336823,E,0.02,165.80,090324,,,R,V*11
$GPHDT,319.042,T*38
$GNACCURACY,5.5*16
$GNGGA,035731.300,2500.7992004,N,12132.4336802,E,4,43,0.67,16.747,M,15.25,M,1,3335*4B
$GNRMC,035731.300,A,2500.7992004,N,12132.4336802,E,0.02,165.80,090324,,,R,V*10
$GPHDT,,T*1B
$GNACCURACY,5.5*16
$GNGGA,035731.400,2500.7992010,N,12132.4336803,E,4,43,0.67,16.756,M,15.25,M,1,3335*48
$GNRMC,035731.400,A,2500.7992010,N,12132.4336803,E,0.02,165.80,090324,,,R,V*13
$GPHDT,319.671,T*3E
$GNACCURACY,5.5*16
$GNGGA,035731.500,2500.7992018,N,12132.4336783,E,4,43,0.67,16.775,M,15.25,M,0,3335*46
$GNRMC,035731.500,A,2500.7992018,N,12132.4336783,E,0.01,165.80,090324,,,R,V*1E
$GPHDT,,T*1B
$GNACCURACY,5.5*16
$GNGGA,035731.600,2500.7992012,N,12132.4336793,E,4,43,0.67,16.770,M,15.25,M,0,3335*4B
$GNRMC,035731.600,A,2500.7992012,N,12132.4336793,E,0.02,165.80,090324,,,R,V*15
$GPHDT,319.372,T*38
$GNACCURACY,5.5*16
$GNGGA,035731.700,2500.7992002,N,12132.4336775,E,4,43,0.67,16.773,M,15.25,M,0,3335*40
$GNRMC,035731.700,A,2500.7992002,N,12132.4336775,E,0.12,165.80,090324,,,R,V*1C
$GPHDT,,T*1B
$GNACCURACY,5.5*16
$GNGGA,035731.800,2500.7992015,N,12132.4336810,E,4,43,0.67,16.757,M,15.25,M,0,3335*43
$GNRMC,035731.800,A,2500.7992015,N,12132.4336810,E,0.16,165.80,090324,,,R,V*1D
$GPHDT,319.322,T*3D
$GNACCURACY,5.5*16
$GNGGA,035731.900,2500.7992023,N,12132.4336805,E,4,43,0.67,16.787,M,15.25,M,0,3335*4E
$GNRMC,035731.900,A,2500.7992023,N,12132.4336805,E,0.16,165.80,090324,,,R,V*1D
$GPHDT,,T*1B
$GNACCURACY,5.5*16
$GNGGA,035732.000,2500.7992015,N,12132.4336820,E,4,43,0.70,16.774,M,15.25,M,1,3335*4D
$GNRMC,035732.000,A,2500.7992015,N,12132.4336820,E,0.14,165.80,090324,,,R,V*17
$GPHDT,319.466,T*3A
$GNACCURACY,5.4*17
$GNGGA,035732.100,2500.7992015,N,12132.4336833,E,4,42,0.70,16.782,M,15.25,M,1,3335*46
$GNRMC,035732.100,A,2500.7992015,N,12132.4336833,E,0.13,165.80,090324,,,R,V*13
$GPHDT,,T*1B
$GNGSA,A,3,08,194,195,199,21,02,07,27,16,26,,,1.27,0.70,1.06,1*3D
$GNGSA,A,3,88,78,77,,,,,,,,,,1.27,0.70,1.06,2*09
$GNGSA,A,3,13,21,26,27,,,,,,,,,1.27,0.70,1.06,3*07
$GNGSA,A,3,09,16,23,43,40,07,39,25,37,34,,,1.27,0.70,1.06,4*05
$GPGSV,3,1,12,08,66,345,45,194,64,050,43,195,63,117,43,50,60,167,41,1*6C
$GPGSV,3,2,12,199,60,167,39,21,54,161,46,02,42,178,43,07,37,318,29,1*52
$GPGSV,3,3,12,27,37,033,45,16,29,070,34,196,20,170,28,26,10,095,17,1*54
$GPGSV,2,1,07,08,66,345,48,194,64,050,44,195,63,117,44,199,60,167,46,8*5E
$GPGSV,2,2,07,27,37,033,43,196,20,170,28,26,10,095,18,8*6C
$GLGSV,2,1,05,88,61,038,44,78,54,027,43,77,26,104,26,79,22,330,17,1*73
$GLGSV,2,2,05,87,08,026,19,1*46
$GAGSV,2,1,05,13,54,089,44,21,53,005,36,26,39,173,38,27,30,074,37,7*73
$GAGSV,2,2,05,04,12,303,,7*41
$GAGSV,1,1,04,13,54,089,45,21,53,005,43,26,39,173,42,27,30,074,37,1*79
$GBGSV,3,1,11,09,74,275,41,16,71,197,41,23,70,018,46,43,63,040,45,1*7A
$GBGSV,3,2,11,40,62,325,43,07,61,304,24,39,60,185,43,10,51,286,13,1*79
$GBGSV,3,3,11,25,40,112,43,37,26,320,21,34,15,039,21,1*48
$GBGSV,2,1,07,23,70,018,44,43,63,040,43,40,62,325,40,39,60,185,45,4*78
$GBGSV,2,2,07,25,40,112,43,37,26,320,31,34,15,039,20,4*4A
$GNACCURACY,5.4*17
$PAIRSAT,1,20,2,0,201,3,0,200,4,0,200,5,0,200,7,0,1,8,0,21,16,0,1,20,0,200,21,0,201,22,0,200,23,0,200,24,0,200,25,0,200,26,0,220,27,0,221,28,0,200,194,0,21,195,0,621,196,0,200,199,0,621*72
$PAIRSAT,2,15,70,0,200,71,0,200,73,0,200,74,0,200,75,0,200,76,0,200,77,0,1,78,0,201,79,0,201,80,0,200,84,0,200,85,0,200,86,0,200,87,0,201,88,0,201*5B
$PAIRSAT,3,20,2,0,1200,3,0,1200,4,0,1200,5,0,200,7,0,1200,8,0,200,9,0,200,10,0,200,11,0,200,12,0,200,13,0,21,21,0,21,25,0,1000,26,0,1021,27,0,1021,30,0,1000,31,0,1000,33,0,1200,34,0,1000,36,0,200*7C
$PAIRSAT,4,37,3,0,400,7,0,1,9,0,201,10,0,201,11,0,200,12,0,200,13,0,200,14,0,200,16,0,201,19,0,600,20,0,400,21,0,400,22,0,400,23,0,421,24,0,400,25,0,421,26,0,400,27,0,400,28,0,400,29,0,400,30,0,400,32,0,400,33,0,400,34,0,421,35,0,400,36,0,400,37,0,421,38,0,400,39,0,421,40,0,421,41,0,400,42,0,400,43,0,421,44,0,400,45,0,400,46,0,400,59,0,400*6D
$PAIRDGP,7,2,7,8,16,21,26,27*56
$GNGGA,035732.200,2500.7992008,N,12132.4336819,E,4,42,0.70,16.779,M,15.25,M,1,3335*45
$GNRMC,035732.200,A,2500.7992008,N,12132.4336819,E,0.12,165.80,090324,,,R,V*15
$GPHDT,319.617,T*3E
$GNACCURACY,5.4*17
$GNGGA,035732.300,2500.7992017,N,12132.4336817,E,4,42,0.70,16.766,M,15.25,M,1,3335*4A
$GNRMC,035732.300,A,2500.7992017,N,12132.4336817,E,0.11,165.80,090324,,,R,V*17
$GPHDT,,T*1B
$GNACCURACY,5.4*17
$GNGGA,035732.400,2500.7992022,N,12132.4336814,E,4,42,0.70,16.783,M,15.25,M,1,3335*43
$GNRMC,035732.400,A,2500.7992022,N,12132.4336814,E,0.10,165.80,090324,,,R,V*14
$GPHDT,319.257,T*3E
$GNACCURACY,5.4*17
$GNGGA,035732.500,2500.7992020,N,12132.4336843,E,4,42,0.70,16.789,M,15.25,M,1,3335*48
$GNRMC,035732.500,A,2500.7992020,N,12132.4336843,E,0.09,165.80,090324,,,R,V*1D
$GPHDT,,T*1B
$GNACCURACY,5.5*16
$GNGGA,035732.600,2500.7992016,N,12132.4336816,E,4,41,0.70,16.777,M,15.25,M,1,3335*4C
$GNRMC,035732.600,A,2500.7992016,N,12132.4336816,E,0.09,165.80,090324,,,R,V*1B
$GPHDT,319.236,T*39
$GNACCURACY,5.5*16
$GNGGA,035732.700,2500.7992012,N,12132.4336839,E,4,41,0.70,16.769,M,15.25,M,0,3335*4A
$GNRMC,035732.700,A,2500.7992012,N,12132.4336839,E,0.09,165.80,090324,,,R,V*13
$GPHDT,,T*1B
$GNACCURACY,5.5*16
$GNGGA,035732.800,2500.7992004,N,12132.4336847,E,4,41,0.70,16.793,M,15.25,M,0,3335*4E
$GNRMC,035732.800,A,2500.7992004,N,12132.4336847,E,0.08,165.80,090324,,,R,V*13
$GPHDT,319.304,T*39
$GNACCURACY,5.5*16
$GNGGA,035732.900,2500.7992006,N,12132.4336843,E,4,41,0.70,16.773,M,15.25,M,0,3335*47
$GNRMC,035732.900,A,2500.7992006,N,12132.4336843,E,0.08,165.80,090324,,,R,V*14
$GPHDT,,T*1B
$GNACCURACY,5.5*16
$GNGGA,035733.000,2500.7992011,N,12132.4336829,E,4,41,0.70,16.769,M,15.25,M,1,3335*4F
$GNRMC,035733.000,A,2500.7992011,N,12132.4336829,E,0.07,165.80,090324,,,R,V*19
$GPHDT,319.479,T*34
$GNACCURACY,5.5*16
$GNGGA,035733.100,2500.7992007,N,12132.4336846,E,4,41,0.70,16.777,M,15.25,M,1,3335*4F
$GNRMC,035733.100,A,2500.7992007,N,12132.4336846,E,0.07,165.80,090324,,,R,V*16
$GPHDT,,T*1B
$GNGSA,A,3,08,194,195,199,21,02,07,27,16,26,,,1.27,0.70,1.06,1*3D
$GNGSA,A,3,88,78,77,,,,,,,,,,1.27,0.70,1.06,2*09
$GNGSA,A,3,13,21,26,27,,,,,,,,,1.27,0.70,1.06,3*07
$GNGSA,A,3,09,16,23,43,40,07,39,25,37,34,,,1.27,0.70,1.06,4*05
$GPGSV,3,1,12,08,66,345,45,194,64,050,43,195,63,117,43,50,60,167,41,1*6C
$GPGSV,3,2,12,199,60,167,39,21,54,161,46,02,42,178,43,07,37,318,30,1*5A
$GPGSV,3,3,12,27,37,033,45,16,29,070,34,196,20,170,28,26,10,095,17,1*54
$GPGSV,2,1,07,08,66,345,48,194,64,050,44,195,63,117,43,199,60,167,46,8*59
$GPGSV,2,2,07,27,37,033,43,196,20,170,27,26,10,095,17,8*6C
$GLGSV,2,1,05,88,61,038,44,78,54,027,43,77,26,104,27,79,22,330,17,1*72
$GLGSV,2,2,05,87,08,026,19,1*46
$GAGSV,2,1,05,13,54,089,44,21,53,005,36,26,39,173,38,27,30,075,35,7*70
$GAGSV,2,2,05,04,12,303,,7*41
$GAGSV,1,1,04,13,54,089,45,21,53,005,43,26,39,173,42,27,30,075,36,1*79
$GBGSV,3,1,12,09,74,275,41,16,71,197,41,23,70,018,46,43,63,040,45,1*79
$GBGSV,3,2,12,40,62,325,43,