$FW : RTK35X,V1.1X0314AS,Lib20210517,1*54
$Tool : LOCOSYS , GNSS Firebird , v1.0.0.19*39
$---------------------------------------------------*2D
02,159.17,260623,,,D,V*0C
$GPHDT,,T*1B
$GNACCURACY,3.3*16
$GNGGA,111215.000,2500.8048463,N,12132.4788748,E,2,62,0.42,15.526,M,15.25,M,49,3335*70
$GNRMC,111215.000,A,2500.8048463,N,12132.4788748,E,0.02,159.17,260623,,,D,V*0B
$GPHDT,,T*1B
$GNACCURACY,3.4*11
$GNGGA,111215.100,2500.8048343,N,12132.4788808,E,2,62,0.42,15.516,M,15.25,M,49,3335*7C
$GNRMC,111215.100,A,2500.8048343,N,12132.4788808,E,0.01,159.17,260623,,,D,V*07
$GPHDT,,T*1B
$GNGSA,A,3,24,196,199,23,15,195,194,05,10,13,,,0.77,0.42,0.65,1*0F
$GNGSA,A,3,80,70,85,73,86,71,79,69,84,,,,0.77,0.42,0.65,2*04
$GNGSA,A,3,13,08,07,26,15,02,30,03,,,,,0.77,0.42,0.65,3*09
$GNGSA,A,3,38,08,39,13,06,46,09,19,20,36,37,35,0.77,0.42,0.65,4*0A
$GNGSA,A,3,29,,,,,,,,,,,,0.77,0.42,0.65,4*0A
$GPGSV,5,1,17,24,80,062,41,196,74,061,37,18,61,261,15,50,60,167,35,1*5D
$GPGSV,5,2,17,199,60,167,34,23,45,334,42,15,40,040,37,195,36,179,33,1*60
$GPGSV,5,3,17,194,28,140,43,05,23,113,25,12,16,146,26,10,13,315,38,1*5C
$GPGSV,5,4,17,13,12,052,30,32,06,264,18,25,05,180,,29,04,201,,1*6F
$GPGSV,5,5,17,20,01,126,,1*54
$GPGSV,2,1,07,24,80,062,43,196,74,061,40,199,60,167,42,23,45,334,45,8*6E
$GPGSV,2,2,07,195,36,179,32,194,28,140,43,10,13,315,36,8*59
$GLGSV,3,1,09,80,47,089,36,70,40,001,26,85,40,255,28,73,31,162,37,1*7C
$GLGSV,3,2,09,86,25,310,34,71,19,307,38,79,16,037,16,69,15,067,30,1*7E
$GLGSV,3,3,09,84,15,193,15,1*46
$GAGSV,3,1,09,13,60,241,28,08,49,019,36,07,43,296,30,26,29,312,35,7*7E
$GAGSV,3,2,09,15,28,174,35,02,24,091,28,30,22,147,19,03,13,060,26,7*7D
$GAGSV,3,3,09,25,04,047,,7*4A
$GAGSV,2,1,07,13,60,241,30,08,49,019,38,07,43,296,33,26,29,312,31,1*77
$GAGSV,2,2,07,15,28,174,40,30,22,147,27,03,13,060,30,1*4A
$GBGSV,4,1,15,38,83,081,46,08,76,006,40,39,72,273,36,16,66,249,19,1*7B
$GBGSV,4,2,15,13,66,338,41,06,65,245,23,46,56,123,41,09,49,233,22,1*7E
$GBGSV,4,3,15,19,46,337,45,20,44,055,44,36,29,184,30,37,26,052,37,1*78
$GBGSV,4,4,15,35,23,275,17,29,23,216,,22,08,297,29,1*43
$GBGSV,3,1,10,38,83,081,42,39,72,273,32,46,56,123,41,19,46,337,41,4*7B
$GBGSV,3,2,10,20,44,055,38,36,29,184,25,37,26,052,35,29,23,216,23,4*71
$GBGSV,3,3,10,35,23,275,29,22,08,297,24,4*7C
$GNACCURACY,3.3*16
$PAIRSAT,1,35,1,0,200,2,0,200,3,0,200,4,0,200,5,0,201,6,0,200,7,0,200,8,0,200,9,0,200,10,0,221,11,0,200,12,0,200,13,0,201,14,0,200,15,0,201,16,0,200,17,0,200,18,0,221,19,0,200,20,0,200,21,0,200,23,0,221,24,0,221,25,0,200,26,0,200,27,0,200,28,0,200,29,0,200,30,0,200,31,0,200,32,0,200,194,0,621,195,0,621,196,0,620,199,0,621*6A
$PAIRSAT,2,23,65,0,200,67,0,200,68,0,200,69,0,201,70,0,201,71,0,201,72,0,200,73,0,201,74,0,200,75,0,200,76,0,200,77,0,200,78,0,200,79,0,201,80,0,201,81,0,200,82,0,200,83,0,200,84,0,201,85,0,201,86,0,201,87,0,200,88,0,200*52
$PAIRSAT,3,23,2,0,1221,3,0,1221,4,0,1200,5,0,200,7,0,1221,8,0,1221,9,0,1200,10,0,1200,11,0,1200,12,0,1200,13,0,1221,15,0,1221,19,0,1200,21,0,1200,24,0,1200,25,0,1200,26,0,1221,27,0,1200,30,0,1201,31,0,1200,33,0,1200,34,0,1200,36,0,1200*68
$PAIRSAT,4,50,1,0,200,2,0,200,3,0,200,4,0,200,5,0,200,6,0,201,7,0,200,8,0,201,9,0,201,10,0,200,11,0,200,12,0,200,13,0,201,14,0,200,15,0,200,16,0,201,19,0,621,20,0,621,21,0,600,22,0,621,23,0,600,24,0,600,25,0,600,26,0,600,27,0,600,28,0,600,29,0,621,30,0,600,31,0,200,32,0,600,33,0,600,34,0,600,35,0,621,36,0,621,37,0,621,38,0,621,39,0,621,40,0,600,41,0,600,42,0,600,43,0,600,44,0,600,45,0,600,46,0,621,56,0,200,57,0,200,58,0,200,59,0,600,60,0,600,61,0,600*41
$PAIRDGP,7,5,10,13,15,18,23,24*52
$GNGGA,111215.200,2500.8048283,N,12132.4788808,E,2,62,0.42,15.505,M,15.25,M,49,3335*70
$GNRMC,111215.200,A,2500.8048283,N,12132.4788808,E,0.02,159.17,260623,,,D,V*0A
$GPHDT,,T*1B
$GNACCURACY,3.3*16
$GNGGA,111215.300,2500.8048163,N,12132.4788808,E,2,62,0.42,15.498,M,15.25,M,49,3335*79
$GNRMC,111215.300,A,2500.8048163,N,12132.4788808,E,0.02,159.17,260623,,,D,V*06
$GPHDT,,T*1B
$GNACCURACY,3.3*16
$GNGGA,111215.400,2500.8048043,N,12132.4788808,E,2,62,0.42,15.495,M,15.25,M,49,3335*70
$GNRMC,111215.400,A,2500.8048043,N,12132.4788808,E,0.01,159.17,260623,,,D,V*01
$GPHDT,,T*1B
$GNACCURACY,3.3*16
$GNGGA,111215.500,2500.8047923,N,12132.4788808,E,2,62,0.42,15.492,M,15.25,M,49,3335*76
$GNRMC,111215.500,A,2500.8047923,N,12132.4788808,E,0.01,159.17,260623,,,D,V*00
$GPHDT,,T*1B
$GNACCURACY,3.3*16
$GNGGA,111215.600,2500.8047803,N,12132.4788808,E,2,62,0.42,15.490,M,15.25,M,49,3335*74
$GNRMC,111215.600,A,2500.8047803,N,12132.4788808,E,0.01,159.17,260623,,,D,V*00
$GPHDT,,T*1B
$GNACCURACY,3.3*16
$GNGGA,111215.700,2500.8047683,N,12132.4788808,E,2,62,0.42,15.486,M,15.25,M,49,3335*74
$GNRMC,111215.700,A,2500.8047683,N,12132.4788808,E,0.01,159.17,260623,,,D,V*07
$GPHDT,,T*1B
$GNACCURACY,3.3*16
$GNGGA,111215.800,2500.8047563,N,12132.4788808,E,2,62,0.42,15.482,M,15.25,M,49,3335*72
$GNRMC,111215.800,A,2500.8047563,N,12132.4788808,E,0.01,159.17,260623,,,D,V*05
$GPHDT,,T*1B
$GNACCURACY,3.3*16
$GNGGA,111215.900,2500.8047443,N,12132.4788808,E,2,62,0.42,15.478,M,15.25,M,49,3335*75
$GNRMC,111215.900,A,2500.8047443,N,12132.4788808,E,0.01,159.17,260623,,,D,V*07
$GPHDT,,T*1B
$GNACCURACY,3.4*11
$GNGGA,111216.000,2500.8047323,N,12132.4788808,E,2,62,0.42,15.477,M,15.25,M,50,3335*79
$GNRMC,111216.000,A,2500.8047323,N,12132.4788808,E,0.01,159.17,260623,,,D,V*0C
$GPHDT,,T*1B
$GNACCURACY,3.4*11
$GNGGA,111216.100,2500.8047203,N,12132.4788748,E,2,62,0.42,15.473,M,15.25,M,50,3335*74
$GNRMC,111216.100,A,2500.8047203,N,12132.4788748,E,0.01,159.17,260623,,,D,V*05
$GPHDT,,T*1B
$GNGSA,A,3,24,196,199,23,15,195,194,05,10,13,,,0.77,0.42,0.65,1*0F
$GNGSA,A,3,80,70,85,73,86,71,79,69,84,,,,0.77,0.42,0.65,2*04
$GNGSA,A,3,13,08,07,26,15,02,30,03,,,,,0.77,0.42,0.65,3*09
$GNGSA,A,3,38,08,39,13,06,46,09,19,20,36,37,35,0.77,0.42,0.65,4*0A
$GNGSA,A,3,29,,,,,,,,,,,,0.77,0.42,0.65,4*0A
$GPGSV,5,1,17,24,80,062,41,196,74,061,36,18,61,261,13,50,60,167,36,1*59
$GPGSV,5,2,17,199,60,167,35,23,45,334,42,15,40,040,37,195,36,179,33,1*61
$GPGSV,5,3,17,194,28,140,43,05,23,113,24,12,16,146,26,10,13,315,38,1*5D
$GPGSV,5,4,17,13,12,052,30,32,06,264,18,25,05,180,,29,04,201,,1*6F
$GPGSV,5,5,17,20,01,126,,1*54
$GPGSV,2,1,07,24,80,062,43,196,74,061,40,199,60,167,43,23,45,334,45,8*6F
$GPGSV,2,2,07,195,36,179,34,194,28,140,43,10,13,315,36,8*5F
$GLGSV,3,1,09,80,47,089,36,70,40,001,26,85,40,255,28,73,31,162,37,1*7C
$GLGSV,3,2,09,86,25,310,35,71,19,307,38,79,16,037,16,69,15,067,29,1*77
$GLGSV,3,3,09,84,15,193,15,1*46
$GAGSV,3,1,09,13,60,241,27,08,49,019,36,07,43,296,30,26,29,312,35,7*71
$GAGSV,3,2,09,15,28,174,35,02,24,091,28,30,22,147,19,03,13,060,26,7*7D
$GAGSV,3,3,09,25,04,047,,7*4A
$GAGSV,2,1,07,13,60,241,31,08,49,019,38,07,43,296,33,26,29,312,32,1*75
$GAGSV,2,2,07,15,28,174,40,30,22,147,28,03,13,060,30,1*45
$GBGSV,4,1,15,38,83,081,46,08,76,006,40,39,72,273,36,16,66,249,19,1*7B
$GBGSV,4,2,15,13,66,338,41,06,65,245,23,46,56,123,41,09,49,233,21,1*7D
$GBGSV,4,3,15,19,46,337,45,20,44,055,44,36,29,184,29,37,26,052,37,1*70
$GBGSV,4,4,15,35,23,275,15,29,23,216,,22,08,297,29,1*41
$GBGSV,3,1,10,38,83,081,42,39,72,273,32,46,56,123,42,19,46,337,41,4*78
$GBGSV,3,2,10,20,44,055,38,36,29,184,24,37,26,052,36,29,23,216,22,4*72
$GBGSV,3,3,10,35,23,275,29,22,08,297,24,4*7C
$GNACCURACY,3.4*11
$PAIRSAT,1,35,1,0,200,2,0,200,3,0,200,4,0,200,5,0,201,6,0,200,7,0,200,8,0,200,9,0,200,10,0,221,11,0,200,12,0,200,13,0,201,14,0,200,15,0,201,16,0,200,17,0,200,18,0,221,19,0,200,20,0,200,21,0,200,23,0,221,24,0,221,25,0,200,26,0,200,27,0,200,28,0,200,29,0,200,30,0,200,31,0,200,32,0,200,194,0,621,195,0,621,196,0,620,199,0,621*6A
$PAIRSAT,2,23,65,0,200,67,0,200,68,0,200,69,0,201,70,0,201,71,0,201,72,0,200,73,0,201,74,0,200,75,0,200,76,0,200,77,0,200,78,0,200,79,0,201,80,0,201,81,0,200,82,0,200,83,0,200,84,0,201,85,0,201,86,0,201,87,0,200,88,0,200*52
$PAIRSAT,3,23,2,0,1221,3,0,1221,4,0,1200,5,0,200,7,0,1221,8,0,1221,9,0,1200,10,0,1200,11,0,1200,12,0,1200,13,0,1221,15,0,1221,19,0,1200,21,0,1200,24,0,1200,25,0,1200,26,0,1221,27,0,1200,30,0,1201,31,0,1200,33,0,1200,34,0,1200,36,0,1200*68
$PAIRSAT,4,50,1,0,200,2,0,200,3,0,200,4,0,200,5,0,200,6,0,201,7,0,200,8,0,201,9,0,201,10,0,200,11,0,200,12,0,200,13,0,201,14,0,200,15,0,200,16,0,201,19,0,621,20,0,621,21,0,600,22,0,621,23,0,600,24,0,600,25,0,600,26,0,600,27,0,600,28,0,600,29,0,621,30,0,600,31,0,200,32,0,600,33,0,600,34,0,600,35,0,621,36,0,621,37,0,621,38,0,621,39,0,621,40,0,600,41,0,600,42,0,600,43,0,600,44,0,600,45,0,600,46,0,621,56,0,200,57,0,200,58,0,200,59,0,600,60,0,600,61,0,600*41
$PAIRDGP,7,5,10,13,15,18,23,24*52
$GNGGA,111216.200,2500.8047143,N,12132.4788808,E,2,62,0.42,15.470,M,15.25,M,50,3335*78
$GNRMC,111216.200,A,2500.8047143,N,12132.4788808,E,0.01,159.17,260623,,,D,V*0A
$GPHDT,,T*1B
$GNACCURACY,3.4*11
$GNGGA,111216.300,2500.8047023,N,12132.4788808,E,2,62,0.42,15.469,M,15.25,M,50,3335*76
$GNRMC,111216.300,A,2500.8047023,N,12132.4788808,E,0.01,159.17,260623,,,D,V*0C
$GPHDT,,T*1B
$GNACCURACY,3.4*11
$GNGGA,111216.400,2500.8046963,N,12132.4788868,E,2,63,0.42,15.463,M,15.25,M,50,3335*70
$GNRMC,111216.400,A,2500.8046963,N,12132.4788868,E,0.01,159.17,260623,,,D,V*01
$GPHDT,,T*1B
$GNACCURACY,3.4*11
$GNGGA,111216.500,2500.8046903,N,12132.4788928,E,2,63,0.42,15.461,M,15.25,M,50,3335*70
$GNRMC,111216.500,A,2500.8046903,N,12132.4788928,E,0.01,159.17,260623,,,D,V*03
$GPHDT,,T*1B
$GNACCURACY,3.3*16
$GNGGA,111216.600,2500.8046903,N,12132.4788928,E,2,63,0.42,15.456,M,15.25,M,50,3335*77
$GNRMC,111216.600,A,2500.8046903,N,12132.4788928,E,0.01,159.17,260623,,,D,V*00
$GPHDT,,T*1B
$GNACCURACY,3.3*16
$GNGGA,111216.700,2500.8046843,N,12132.4788928,E,2,63,0.42,15.459,M,15.25,M,50,3335*7C
$GNRMC,111216.700,A,2500.8046843,N,12132.4788928,E,0.01,159.17,260623,,,D,V*04
$GPHDT,,T*1B
$GNACCURACY,3.3*16
$GNGGA,111216.800,2500.8046783,N,12132.4788988,E,2,63,0.42,15.460,M,15.25,M,50,3335*70
$GNRMC,111216.800,A,2500.8046783,N,12132.4788988,E,0.01,159.17,260623,,,D,V*02
$GPHDT,,T*1B
$GNACCURACY,3.3*16
$GNGGA,111216.900,2500.8046723,N,12132.4788988,E,2,63,0.42,15.461,M,15.25,M,50,3335*7A
$GNRMC,111216.900,A,2500.8046723,N,12132.4788988,E,0.01,159.17,260623,,,D,V*09
$GPHDT,,T*1B
$GNACCURACY,3.3*16
$GNGGA,111217.000,2500.8046663,N,12132.4788988,E,2,63,0.42,15.459,M,15.25,M,51,3335*7D
$GNRMC,111217.000,A,2500.8046663,N,12132.4788988,E,0.01,159.17,260623,,,D,V*04
$GPHDT,,T*1B
$GNACCURACY,3.3*16
$GNGGA,111217.100,2500.8046603,N,12132.4788928,E,2,63,0.42,15.460,M,15.25,M,51,3335*7A
$GNRMC,111217.100,A,2500.8046603,N,12132.4788928,E,0.01,159.17,260623,,,D,V*09
$GPHDT,,T*1B
$GNGSA,A,3,24,196,199,23,15,195,194,05,10,13,,,0.77,0.42,0.65,1*0F
$GNGSA,A,3,80,70,85,73,86,71,79,69,84,,,,0.77,0.42,0.65,2*04
$GNGSA,A,3,13,08,07,26,15,02,30,03,,,,,0.77,0.42,0.65,3*09
$GNGSA,A,3,38,08,39,13,06,46,09,19,20,36,37,35,0.77,0.42,0.65,4*0A
$GNGSA,A,3,29,,,,,,,,,,,,0.77,0.42,0.65,4*0A
$GPGSV,5,1,17,24,80,062,39,196,74,061,37,18,61,261,14,50,60,167,36,1*50
$GPGSV,5,2,17,199,60,167,34,23,45,334,41,15,40,040,37,195,36,179,34,1*64
$GPGSV,5,3,17,194,28,140,43,05,23,113,20,12,16,146,26,10,13,315,39,1*58
$GPGSV,5,4,17,13,12,052,30,32,06,264,18,25,05,180,,29,04,201,,1*6F
$GPGSV,5,5,17,20,01,126,,1*54
$GPGSV,2,1,07,24,80,062,46,196,74,061,37,199,60,167,43,23,45,334,45,8*6A
$GPGSV,2,2,07,195,36,179,36,194,28,140,43,10,13,315,37,8*5C
$GLGSV,3,1,09,80,47,089,36,70,40,001,26,85,40,255,27,73,31,162,38,1*7C
$GLGSV,3,2,09,86,25,310,35,71,19,307,38,79,16,037,16,69,15,067,29,1*77
$GLGSV,3,3,09,84,15,193,15,1*46
$GAGSV,2,1,08,13,60,241,28,08,49,019,35,07,43,296,28,26,29,312,35,7*74
$GAGSV,2,2,08,15,28,174,33,02,24,091,28,30,22,147,22,03,13,060,25,7*70
$GAGSV,2,1,08,13,60,241,31,08,49,019,37,07,43,296,33,26,29,312,32,1*75
$GAGSV,2,2,08,15,28,174,39,02,24,091,22,30,22,147,26,03,13,060,30,1*76
$GBGSV,4,1,16,38,83,081,46,08,76,006,40,39,72,273,35,16,66,249,18,1*7A
$GBGSV,4,2,16,13,66,338,41,06,65,245,24,46,56,123,41,09,49,233,21,1*79
$GBGSV,4,3,16,19,46,337,45,20,44,055,44,36,29,184,30,37,26,052,37,1*7B
$GBGSV,4,4,16,35,23,275,17,29,23,216,,22,08,297,29,44,01,316,,1*75
$GBGSV,3,1,10,38,83,081,43,39,72,273,33,46,56,123,41,19,46,337,41,4*7B
$GBGSV,3,2,10,20,44,055,39,36,29,184,16,37,26,052,35,29,23,216,24,4*77
$GBGSV,3,3,10,35,23,275,29,22,08,297,22,4*7A
$GNACCURACY,3.3*16
$PAIRSAT,1,35,1,0,200,2,0,200,3,0,200,4,0,200,5,0,201,6,0,200,7,0,200,8,0,200,9,0,200,10,0,221,11,0,200,12,0,200,13,0,201,14,0,200,15,0,201,16,0,200,17,0,200,18,0,221,19,0,200,20,0,200,21,0,200,23,0,221,24,0,221,25,0,200,26,0,200,27,0,200,28,0,200,29,0,200,30,0,200,31,0,200,32,0,200,194,0,621,195,0,621,196,0,620,199,0,621*6A
$PAIRSAT,2,23,65,0,200,67,0,200,68,0,200,69,0,201,70,0,201,71,0,201,72,0,200,73,0,201,74,0,200,75,0,200,76,0,200,77,0,200,78,0,200,79,0,201,80,0,201,81,0,200,82,0,200,83,0,200,84,0,201,85,0,201,86,0,201,87,0,200,88,0,200*52
$PAIRSAT,3,23,2,0,1221,3,0,1221,4,0,1200,5,0,200,7,0,1221,8,0,1221,9,0,1200,10,0,1200,11,0,1200,12,0,1200,13,0,1221,15,0,1221,19,0,1200,21,0,1200,24,0,1200,25,0,1200,26,0,1221,27,0,1200,30,0,1201,31,0,1200,33,0,1200,34,0,1200,36,0,1200*68
$PAIRSAT,4,50,1,0,200,2,0,200,3,0,200,4,0,200,5,0,200,6,0,201,7,0,200,8,0,201,9,0,201,10,0,200,11,0,200,12,0,200,13,0,201,14,0,200,15,0,200,16,0,201,19,0,621,20,0,621,21,0,600,22,0,621,23,0,600,24,0,600,25,0,600,26,0,600,27,0,600,28,0,600,29,0,621,30,0,600,31,0,200,32,0,600,33,0,600,34,0,600,35,0,621,36,0,621,37,0,621,38,0,621,39,0,621,40,0,600,41,0,600,42,0,600,43,0,600,44,0,600,45,0,600,46,0,621,56,0,200,57,0,200,58,0,200,59,0,600,60,0,600,61,0,600*41
$PAIRDGP,7,5,10,13,15,18,23,24*52
$GNGGA,111217.200,2500.8046543,N,12132.4788928,E,2,63,0.42,15.460,M,15.25,M,51,3335*7E
$GNRMC,111217.200,A,2500.8046543,N,12132.4788928,E,0.01,159.17,260623,,,D,V*0D
$GPHDT,,T*1B
$GNACCURACY,3.3*16
$GNGGA,111217.300,2500.8046483,N,12132.4788928,E,2,63,0.42,15.460,M,15.25,M,51,3335*72
$GNRMC,111217.300,A,2500.8046483,N,12132.4788928,E,0.01,159.17,260623,,,D,V*01
$GPHDT,,T*1B
$GNACCURACY,3.3*16
$GNGGA,111217.400,2500.8046483,N,12132.4788928,E,2,63,0.42,15.458,M,15.25,M,51,3335*7E
$GNRMC,111217.400,A,2500.8046483,N,12132.4788928,E,0.01,159.17,260623,,,D,V*06
$GPHDT,,T*1B
$GNACCURACY,3.3*16
$GNGGA,111217.500,2500.8046423,N,12132.4788988,E,2,63,0.42,15.456,M,15.25,M,51,3335*71
$GNRMC,111217.500,A,2500.8046423,N,12132.4788988,E,0.01,159.17,260623,,,D,V*07
$GPHDT,,T*1B
$GNACCURACY,3.3*16
$GNGGA,111217.600,2500.8046363,N,12132.4788988,E,2,63,0.42,15.457,M,15.25,M,47,3335*77
$GNRMC,111217.600,A,2500.8046363,N,12132.4788988,E,0.01,159.17,260623,,,D,V*07
$GPHDT,,T*1B
$GNACCURACY,3.4*11
$GNGGA,111217.700,2500.8046363,N,12132.4789048,E,2,63,0.42,15.452,M,15.25,M,47,3335*77
$GNRMC,111217.700,A,2500.8046363,N,12132.4789048,E,0.01,159.17,260623,,,D,V*02
$GPHDT,,T*1B
$GNACCURACY,3.4*11
$GNGGA,111217.800,2500.8046303,N,12132.4789108,E,2,63,0.42,15.445,M,15.25,M,47,3335*7D
$GNRMC,111217.800,A,2500.8046303,N,12132.4789108,E,0.01,159.17,260623,,,D,V*0E
$GPHDT,,T*1B
$GNACCURACY,3.4*11
$GNGGA,111217.900,2500.8046303,N,12132.4789108,E,2,63,0.42,15.443,M,15.25,M,0,3335*49
$GNRMC,111217.900,A,2500.8046303,N,12132.4789108,E,0.01,159.17,260623,,,D,V*0F
$GPHDT,,T*1B
$GNACCURACY,3.4*11
$GNGGA,111218.000,2500.8046243,N,12132.4789168,E,2,63,0.42,15.438,M,15.25,M,1,3335*41
$GNRMC,111218.000,A,2500.8046243,N,12132.4789168,E,0.01,159.17,260623,,,D,V*0A
$GPHDT,,T*1B
$GNACCURACY,3.4*11
$GNGGA,111218.100,2500.8046243,N,12132.4789168,E,2,63,0.42,15.435,M,15.25,M,1,3335*4D
$GNRMC,111218.100,A,2500.8046243,N,12132.4789168,E,0.01,159.17,260623,,,D,V*0B
$GPHDT,,T*1B
$GNGSA,A,3,24,196,199,23,15,195,194,05,10,13,,,0.77,0.42,0.65,1*0F
$GNGSA,A,3,80,70,85,73,86,71,79,69,84,,,,0.77,0.42,0.65,2*04
$GNGSA,A,3,13,08,07,26,15,02,30,03,,,,,0.77,0.42,0.65,3*09
$GNGSA,A,3,38,08,39,13,06,46,09,19,20,36,37,35,0.77,0.42,0.65,4*0A
$GNGSA,A,3,29,,,,,,,,,,,,0.77,0.42,0.65,4*0A
$GPGSV,5,1,17,24,80,062,38,196,74,061,37,18,61,261,15,50,60,167,36,1*50
$GPGSV,5,2,17,199,60,167,33,23,45,334,41,15,40,040,37,195,36,179,35,1*62
$GPGSV,5,3,17,194,28,140,43,05,23,113,22,12,16,146,26,10,13,315,39,1*5A
$GPGSV,5,4,17,13,12,052,30,32,06,264,18,25,05,180,,29,04,201,,1*6F
$GPGSV,5,5,17,20,01,126,,1*54
$GPGSV,2,1,07,24,80,062,46,196,74,061,37,199,60,167,43,23,45,334,45,8*6A
$GPGSV,2,2,07,195,36,179,36,194,28,140,43,10,13,315,37,8*5C
$GLGSV,3,1,09,80,47,089,36,70,40,001,25,85,40,255,27,73,31,162,38,1*7F
$GLGSV,3,2,09,86,25,310,35,71,19,307,39,79,16,037,16,69,15,067,30,1*7E
$GLGSV,3,3,09,84,15,193,15,1*46
$GAGSV,3,1,09,13,60,241,28,08,49,019,35,07,43,296,29,26,29,312,35,7*75
$GAGSV,3,2,09,15,28,174,33,02,24,091,28,30,22,147,23,03,13,060,27,7*73
$GAGSV,3,3,09,25,04,047,,7*4A
$GAGSV,2,1,08,13,60,241,31,08,49,019,37,07,43,296,33,26,29,312,32,1*75
$GAGSV,2,2,08,15,28,174,38,02,24,091,23,30,22,147,25,03,13,060,30,1*75
$GBGSV,4,1,15,38,83,081,46,08,76,006,40,39,72,273,34,16,66,249,18,1*78
$GBGSV,4,2,15,13,66,338,41,06,65,245,23,46,56,123,41,09,49,233,20,1*7C
$GBGSV,4,3,15,19,46,337,45,20,44,055,44,36,29,184,29,37,26,052,37,1*70
$GBGSV,4,4,15,35,23,275,17,29,23,216,,22,08,297,29,1*43
$GBGSV,3,1,10,38,83,081,43,39,72,273,33,46,56,123,40,19,46,337,40,4*7B
$GBGSV,3,2,10,20,44,055,39,36,29,184,17,37,26,052,35,29,23,216,23,4*71
$GBGSV,3,3,10,35,23,275,29,22,08,297,21,4*79
$GNACCURACY,3.4*11
$PAIRSAT,1,35,1,0,200,2,0,200,3,0,200,4,0,200,5,0,201,6,0,200,7,0,200,8,0,200,9,0,200,10,0,221,11,0,200,12,0,200,13,0,201,14,0,200,15,0,201,16,0,200,17,0,200,18,0,221,19,0,200,20,0,200,21,0,200,23,0,221,24,0,221,25,0,200,26,0,200,27,0,200,28,0,200,29,0,200,30,0,200,31,0,200,32,0,200,194,0,621,195,0,621,196,0,620,199,0,621*6A
$PAIRSAT,2,23,65,0,200,67,0,200,68,0,200,69,0,201,70,0,201,71,0,201,72,0,200,73,0,201,74,0,200,75,0,200,76,0,200,77,0,200,78,0,200,79,0,201,80,0,201,81,0,200,82,0,200,83,0,200,84,0,201,85,0,201,86,0,201,87,0,200,88,0,200*52
$PAIRSAT,3,23,2,0,1221,3,0,1221,4,0,1200,5,0,200,7,0,1221,8,0,1221,9,0,1200,10,0,1200,11,0,1200,12,0,1200,13,0,1221,15,0,1221,19,0,1200,21,0,1200,24,0,1200,25,0,1200,26,0,1221,27,0,1200,30,0,1201,31,0,1200,33,0,1200,34,0,1200,36,0,1200*68
$PAIRSAT,4,50,1,0,200,2,0,200,3,0,200,4,0,200,5,0,200,6,0,201,7,0,200,8,0,201,9,0,201,10,0,200,11,0,200,12,0,200,13,0,201,14,0,200,15,0,200,16,0,201,19,0,621,20,0,621,21,0,600,22,0,621,23,0,600,24,0,600,25,0,600,26,0,600,27,0,600,28,0,600,29,0,621,30,0,600,31,0,200,32,0,600,33,0,600,34,0,600,35,0,621,36,0,621,37,0,621,38,0,621,39,0,621,40,0,600,41,0,600,42,0,600,43,0,600,44,0,600,45,0,600,46,0,621,56,0,200,57,0,200,58,0,200,59,0,600,60,0,600,61,0,600*41
$PAIRDGP,7,5,10,13,15,18,23,24*52
$GNGGA,111218.200,2500.8046183,N,12132.4789228,E,2,63,0.42,15.433,M,15.25,M,1,3335*40
$GNRMC,111218.200,A,2500.8046183,N,12132.4789228,E,0.01,159.17,260623,,,D,V*00
$GPHDT,,T*1B
$GNACCURACY,3.4*11
$GNGGA,111218.300,2500.8046183,N,12132.4789288,E,2,63,0.42,15.430,M,15.25,M,1,3335*48
$GNRMC,111218.300,A,2500.8046183,N,12132.4789288,E,0.01,159.17,260623,,,D,V*0B
$GPHDT,,T*1B
$GNACCURACY,3.4*11
$GNGGA,111218.400,2500.8046183,N,12132.4789288,E,2,63,0.42,15.428,M,15.25,M,1,3335*46
$GNRMC,111218.400,A,2500.8046183,N,12132.4789288,E,0.01,159.17,260623,,,D,V*0C
$GPHDT,,T*1B
$GNACCURACY,3.4*11
$GNGGA,111218.500,2500.8046183,N,12132.4789348,E,2,63,0.42,15.427,M,15.25,M,1,3335*45
$GNRMC,111218.500,A,2500.8046183,N,12132.4789348,E,0.01,159.17,260623,,,D,V*00
$GPHDT,,T*1B
$GNACCURACY,3.4*11
$GNGGA,111218.600,2500.8046123,N,12132.4789408,E,2,63,0.42,15.427,M,15.25,M,1,3335*4F
$GNRMC,111218.600,A,2500.8046123,N,12132.4789408,E,0.01,159.17,260623,,,D,V*0A
$GPHDT,,T*1B
$GNACCURACY,3.4*11
$GNGGA,111218.700,2500.8046063,N,12132.4789468,E,2,63,0.42,15.423,M,15.25,M,1,3335*49
$GNRMC,111218.700,A,2500.8046063,N,12132.4789468,E,0.01,159.17,260623,,,D,V*08
$GPHDT,,T*1B
$GNACCURACY,3.4*11
$GNGGA,111218.800,2500.8046003,N,12132.4789588,E,2,63,0.42,15.418,M,15.25,M,1,3335*47
$GNRMC,111218.800,A,2500.8046003,N,12132.4789588,E,0.01,159.17,260623,,,D,V*0E
$GPHDT,,T*1B
$GNACCURACY,3.3*16
$GNGGA,111218.900,2500.8045943,N,12132.4789648,E,2,63,0.42,15.415,M,15.25,M,0,3335*4B
$GNRMC,111218.900,A,2500.8045943,N,12132.4789648,E,0.01,159.17,260623,,,D,V*0E
$GPHDT,,T*1B
$GNACCURACY,3.3*16
$GNGGA,111219.000,2500.8045943,N,12132.4789708,E,2,63,0.42,15.411,M,15.25,M,1,3335*43
$GNRMC,111219.000,A,2500.8045943,N,12132.4789708,E,0.01,159.17,260623,,,D,V*03
$GPHDT,,T*1B
$GNACCURACY,3.3*16
$GNGGA,111219.100,2500.8045823,N,12132.4789768,E,2,63,0.42,15.402,M,15.25,M,1,3335*41
$GNRMC,111219.100,A,2500.8045823,N,12132.4789768,E,0.01,159.17,260623,,,D,V*03
$GPHDT,,T*1B
$GNGSA,A,3,24,196,199,23,15,195,194,05,10,13,,,0.77,0.42,0.65,1*0F
$GNGSA,A,3,80,70,85,73,86,71,79,69,84,,,,0.77,0.42,0.65,2*04
$GNGSA,A,3,13,08,07,26,15,02,30,03,,,,,0.77,0.42,0.65,3*09
$GNGSA,A,3,38,08,39,13,06,46,09,19,20,36,37,35,0.77,0.42,0.65,4*0A
$GNGSA,A,3,29,,,,,,,,,,,,0.77,0.42,0.65,4*0A
$GPGSV,5,1,17,24,80,062,40,196,74,061,37,18,61,261,14,50,60,167,36,1*5E
$GPGSV,5,2,17,199,60,167,34,23,45,334,41,15,40,040,37,195,36,179,35,1*65
$GPGSV,5,3,17,194,28,140,43,05,23,113,21,12,16,146,25,10,13,315,39,1*5A
$GPGSV,5,4,17,13,12,052,29,32,06,264,18,25,05,180,,29,04,201,,1*67
$GPGSV,5,5,17,20,01,126,,1*54
$GPGSV,2,1,07,24,80,062,44,196,74,061,39,199,60,167,43,23,45,334,45,8*66
$GPGSV,2,2,07,195,36,179,35,194,28,140,43,10,13,315,37,8*5F
$GLGSV,3,1,09,80,47,089,36,70,40,001,25,85,40,255,27,73,31,162,38,1*7F
$GLGSV,3,2,09,86,25,310,35,71,19,307,39,79,16,037,17,69,15,067,30,1*7F
$GLGSV,3,3,09,84,15,193,14,1*47
$GAGSV,3,1,09,13,60,241,25,08,49,019,36,07,43,296,27,26,29,312,35,7*75
$GAGSV,3,2,09,15,28,174,35,02,24,091,28,30,22,147,19,03,13,060,26,7*7D
$GAGSV,3,3,09,25,04,047,,7*4A
$GAGSV,2,1,08,13,60,241,30,08,49,019,38,07,43,296,33,26,29,312,32,1*7B
$GAGSV,2,2,08,15,28,174,39,02,24,091,22,30,22,147,27,03,13,060,31,1*76
$GBGSV,4,1,15,38,83,081,46,08,76,006,40,39,72,273,34,16,66,249,18,1*78
$GBGSV,4,2,15,13,66,338,41,06,65,245,23,46,56,123,41,09,49,233,19,1*76
$GBGSV,4,3,15,19,46,338,45,20,44,055,44,36,29,184,31,37,26,052,37,1*76
$GBGSV,4,4,15,35,23,275,18,29,23,216,,22,08,297,29,1*4C
$GBGSV,3,1,10,38,83,081,42,39,72,273,33,46,56,123,41,19,46,338,40,4*74
$GBGSV,3,2,10,20,44,055,39,36,29,184,21,37,26,052,35,29,23,216,24,4*73
$GBGSV,3,3,10,35,23,275,30,22,08,297,23,4*73
$GNACCURACY,3.3*16
$PAIRSAT,1,35,1,0,200,2,0,200,3,0,200,4,0,200,5,0,201,6,0,200,7,0,200,8,0,200,9,0,200,10,0,221,11,0,200,12,0,200,13,0,201,14,0,200,15,0,201,16,0,200,17,0,200,18,0,221,19,0,200,20,0,200,21,0,200,23,0,221,24,0,221,25,0,200,26,0,200,27,0,200,28,0,200,29,0,200,30,0,200,31,0,200,32,0,200,194,0,621,195,0,621,196,0,620,199,0,621*6A
$PAIRSAT,2,23,65,0,200,67,0,200,68,0,200,69,0,201,70,0,201,71,0,201,72,0,200,73,0,201,74,0,200,75,0,200,76,0,200,77,0,200,78,0,200,79,0,201,80,0,201,81,0,200,82,0,200,83,0,200,84,0,201,85,0,201,86,0,201,87,0,200,88,0,200*52
$PAIRSAT,3,23,2,0,1221,3,0,1221,4,0,1200,5,0,200,7,0,1221,8,0,1221,9,0,1200,10,0,1200,11,0,1200,12,0,1200,13,0,1221,15,0,1221,19,0,1200,21,0,1200,24,0,1200,25,0,1200,26,0,1221,27,0,1200,30,0,1201,31,0,1200,33,0,1200,34,0,1200,36,0,1200*68
$PAIRSAT,4,50,1,0,200,2,0,200,3,0,200,4,0,200,5,0,200,6,0,201,7,0,200,8,0,201,9,0,201,10,0,200,11,0,200,12,0,200,13,0,201,14,0,200,15,0,200,16,0,201,19,0,621,20,0,621,21,0,600,22,0,621,23,0,600,24,0,600,25,0,600,26,0,600,27,0,600,28,0,600,29,0,621,30,0,600,31,0,200,32,0,600,33,0,600,34,0,600,35,0,621,36,0,621,37,0,621,38,0,621,39,0,621,40,0,600,41,0,600,42,0,600,43,0,600,44,0,600,45,0,600,46,0,621,56,0,200,57,0,200,58,0,200,59,0,600,60,0,600,61,0,600*41
$PAIRDGP,7,5,10,13,15,18,23,24*52
$GNGGA,111219.200,2500.8045763,N,12132.4789828,E,2,63,0.42,15.395,M,15.25,M,1,3335*4B
$GNRMC,111219.200,A,2500.8045763,N,12132.4789828,E,0.01,159.17,260623,,,D,V*00
$GPHDT,,T*1B
$GNACCURACY,3.3*16
$GNGGA,111219.300,2500.8045703,N,12132.4789888,E,2,63,0.42,15.388,M,15.25,M,1,3335*4A
$GNRMC,111219.300,A,2500.8045703,N,12132.4789888,E,0.01,159.17,260623,,,D,V*0D
$GPHDT,,T*1B
$GNACCURACY,3.3*16
$GNGGA,111219.400,2500.8045643,N,12132.4789948,E,2,63,0.42,15.380,M,15.25,M,1,3335*4D
$GNRMC,111219.400,A,2500.8045643,N,12132.4789948,E,0.01,159.17,260623,,,D,V*02
$GPHDT,,T*1B
$GNACCURACY,3.3*16
$GNGGA,111219.500,2500.8045583,N,12132.4790008,E,2,62,0.42,15.369,M,15.25,M,0,3335*41
$GNRMC,111219.500,A,2500.8045583,N,12132.4790008,E,0.01,159.17,260623,,,D,V*09
$GPHDT,,T*1B
$GNACCURACY,3.4*11
$GNGGA,111219.600,2500.8045523,N,12132.4790068,E,2,62,0.42,15.360,M,15.25,M,0,3335*47
$GNRMC,111219.600,A,2500.8045523,N,12132.4790068,E,0.01,159.17,260623,,,D,V*06
$GPHDT,,T*1B
$GNACCURACY,3.4*11
$GNGGA,111219.700,2500.8045403,N,12132.4790128,E,2,62,0.42,15.352,M,15.25,M,0,3335*41
$GNRMC,111219.700,A,2500.8045403,N,12132.4790128,E,0.01,159.17,260623,,,D,V*01
$GPHDT,,T*1B
$GNACCURACY,3.4*11
$GNGGA,111219.800,2500.8045343,N,12132.4790188,E,2,63,0.42,15.345,M,15.25,M,0,3335*40
$GNRMC,111219.800,A,2500.8045343,N,12132.4790188,E,0.01,159.17,260623,,,D,V*07
$GPHDT,,T*1B
$GNACCURACY,3.4*11
$GNGGA,111219.900,2500.8045283,N,12132.4790248,E,2,63,0.42,15.337,M,15.25,M,0,3335*46
$GNRMC,111219.900,A,2500.8045283,N,12132.4790248,E,0.01,159.17,260623,,,D,V*04
$GPHDT,,T*1B
$GNACCURACY,3.4*11
$GNGGA,111220.000,2500.8045223,N,12132.4790308,E,2,63,0.42,15.327,M,15.25,M,1,3335*4A
$GNRMC,111220.000,A,2500.8045223,N,12132.4790308,E,0.01,159.17,260623,,,D,V*08
$GPHDT,,T*1B
$GNACCURACY,3.4*11
$GNGGA,111220.100,2500.8045163,N,12132.4790368,E,2,63,0.42,15.319,M,15.25,M,1,3335*47
$GNRMC,111220.100,A,2500.8045163,N,12132.4790368,E,0.01,159.17,260623,,,D,V*08
$GPHDT,,T*1B
$GNGSA,A,3,24,196,199,23,15,195,194,05,10,13,,,0.77,0.42,0.65,1*0F
$GNGSA,A,3,80,70,85,73,86,71,79,69,84,,,,0.77,0.42,0.65,2*04
$GNGSA,A,3,13,08,07,26,15,02,30,03,,,,,0.77,0.42,0.65,3*09
$GNGSA,A,3,38,08,39,13,06,46,09,19,20,36,37,35,0.77,0.42,0.65,4*0A
$GNGSA,A,3,29,,,,,,,,,,,,0.77,0.42,0.65,4*0A
$GPGSV,5,1,17,24,80,062,40,196,74,061,37,18,61,261,15,50,60,167,37,1*5E
$GPGSV,5,2,17,199,60,167,35,23,45,334,41,15,40,040,37,195,36,179,35,1*64
$GPGSV,5,3,17,194,28,140,43,05,23,113,24,12,16,146,22,10,13,315,39,1*58
$GPGSV,5,4,17,13,12,052,28,32,06,264,18,25,05,180,,29,04,201,,1*66
$GPGSV,5,5,17,20,01,126,,1*54
$GPGSV,2,1,07,24,80,062,44,196,74,061,40,199,60,167,43,23,45,334,45,8*68
$GPGSV,2,2,07,195,36,179,34,194,28,140,43,10,13,315,37,8*5E
$GLGSV,3,1,09,80,47,089,35,70,40,001,25,85,40,255,27,73,31,162,38,1*7C
$GLGSV,3,2,09,86,25,310,35,71,19,307,39,79,16,037,17,69,15,067,30,1*7F
$GLGSV,3,3,09,84,15,193,15,1*46
$GAGSV,3,1,09,13,60,241,24,08,49,019,36,07,43,296,27,26,29,312,35,7*74
$GAGSV,3,2,09,15,28,174,35,02,24,091,27,30,22,147,17,03,13,060,26,7*7C
$GAGSV,3,3,09,25,04,047,,7*4A
$GAGSV,2,1,08,13,60,241,31,08,49,019,36,07,43,296,34,26,29,312,32,1*73
$GAGSV,2,2,08,15,28,174,39,02,24,091,20,30,22,147,28,03,13,060,30,1*7A
$GBGSV,4,1,15,38,83,081,46,08,76,006,40,39,72,273,34,16,66,249,18,1*78
$GBGSV,4,2,15,13,66,338,41,06,65,245,22,46,56,123,41,09,49,233,19,1*77
$GBGSV,4,3,15,19,46,338,45,20,44,055,44,36,29,184,28,37,26,052,37,1*7E
$GBGSV,4,4,15,35,23,275,21,29,23,216,,22,08,297,30,1*4E
$GBGSV,3,1,10,38,83,081,40,39,72,273,33,46,56,123,42,19,46,338,41,4*74
$GBGSV,3,2,10,20,44,055,39,36,29,184,28,37,26,052,34,29,23,216,23,4*7C
$GBGSV,3,3,10,35,23,275,31,22,08,297,21,4*70
$GNACCURACY,3.4*11
$PAIRSAT,1,35,1,0,200,2,0,200,3,0,200,4,0,200,5,0,201,6,0,200,7,0,200,8,0,200,9,0,200,10,0,221,11,0,200,12,0,200,13,0,201,14,0,200,15,0,201,16,0,200,17,0,200,18,0,221,19,0,200,20,0,200,21,0,200,23,0,221,24,0,221,25,0,200,26,0,200,27,0,200,28,0,200,29,0,200,30,0,200,31,0,200,32,0,200,194,0,621,195,0,621,196,0,620,199,0,621*6A
$PAIRSAT,2,23,65,0,200,67,0,200,68,0,200,69,0,201,70,0,201,71,0,201,72,0,200,73,0,201,74,0,200,75,0,200,76,0,200,77,0,200,78,0,200,79,0,201,80,0,201,81,0,200,82,0,200,83,0,200,84,0,201,85,0,201,86,0,201,87,0,200,88,0,200*52
$PAIRSAT,3,23,2,0,1221,3,0,1221,4,0,1200,5,0,200,7,0,1221,8,0,1221,9,0,1200,10,0,1200,11,0,1200,12,0,1200,13,0,1221,15,0,1221,19,0,1200,21,0,1200,24,0,1200,25,0,1200,26,0,1221,27,0,1200,30,0,1201,31,0,1200,33,0,1200,34,0,1200,36,0,1200*68
$PAIRSAT,4,50,1,0,200,2,0,200,3,0,200,4,0,200,5,0,200,6,0,201,7,0,200,8,0,201,9,0,201,10,0,200,11,0,200,12,0,200,13,0,201,14,0,200,15,0,200,16,0,201,19,0,621,20,0,621,21,0,600,22,0,621,23,0,600,24,0,600,25,0,600,26,0,600,27,0,600,28,0,600,29,0,621,30,0,600,31,0,200,32,0,600,33,0,600,34,0,600,35,0,621,36,0,621,37,0,621,38,0,621,39,0,621,40,0,600,41,0,600,42,0,600,43,0,600,44,0,600,45,0,600,46,0,621,56,0,200,57,0,200,58,0,200,59,0,600,60,0,600,61,0,600*41
$PAIRDGP,7,5,10,13,15,18,23,24*52
$GNGGA,111220.200,2500.8045103,N,12132.4790368,E,2,63,0.42,15.313,M,15.25,M,1,3335*48
$GNRMC,111220.200,A,2500.8045103,N,12132.4790368,E,0.01,159.17,260623,,,D,V*0D
$GPHDT,,T*1B
$GNACCURACY,3.4*11
$GNGGA,111220.300,2500.8044983,N,12132.4790368,E,2,63,0.42,15.307,M,15.25,M,1,3335*4D
$GNRMC,111220.300,A,2500.8044983,N,12132.4790368,E,0.01,159.17,260623,,,D,V*0D
$GPHDT,,T*1B
$GNACCURACY,3.4*11
$GNGGA,111220.400,2500.8044923,N,12132.4790428,E,2,63,0.42,15.299,M,15.25,M,1,3335*45
$GNRMC,111220.400,A,2500.8044923,N,12132.4790428,E,0.01,159.17,260623,,,D,V*03
$GPHDT,,T*1B
$GNACCURACY,3.4*11
$GNGGA,111220.500,2500.8044863,N,12132.4790488,E,2,63,0.42,15.292,M,15.25,M,1,3335*40
$GNRMC,111220.500,A,2500.8044863,N,12132.4790488,E,0.01,159.17,260623,,,D,V*0D
$GPHDT,,T*1B
$GNACCURACY,3.4*11
$GNGGA,111220.600,2500.8044803,N,12132.4790548,E,2,63,0.42,15.285,M,15.25,M,1,3335*4E
$GNRMC,111220.600,A,2500.8044803,N,12132.4790548,E,0.01,159.17,260623,,,D,V*05
$GPHDT,,T*1B
$GNACCURACY,3.4*11
$GNGGA,111220.700,2500.8044683,N,12132.4790608,E,2,63,0.42,15.277,M,15.25,M,0,3335*42
$GNRMC,111220.700,A,2500.8044683,N,12132.4790608,E,0.01,159.17,260623,,,D,V*05
$GPHDT,,T*1B
$GNACCURACY,3.4*11
$GNGGA,111220.800,2500.8044683,N,12132.4790668,E,2,63,0.42,15.271,M,15.25,M,0,3335*4D
$GNRMC,111220.800,A,2500.8044683,N,12132.4790668,E,0.01,159.17,260623,,,D,V*0C
