$FW : RTK35X,V1.1X0314AS,Lib20210517,1*54
$Tool : LOCOSYS , GNSS Firebird , v1.0.0.19*39
$---------------------------------------------------*2D
64,0.42,15.783,M,15.25,M,1,3335*44
$GNRMC,111355.400,A,2500.8051222,N,12132.4789939,E,0.01,159.17,260623,,,D,V*0B
$GPHDT,,T*1B
$GNACCURACY,3.3*16
$GNGGA,111355.500,2500.8051222,N,12132.4789939,E,2,65,0.42,15.778,M,15.25,M,0,3335*41
$GNRMC,111355.500,A,2500.8051222,N,12132.4789939,E,0.01,159.17,260623,,,D,V*0A
$GPHDT,,T*1B
$GNACCURACY,3.3*16
$GNGGA,111355.600,2500.8051282,N,12132.4789939,E,2,65,0.42,15.777,M,15.25,M,0,3335*47
$GNRMC,111355.600,A,2500.8051282,N,12132.4789939,E,0.01,159.17,260623,,,D,V*03
$GPHDT,,T*1B
$GNACCURACY,3.3*16
$GNGGA,111355.700,2500.8051282,N,12132.4789939,E,2,66,0.42,15.780,M,15.25,M,0,3335*4D
$GNRMC,111355.700,A,2500.8051282,N,12132.4789939,E,0.01,159.17,260623,,,D,V*02
$GPHDT,,T*1B
$GNACCURACY,3.3*16
$GNGGA,111355.800,2500.8051282,N,12132.4789879,E,2,66,0.42,15.781,M,15.25,M,0,3335*46
$GNRMC,111355.800,A,2500.8051282,N,12132.4789879,E,0.01,159.17,260623,,,D,V*08
$GPHDT,,T*1B
$GNACCURACY,3.3*16
$GNGGA,111355.900,2500.8051282,N,12132.4789879,E,2,66,0.42,15.781,M,15.25,M,0,3335*47
$GNRMC,111355.900,A,2500.8051282,N,12132.4789879,E,0.01,159.17,260623,,,D,V*09
$GPHDT,,T*1B
$GNACCURACY,3.3*16
$GNGGA,111356.000,2500.8051342,N,12132.4789879,E,2,66,0.42,15.779,M,15.25,M,1,3335*46
$GNRMC,111356.000,A,2500.8051342,N,12132.4789879,E,0.01,159.17,260623,,,D,V*0E
$GPHDT,,T*1B
$GNACCURACY,3.3*16
$GNGGA,111356.100,2500.8051342,N,12132.4789939,E,2,66,0.42,15.776,M,15.25,M,1,3335*4D
$GNRMC,111356.100,A,2500.8051342,N,12132.4789939,E,0.01,159.17,260623,,,D,V*0A
$GPHDT,,T*1B
$GNGSA,A,3,24,196,18,199,23,15,195,194,05,10,13,,0.76,0.42,0.64,1*06
$GNGSA,A,3,80,70,85,73,86,71,79,69,84,,,,0.76,0.42,0.64,2*04
$GNGSA,A,3,13,08,07,26,15,02,30,03,,,,,0.76,0.42,0.64,3*09
$GNGSA,A,3,38,08,39,16,13,06,46,09,19,20,36,37,0.76,0.42,0.64,4*0B
$GNGSA,A,3,29,35,,,,,,,,,,,0.76,0.42,0.64,4*0C
$GPGSV,5,1,17,24,79,059,35,196,74,061,37,18,61,259,33,50,60,167,39,1*53
$GPGSV,5,2,17,199,60,167,36,23,45,335,44,15,40,041,32,195,36,179,40,1*65
$GPGSV,5,3,17,194,29,140,37,05,23,114,33,12,17,146,18,10,14,316,36,1*58
$GPGSV,5,4,17,13,12,053,28,32,07,264,14,25,05,179,,29,03,200,,1*6A
$GPGSV,5,5,17,20,01,127,,1*55
$GPGSV,2,1,08,24,79,059,44,196,74,061,35,18,61,259,34,199,60,167,47,8*6D
$GPGSV,2,2,08,23,45,335,44,195,36,179,43,194,29,140,37,10,14,316,36,8*63
$GLGSV,3,1,09,80,48,088,28,70,40,002,28,85,39,254,14,73,31,162,41,1*71
$GLGSV,3,2,09,86,25,309,30,71,19,308,38,79,15,036,14,69,15,067,28,1*74
$GLGSV,3,3,09,84,14,192,18,1*4B
$GAGSV,3,1,09,13,60,239,22,08,49,019,33,07,43,297,31,26,30,311,21,7*70
$GAGSV,3,2,09,15,27,174,35,02,24,091,22,30,22,147,33,03,12,060,24,7*73
$GAGSV,3,3,09,25,04,047,,7*4A
$GAGSV,2,1,08,13,60,239,33,08,49,019,39,07,43,297,38,26,30,311,30,1*75
$GAGSV,2,2,08,15,27,174,44,02,24,091,21,30,22,147,29,03,12,060,29,1*76
$GBGSV,5,1,20,38,83,084,44,08,76,006,34,39,72,274,37,16,66,250,28,1*74
$GBGSV,5,2,20,13,66,337,42,06,65,246,24,46,57,122,37,09,49,233,16,1*77
$GBGSV,5,3,20,19,46,338,43,20,44,056,42,31,35,207,,36,30,184,40,1*7E
$GBGSV,5,4,20,37,26,051,38,29,23,216,14,35,23,274,33,22,09,297,25,1*74
$GBGSV,5,5,20,07,05,193,,32,04,095,,10,03,203,,44,01,316,,1*72
$GBGSV,2,1,08,38,83,084,41,39,72,274,37,46,57,122,35,19,46,338,39,4*74
$GBGSV,2,2,08,20,44,056,43,36,30,184,39,37,26,051,36,35,23,274,31,4*79
$GNACCURACY,3.3*16
$PAIRSAT,1,35,1,0,200,2,0,200,3,0,200,4,0,200,5,0,201,6,0,200,7,0,200,8,0,200,9,0,200,10,0,221,11,0,200,12,0,200,13,0,201,14,0,200,15,0,201,16,0,200,17,0,200,18,0,221,19,0,200,20,0,200,21,0,200,23,0,221,24,0,221,25,0,200,26,0,200,27,0,200,28,0,200,29,0,200,30,0,200,31,0,200,32,0,200,194,0,621,195,0,621,196,0,620,199,0,621*6A
$PAIRSAT,2,23,65,0,200,67,0,200,68,0,200,69,0,201,70,0,201,71,0,201,72,0,200,73,0,201,74,0,200,75,0,200,76,0,200,77,0,200,78,0,200,79,0,201,80,0,201,81,0,200,82,0,200,83,0,200,84,0,201,85,0,201,86,0,201,87,0,200,88,0,200*52
$PAIRSAT,3,23,2,0,1221,3,0,1221,4,0,1200,5,0,200,7,0,1221,8,0,1221,9,0,1200,10,0,1200,11,0,1200,12,0,1200,13,0,1221,15,0,1221,19,0,1200,21,0,1200,24,0,1200,25,0,1200,26,0,1221,27,0,1200,30,0,1221,31,0,1200,33,0,1200,34,0,1200,36,0,1200*6A
$PAIRSAT,4,50,1,0,200,2,0,200,3,0,200,4,0,200,5,0,200,6,0,201,7,0,200,8,0,201,9,0,201,10,0,200,11,0,200,12,0,200,13,0,201,14,0,200,15,0,200,16,0,201,19,0,621,20,0,621,21,0,600,22,0,621,23,0,600,24,0,600,25,0,600,26,0,600,27,0,600,28,0,600,29,0,621,30,0,600,31,0,200,32,0,600,33,0,600,34,0,600,35,0,621,36,0,621,37,0,621,38,0,621,39,0,621,40,0,600,41,0,600,42,0,600,43,0,600,44,0,600,45,0,600,46,0,621,56,0,200,57,0,200,58,0,200,59,0,600,60,0,600,61,0,600*41
$PAIRDGP,7,5,10,13,15,18,23,24*52
$GNGGA,111356.200,2500.8051342,N,12132.4789939,E,2,66,0.42,15.774,M,15.25,M,1,3335*4C
$GNRMC,111356.200,A,2500.8051342,N,12132.4789939,E,0.01,159.17,260623,,,D,V*09
$GPHDT,,T*1B
$GNACCURACY,3.2*17
$GNGGA,111356.300,2500.8051402,N,12132.4789939,E,2,66,0.42,15.770,M,15.25,M,1,3335*4A
$GNRMC,111356.300,A,2500.8051402,N,12132.4789939,E,0.01,159.17,260623,,,D,V*0B
$GPHDT,,T*1B
$GNACCURACY,3.2*17
$GNGGA,111356.400,2500.8051462,N,12132.4789939,E,2,66,0.42,15.766,M,15.25,M,1,3335*4C
$GNRMC,111356.400,A,2500.8051462,N,12132.4789939,E,0.01,159.17,260623,,,D,V*0A
$GPHDT,,T*1B
$GNACCURACY,3.2*17
$GNGGA,111356.500,2500.8051462,N,12132.4789939,E,2,66,0.42,15.761,M,15.25,M,1,3335*4A
$GNRMC,111356.500,A,2500.8051462,N,12132.4789939,E,0.01,159.17,260623,,,D,V*0B
$GPHDT,,T*1B
$GNACCURACY,3.2*17
$GNGGA,111356.600,2500.8051522,N,12132.4789939,E,2,65,0.42,15.757,M,15.25,M,1,3335*4A
$GNRMC,111356.600,A,2500.8051522,N,12132.4789939,E,0.01,159.17,260623,,,D,V*0D
$GPHDT,,T*1B
$GNACCURACY,3.2*17
$GNGGA,111356.700,2500.8051582,N,12132.4789939,E,2,65,0.42,15.753,M,15.25,M,1,3335*45
$GNRMC,111356.700,A,2500.8051582,N,12132.4789939,E,0.01,159.17,260623,,,D,V*06
$GPHDT,,T*1B
$GNACCURACY,3.2*17
$GNGGA,111356.800,2500.8051582,N,12132.4789999,E,2,65,0.42,15.748,M,15.25,M,0,3335*4B
$GNRMC,111356.800,A,2500.8051582,N,12132.4789999,E,0.01,159.17,260623,,,D,V*03
$GPHDT,,T*1B
$GNACCURACY,3.2*17
$GNGGA,111356.900,2500.8051642,N,12132.4789999,E,2,65,0.42,15.746,M,15.25,M,0,3335*4B
$GNRMC,111356.900,A,2500.8051642,N,12132.4789999,E,0.01,159.17,260623,,,D,V*0D
$GPHDT,,T*1B
$GNACCURACY,3.2*17
$GNGGA,111357.000,2500.8051702,N,12132.4790059,E,2,65,0.42,15.745,M,15.25,M,1,3335*49
$GNRMC,111357.000,A,2500.8051702,N,12132.4790059,E,0.01,159.17,260623,,,D,V*0D
$GPHDT,,T*1B
$GNACCURACY,3.2*17
$GNGGA,111357.100,2500.8051702,N,12132.4790119,E,2,65,0.42,15.743,M,15.25,M,1,3335*4B
$GNRMC,111357.100,A,2500.8051702,N,12132.4790119,E,0.01,159.17,260623,,,D,V*09
$GPHDT,,T*1B
$GNGSA,A,3,24,196,18,199,23,15,195,194,05,10,13,,0.78,0.42,0.65,1*09
$GNGSA,A,3,80,70,85,73,86,71,69,84,,,,,0.78,0.42,0.65,2*05
$GNGSA,A,3,13,08,07,26,15,02,30,03,,,,,0.78,0.42,0.65,3*06
$GNGSA,A,3,38,08,39,13,16,06,46,09,19,20,36,37,0.78,0.42,0.65,4*04
$GNGSA,A,3,29,35,,,,,,,,,,,0.78,0.42,0.65,4*03
$GPGSV,5,1,17,24,79,059,36,196,74,061,38,18,61,259,33,50,60,167,39,1*5F
$GPGSV,5,2,17,199,60,167,37,23,45,335,44,15,40,041,32,195,36,179,40,1*64
$GPGSV,5,3,17,194,29,140,39,05,23,114,28,12,17,146,18,10,14,316,34,1*5E
$GPGSV,5,4,17,13,12,053,29,32,07,264,,25,05,179,,29,03,200,,1*6E
$GPGSV,5,5,17,20,01,127,,1*55
$GPGSV,2,1,08,24,79,059,47,196,74,061,38,18,61,259,36,199,60,167,47,8*61
$GPGSV,2,2,08,23,45,335,44,195,36,179,44,194,29,140,32,10,14,316,37,8*60
$GLGSV,3,1,09,80,48,088,31,70,40,002,28,85,39,254,16,73,31,162,40,1*7A
$GLGSV,3,2,09,86,25,309,32,71,19,308,38,79,15,036,14,69,15,067,28,1*76
$GLGSV,3,3,09,84,14,192,19,1*4A
$GAGSV,3,1,09,13,60,239,22,08,49,019,35,07,43,297,31,26,30,311,21,7*76
$GAGSV,3,2,09,15,27,174,35,02,24,091,25,30,22,147,32,03,12,060,28,7*79
$GAGSV,3,3,09,25,04,047,,7*4A
$GAGSV,2,1,08,13,60,239,34,08,49,019,39,07,43,297,38,26,30,311,28,1*7B
$GAGSV,2,2,08,15,27,174,44,02,24,091,25,30,22,147,33,03,12,060,31,1*70
$GBGSV,4,1,16,38,83,084,42,08,76,006,37,39,72,274,37,13,66,337,42,1*7C
$GBGSV,4,2,16,16,66,250,31,06,65,246,24,46,57,122,39,09,49,233,17,1*7D
$GBGSV,4,3,16,19,46,338,43,20,44,056,42,36,30,184,40,37,26,051,37,1*7B
$GBGSV,4,4,16,29,23,215,18,35,23,274,31,22,09,297,26,07,05,193,,1*78
$GBGSV,2,1,08,38,83,084,44,39,72,274,38,46,57,122,40,19,46,338,41,4*73
$GBGSV,2,2,08,20,44,056,43,36,30,184,38,37,26,051,40,35,23,274,33,4*7B
$GNACCURACY,3.2*17
$PAIRSAT,1,35,1,0,200,2,0,200,3,0,200,4,0,200,5,0,201,6,0,200,7,0,200,8,0,200,9,0,200,10,0,221,11,0,200,12,0,200,13,0,201,14,0,200,15,0,201,16,0,200,17,0,200,18,0,221,19,0,200,20,0,200,21,0,200,23,0,221,24,0,221,25,0,200,26,0,200,27,0,200,28,0,200,29,0,200,30,0,200,31,0,200,32,0,200,194,0,621,195,0,621,196,0,620,199,0,621*6A
$PAIRSAT,2,23,65,0,200,67,0,200,68,0,200,69,0,201,70,0,201,71,0,201,72,0,200,73,0,201,74,0,200,75,0,200,76,0,200,77,0,200,78,0,200,79,0,201,80,0,201,81,0,200,82,0,200,83,0,200,84,0,201,85,0,201,86,0,201,87,0,200,88,0,200*52
$PAIRSAT,3,23,2,0,1221,3,0,1221,4,0,1200,5,0,200,7,0,1221,8,0,1221,9,0,1200,10,0,1200,11,0,1200,12,0,1200,13,0,1221,15,0,1221,19,0,1200,21,0,1200,24,0,1200,25,0,1200,26,0,1221,27,0,1200,30,0,1221,31,0,1200,33,0,1200,34,0,1200,36,0,1200*6A
$PAIRSAT,4,50,1,0,200,2,0,200,3,0,200,4,0,200,5,0,200,6,0,201,7,0,200,8,0,201,9,0,201,10,0,200,11,0,200,12,0,200,13,0,201,14,0,200,15,0,200,16,0,201,19,0,621,20,0,621,21,0,600,22,0,621,23,0,600,24,0,600,25,0,600,26,0,600,27,0,600,28,0,600,29,0,621,30,0,600,31,0,200,32,0,600,33,0,600,34,0,600,35,0,621,36,0,621,37,0,621,38,0,621,39,0,621,40,0,600,41,0,600,42,0,600,43,0,600,44,0,600,45,0,600,46,0,621,56,0,200,57,0,200,58,0,200,59,0,600,60,0,600,61,0,600*41
$PAIRDGP,7,5,10,13,15,18,23,24*52
$GNGGA,111357.200,2500.8051762,N,12132.4790119,E,2,65,0.42,15.740,M,15.25,M,1,3335*4D
$GNRMC,111357.200,A,2500.8051762,N,12132.4790119,E,0.01,159.17,260623,,,D,V*0C
$GPHDT,,T*1B
$GNACCURACY,3.2*17
$GNGGA,111357.300,2500.8051822,N,12132.4790179,E,2,65,0.42,15.736,M,15.25,M,1,3335*40
$GNRMC,111357.300,A,2500.8051822,N,12132.4790179,E,0.01,159.17,260623,,,D,V*00
$GPHDT,,T*1B
$GNACCURACY,3.2*17
$GNGGA,111357.400,2500.8051882,N,12132.4790239,E,2,65,0.42,15.736,M,15.25,M,1,3335*4A
$GNRMC,111357.400,A,2500.8051882,N,12132.4790239,E,0.01,159.17,260623,,,D,V*0A
$GPHDT,,T*1B
$GNACCURACY,3.2*17
$GNGGA,111357.500,2500.8051882,N,12132.4790239,E,2,65,0.42,15.732,M,15.25,M,1,3335*4F
$GNRMC,111357.500,A,2500.8051882,N,12132.4790239,E,0.01,159.17,260623,,,D,V*0B
$GPHDT,,T*1B
$GNACCURACY,3.2*17
$GNGGA,111357.600,2500.8051942,N,12132.4790239,E,2,65,0.42,15.730,M,15.25,M,0,3335*42
$GNRMC,111357.600,A,2500.8051942,N,12132.4790239,E,0.01,159.17,260623,,,D,V*05
$GPHDT,,T*1B
$GNACCURACY,3.2*17
$GNGGA,111357.700,2500.8052002,N,12132.4790299,E,2,65,0.42,15.730,M,15.25,M,0,3335*47
$GNRMC,111357.700,A,2500.8052002,N,12132.4790299,E,0.01,159.17,260623,,,D,V*00
$GPHDT,,T*1B
$GNACCURACY,3.3*16
$GNGGA,111357.800,2500.8052062,N,12132.4790359,E,2,65,0.42,15.731,M,15.25,M,0,3335*42
$GNRMC,111357.800,A,2500.8052062,N,12132.4790359,E,0.01,159.17,260623,,,D,V*04
$GPHDT,,T*1B
$GNACCURACY,3.2*17
$GNGGA,111357.900,2500.8052062,N,12132.4790419,E,2,65,0.42,15.729,M,15.25,M,0,3335*49
$GNRMC,111357.900,A,2500.8052062,N,12132.4790419,E,0.01,159.17,260623,,,D,V*06
$GPHDT,,T*1B
$GNACCURACY,3.3*16
$GNGGA,111358.000,2500.8052122,N,12132.4790479,E,2,65,0.42,15.726,M,15.25,M,1,3335*42
$GNRMC,111358.000,A,2500.8052122,N,12132.4790479,E,0.01,159.17,260623,,,D,V*03
$GPHDT,,T*1B
$GNACCURACY,3.3*16
$GNGGA,111358.100,2500.8049260,N,12132.4792729,E,4,65,0.42,15.945,M,15.25,M,1,3335*45
$GNRMC,111358.100,A,2500.8049260,N,12132.4792729,E,0.01,159.17,260623,,,R,V*1F
$GPHDT,,T*1B
$GNGSA,A,3,24,196,18,199,23,15,195,194,05,10,13,,0.78,0.42,0.65,1*09
$GNGSA,A,3,80,70,85,73,86,71,69,84,,,,,0.78,0.42,0.65,2*05
$GNGSA,A,3,13,08,07,26,15,02,30,03,,,,,0.78,0.42,0.65,3*06
$GNGSA,A,3,38,08,39,16,13,06,46,09,19,20,36,37,0.78,0.42,0.65,4*04
$GNGSA,A,3,35,29,,,,,,,,,,,0.78,0.42,0.65,4*03
$GPGSV,5,1,17,24,79,059,34,196,74,061,38,18,61,259,32,50,60,167,39,1*5C
$GPGSV,5,2,17,199,60,167,37,23,45,335,44,15,40,041,32,195,36,179,40,1*64
$GPGSV,5,3,17,194,29,140,41,05,23,114,26,12,17,146,19,10,14,316,35,1*5F
$GPGSV,5,4,17,13,12,053,29,32,07,264,,25,05,179,,29,03,200,,1*6E
$GPGSV,5,5,17,20,01,127,,1*55
$GPGSV,2,1,08,24,79,059,46,196,74,061,38,18,61,259,37,199,60,167,47,8*61
$GPGSV,2,2,08,23,45,335,45,195,36,179,44,194,29,140,36,10,14,316,37,8*65
$GLGSV,3,1,09,80,48,088,32,70,40,002,29,85,39,254,15,73,31,162,40,1*7B
$GLGSV,3,2,09,86,25,309,32,71,19,308,38,79,15,036,13,69,15,067,27,1*7E
$GLGSV,3,3,09,84,14,192,19,1*4A
$GAGSV,3,1,09,13,60,239,21,08,49,019,35,07,43,297,31,26,30,311,19,7*7E
$GAGSV,3,2,09,15,27,174,34,02,24,091,25,30,22,147,35,03,12,060,28,7*7F
$GAGSV,3,3,09,25,04,047,,7*4A
$GAGSV,2,1,08,13,60,239,34,08,49,019,38,07,43,297,38,26,30,311,27,1*75
$GAGSV,2,2,08,15,27,174,44,02,24,091,22,30,22,147,33,03,12,060,30,1*76
$GBGSV,4,1,15,38,83,084,42,08,76,006,37,39,72,274,38,16,66,250,31,1*71
$GBGSV,4,2,15,13,66,337,42,06,65,246,24,46,57,122,39,09,49,233,18,1*70
$GBGSV,4,3,15,19,46,338,43,20,44,056,41,36,30,184,40,37,26,051,38,1*74
$GBGSV,4,4,15,35,23,274,31,29,23,215,21,22,09,297,27,1*49
$GBGSV,2,1,08,38,83,084,42,39,72,274,37,46,57,122,40,19,46,338,40,4*7B
$GBGSV,2,2,08,20,44,056,43,36,30,184,38,37,26,051,40,35,23,274,31,4*79
$GNACCURACY,3.3*16
$PAIRSAT,1,35,1,0,200,2,0,200,3,0,200,4,0,200,5,0,201,6,0,200,7,0,200,8,0,200,9,0,200,10,0,221,11,0,200,12,0,200,13,0,201,14,0,200,15,0,201,16,0,200,17,0,200,18,0,221,19,0,200,20,0,200,21,0,200,23,0,221,24,0,221,25,0,200,26,0,200,27,0,200,28,0,200,29,0,200,30,0,200,31,0,200,32,0,200,194,0,621,195,0,621,196,0,620,199,0,621*6A
$PAIRSAT,2,23,65,0,200,67,0,200,68,0,200,69,0,201,70,0,201,71,0,201,72,0,200,73,0,201,74,0,200,75,0,200,76,0,200,77,0,200,78,0,200,79,0,201,80,0,201,81,0,200,82,0,200,83,0,200,84,0,201,85,0,201,86,0,201,87,0,200,88,0,200*52
$PAIRSAT,3,23,2,0,1221,3,0,1221,4,0,1200,5,0,200,7,0,1221,8,0,1221,9,0,1200,10,0,1200,11,0,1200,12,0,1200,13,0,1221,15,0,1221,19,0,1200,21,0,1200,24,0,1200,25,0,1200,26,0,1221,27,0,1200,30,0,1221,31,0,1200,33,0,1200,34,0,1200,36,0,1200*6A
$PAIRSAT,4,50,1,0,200,2,0,200,3,0,200,4,0,200,5,0,200,6,0,201,7,0,200,8,0,201,9,0,201,10,0,200,11,0,200,12,0,200,13,0,201,14,0,200,15,0,200,16,0,201,19,0,621,20,0,621,21,0,600,22,0,621,23,0,600,24,0,600,25,0,600,26,0,600,27,0,600,28,0,600,29,0,621,30,0,600,31,0,200,32,0,600,33,0,600,34,0,600,35,0,621,36,0,621,37,0,621,38,0,621,39,0,621,40,0,600,41,0,600,42,0,600,43,0,600,44,0,600,45,0,600,46,0,621,56,0,200,57,0,200,58,0,200,59,0,600,60,0,600,61,0,600*41
$PAIRDGP,7,5,10,13,15,18,23,24*52
$GNGGA,111358.200,2500.8049254,N,12132.4792707,E,4,65,0.42,15.946,M,15.25,M,1,3335*4E
$GNRMC,111358.200,A,2500.8049254,N,12132.4792707,E,0.01,159.17,260623,,,R,V*17
$GPHDT,,T*1B
$GNACCURACY,3.3*16
$GNGGA,111358.300,2500.8049262,N,12132.4792727,E,4,65,0.42,15.939,M,15.25,M,1,3335*40
$GNRMC,111358.300,A,2500.8049262,N,12132.4792727,E,0.01,159.17,260623,,,R,V*11
$GPHDT,,T*1B
$GNACCURACY,3.3*16
$GNGGA,111358.400,2500.8049269,N,12132.4792722,E,4,65,0.42,15.938,M,15.25,M,1,3335*48
$GNRMC,111358.400,A,2500.8049269,N,12132.4792722,E,0.01,159.17,260623,,,R,V*18
$GPHDT,,T*1B
$GNACCURACY,3.3*16
$GNGGA,111358.500,2500.8049220,N,12132.4792621,E,4,65,0.42,15.898,M,15.25,M,0,3335*4C
$GNRMC,111358.500,A,2500.8049220,N,12132.4792621,E,0.01,159.17,260623,,,R,V*16
$GPHDT,,T*1B
$GNACCURACY,3.3*16
$GNGGA,111358.600,2500.8049239,N,12132.4792637,E,4,65,0.42,15.910,M,15.25,M,0,3335*41
$GNRMC,111358.600,A,2500.8049239,N,12132.4792637,E,0.01,159.17,260623,,,R,V*1A
$GPHDT,,T*1B
$GNACCURACY,3.3*16
$GNGGA,111358.700,2500.8049215,N,12132.4792649,E,4,65,0.42,15.914,M,15.25,M,0,3335*43
$GNRMC,111358.700,A,2500.8049215,N,12132.4792649,E,0.01,159.17,260623,,,R,V*1C
$GPHDT,,T*1B
$GNACCURACY,3.3*16
$GNGGA,111358.800,2500.8049225,N,12132.4792689,E,4,65,0.42,15.925,M,15.25,M,0,3335*41
$GNRMC,111358.800,A,2500.8049225,N,12132.4792689,E,0.01,159.17,260623,,,R,V*1C
$GPHDT,,T*1B
$GNACCURACY,3.3*16
$GNGGA,111358.900,2500.8049214,N,12132.4792689,E,4,65,0.42,15.926,M,15.25,M,0,3335*41
$GNRMC,111358.900,A,2500.8049214,N,12132.4792689,E,0.01,159.17,260623,,,R,V*1F
$GPHDT,,T*1B
$GNACCURACY,3.3*16
$GNGGA,111359.000,2500.8049227,N,12132.4792702,E,4,65,0.42,15.933,M,15.25,M,1,3335*4E
$GNRMC,111359.000,A,2500.8049227,N,12132.4792702,E,0.01,159.17,260623,,,R,V*15
$GPHDT,,T*1B
$GNACCURACY,3.3*16
$GNGGA,111359.100,2500.8049226,N,12132.4792667,E,4,65,0.42,15.920,M,15.25,M,1,3335*4E
$GNRMC,111359.100,A,2500.8049226,N,12132.4792667,E,0.01,159.17,260623,,,R,V*17
$GPHDT,,T*1B
$GNGSA,A,3,24,196,18,199,23,15,195,194,05,10,13,,0.78,0.42,0.65,1*09
$GNGSA,A,3,80,70,85,73,86,71,69,84,,,,,0.78,0.42,0.65,2*05
$GNGSA,A,3,13,08,07,26,15,02,30,03,,,,,0.78,0.42,0.65,3*06
$GNGSA,A,3,38,08,39,16,13,06,46,09,19,20,36,37,0.78,0.42,0.65,4*04
$GNGSA,A,3,35,29,,,,,,,,,,,0.78,0.42,0.65,4*03
$GPGSV,5,1,17,24,79,059,35,196,74,061,38,18,61,259,33,50,60,167,39,1*5C
$GPGSV,5,2,17,199,60,167,37,23,45,335,44,15,40,041,33,195,36,179,41,1*64
$GPGSV,5,3,17,194,29,140,41,05,23,114,24,12,17,146,21,10,14,316,35,1*56
$GPGSV,5,4,17,13,12,053,29,32,07,264,,25,05,179,,29,03,200,,1*6E
$GPGSV,5,5,17,20,01,127,,1*55
$GPGSV,2,1,08,24,79,059,46,196,74,061,38,18,61,259,37,199,60,167,46,8*60
$GPGSV,2,2,08,23,45,335,45,195,36,179,44,194,29,140,37,10,14,316,37,8*64
$GLGSV,3,1,09,80,48,088,32,70,40,002,29,85,39,254,15,73,31,162,40,1*7B
$GLGSV,3,2,09,86,25,309,31,71,19,308,38,79,15,036,12,69,15,067,27,1*7C
$GLGSV,3,3,09,84,14,192,18,1*4B
$GAGSV,3,1,09,13,60,239,20,08,49,019,34,07,43,297,31,26,30,311,21,7*75
$GAGSV,3,2,09,15,27,174,34,02,24,091,25,30,22,147,35,03,12,060,28,7*7F
$GAGSV,3,3,09,25,04,047,,7*4A
$GAGSV,2,1,08,13,60,239,34,08,49,019,38,07,43,297,38,26,30,311,28,1*7A
$GAGSV,2,2,08,15,27,174,44,02,24,091,22,30,22,147,33,03,12,060,30,1*76
$GBGSV,4,1,15,38,83,084,42,08,76,006,37,39,72,274,38,16,66,250,31,1*71
$GBGSV,4,2,15,13,66,337,42,06,65,246,24,46,57,121,39,09,49,233,18,1*73
$GBGSV,4,3,15,19,46,338,43,20,44,056,41,36,30,184,40,37,26,051,38,1*74
$GBGSV,4,4,15,35,23,274,31,29,23,215,21,22,09,297,28,1*46
$GBGSV,2,1,08,38,83,084,42,39,72,274,37,46,57,121,40,19,46,338,38,4*77
$GBGSV,2,2,08,20,44,056,43,36,30,184,38,37,26,051,40,35,23,274,31,4*79
$GNACCURACY,3.3*16
$PAIRSAT,1,35,1,0,200,2,0,200,3,0,200,4,0,200,5,0,201,6,0,200,7,0,200,8,0,200,9,0,200,10,0,221,11,0,200,12,0,200,13,0,201,14,0,200,15,0,201,16,0,200,17,0,200,18,0,221,19,0,200,20,0,200,21,0,200,23,0,221,24,0,221,25,0,200,26,0,200,27,0,200,28,0,200,29,0,200,30,0,200,31,0,200,32,0,200,194,0,621,195,0,621,196,0,620,199,0,621*6A
$PAIRSAT,2,23,65,0,200,67,0,200,68,0,200,69,0,201,70,0,201,71,0,201,72,0,200,73,0,201,74,0,200,75,0,200,76,0,200,77,0,200,78,0,200,79,0,201,80,0,201,81,0,200,82,0,200,83,0,200,84,0,201,85,0,201,86,0,201,87,0,200,88,0,200*52
$PAIRSAT,3,23,2,0,1221,3,0,1221,4,0,1200,5,0,200,7,0,1221,8,0,1221,9,0,1200,10,0,1200,11,0,1200,12,0,1200,13,0,1221,15,0,1221,19,0,1200,21,0,1200,24,0,1200,25,0,1200,26,0,1221,27,0,1200,30,0,1221,31,0,1200,33,0,1200,34,0,1200,36,0,1200*6A
$PAIRSAT,4,50,1,0,200,2,0,200,3,0,200,4,0,200,5,0,200,6,0,201,7,0,200,8,0,201,9,0,201,10,0,200,11,0,200,12,0,200,13,0,201,14,0,200,15,0,200,16,0,201,19,0,621,20,0,621,21,0,600,22,0,621,23,0,600,24,0,600,25,0,600,26,0,600,27,0,600,28,0,600,29,0,621,30,0,600,31,0,200,32,0,600,33,0,600,34,0,600,35,0,621,36,0,621,37,0,621,38,0,621,39,0,621,40,0,600,41,0,600,42,0,600,43,0,600,44,0,600,45,0,600,46,0,621,56,0,200,57,0,200,58,0,200,59,0,600,60,0,600,61,0,600*41
$PAIRDGP,7,5,10,13,15,18,23,24*52
$GNGGA,111359.200,2500.8049218,N,12132.4792663,E,4,65,0.42,15.924,M,15.25,M,1,3335*40
$GNRMC,111359.200,A,2500.8049218,N,12132.4792663,E,0.01,159.17,260623,,,R,V*1D
$GPHDT,,T*1B
$GNACCURACY,3.3*16
$GNGGA,111359.300,2500.8049204,N,12132.4792682,E,4,65,0.42,15.923,M,15.25,M,1,3335*44
$GNRMC,111359.300,A,2500.8049204,N,12132.4792682,E,0.01,159.17,260623,,,R,V*1E
$GPHDT,,T*1B
$GNACCURACY,3.3*16
$GNGGA,111359.400,2500.8049221,N,12132.4792673,E,4,65,0.42,15.924,M,15.25,M,1,3335*4D
$GNRMC,111359.400,A,2500.8049221,N,12132.4792673,E,0.01,159.17,260623,,,R,V*10
$GPHDT,,T*1B
$GNACCURACY,3.3*16
$GNGGA,111359.500,2500.8049222,N,12132.4792673,E,4,65,0.42,15.916,M,15.25,M,1,3335*4E
$GNRMC,111359.500,A,2500.8049222,N,12132.4792673,E,0.01,159.17,260623,,,R,V*12
$GPHDT,,T*1B
$GNACCURACY,3.3*16
$GNGGA,111359.600,2500.8049212,N,12132.4792674,E,4,65,0.42,15.917,M,15.25,M,1,3335*48
$GNRMC,111359.600,A,2500.8049212,N,12132.4792674,E,0.01,159.17,260623,,,R,V*15
$GPHDT,,T*1B
$GNACCURACY,3.3*16
$GNGGA,111359.700,2500.8049226,N,12132.4792683,E,4,65,0.42,15.928,M,15.25,M,1,3335*4A
$GNRMC,111359.700,A,2500.8049226,N,12132.4792683,E,0.01,159.17,260623,,,R,V*1B
$GPHDT,,T*1B
$GNACCURACY,3.5*10
$GNGGA,111359.800,2500.8049218,N,12132.4792673,E,4,64,0.42,15.919,M,15.25,M,1,3335*44
$GNRMC,111359.800,A,2500.8049218,N,12132.4792673,E,0.01,159.17,260623,,,R,V*16
$GPHDT,,T*1B
$GNACCURACY,3.5*10
$GNGGA,111359.900,2500.8049229,N,12132.4792693,E,4,64,0.42,15.925,M,15.25,M,1,3335*46
$GNRMC,111359.900,A,2500.8049229,N,12132.4792693,E,0.01,159.17,260623,,,R,V*1B
$GPHDT,,T*1B
$GNACCURACY,3.5*10
$GNGGA,111400.000,2500.8049227,N,12132.4792617,E,4,64,0.42,15.909,M,15.25,M,2,3335*4B
$GNRMC,111400.000,A,2500.8049227,N,12132.4792617,E,0.01,159.17,260623,,,R,V*1B
$GPHDT,,T*1B
$GNACCURACY,3.5*10
$GNGGA,111400.100,2500.8049213,N,12132.4792682,E,4,64,0.42,15.921,M,15.25,M,2,3335*4B
$GNRMC,111400.100,A,2500.8049213,N,12132.4792682,E,0.01,159.17,260623,,,R,V*11
$GPHDT,,T*1B
$GNGSA,A,3,24,196,18,199,23,15,195,194,05,10,,,0.79,0.42,0.67,1*08
$GNGSA,A,3,80,70,85,73,86,71,69,84,,,,,0.79,0.42,0.67,2*06
$GNGSA,A,3,13,08,07,26,15,02,30,03,,,,,0.79,0.42,0.67,3*05
$GNGSA,A,3,38,08,39,16,13,06,46,09,19,20,36,37,0.79,0.42,0.67,4*07
$GNGSA,A,3,35,29,,,,,,,,,,,0.79,0.42,0.67,4*00
$GPGSV,5,1,17,24,79,059,35,196,74,061,38,18,61,259,33,50,60,167,39,1*5C
$GPGSV,5,2,17,199,60,167,37,23,45,335,44,15,40,041,33,195,36,179,41,1*64
$GPGSV,5,3,17,194,29,140,41,05,23,114,25,12,17,146,21,10,14,316,35,1*57
$GPGSV,5,4,17,13,12,053,29,32,07,264,,25,05,179,,29,03,200,,1*6E
$GPGSV,5,5,17,20,01,127,,1*55
$GPGSV,2,1,08,24,79,059,46,196,74,061,38,18,61,259,37,199,60,167,46,8*60
$GPGSV,2,2,08,23,45,335,45,195,36,179,44,194,29,140,37,10,14,316,37,8*64
$GLGSV,3,1,09,80,48,088,32,70,40,002,29,85,39,254,17,73,31,162,40,1*79
$GLGSV,3,2,09,86,25,309,31,71,19,308,38,79,15,036,13,69,15,067,28,1*72
$GLGSV,3,3,09,84,14,192,18,1*4B
$GAGSV,3,1,09,13,60,239,20,08,49,019,34,07,43,297,31,26,30,311,21,7*75
$GAGSV,3,2,09,15,27,174,33,02,24,091,25,30,22,147,35,03,12,060,28,7*78
$GAGSV,3,3,09,25,04,047,,7*4A
$GAGSV,2,1,08,13,60,239,34,08,49,019,38,07,43,297,38,26,30,311,28,1*7A
$GAGSV,2,2,08,15,27,174,44,02,24,091,23,30,22,147,33,03,12,060,30,1*77
$GBGSV,4,1,15,38,83,084,42,08,76,006,37,39,72,274,38,16,66,250,31,1*71
$GBGSV,4,2,15,13,66,337,42,06,65,246,23,46,57,121,39,09,49,233,17,1*7B
$GBGSV,4,3,15,19,46,338,43,20,44,056,41,36,30,184,40,37,26,051,38,1*74
$GBGSV,4,4,15,35,23,274,30,29,23,215,22,22,09,297,29,1*45
$GBGSV,2,1,08,38,83,084,42,39,72,274,38,46,57,121,40,19,46,338,38,4*78
$GBGSV,2,2,08,20,44,056,43,36,30,184,38,37,26,051,40,35,23,274,31,4*79
$GNACCURACY,3.5*10
$PAIRSAT,1,35,1,0,200,2,0,200,3,0,200,4,0,200,5,0,201,6,0,200,7,0,200,8,0,200,9,0,200,10,0,221,11,0,200,12,0,200,13,0,201,14,0,200,15,0,201,16,0,200,17,0,200,18,0,221,19,0,200,20,0,200,21,0,200,23,0,221,24,0,221,25,0,200,26,0,200,27,0,200,28,0,200,29,0,200,30,0,200,31,0,200,32,0,200,194,0,621,195,0,621,196,0,620,199,0,621*6A
$PAIRSAT,2,23,65,0,200,67,0,200,68,0,200,69,0,201,70,0,201,71,0,201,72,0,200,73,0,201,74,0,200,75,0,200,76,0,200,77,0,200,78,0,200,79,0,201,80,0,201,81,0,200,82,0,200,83,0,200,84,0,201,85,0,201,86,0,201,87,0,200,88,0,200*52
$PAIRSAT,3,23,2,0,1221,3,0,1221,4,0,1200,5,0,200,7,0,1221,8,0,1221,9,0,1200,10,0,1200,11,0,1200,12,0,1200,13,0,1221,15,0,1221,19,0,1200,21,0,1200,24,0,1200,25,0,1200,26,0,1221,27,0,1200,30,0,1221,31,0,1200,33,0,1200,34,0,1200,36,0,1200*6A
$PAIRSAT,4,50,1,0,200,2,0,200,3,0,200,4,0,200,5,0,200,6,0,201,7,0,200,8,0,201,9,0,201,10,0,200,11,0,200,12,0,200,13,0,201,14,0,200,15,0,200,16,0,201,19,0,621,20,0,621,21,0,600,22,0,621,23,0,600,24,0,600,25,0,600,26,0,600,27,0,600,28,0,600,29,0,621,30,0,600,31,0,200,32,0,600,33,0,600,34,0,600,35,0,621,36,0,621,37,0,621,38,0,621,39,0,621,40,0,600,41,0,600,42,0,600,43,0,600,44,0,600,45,0,600,46,0,621,56,0,200,57,0,200,58,0,200,59,0,600,60,0,600,61,0,600*41
$PAIRDGP,7,5,10,13,15,18,23,24*52
$GNGGA,111400.200,2500.8049242,N,12132.4792682,E,4,64,0.42,15.933,M,15.25,M,2,3335*4F
$GNRMC,111400.200,A,2500.8049242,N,12132.4792682,E,0.01,159.17,260623,,,R,V*16
$GPHDT,,T*1B
$GNACCURACY,3.3*16
$GNGGA,111400.300,2500.8049212,N,12132.4792653,E,4,65,0.42,15.916,M,15.25,M,2,3335*41
$GNRMC,111400.300,A,2500.8049212,N,12132.4792653,E,0.01,159.17,260623,,,R,V*1E
$GPHDT,,T*1B
$GNACCURACY,3.3*16
$GNGGA,111400.400,2500.8049220,N,12132.4792688,E,4,65,0.42,15.923,M,15.25,M,2,3335*47
$GNRMC,111400.400,A,2500.8049220,N,12132.4792688,E,0.01,159.17,260623,,,R,V*1E
$GPHDT,,T*1B
$GNACCURACY,3.3*16
$GNGGA,111400.500,2500.8049241,N,12132.4792672,E,4,65,0.42,15.924,M,15.25,M,2,3335*43
$GNRMC,111400.500,A,2500.8049241,N,12132.4792672,E,0.01,159.17,260623,,,R,V*1D
$GPHDT,,T*1B
$GNACCURACY,3.3*16
$GNGGA,111400.600,2500.8049222,N,12132.4792676,E,4,65,0.42,15.923,M,15.25,M,2,3335*46
$GNRMC,111400.600,A,2500.8049222,N,12132.4792676,E,0.01,159.17,260623,,,R,V*1F
$GPHDT,,T*1B
$GNACCURACY,3.3*16
$GNGGA,111400.700,2500.8049248,N,12132.4792693,E,4,65,0.42,15.919,M,15.25,M,2,3335*49
$GNRMC,111400.700,A,2500.8049248,N,12132.4792693,E,0.01,159.17,260623,,,R,V*19
$GPHDT,,T*1B
$GNACCURACY,3.3*16
$GNGGA,111400.800,2500.8049239,N,12132.4792675,E,4,65,0.42,15.922,M,15.25,M,2,3335*40
$GNRMC,111400.800,A,2500.8049239,N,12132.4792675,E,0.01,159.17,260623,,,R,V*18
$GPHDT,,T*1B
$GNACCURACY,3.3*16
$GNGGA,111400.900,2500.8049242,N,12132.4792684,E,4,65,0.42,15.921,M,15.25,M,2,3335*40
$GNRMC,111400.900,A,2500.8049242,N,12132.4792684,E,0.01,159.17,260623,,,R,V*1B
$GPHDT,,T*1B
$GNACCURACY,3.3*16
$GNGGA,111401.000,2500.8049235,N,12132.4792698,E,4,65,0.42,15.918,M,15.25,M,3,3335*4E
$GNRMC,111401.000,A,2500.8049235,N,12132.4792698,E,0.01,159.17,260623,,,R,V*1E
$GPHDT,,T*1B
$GNACCURACY,3.3*16
$GNGGA,111401.100,2500.8049218,N,12132.4792705,E,4,65,0.42,15.922,M,15.25,M,3,3335*4C
$GNRMC,111401.100,A,2500.8049218,N,12132.4792705,E,0.01,159.17,260623,,,R,V*15
$GPHDT,,T*1B
$GNGSA,A,3,24,196,18,199,23,15,195,194,05,10,13,,0.78,0.42,0.65,1*09
$GNGSA,A,3,80,70,85,73,86,71,69,84,,,,,0.78,0.42,0.65,2*05
$GNGSA,A,3,13,08,07,26,15,02,30,03,,,,,0.78,0.42,0.65,3*06
$GNGSA,A,3,38,08,39,16,13,06,46,09,19,20,36,37,0.78,0.42,0.65,4*04
$GNGSA,A,3,35,29,,,,,,,,,,,0.78,0.42,0.65,4*03
$GPGSV,5,1,17,24,79,059,36,196,74,061,38,18,61,259,33,50,60,167,40,1*51
$GPGSV,5,2,17,199,60,167,37,23,45,335,44,15,40,041,32,195,36,179,41,1*65
$GPGSV,5,3,17,194,29,140,41,05,23,114,25,12,17,146,22,10,14,316,34,1*55
$GPGSV,5,4,17,13,12,053,28,32,07,264,,25,05,179,,29,03,200,,1*6F
$GPGSV,5,5,17,20,01,127,,1*55
$GPGSV,2,1,08,24,79,059,46,196,74,061,38,18,61,259,37,199,60,167,46,8*60
$GPGSV,2,2,08,23,45,335,45,195,36,179,44,194,29,140,38,10,14,316,37,8*6B
$GLGSV,3,1,09,80,48,088,32,70,40,002,29,85,39,254,18,73,31,162,40,1*76
$GLGSV,3,2,09,86,25,309,33,71,19,308,38,79,15,036,13,69,15,067,28,1*70
$GLGSV,3,3,09,84,14,192,19,1*4A
$GAGSV,3,1,09,13,60,239,21,08,49,019,34,07,43,297,31,26,30,311,21,7*74
$GAGSV,3,2,09,15,27,174,33,02,24,091,23,30,22,147,35,03,12,060,28,7*7E
$GAGSV,3,3,09,25,04,047,,7*4A
$GAGSV,2,1,08,13,60,239,34,08,49,019,37,07,43,297,38,26,30,311,28,1*75
$GAGSV,2,2,08,15,27,174,44,02,24,091,23,30,22,147,33,03,12,060,30,1*77
$GBGSV,4,1,15,38,83,084,42,08,76,006,37,39,72,274,38,16,66,250,31,1*71
$GBGSV,4,2,15,13,66,337,42,06,65,246,23,46,57,121,39,09,49,233,17,1*7B
$GBGSV,4,3,15,19,46,338,43,20,44,056,41,36,30,184,40,37,26,051,38,1*74
$GBGSV,4,4,15,35,23,274,30,29,23,215,22,22,09,297,29,1*45
$GBGSV,2,1,08,38,83,084,42,39,72,274,38,46,57,121,40,19,46,338,38,4*78
$GBGSV,2,2,08,20,44,056,42,36,30,184,38,37,26,051,40,35,23,274,32,4*7B
$GNACCURACY,3.3*16
$PAIRSAT,1,35,1,0,200,2,0,200,3,0,200,4,0,200,5,0,201,6,0,200,7,0,200,8,0,200,9,0,200,10,0,221,11,0,200,12,0,200,13,0,201,14,0,200,15,0,201,16,0,200,17,0,200,18,0,221,19,0,200,20,0,200,21,0,200,23,0,221,24,0,221,25,0,200,26,0,200,27,0,200,28,0,200,29,0,200,30,0,200,31,0,200,32,0,200,194,0,621,195,0,621,196,0,620,199,0,621*6A
$PAIRSAT,2,23,65,0,200,67,0,200,68,0,200,69,0,201,70,0,201,71,0,201,72,0,200,73,0,201,74,0,200,75,0,200,76,0,200,77,0,200,78,0,200,79,0,201,80,0,201,81,0,200,82,0,200,83,0,200,84,0,201,85,0,201,86,0,201,87,0,200,88,0,200*52
$PAIRSAT,3,23,2,0,1221,3,0,1221,4,0,1200,5,0,200,7,0,1221,8,0,1221,9,0,1200,10,0,1200,11,0,1200,12,0,1200,13,0,1221,15,0,1221,19,0,1200,21,0,1200,24,0,1200,25,0,1200,26,0,1221,27,0,1200,30,0,1221,31,0,1200,33,0,1200,34,0,1200,36,0,1200*6A
$PAIRSAT,4,50,1,0,200,2,0,200,3,0,200,4,0,200,5,0,200,6,0,201,7,0,200,8,0,201,9,0,201,10,0,200,11,0,200,12,0,200,13,0,201,14,0,200,15,0,200,16,0,201,19,0,621,20,0,621,21,0,600,22,0,621,23,0,600,24,0,600,25,0,600,26,0,600,27,0,600,28,0,600,29,0,621,30,0,600,31,0,200,32,0,600,33,0,600,34,0,600,35,0,621,36,0,621,37,0,621,38,0,621,39,0,621,40,0,600,41,0,600,42,0,600,43,0,600,44,0,600,45,0,600,46,0,621,56,0,200,57,0,200,58,0,200,59,0,600,60,0,600,61,0,600*41
$PAIRDGP,7,5,10,13,15,18,23,24*52
$GNGGA,111401.200,2500.8049248,N,12132.4792689,E,4,65,0.42,15.909,M,15.25,M,3,3335*46
$GNRMC,111401.200,A,2500.8049248,N,12132.4792689,E,0.01,159.17,260623,,,R,V*16
$GPHDT,,T*1B
$GNACCURACY,3.3*16
$GNGGA,111401.300,2500.8049246,N,12132.4792630,E,4,65,0.42,15.888,M,15.25,M,3,3335*43
$GNRMC,111401.300,A,2500.8049246,N,12132.4792630,E,0.01,159.17,260623,,,R,V*