$FW : RTK35X,V1.1X0314AS,Lib20210517,1*54
$Tool : LOCOSYS , GNSS Firebird , v1.0.0.19*39
$---------------------------------------------------*2D
$GPHDT,,T*1B
$GNACCURACY,3.5*10
$GNGGA,111133.800,2500.8049340,N,12132.4792656,E,4,62,0.42,15.917,M,15.25,M,7,3335*4F
$GNRMC,111133.800,A,2500.8049340,N,12132.4792656,E,0.00,159.17,260623,,,R,V*12
$GPHDT,356.777,T*32
$GNACCURACY,3.5*10
$GNGGA,111133.900,2500.8049339,N,12132.4792666,E,4,62,0.42,15.934,M,15.25,M,7,3335*42
$GNRMC,111133.900,A,2500.8049339,N,12132.4792666,E,0.00,159.17,260623,,,R,V*1E
$GPHDT,,T*1B
$GNACCURACY,3.5*10
$GNGGA,111134.000,2500.8049342,N,12132.4792644,E,4,62,0.42,15.922,M,15.25,M,8,3335*48
$GNRMC,111134.000,A,2500.8049342,N,12132.4792644,E,0.00,159.17,260623,,,R,V*1C
$GPHDT,356.911,T*3C
$GNACCURACY,3.5*10
$GNGGA,111134.100,2500.8049342,N,12132.4792652,E,4,62,0.42,15.924,M,15.25,M,8,3335*48
$GNRMC,111134.100,A,2500.8049342,N,12132.4792652,E,0.00,159.17,260623,,,R,V*1A
$GPHDT,,T*1B
$GNGSA,A,3,24,196,199,23,15,195,194,05,10,13,,,0.78,0.42,0.66,1*03
$GNGSA,A,3,80,85,70,73,86,71,69,84,,,,,0.78,0.42,0.66,2*06
$GNGSA,A,3,13,08,07,26,15,02,30,03,,,,,0.78,0.42,0.66,3*05
$GNGSA,A,3,38,08,39,13,16,06,46,09,19,20,36,37,0.78,0.42,0.66,4*07
$GNGSA,A,3,35,29,,,,,,,,,,,0.78,0.42,0.66,4*00
$GPGSV,5,1,17,24,80,064,39,196,74,061,36,18,61,261,19,50,60,167,38,1*54
$GPGSV,5,2,17,199,60,167,36,23,45,334,38,15,40,040,26,195,36,179,44,1*6F
$GPGSV,5,3,17,194,28,140,43,05,23,113,31,12,16,146,21,10,13,315,37,1*51
$GPGSV,5,4,17,13,12,052,26,32,06,263,14,25,05,180,,29,04,201,,1*63
$GPGSV,5,5,17,20,02,126,,1*57
$GPGSV,2,1,07,24,80,064,45,196,74,061,37,199,60,167,47,23,45,334,43,8*6D
$GPGSV,2,2,07,195,36,179,43,194,28,140,42,10,13,315,43,8*5C
$GLGSV,3,1,09,80,47,090,37,85,40,255,18,70,40,000,26,73,30,162,37,1*76
$GLGSV,3,2,09,86,25,310,36,71,19,307,23,79,16,037,16,69,15,066,23,1*75
$GLGSV,3,3,09,84,15,193,21,1*41
$GAGSV,3,1,09,13,61,241,24,08,49,018,36,07,43,296,33,26,29,312,33,7*77
$GAGSV,3,2,09,15,28,174,37,02,24,092,23,30,21,147,27,03,13,060,27,7*78
$GAGSV,3,3,09,25,04,047,,7*4A
$GAGSV,2,1,08,13,61,241,25,08,49,018,37,07,43,296,34,26,29,312,30,1*75
$GAGSV,2,2,08,15,28,174,41,02,24,092,15,30,21,147,29,03,13,060,28,1*7B
$GBGSV,4,1,16,38,83,080,43,08,75,006,38,39,72,272,39,13,66,338,42,1*72
$GBGSV,4,2,16,16,66,248,25,06,64,245,22,46,56,123,42,09,49,232,23,1*7F
$GBGSV,4,3,16,19,46,337,43,20,44,054,43,36,29,185,41,37,26,052,41,1*7D
$GBGSV,4,4,16,29,23,216,,35,23,275,29,22,08,296,,10,03,204,,1*73
$GBGSV,3,1,10,38,83,080,44,39,72,272,34,46,56,123,41,19,46,337,40,4*7A
$GBGSV,3,2,10,20,44,054,41,36,29,185,38,37,26,052,32,29,23,216,20,4*77
$GBGSV,3,3,10,35,23,275,28,22,08,296,25,4*7D
$GNACCURACY,3.5*10
$PAIRSAT,1,35,1,0,200,2,0,200,3,0,200,4,0,200,5,0,201,6,0,200,7,0,200,8,0,200,9,0,200,10,0,221,11,0,200,12,0,200,13,0,201,14,0,200,15,0,201,16,0,200,17,0,200,18,0,221,19,0,200,20,0,200,21,0,200,23,0,221,24,0,221,25,0,200,26,0,200,27,0,200,28,0,200,29,0,200,30,0,200,31,0,200,32,0,200,194,0,621,195,0,621,196,0,620,199,0,621*6A
$PAIRSAT,2,23,65,0,200,67,0,200,68,0,200,69,0,201,70,0,201,71,0,201,72,0,200,73,0,201,74,0,200,75,0,200,76,0,200,77,0,200,78,0,200,79,0,201,80,0,201,81,0,200,82,0,200,83,0,200,84,0,201,85,0,201,86,0,201,87,0,200,88,0,200*52
$PAIRSAT,3,23,2,0,1221,3,0,1221,4,0,1200,5,0,200,7,0,1221,8,0,1221,9,0,1200,10,0,1200,11,0,1200,12,0,1200,13,0,1221,15,0,1221,19,0,1200,21,0,1200,24,0,1200,25,0,1200,26,0,1221,27,0,1200,30,0,1201,31,0,1200,33,0,1200,34,0,1200,36,0,1200*68
$PAIRSAT,4,50,1,0,200,2,0,200,3,0,200,4,0,200,5,0,200,6,0,201,7,0,200,8,0,201,9,0,201,10,0,200,11,0,200,12,0,200,13,0,201,14,0,200,15,0,200,16,0,201,19,0,621,20,0,621,21,0,600,22,0,621,23,0,600,24,0,600,25,0,600,26,0,600,27,0,600,28,0,600,29,0,621,30,0,600,31,0,200,32,0,600,33,0,600,34,0,600,35,0,621,36,0,621,37,0,621,38,0,621,39,0,621,40,0,600,41,0,600,42,0,600,43,0,600,44,0,600,45,0,600,46,0,621,56,0,200,57,0,200,58,0,200,59,0,600,60,0,600,61,0,600*41
$PAIRDGP,7,5,10,13,15,18,23,24*52
$GNGGA,111134.200,2500.8049359,N,12132.4792680,E,4,63,0.42,15.926,M,15.25,M,8,3335*4D
$GNRMC,111134.200,A,2500.8049359,N,12132.4792680,E,0.00,159.17,260623,,,R,V*1C
$GPHDT,356.422,T*31
$GNACCURACY,3.5*10
$GNGGA,111134.300,2500.8049354,N,12132.4792650,E,4,63,0.42,15.921,M,15.25,M,8,3335*4B
$GNRMC,111134.300,A,2500.8049354,N,12132.4792650,E,0.00,159.17,260623,,,R,V*1D
$GPHDT,,T*1B
$GNACCURACY,3.5*10
$GNGGA,111134.400,2500.8049356,N,12132.4792668,E,4,63,0.42,15.928,M,15.25,M,8,3335*4C
$GNRMC,111134.400,A,2500.8049356,N,12132.4792668,E,0.00,159.17,260623,,,R,V*13
$GPHDT,356.396,T*39
$GNACCURACY,3.5*10
$GNGGA,111134.500,2500.8049356,N,12132.4792643,E,4,64,0.42,15.918,M,15.25,M,8,3335*40
$GNRMC,111134.500,A,2500.8049356,N,12132.4792643,E,0.00,159.17,260623,,,R,V*1B
$GPHDT,,T*1B
$GNACCURACY,3.5*10
$GNGGA,111134.600,2500.8049353,N,12132.4792647,E,4,64,0.42,15.921,M,15.25,M,8,3335*48
$GNRMC,111134.600,A,2500.8049353,N,12132.4792647,E,0.00,159.17,260623,,,R,V*19
$GPHDT,356.127,T*31
$GNACCURACY,3.5*10
$GNGGA,111134.700,2500.8049358,N,12132.4792670,E,4,64,0.42,15.931,M,15.25,M,8,3335*47
$GNRMC,111134.700,A,2500.8049358,N,12132.4792670,E,0.00,159.17,260623,,,R,V*17
$GPHDT,,T*1B
$GNACCURACY,3.5*10
$GNGGA,111134.800,2500.8049346,N,12132.4792642,E,4,61,0.43,15.927,M,15.25,M,8,3335*45
$GNRMC,111134.800,A,2500.8049346,N,12132.4792642,E,0.00,159.17,260623,,,R,V*16
$GPHDT,356.744,T*32
$GNACCURACY,3.5*10
$GNGGA,111134.900,2500.8049367,N,12132.4792648,E,4,61,0.43,15.925,M,15.25,M,8,3335*4F
$GNRMC,111134.900,A,2500.8049367,N,12132.4792648,E,0.00,159.17,260623,,,R,V*1E
$GPHDT,,T*1B
$GNACCURACY,3.5*10
$GNGGA,111135.000,2500.8049349,N,12132.4792672,E,4,61,0.43,15.926,M,15.25,M,9,3335*40
$GNRMC,111135.000,A,2500.8049349,N,12132.4792672,E,0.00,159.17,260623,,,R,V*13
$GPHDT,356.304,T*32
$GNACCURACY,3.5*10
$GNGGA,111135.100,2500.8049361,N,12132.4792645,E,4,63,0.42,15.928,M,15.25,M,9,3335*42
$GNRMC,111135.100,A,2500.8049361,N,12132.4792645,E,0.00,159.17,260623,,,R,V*1C
$GPHDT,,T*1B
$GNGSA,A,3,24,196,199,23,15,195,194,05,10,13,,,0.76,0.42,0.64,1*0F
$GNGSA,A,3,80,70,85,73,86,71,79,69,84,,,,0.76,0.42,0.64,2*04
$GNGSA,A,3,13,08,07,26,15,02,30,03,,,,,0.76,0.42,0.64,3*09
$GNGSA,A,3,38,08,39,16,13,06,46,09,19,20,36,37,0.76,0.42,0.64,4*0B
$GNGSA,A,3,35,29,,,,,,,,,,,0.76,0.42,0.64,4*0C
$GPGSV,5,1,17,24,80,064,39,196,74,061,36,18,61,261,19,50,60,167,37,1*5B
$GPGSV,5,2,17,199,60,167,36,23,45,334,38,15,40,040,28,195,36,179,44,1*61
$GPGSV,5,3,17,194,28,140,43,05,23,113,31,12,16,146,21,10,13,315,37,1*51
$GPGSV,5,4,17,13,12,052,26,32,06,263,16,25,05,180,,29,04,201,,1*61
$GPGSV,5,5,17,20,02,126,,1*57
$GPGSV,2,1,07,24,80,064,45,196,74,061,37,199,60,167,47,23,45,334,43,8*6D
$GPGSV,2,2,07,195,36,179,43,194,28,140,42,10,13,315,43,8*5C
$GLGSV,3,1,09,80,47,090,37,70,40,000,26,85,40,255,20,73,30,162,37,1*7D
$GLGSV,3,2,09,86,25,310,35,71,19,307,24,79,16,037,16,69,15,066,24,1*76
$GLGSV,3,3,09,84,15,193,21,1*41
$GAGSV,3,1,09,13,61,241,24,08,49,018,36,07,43,296,32,26,29,312,33,7*76
$GAGSV,3,2,09,15,28,174,37,02,24,092,24,30,21,147,26,03,13,060,27,7*7E
$GAGSV,3,3,09,25,04,047,,7*4A
$GAGSV,2,1,08,13,61,241,24,08,49,018,37,07,43,296,34,26,29,312,30,1*74
$GAGSV,2,2,08,15,28,174,41,02,24,092,12,30,21,147,29,03,13,060,28,1*7C
$GBGSV,4,1,15,38,83,080,43,08,75,006,38,39,72,272,39,16,66,248,25,1*73
$GBGSV,4,2,15,13,66,338,42,06,64,245,22,46,56,123,42,09,49,232,22,1*7F
$GBGSV,4,3,15,19,46,337,42,20,44,054,43,36,29,185,41,37,26,052,41,1*7F
$GBGSV,4,4,15,35,23,275,28,29,23,216,,22,08,296,,1*45
$GBGSV,3,1,09,38,83,080,44,39,72,272,34,46,56,123,41,19,46,337,40,4*72
$GBGSV,3,2,09,20,44,054,41,36,29,185,37,37,26,052,31,29,23,216,18,4*78
$GBGSV,3,3,09,22,08,296,25,4*48
$GNACCURACY,3.5*10
$PAIRSAT,1,35,1,0,200,2,0,200,3,0,200,4,0,200,5,0,201,6,0,200,7,0,200,8,0,200,9,0,200,10,0,221,11,0,200,12,0,200,13,0,201,14,0,200,15,0,201,16,0,200,17,0,200,18,0,221,19,0,200,20,0,200,21,0,200,23,0,221,24,0,221,25,0,200,26,0,200,27,0,200,28,0,200,29,0,200,30,0,200,31,0,200,32,0,200,194,0,621,195,0,621,196,0,620,199,0,621*6A
$PAIRSAT,2,23,65,0,200,67,0,200,68,0,200,69,0,201,70,0,201,71,0,201,72,0,200,73,0,201,74,0,200,75,0,200,76,0,200,77,0,200,78,0,200,79,0,201,80,0,201,81,0,200,82,0,200,83,0,200,84,0,201,85,0,201,86,0,201,87,0,200,88,0,200*52
$PAIRSAT,3,23,2,0,1221,3,0,1221,4,0,1200,5,0,200,7,0,1221,8,0,1221,9,0,1200,10,0,1200,11,0,1200,12,0,1200,13,0,1221,15,0,1221,19,0,1200,21,0,1200,24,0,1200,25,0,1200,26,0,1221,27,0,1200,30,0,1201,31,0,1200,33,0,1200,34,0,1200,36,0,1200*68
$PAIRSAT,4,50,1,0,200,2,0,200,3,0,200,4,0,200,5,0,200,6,0,201,7,0,200,8,0,201,9,0,201,10,0,200,11,0,200,12,0,200,13,0,201,14,0,200,15,0,200,16,0,201,19,0,621,20,0,621,21,0,600,22,0,621,23,0,600,24,0,600,25,0,600,26,0,600,27,0,600,28,0,600,29,0,621,30,0,600,31,0,200,32,0,600,33,0,600,34,0,600,35,0,621,36,0,621,37,0,621,38,0,621,39,0,621,40,0,600,41,0,600,42,0,600,43,0,600,44,0,600,45,0,600,46,0,621,56,0,200,57,0,200,58,0,200,59,0,600,60,0,600,61,0,600*41
$PAIRDGP,7,5,10,13,15,18,23,24*52
$GNGGA,111135.200,2500.8049356,N,12132.4792646,E,4,63,0.42,15.920,M,15.25,M,9,3335*4E
$GNRMC,111135.200,A,2500.8049356,N,12132.4792646,E,0.00,159.17,260623,,,R,V*18
$GPHDT,356.655,T*33
$GNACCURACY,3.5*10
$GNGGA,111135.300,2500.8049357,N,12132.4792673,E,4,63,0.42,15.932,M,15.25,M,9,3335*4B
$GNRMC,111135.300,A,2500.8049357,N,12132.4792673,E,0.00,159.17,260623,,,R,V*1E
$GPHDT,,T*1B
$GNACCURACY,3.5*10
$GNGGA,111135.400,2500.8049361,N,12132.4792648,E,4,62,0.42,15.927,M,15.25,M,9,3335*44
$GNRMC,111135.400,A,2500.8049361,N,12132.4792648,E,0.00,159.17,260623,,,R,V*14
$GPHDT,356.702,T*30
$GNACCURACY,3.5*10
$GNGGA,111135.500,2500.8049358,N,12132.4792658,E,4,62,0.42,15.925,M,15.25,M,9,3335*4C
$GNRMC,111135.500,A,2500.8049358,N,12132.4792658,E,0.00,159.17,260623,,,R,V*1E
$GPHDT,,T*1B
$GNACCURACY,3.4*11
$GNGGA,111135.600,2500.8049349,N,12132.4792644,E,4,62,0.42,15.929,M,15.25,M,9,3335*4E
$GNRMC,111135.600,A,2500.8049349,N,12132.4792644,E,0.00,159.17,260623,,,R,V*10
$GPHDT,356.431,T*33
$GNACCURACY,3.4*11
$GNGGA,111135.700,2500.8049364,N,12132.4792638,E,4,62,0.42,15.932,M,15.25,M,9,3335*41
$GNRMC,111135.700,A,2500.8049364,N,12132.4792638,E,0.00,159.17,260623,,,R,V*15
$GPHDT,,T*1B
$GNACCURACY,3.4*11
$GNGGA,111135.800,2500.8049360,N,12132.4792666,E,4,62,0.42,15.928,M,15.25,M,9,3335*4A
$GNRMC,111135.800,A,2500.8049360,N,12132.4792666,E,0.00,159.17,260623,,,R,V*15
$GPHDT,356.671,T*35
$GNACCURACY,3.4*11
$GNGGA,111135.900,2500.8049355,N,12132.4792638,E,4,62,0.42,15.932,M,15.25,M,9,3335*4D
$GNRMC,111135.900,A,2500.8049355,N,12132.4792638,E,0.00,159.17,260623,,,R,V*19
$GPHDT,,T*1B
$GNACCURACY,3.4*11
$GNGGA,111136.000,2500.8049356,N,12132.4792654,E,4,63,0.42,15.929,M,15.25,M,10,3335*7D
$GNRMC,111136.000,A,2500.8049356,N,12132.4792654,E,0.00,159.17,260623,,,R,V*1A
$GPHDT,356.583,T*3B
$GNACCURACY,3.4*11
$GNGGA,111136.100,2500.8049352,N,12132.4792648,E,4,63,0.42,15.931,M,15.25,M,10,3335*7C
$GNRMC,111136.100,A,2500.8049352,N,12132.4792648,E,0.00,159.17,260623,,,R,V*12
$GPHDT,,T*1B
$GNGSA,A,3,24,196,199,23,15,195,194,05,10,13,,,0.78,0.42,0.66,1*03
$GNGSA,A,3,80,70,85,73,86,71,79,69,84,,,,0.78,0.42,0.66,2*08
$GNGSA,A,3,13,08,07,26,15,02,30,03,,,,,0.78,0.42,0.66,3*05
$GNGSA,A,3,38,08,39,16,13,06,46,09,19,20,36,37,0.78,0.42,0.66,4*07
$GNGSA,A,3,35,,,,,,,,,,,,0.78,0.42,0.66,4*0B
$GPGSV,5,1,17,24,80,064,39,196,74,061,36,18,61,261,20,50,60,167,37,1*51
$GPGSV,5,2,17,199,60,167,36,23,45,334,38,15,40,040,28,195,36,179,44,1*61
$GPGSV,5,3,17,194,28,140,43,05,23,113,31,12,16,146,21,10,13,315,37,1*51
$GPGSV,5,4,17,13,12,052,26,32,06,263,16,25,05,180,,29,04,201,,1*61
$GPGSV,5,5,17,20,02,126,,1*57
$GPGSV,2,1,07,24,80,064,45,196,74,061,37,199,60,167,47,23,45,334,43,8*6D
$GPGSV,2,2,07,195,36,179,43,194,28,140,42,10,13,315,43,8*5C
$GLGSV,3,1,09,80,47,090,37,70,40,000,26,85,40,255,19,73,30,162,37,1*77
$GLGSV,3,2,09,86,25,310,36,71,19,307,25,79,16,037,16,69,15,066,24,1*74
$GLGSV,3,3,09,84,15,193,21,1*41
$GAGSV,3,1,09,13,61,241,24,08,49,018,36,07,43,296,32,26,29,312,33,7*76
$GAGSV,3,2,09,15,28,174,37,02,24,092,25,30,21,147,26,03,13,060,27,7*7F
$GAGSV,3,3,09,25,04,047,,7*4A
$GAGSV,2,1,08,13,61,241,24,08,49,018,37,07,43,296,34,26,29,312,30,1*74
$GAGSV,2,2,08,15,28,174,41,02,24,092,12,30,21,147,28,03,13,060,28,1*7D
$GBGSV,4,1,15,38,83,080,43,08,75,006,38,39,72,272,39,16,66,248,23,1*75
$GBGSV,4,2,15,13,66,338,42,06,64,245,23,46,56,123,42,09,49,232,22,1*7E
$GBGSV,4,3,15,19,46,337,42,20,44,054,43,36,29,185,41,37,26,052,41,1*7F
$GBGSV,4,4,15,35,23,275,28,29,23,216,,22,08,296,,1*45
$GBGSV,3,1,09,38,83,080,44,39,72,272,34,46,56,123,41,19,46,337,40,4*72
$GBGSV,3,2,09,20,44,054,41,36,29,185,37,37,26,052,31,35,23,275,28,4*73
$GBGSV,3,3,09,22,08,296,24,4*49
$GNACCURACY,3.4*11
$PAIRSAT,1,35,1,0,200,2,0,200,3,0,200,4,0,200,5,0,201,6,0,200,7,0,200,8,0,200,9,0,200,10,0,221,11,0,200,12,0,200,13,0,201,14,0,200,15,0,201,16,0,200,17,0,200,18,0,221,19,0,200,20,0,200,21,0,200,23,0,221,24,0,221,25,0,200,26,0,200,27,0,200,28,0,200,29,0,200,30,0,200,31,0,200,32,0,200,194,0,621,195,0,621,196,0,620,199,0,621*6A
$PAIRSAT,2,23,65,0,200,67,0,200,68,0,200,69,0,201,70,0,201,71,0,201,72,0,200,73,0,201,74,0,200,75,0,200,76,0,200,77,0,200,78,0,200,79,0,201,80,0,201,81,0,200,82,0,200,83,0,200,84,0,201,85,0,201,86,0,201,87,0,200,88,0,200*52
$PAIRSAT,3,23,2,0,1221,3,0,1221,4,0,1200,5,0,200,7,0,1221,8,0,1221,9,0,1200,10,0,1200,11,0,1200,12,0,1200,13,0,1221,15,0,1221,19,0,1200,21,0,1200,24,0,1200,25,0,1200,26,0,1221,27,0,1200,30,0,1201,31,0,1200,33,0,1200,34,0,1200,36,0,1200*68
$PAIRSAT,4,50,1,0,200,2,0,200,3,0,200,4,0,200,5,0,200,6,0,201,7,0,200,8,0,201,9,0,201,10,0,200,11,0,200,12,0,200,13,0,201,14,0,200,15,0,200,16,0,201,19,0,621,20,0,621,21,0,600,22,0,621,23,0,600,24,0,600,25,0,600,26,0,600,27,0,600,28,0,600,29,0,621,30,0,600,31,0,200,32,0,600,33,0,600,34,0,600,35,0,621,36,0,621,37,0,621,38,0,621,39,0,621,40,0,600,41,0,600,42,0,600,43,0,600,44,0,600,45,0,600,46,0,621,56,0,200,57,0,200,58,0,200,59,0,600,60,0,600,61,0,600*41
$PAIRDGP,7,5,10,13,15,18,23,24*52
$GNGGA,111136.200,2500.8049361,N,12132.4792661,E,4,63,0.42,15.936,M,15.25,M,10,3335*73
$GNRMC,111136.200,A,2500.8049361,N,12132.4792661,E,0.00,159.17,260623,,,R,V*1A
$GPHDT,356.511,T*30
$GNACCURACY,3.4*11
$GNGGA,111136.300,2500.8049362,N,12132.4792643,E,4,63,0.42,15.934,M,15.25,M,10,3335*73
$GNRMC,111136.300,A,2500.8049362,N,12132.4792643,E,0.00,159.17,260623,,,R,V*18
$GPHDT,,T*1B
$GNACCURACY,3.4*11
$GNGGA,111136.400,2500.8049366,N,12132.4792649,E,4,63,0.42,15.934,M,15.25,M,10,3335*7A
$GNRMC,111136.400,A,2500.8049366,N,12132.4792649,E,0.00,159.17,260623,,,R,V*11
$GPHDT,355.996,T*30
$GNACCURACY,3.4*11
$GNGGA,111136.500,2500.8049364,N,12132.4792635,E,4,63,0.42,15.929,M,15.25,M,10,3335*7E
$GNRMC,111136.500,A,2500.8049364,N,12132.4792635,E,0.00,159.17,260623,,,R,V*19
$GPHDT,,T*1B
$GNACCURACY,3.4*11
$GNGGA,111136.600,2500.8049364,N,12132.4792648,E,4,63,0.42,15.933,M,15.25,M,10,3335*7C
$GNRMC,111136.600,A,2500.8049364,N,12132.4792648,E,0.00,159.17,260623,,,R,V*10
$GPHDT,356.503,T*33
$GNACCURACY,3.4*11
$GNGGA,111136.700,2500.8049363,N,12132.4792627,E,4,63,0.42,15.935,M,15.25,M,10,3335*75
$GNRMC,111136.700,A,2500.8049363,N,12132.4792627,E,0.00,159.17,260623,,,R,V*1F
$GPHDT,,T*1B
$GNACCURACY,3.4*11
$GNGGA,111136.800,2500.8049357,N,12132.4792640,E,4,63,0.42,15.934,M,15.25,M,10,3335*7D
$GNRMC,111136.800,A,2500.8049357,N,12132.4792640,E,0.00,159.17,260623,,,R,V*16
$GPHDT,356.737,T*36
$GNACCURACY,3.4*11
$GNGGA,111136.900,2500.8049372,N,12132.4792623,E,4,63,0.42,15.927,M,15.25,M,10,3335*7C
$GNRMC,111136.900,A,2500.8049372,N,12132.4792623,E,0.00,159.17,260623,,,R,V*15
$GPHDT,,T*1B
$GNACCURACY,3.4*11
$GNGGA,111137.000,2500.8049373,N,12132.4792647,E,4,64,0.42,15.929,M,15.25,M,11,3335*7F
$GNRMC,111137.000,A,2500.8049373,N,12132.4792647,E,0.00,159.17,260623,,,R,V*1E
$GPHDT,356.982,T*36
$GNACCURACY,3.4*11
$GNGGA,111137.100,2500.8049374,N,12132.4792617,E,4,64,0.42,15.931,M,15.25,M,11,3335*75
$GNRMC,111137.100,A,2500.8049374,N,12132.4792617,E,0.00,159.17,260623,,,R,V*1D
$GPHDT,,T*1B
$GNGSA,A,3,24,196,199,23,15,195,194,05,10,13,,,0.76,0.42,0.64,1*0F
$GNGSA,A,3,80,70,85,73,86,71,79,69,84,,,,0.76,0.42,0.64,2*04
$GNGSA,A,3,13,08,07,26,15,02,30,03,,,,,0.76,0.42,0.64,3*09
$GNGSA,A,3,38,08,39,16,13,06,46,09,19,20,36,37,0.76,0.42,0.64,4*0B
$GNGSA,A,3,35,29,,,,,,,,,,,0.76,0.42,0.64,4*0C
$GPGSV,5,1,17,24,80,063,39,196,74,061,36,18,61,261,20,50,60,167,38,1*59
$GPGSV,5,2,17,199,60,167,36,23,45,334,38,15,40,040,28,195,36,179,44,1*61
$GPGSV,5,3,17,194,28,140,43,05,23,113,30,12,16,146,22,10,13,315,37,1*53
$GPGSV,5,4,17,13,12,052,26,32,06,263,16,25,05,180,,29,04,201,,1*61
$GPGSV,5,5,17,20,02,126,,1*57
$GPGSV,2,1,07,24,80,063,45,196,74,061,36,199,60,167,47,23,45,334,43,8*6B
$GPGSV,2,2,07,195,36,179,43,194,28,140,42,10,13,315,43,8*5C
$GLGSV,3,1,09,80,47,090,38,70,40,000,26,85,40,255,18,73,30,162,38,1*76
$GLGSV,3,2,09,86,25,310,36,71,19,307,25,79,16,037,17,69,15,066,23,1*72
$GLGSV,3,3,09,84,15,193,21,1*41
$GAGSV,3,1,09,13,61,241,23,08,49,018,36,07,43,296,33,26,29,312,34,7*77
$GAGSV,3,2,09,15,28,174,37,02,24,092,27,30,21,147,26,03,13,060,28,7*72
$GAGSV,3,3,09,25,04,047,,7*4A
$GAGSV,2,1,08,13,61,241,24,08,49,018,37,07,43,296,34,26,29,312,29,1*7C
$GAGSV,2,2,08,15,28,174,41,02,24,092,12,30,21,147,28,03,13,060,28,1*7D
$GBGSV,4,1,15,38,83,080,43,08,75,006,38,39,72,272,39,16,66,248,23,1*75
$GBGSV,4,2,15,13,66,338,42,06,64,245,23,46,56,123,42,09,49,232,23,1*7F
$GBGSV,4,3,15,19,46,337,42,20,44,054,43,36,29,185,41,37,26,052,41,1*7F
$GBGSV,4,4,15,35,23,275,27,29,23,216,,22,08,296,,1*4A
$GBGSV,3,1,10,38,83,080,44,39,72,272,34,46,56,123,41,19,46,337,40,4*7A
$GBGSV,3,2,10,20,44,054,41,36,29,185,37,37,26,052,31,29,23,216,19,4*71
$GBGSV,3,3,10,35,23,275,31,22,08,296,23,4*73
$GNACCURACY,3.4*11
$PAIRSAT,1,35,1,0,200,2,0,200,3,0,200,4,0,200,5,0,201,6,0,200,7,0,200,8,0,200,9,0,200,10,0,221,11,0,200,12,0,200,13,0,201,14,0,200,15,0,201,16,0,200,17,0,200,18,0,221,19,0,200,20,0,200,21,0,200,23,0,221,24,0,221,25,0,200,26,0,200,27,0,200,28,0,200,29,0,200,30,0,200,31,0,200,32,0,200,194,0,621,195,0,621,196,0,620,199,0,621*6A
$PAIRSAT,2,23,65,0,200,67,0,200,68,0,200,69,0,201,70,0,201,71,0,201,72,0,200,73,0,201,74,0,200,75,0,200,76,0,200,77,0,200,78,0,200,79,0,201,80,0,201,81,0,200,82,0,200,83,0,200,84,0,201,85,0,201,86,0,201,87,0,200,88,0,200*52
$PAIRSAT,3,23,2,0,1221,3,0,1221,4,0,1200,5,0,200,7,0,1221,8,0,1221,9,0,1200,10,0,1200,11,0,1200,12,0,1200,13,0,1221,15,0,1221,19,0,1200,21,0,1200,24,0,1200,25,0,1200,26,0,1221,27,0,1200,30,0,1201,31,0,1200,33,0,1200,34,0,1200,36,0,1200*68
$PAIRSAT,4,50,1,0,200,2,0,200,3,0,200,4,0,200,5,0,200,6,0,201,7,0,200,8,0,201,9,0,201,10,0,200,11,0,200,12,0,200,13,0,201,14,0,200,15,0,200,16,0,201,19,0,621,20,0,621,21,0,600,22,0,621,23,0,600,24,0,600,25,0,600,26,0,600,27,0,600,28,0,600,29,0,621,30,0,600,31,0,200,32,0,600,33,0,600,34,0,600,35,0,621,36,0,621,37,0,621,38,0,621,39,0,621,40,0,600,41,0,600,42,0,600,43,0,600,44,0,600,45,0,600,46,0,621,56,0,200,57,0,200,58,0,200,59,0,600,60,0,600,61,0,600*41
$PAIRDGP,7,5,10,13,15,18,23,24*52
$GNGGA,111137.200,2500.8049356,N,12132.4792626,E,4,64,0.42,15.932,M,15.25,M,11,3335*77
$GNRMC,111137.200,A,2500.8049356,N,12132.4792626,E,0.00,159.17,260623,,,R,V*1C
$GPHDT,356.584,T*3C
$GNACCURACY,3.4*11
$GNGGA,111137.300,2500.8049366,N,12132.4792650,E,4,63,0.42,15.934,M,15.25,M,11,3335*75
$GNRMC,111137.300,A,2500.8049366,N,12132.4792650,E,0.00,159.17,260623,,,R,V*1F
$GPHDT,,T*1B
$GNACCURACY,3.4*11
$GNGGA,111137.400,2500.8049347,N,12132.4792633,E,4,63,0.42,15.937,M,15.25,M,11,3335*77
$GNRMC,111137.400,A,2500.8049347,N,12132.4792633,E,0.00,159.17,260623,,,R,V*1E
$GPHDT,356.918,T*35
$GNACCURACY,3.4*11
$GNGGA,111137.500,2500.8049362,N,12132.4792640,E,4,61,0.43,15.931,M,15.25,M,11,3335*70
$GNRMC,111137.500,A,2500.8049362,N,12132.4792640,E,0.00,159.17,260623,,,R,V*1C
$GPHDT,,T*1B
$GNACCURACY,3.4*11
$GNGGA,111137.600,2500.8049354,N,12132.4792635,E,4,61,0.43,15.937,M,15.25,M,11,3335*72
$GNRMC,111137.600,A,2500.8049354,N,12132.4792635,E,0.00,159.17,260623,,,R,V*18
$GPHDT,356.669,T*3C
$GNACCURACY,3.4*11
$GNGGA,111137.700,2500.8049349,N,12132.4792614,E,4,61,0.43,15.925,M,15.25,M,11,3335*7F
$GNRMC,111137.700,A,2500.8049349,N,12132.4792614,E,0.00,159.17,260623,,,R,V*16
$GPHDT,,T*1B
$GNACCURACY,3.4*11
$GNGGA,111137.800,2500.8049356,N,12132.4792626,E,4,61,0.43,15.934,M,15.25,M,11,3335*7F
$GNRMC,111137.800,A,2500.8049356,N,12132.4792626,E,0.00,159.17,260623,,,R,V*16
$GPHDT,356.375,T*34
$GNACCURACY,3.4*11
$GNGGA,111137.900,2500.8049357,N,12132.4792604,E,4,61,0.43,15.922,M,15.25,M,11,3335*78
$GNRMC,111137.900,A,2500.8049357,N,12132.4792604,E,0.00,159.17,260623,,,R,V*16
$GPHDT,,T*1B
$GNACCURACY,3.4*11
$GNGGA,111138.000,2500.8049353,N,12132.4792598,E,4,61,0.43,15.923,M,15.25,M,12,3335*7E
$GNRMC,111138.000,A,2500.8049353,N,12132.4792598,E,0.00,159.17,260623,,,R,V*12
$GPHDT,357.190,T*3C
$GNACCURACY,3.4*11
$GNGGA,111138.100,2500.8049376,N,12132.4792626,E,4,61,0.43,15.922,M,15.25,M,12,3335*7F
$GNRMC,111138.100,A,2500.8049376,N,12132.4792626,E,0.00,159.17,260623,,,R,V*12
$GPHDT,,T*1B
$GNGSA,A,3,24,196,199,23,15,195,194,05,10,13,,,0.81,0.45,0.68,1*0C
$GNGSA,A,3,80,70,85,73,86,79,69,84,,,,,0.81,0.45,0.68,2*01
$GNGSA,A,3,13,08,07,26,15,30,03,,,,,,0.81,0.45,0.68,3*08
$GNGSA,A,3,38,08,39,16,13,06,46,09,19,20,36,37,0.81,0.45,0.68,4*08
$GNGSA,A,3,35,,,,,,,,,,,,0.81,0.45,0.68,4*04
$GPGSV,5,1,17,24,80,063,39,196,74,061,36,18,61,261,19,50,60,167,38,1*53
$GPGSV,5,2,17,199,60,167,36,23,45,334,38,15,40,040,28,195,36,179,44,1*61
$GPGSV,5,3,17,194,28,140,43,05,23,113,30,12,16,146,22,10,13,315,38,1*5C
$GPGSV,5,4,17,13,12,052,26,32,06,263,16,25,05,180,,29,04,201,,1*61
$GPGSV,5,5,17,20,02,126,,1*57
$GPGSV,2,1,07,24,80,063,45,196,74,061,38,199,60,167,47,23,45,334,43,8*65
$GPGSV,2,2,07,195,36,179,43,194,28,140,42,10,13,315,43,8*5C
$GLGSV,3,1,09,80,47,090,38,70,40,000,25,85,40,255,18,73,30,162,38,1*75
$GLGSV,3,2,09,86,25,310,36,71,19,307,24,79,16,037,17,69,15,066,20,1*70
$GLGSV,3,3,09,84,15,193,20,1*40
$GAGSV,3,1,09,13,61,241,24,08,49,018,36,07,43,296,33,26,29,312,34,7*70
$GAGSV,3,2,09,15,28,174,37,02,24,092,,30,21,147,26,03,13,060,28,7*77
$GAGSV,3,3,09,25,04,047,,7*4A
$GAGSV,2,1,07,13,61,241,25,08,49,018,37,07,43,296,35,26,29,312,30,1*7B
$GAGSV,2,2,07,15,28,174,41,30,21,147,28,03,13,060,29,1*4F
$GBGSV,4,1,15,38,83,080,43,08,75,006,38,39,72,272,39,16,66,248,23,1*75
$GBGSV,4,2,15,13,66,338,42,06,64,245,23,46,56,123,42,09,49,232,23,1*7F
$GBGSV,4,3,15,19,46,337,42,20,44,054,44,36,29,185,41,37,26,052,41,1*78
$GBGSV,4,4,15,35,23,275,28,29,23,216,,22,08,296,,1*45
$GBGSV,3,1,09,38,83,080,44,39,72,272,35,46,56,123,41,19,46,337,40,4*73
$GBGSV,3,2,09,20,44,054,41,36,29,185,38,37,26,052,33,35,23,275,32,4*75
$GBGSV,3,3,09,22,08,296,23,4*4E
$GNACCURACY,3.4*11
$PAIRSAT,1,35,1,0,200,2,0,200,3,0,200,4,0,200,5,0,201,6,0,200,7,0,200,8,0,200,9,0,200,10,0,221,11,0,200,12,0,200,13,0,201,14,0,200,15,0,201,16,0,200,17,0,200,18,0,221,19,0,200,20,0,200,21,0,200,23,0,221,24,0,221,25,0,200,26,0,200,27,0,200,28,0,200,29,0,200,30,0,200,31,0,200,32,0,200,194,0,621,195,0,621,196,0,620,199,0,621*6A
$PAIRSAT,2,23,65,0,200,67,0,200,68,0,200,69,0,201,70,0,201,71,0,201,72,0,200,73,0,201,74,0,200,75,0,200,76,0,200,77,0,200,78,0,200,79,0,201,80,0,201,81,0,200,82,0,200,83,0,200,84,0,201,85,0,201,86,0,201,87,0,200,88,0,200*52
$PAIRSAT,3,23,2,0,1221,3,0,1221,4,0,1200,5,0,200,7,0,1221,8,0,1221,9,0,1200,10,0,1200,11,0,1200,12,0,1200,13,0,1221,15,0,1221,19,0,1200,21,0,1200,24,0,1200,25,0,1200,26,0,1221,27,0,1200,30,0,1201,31,0,1200,33,0,1200,34,0,1200,36,0,1200*68
$PAIRSAT,4,50,1,0,200,2,0,200,3,0,200,4,0,200,5,0,200,6,0,201,7,0,200,8,0,201,9,0,201,10,0,200,11,0,200,12,0,200,13,0,201,14,0,200,15,0,200,16,0,201,19,0,621,20,0,621,21,0,600,22,0,621,23,0,600,24,0,600,25,0,600,26,0,600,27,0,600,28,0,600,29,0,621,30,0,600,31,0,200,32,0,600,33,0,600,34,0,600,35,0,621,36,0,621,37,0,621,38,0,621,39,0,621,40,0,600,41,0,600,42,0,600,43,0,600,44,0,600,45,0,600,46,0,621,56,0,200,57,0,200,58,0,200,59,0,600,60,0,600,61,0,600*41
$PAIRDGP,7,5,10,13,15,18,23,24*52
$GNGGA,111138.200,2500.8049363,N,12132.4792609,E,4,60,0.45,15.925,M,15.25,M,12,3335*75
$GNRMC,111138.200,A,2500.8049363,N,12132.4792609,E,0.00,159.17,260623,,,R,V*18
$GPHDT,356.821,T*3E
$GNACCURACY,3.4*11
$GNGGA,111138.300,2500.8049366,N,12132.4792600,E,4,61,0.43,15.921,M,15.25,M,12,3335*7B
$GNRMC,111138.300,A,2500.8049366,N,12132.4792600,E,0.00,159.17,260623,,,R,V*15
$GPHDT,,T*1B
$GNACCURACY,3.4*11
$GNGGA,111138.400,2500.8049362,N,12132.4792600,E,4,61,0.43,15.925,M,15.25,M,12,3335*7C
$GNRMC,111138.400,A,2500.8049362,N,12132.4792600,E,0.00,159.17,260623,,,R,V*16
$GPHDT,356.584,T*3C
$GNACCURACY,3.4*11
$GNGGA,111138.500,2500.8049357,N,12132.4792618,E,4,62,0.42,15.929,M,15.25,M,12,3335*7C
$GNRMC,111138.500,A,2500.8049357,N,12132.4792618,E,0.00,159.17,260623,,,R,V*18
$GPHDT,,T*1B
$GNACCURACY,3.4*11
$GNGGA,111138.600,2500.8049363,N,12132.4792615,E,4,63,0.42,15.925,M,15.25,M,12,3335*78
$GNRMC,111138.600,A,2500.8049363,N,12132.4792615,E,0.00,159.17,260623,,,R,V*11
$GPHDT,357.063,T*31
$GNACCURACY,3.4*11
$GNGGA,111138.700,2500.8049363,N,12132.4792602,E,4,63,0.42,15.926,M,15.25,M,12,3335*7C
$GNRMC,111138.700,A,2500.8049363,N,12132.4792602,E,0.00,159.17,260623,,,R,V*16
$GPHDT,,T*1B
$GNACCURACY,3.4*11
$GNGGA,111138.800,2500.8049364,N,12132.4792627,E,4,63,0.42,15.927,M,15.25,M,12,3335*72
$GNRMC,111138.800,A,2500.8049364,N,12132.4792627,E,0.00,159.17,260623,,,R,V*19
$GPHDT,356.839,T*37
$GNACCURACY,3.4*11
$GNGGA,111138.900,2500.8049385,N,12132.4792646,E,4,63,0.42,15.935,M,15.25,M,12,3335*78
$GNRMC,111138.900,A,2500.8049385,N,12132.4792646,E,0.00,159.17,260623,,,R,V*10
$GPHDT,,T*1B
$GNACCURACY,3.4*11
$GNGGA,111139.000,2500.8049364,N,12132.4792617,E,4,63,0.42,15.925,M,15.25,M,13,3335*7B
$GNRMC,111139.000,A,2500.8049364,N,12132.4792617,E,0.00,159.17,260623,,,R,V*13
$GPHDT,356.673,T*37
$GNACCURACY,3.4*11
$GNGGA,111139.100,2500.8049379,N,12132.4792625,E,4,63,0.42,15.925,M,15.25,M,13,3335*77
$GNRMC,111139.100,A,2500.8049379,N,12132.4792625,E,0.00,159.17,260623,,,R,V*1F
$GPHDT,,T*1B
$GNGSA,A,3,24,196,199,23,15,195,194,05,10,13,,,0.76,0.42,0.64,1*0F
$GNGSA,A,3,80,70,85,73,86,71,79,69,84,,,,0.76,0.42,0.64,2*04
$GNGSA,A,3,13,08,07,26,15,02,30,03,,,,,0.76,0.42,0.64,3*09
$GNGSA,A,3,38,08,39,16,13,06,46,09,19,20,36,37,0.76,0.42,0.64,4*0B
$GNGSA,A,3,35,29,,,,,,,,,,,0.76,0.42,0.64,4*0C
$GPGSV,5,1,17,24,80,063,38,196,74,061,36,18,61,261,20,50,60,167,38,1*58
$GPGSV,5,2,17,199,60,167,36,23,45,334,38,15,40,040,26,195,36,179,44,1*6F
$GPGSV,5,3,17,194,28,140,43,05,23,113,28,12,16,146,21,10,13,315,38,1*56
$GPGSV,5,4,17,13,12,052,26,32,06,263,15,25,05,180,,29,04,201,,1*62
$GPGSV,5,5,17,20,02,126,,1*57
$GPGSV,2,1,07,24,80,063,44,196,74,061,38,199,60,167,47,23,45,334,43,8*64
$GPGSV,2,2,07,195,36,179,43,194,28,140,42,10,13,315,43,8*5C
$GLGSV,3,1,09,80,47,090,38,70,40,000,25,85,40,255,19,73,30,162,39,1*75
$GLGSV,3,2,09,86,25,310,36,71,19,307,24,79,16,037,16,69,15,066,23,1*72
$GLGSV,3,3,09,84,15,193,20,1*40
$GAGSV,3,1,09,13,61,241,24,08,49,019,36,07,43,296,33,26,29,312,34,7*71
$GAGSV,3,2,09,15,28,174,37,02,24,091,27,30,21,147,27,03,13,060,28,7*70
$GAGSV,3,3,09,25,04,047,,7*4A
$GAGSV,2,1,07,13,61,241,25,08,49,019,37,07,43,296,34,26,29,312,31,1*7A
$GAGSV,2,2,07,15,28,174,41,30,21,147,28,03,13,060,29,1*4F
$GBGSV,4,1,15,38,83,080,43,08,75,006,38,39,72,272,39,16,66,248,23,1*75
$GBGSV,4,2,15,13,66,338,42,06,64,245,23,46,56,123,42,09,49,232,23,1*7F
$GBGSV,4,3,15,19,46,337,42,20,44,054,44,36,29,185,40,37,26,052,41,1*79
$GBGSV,4,4,15,35,23,275,28,29,23,216,,22,08,296,,1*45
$GBGSV,3,1,10,38,83,080,44,39,72,272,35,46,56,123,42,19,46,337,40,4*78
$GBGSV,3,2,10,20,44,054,41,36,29,185,38,37,26,052,33,29,23,216,20,4*76
$GBGSV,3,3,10,35,23,275,31,22,08,296,24,4*74
$GNACCURACY,3.4*11
$PAIRSAT,1,35,1,0,200,2,0,200,3,0,200,4,0,200,5,0,201,6,0,200,7,0,200,8,0,200,9,0,200,10,0,221,11,0,200,12,0,200,13,0,201,14,0,200,15,0,201,16,0,200,17,0,200,18,0,221,19,0,200,20,0,200,21,0,200,23,0,221,24,0,221,25,0,200,26,0,200,27,0,200,28,0,200,29,0,200,30,0,200,31,0,200,32,0,200,194,0,621,195,0,621,196,0,620,199,0,621*6A
$PAIRSAT,2,23,65,0,200,67,0,200,68,0,200,69,0,201,70,0,201,71,0,201,72,0,200,73,0,201,74,0,200,75,0,200,76,0,200,77,0,200,78,0,200,79,0,201,80,0,201,81,0,200,82,0,200,83,0,200,84,0,201,85,0,201,86,0,201,87,0,200,88,0,200*52
$PAIRSAT,3,23,2,0,1221,3,0,1221,4,0,1200,5,0,200,7,0,1221,8,0,1221,9,0,1200,10,0,1200,11,0,1200,12,0,1200,13,0,1221,15,0,1221,19,0,1200,21,0,1200,24,0,1200,25,0,1200,26,0,1221,27,0,1200,30,0,1201,31,0,1200,33,0,1200,34,0,1200,36,0,1200*68
$PAIRSAT,4,50,1,0,200,2,0,200,3,0,200,4,0,200,5,0,200,6,0,201,7,0,200,8,0,201,9,0,201,10,0,200,11,0,200,12,0,200,13,0,201,14,0,200,15,0,200,16,0,201,19,0,621,20,0,621,21,0,600,22,0,621,23,0,600,24,0,600,25,0,600,26,0,600,27,0,600,28,0,600,29,0,621,30,0,600,31,0,200,32,0,600,33,0,600,34,0,600,35,0,621,36,0,621,37,0,621,38,0,621,39,0,621,40,0,600,41,0,600,42,0,600,43,0,600,44,0,600,45,0,600,46,0,621,56,0,200,57,0,200,58,0,200,59,0,600,60,0,600,61,0,600*41
$PAIRDGP,7,5,10,13,15,18,23,24*52
$GNGGA,111139.200,2500.8049376,N,12132.4792614,E,4,63,0.42,15.930,M,15.25,M,13,3335*7D
$GNRMC,111139.200,A,2500.8049376,N,12132.4792614,E,0.00,159.17,260623,,,R,V*11
$GPHDT,356.737,T*36
$GNACCURACY,3.4*11
$GNGGA,111139.300,2500.8049371,N,12132.4792630,E,4,63,0.42,15.928,M,15.25,M,13,3335*74
$GNRMC,111139.300,A,2500.8049371,N,12132.4792630,E,0.00,159.17,260623,,,R,V*11
$GPHDT,,T*1B
$GNACCURACY,3.4*11
$GNGGA,111139.400,2500.8049378,N,12132.4792628,E,4,63,0.42,15.936,M,15.25,M,13,3335*7C
$GNRMC,111139.400,A,2500.8049378,N,12132.4792628,E,0.00,159.17,260623,,,R,V*16
$GPHDT,356.961,T*3B
$GNACCURACY,3.4*11
$GNGGA,111139.500,2500.8049385,N,12132.4792606,E,4,63,0.42,15.929,M,15.25,M,13,3335*7D
$GNRMC,111139.500,A,2500.8049385,N,12132.4792606,E,0.01,159.17,260623,,,R,V*18
$GPHDT,,T*1B
$GNACCURACY,3.4*11
$GNGGA,111139.600,2500.8049398,N,12132.4792652,E,4,63,0.42,15.934,M,15.25,M,13,3335*7F
$GNRMC,111139.600,A,2500.8049398,N,12132.4792652,E,0.01,159.17,260623,,,R,V*16
$GPHDT,356.368,T*38
$GNACCURACY,3.4*11
$GNGGA,111139.700,2500.8049400,N,12132.4792636,E,4,63,0.42,15.931,M,15.25,M,13,3335*7F
$GNRMC,111139.700,A,2500.8049400,N,12132.4792636,E,0.00,159.17,260623,,,R,V*12
$GPHDT,,T*1B
$GNACCURACY,3.3*16
$GNGGA,111139.800,2500.8049393,N,12132.4792617,E,4,63,0.42,15.932,M,15.25,M,13,3335*7D
$GNRMC,111139.800,A,2500.8049393,N,12132.4792617,E,0.00,159.17,260623,,,R,V*13
$GPHDT,355.586,T*3D
$GNACCURACY,3.4*11
$GNGGA,111139.900,2500.8049390,N,12132.4792630,E,4,63,0.42,15.938,M,15.25,M,13,3335*70
$GNRMC,111139.900,A,2500.8049390,N,12132.4792630,E,0.00,159.17,260623,,,R,V*14
$GPHDT,,T*1B
$GNACCURACY,3.4*11
$GNGGA,111140.000,2500.8049386,N,12132.4792635,E,4,63,0.42,15.931,M,15.25,M,14,3335*7B
$GNRMC,111140.000,A,2500.8049386,N,12132.4792635,E,0.00,159.17