$FW : RTK35X,V1.1X0314AS,Lib20210517,1*54
$Tool : LOCOSYS , GNSS Firebird , v1.0.0.19*39
$---------------------------------------------------*2D
GAGSV,2,1,08,13,60,240,32,08,49,019,38,07,43,297,38,26,29,311,31,1*72
$GAGSV,2,2,08,15,28,174,39,02,24,091,25,30,22,147,29,03,12,060,31,1*7E
$GBGSV,4,1,16,38,83,083,44,08,76,006,35,39,72,274,36,13,66,338,41,1*72
$GBGSV,4,2,16,16,66,249,28,06,65,246,18,46,57,122,37,09,49,233,20,1*78
$GBGSV,4,3,16,19,46,338,44,20,44,055,44,36,29,184,31,37,26,051,40,1*77
$GBGSV,4,4,16,29,23,216,23,35,23,274,33,22,09,297,21,44,01,316,,1*7A
$GBGSV,3,1,09,38,83,083,44,39,72,274,36,46,57,122,39,19,46,338,40,4*75
$GBGSV,3,2,09,20,44,055,39,36,29,184,40,37,26,051,40,29,23,216,20,4*79
$GBGSV,3,3,09,35,23,274,29,4*47
$GNACCURACY,3.3*16
$PAIRSAT,1,35,1,0,200,2,0,200,3,0,200,4,0,200,5,0,201,6,0,200,7,0,200,8,0,200,9,0,200,10,0,221,11,0,200,12,0,200,13,0,201,14,0,200,15,0,201,16,0,200,17,0,200,18,0,221,19,0,200,20,0,200,21,0,200,23,0,221,24,0,221,25,0,200,26,0,200,27,0,200,28,0,200,29,0,200,30,0,200,31,0,200,32,0,200,194,0,621,195,0,621,196,0,620,199,0,621*6A
$PAIRSAT,2,23,65,0,200,67,0,200,68,0,200,69,0,201,70,0,201,71,0,201,72,0,200,73,0,201,74,0,200,75,0,200,76,0,200,77,0,200,78,0,200,79,0,201,80,0,201,81,0,200,82,0,200,83,0,200,84,0,201,85,0,201,86,0,201,87,0,200,88,0,200*52
$PAIRSAT,3,23,2,0,1221,3,0,1221,4,0,1200,5,0,200,7,0,1221,8,0,1221,9,0,1200,10,0,1200,11,0,1200,12,0,1200,13,0,1221,15,0,1221,19,0,1200,21,0,1200,24,0,1200,25,0,1200,26,0,1221,27,0,1200,30,0,1221,31,0,1200,33,0,1200,34,0,1200,36,0,1200*6A
$PAIRSAT,4,50,1,0,200,2,0,200,3,0,200,4,0,200,5,0,200,6,0,201,7,0,200,8,0,201,9,0,201,10,0,200,11,0,200,12,0,200,13,0,201,14,0,200,15,0,200,16,0,201,19,0,621,20,0,621,21,0,600,22,0,621,23,0,600,24,0,600,25,0,600,26,0,600,27,0,600,28,0,600,29,0,621,30,0,600,31,0,200,32,0,600,33,0,600,34,0,600,35,0,621,36,0,621,37,0,621,38,0,621,39,0,621,40,0,600,41,0,600,42,0,600,43,0,600,44,0,600,45,0,600,46,0,621,56,0,200,57,0,200,58,0,200,59,0,600,60,0,600,61,0,600*41
$PAIRDGP,7,5,10,13,15,18,23,24*52
$GNGGA,111338.200,2500.8049256,N,12132.4792659,E,4,67,0.42,15.936,M,15.25,M,8,3335*4C
$GNRMC,111338.200,A,2500.8049256,N,12132.4792659,E,0.01,159.17,260623,,,R,V*19
$GPHDT,,T*1B
$GNACCURACY,3.3*16
$GNGGA,111338.300,2500.8049250,N,12132.4792666,E,4,66,0.42,15.937,M,15.25,M,8,3335*47
$GNRMC,111338.300,A,2500.8049250,N,12132.4792666,E,0.01,159.17,260623,,,R,V*12
$GPHDT,,T*1B
$GNACCURACY,3.3*16
$GNGGA,111338.400,2500.8049256,N,12132.4792716,E,4,67,0.42,15.954,M,15.25,M,8,3335*44
$GNRMC,111338.400,A,2500.8049256,N,12132.4792716,E,0.01,159.17,260623,,,R,V*15
$GPHDT,,T*1B
$GNACCURACY,3.3*16
$GNGGA,111338.500,2500.8049267,N,12132.4792710,E,4,66,0.42,15.940,M,15.25,M,8,3335*45
$GNRMC,111338.500,A,2500.8049267,N,12132.4792710,E,0.01,159.17,260623,,,R,V*10
$GPHDT,,T*1B
$GNACCURACY,3.3*16
$GNGGA,111338.600,2500.8049270,N,12132.4792694,E,4,66,0.42,15.940,M,15.25,M,8,3335*4D
$GNRMC,111338.600,A,2500.8049270,N,12132.4792694,E,0.01,159.17,260623,,,R,V*18
$GPHDT,,T*1B
$GNACCURACY,3.3*16
$GNGGA,111338.700,2500.8049263,N,12132.4792662,E,4,66,0.42,15.930,M,15.25,M,8,3335*40
$GNRMC,111338.700,A,2500.8049263,N,12132.4792662,E,0.01,159.17,260623,,,R,V*12
$GPHDT,,T*1B
$GNACCURACY,3.3*16
$GNGGA,111338.800,2500.8049266,N,12132.4792735,E,4,66,0.42,15.950,M,15.25,M,8,3335*4F
$GNRMC,111338.800,A,2500.8049266,N,12132.4792735,E,0.01,159.17,260623,,,R,V*1B
$GPHDT,,T*1B
$GNACCURACY,3.3*16
$GNGGA,111338.900,2500.8049276,N,12132.4792705,E,4,66,0.42,15.940,M,15.25,M,8,3335*4D
$GNRMC,111338.900,A,2500.8049276,N,12132.4792705,E,0.01,159.17,260623,,,R,V*18
$GPHDT,,T*1B
$GNACCURACY,3.3*16
$GNGGA,111339.000,2500.8049271,N,12132.4792689,E,4,66,0.42,15.926,M,15.25,M,3,3335*4C
$GNRMC,111339.000,A,2500.8049271,N,12132.4792689,E,0.01,159.17,260623,,,R,V*12
$GPHDT,,T*1B
$GNACCURACY,3.3*16
$GNGGA,111339.100,2500.8049204,N,12132.4792597,E,4,66,0.42,15.897,M,15.25,M,3,3335*48
$GNRMC,111339.100,A,2500.8049204,N,12132.4792597,E,0.01,159.17,260623,,,R,V*1D
$GPHDT,,T*1B
$GNGSA,A,3,24,196,18,199,23,15,195,194,05,10,13,,0.76,0.42,0.64,1*06
$GNGSA,A,3,80,70,85,73,86,71,79,69,84,,,,0.76,0.42,0.64,2*04
$GNGSA,A,3,13,08,07,26,15,02,30,03,,,,,0.76,0.42,0.64,3*09
$GNGSA,A,3,38,08,39,16,13,46,09,19,20,36,37,35,0.76,0.42,0.64,4*0B
$GNGSA,A,3,29,,,,,,,,,,,,0.76,0.42,0.64,4*0A
$GPGSV,5,1,17,24,79,059,37,196,74,061,38,18,61,259,33,50,60,167,39,1*5E
$GPGSV,5,2,17,199,60,167,37,23,45,335,45,15,40,041,33,195,36,179,39,1*6A
$GPGSV,5,3,17,194,28,140,38,05,23,114,27,12,16,146,16,10,14,316,36,1*5C
$GPGSV,5,4,17,13,12,053,30,32,06,264,18,25,05,179,,29,03,201,,1*6F
$GPGSV,5,5,17,20,01,127,,1*55
$GPGSV,2,1,08,24,79,059,47,196,74,061,40,18,61,259,33,199,60,167,46,8*6A
$GPGSV,2,2,08,23,45,335,46,195,36,179,40,194,28,140,37,10,14,316,38,8*6D
$GLGSV,3,1,09,80,48,088,24,70,40,001,29,85,39,254,29,73,31,162,33,1*74
$GLGSV,3,2,09,86,25,309,31,71,19,308,38,79,15,036,20,69,15,067,30,1*7B
$GLGSV,3,3,09,84,14,192,19,1*4A
$GAGSV,3,1,09,13,60,240,21,08,49,019,37,07,43,297,30,26,29,311,21,7*70
$GAGSV,3,2,09,15,28,174,25,02,24,091,24,30,22,147,36,03,12,060,24,7*7E
$GAGSV,3,3,09,25,04,047,,7*4A
$GAGSV,2,1,08,13,60,240,31,08,49,019,38,07,43,297,38,26,29,311,31,1*71
$GAGSV,2,2,08,15,28,174,39,02,24,091,25,30,22,147,29,03,12,060,31,1*7E
$GBGSV,4,1,15,38,83,083,44,08,76,006,36,39,72,274,36,16,66,249,29,1*7E
$GBGSV,4,2,15,13,66,337,41,06,65,246,18,46,57,122,37,09,49,233,19,1*73
$GBGSV,4,3,15,19,46,338,44,20,44,055,43,36,29,184,34,37,26,051,41,1*77
$GBGSV,4,4,15,35,23,274,32,29,23,216,22,22,09,297,21,1*4C
$GBGSV,3,1,09,38,83,083,44,39,72,274,36,46,57,122,39,19,46,338,40,4*75
$GBGSV,3,2,09,20,44,055,40,36,29,184,40,37,26,051,40,29,23,216,20,4*77
$GBGSV,3,3,09,35,23,274,29,4*47
$GNACCURACY,3.3*16
$PAIRSAT,1,35,1,0,200,2,0,200,3,0,200,4,0,200,5,0,201,6,0,200,7,0,200,8,0,200,9,0,200,10,0,221,11,0,200,12,0,200,13,0,201,14,0,200,15,0,201,16,0,200,17,0,200,18,0,221,19,0,200,20,0,200,21,0,200,23,0,221,24,0,221,25,0,200,26,0,200,27,0,200,28,0,200,29,0,200,30,0,200,31,0,200,32,0,200,194,0,621,195,0,621,196,0,620,199,0,621*6A
$PAIRSAT,2,23,65,0,200,67,0,200,68,0,200,69,0,201,70,0,201,71,0,201,72,0,200,73,0,201,74,0,200,75,0,200,76,0,200,77,0,200,78,0,200,79,0,201,80,0,201,81,0,200,82,0,200,83,0,200,84,0,201,85,0,201,86,0,201,87,0,200,88,0,200*52
$PAIRSAT,3,23,2,0,1221,3,0,1221,4,0,1200,5,0,200,7,0,1221,8,0,1221,9,0,1200,10,0,1200,11,0,1200,12,0,1200,13,0,1221,15,0,1221,19,0,1200,21,0,1200,24,0,1200,25,0,1200,26,0,1221,27,0,1200,30,0,1221,31,0,1200,33,0,1200,34,0,1200,36,0,1200*6A
$PAIRSAT,4,50,1,0,200,2,0,200,3,0,200,4,0,200,5,0,200,6,0,201,7,0,200,8,0,201,9,0,201,10,0,200,11,0,200,12,0,200,13,0,201,14,0,200,15,0,200,16,0,201,19,0,621,20,0,621,21,0,600,22,0,621,23,0,600,24,0,600,25,0,600,26,0,600,27,0,600,28,0,600,29,0,621,30,0,600,31,0,200,32,0,600,33,0,600,34,0,600,35,0,621,36,0,621,37,0,621,38,0,621,39,0,621,40,0,600,41,0,600,42,0,600,43,0,600,44,0,600,45,0,600,46,0,621,56,0,200,57,0,200,58,0,200,59,0,600,60,0,600,61,0,600*41
$PAIRDGP,7,5,10,13,15,18,23,24*52
$GNGGA,111339.200,2500.8049192,N,12132.4792573,E,4,66,0.42,15.899,M,15.25,M,3,3335*43
$GNRMC,111339.200,A,2500.8049192,N,12132.4792573,E,0.01,159.17,260623,,,R,V*18
$GPHDT,,T*1B
$GNACCURACY,3.3*16
$GNGGA,111339.300,2500.8049207,N,12132.4792577,E,4,66,0.42,15.902,M,15.25,M,3,3335*4A
$GNRMC,111339.300,A,2500.8049207,N,12132.4792577,E,0.01,159.17,260623,,,R,V*12
$GPHDT,,T*1B
$GNACCURACY,3.3*16
$GNGGA,111339.400,2500.8049207,N,12132.4792593,E,4,66,0.42,15.903,M,15.25,M,3,3335*46
$GNRMC,111339.400,A,2500.8049207,N,12132.4792593,E,0.01,159.17,260623,,,R,V*1F
$GPHDT,,T*1B
$GNACCURACY,3.2*17
$GNGGA,111339.500,2500.8049192,N,12132.4792571,E,4,66,0.42,15.908,M,15.25,M,3,3335*4F
$GNRMC,111339.500,A,2500.8049192,N,12132.4792571,E,0.01,159.17,260623,,,R,V*1D
$GPHDT,,T*1B
$GNACCURACY,3.2*17
$GNGGA,111339.600,2500.8049197,N,12132.4792551,E,4,67,0.42,15.903,M,15.25,M,3,3335*41
$GNRMC,111339.600,A,2500.8049197,N,12132.4792551,E,0.01,159.17,260623,,,R,V*19
$GPHDT,,T*1B
$GNACCURACY,3.2*17
$GNGGA,111339.700,2500.8049206,N,12132.4792570,E,4,67,0.42,15.910,M,15.25,M,3,3335*4A
$GNRMC,111339.700,A,2500.8049206,N,12132.4792570,E,0.00,159.17,260623,,,R,V*11
$GPHDT,,T*1B
$GNACCURACY,3.2*17
$GNGGA,111339.800,2500.8049218,N,12132.4792582,E,4,67,0.42,15.912,M,15.25,M,3,3335*45
$GNRMC,111339.800,A,2500.8049218,N,12132.4792582,E,0.00,159.17,260623,,,R,V*1C
$GPHDT,,T*1B
$GNACCURACY,3.3*16
$GNGGA,111339.900,2500.8049209,N,12132.4792553,E,4,67,0.42,15.898,M,15.25,M,3,3335*4B
$GNRMC,111339.900,A,2500.8049209,N,12132.4792553,E,0.00,159.17,260623,,,R,V*11
$GPHDT,,T*1B
$GNACCURACY,3.3*16
$GNGGA,111340.000,2500.8049218,N,12132.4792555,E,4,67,0.42,15.908,M,15.25,M,4,3335*45
$GNRMC,111340.000,A,2500.8049218,N,12132.4792555,E,0.00,159.17,260623,,,R,V*10
$GPHDT,,T*1B
$GNACCURACY,3.3*16
$GNGGA,111340.100,2500.8049208,N,12132.4792552,E,4,67,0.42,15.896,M,15.25,M,4,3335*44
$GNRMC,111340.100,A,2500.8049208,N,12132.4792552,E,0.00,159.17,260623,,,R,V*17
$GPHDT,,T*1B
$GNGSA,A,3,24,196,18,199,23,15,195,194,05,10,13,,0.76,0.42,0.64,1*06
$GNGSA,A,3,80,70,85,73,86,71,79,69,84,,,,0.76,0.42,0.64,2*04
$GNGSA,A,3,13,08,07,26,15,02,30,03,,,,,0.76,0.42,0.64,3*09
$GNGSA,A,3,38,08,39,16,13,06,46,09,19,20,36,37,0.76,0.42,0.64,4*0B
$GNGSA,A,3,29,35,,,,,,,,,,,0.76,0.42,0.64,4*0C
$GPGSV,5,1,17,24,79,059,37,196,74,061,38,18,61,259,33,50,60,167,39,1*5E
$GPGSV,5,2,17,199,60,167,37,23,45,335,45,15,40,041,33,195,36,179,39,1*6A
$GPGSV,5,3,17,194,28,140,40,05,23,114,27,12,16,146,16,10,14,316,36,1*53
$GPGSV,5,4,17,13,12,053,30,32,06,264,18,25,05,179,,29,03,201,,1*6F
$GPGSV,5,5,17,20,01,127,,1*55
$GPGSV,2,1,08,24,79,059,45,196,74,061,40,18,61,259,34,199,60,167,47,8*6E
$GPGSV,2,2,08,23,45,335,46,195,36,179,40,194,28,140,39,10,14,316,38,8*63
$GLGSV,3,1,09,80,48,088,18,70,40,001,28,85,39,254,29,73,31,162,31,1*78
$GLGSV,3,2,09,86,25,309,31,71,19,308,37,79,15,036,20,69,15,067,30,1*74
$GLGSV,3,3,09,84,14,192,20,1*40
$GAGSV,3,1,09,13,60,240,20,08,49,019,37,07,43,297,30,26,29,311,22,7*72
$GAGSV,3,2,09,15,28,174,27,02,24,091,25,30,22,147,36,03,12,060,24,7*7D
$GAGSV,3,3,09,25,04,047,,7*4A
$GAGSV,2,1,08,13,60,240,32,08,49,019,39,07,43,297,37,26,29,311,29,1*75
$GAGSV,2,2,08,15,28,174,39,02,24,091,23,30,22,147,27,03,12,060,31,1*76
$GBGSV,5,1,18,38,83,083,44,08,76,006,34,39,72,274,37,16,66,250,29,1*79
$GBGSV,5,2,18,13,66,337,41,06,65,246,21,46,57,122,36,09,49,233,19,1*74
$GBGSV,5,3,18,56,48,309,,19,46,338,44,20,44,055,42,36,29,184,36,1*7C
$GBGSV,5,4,18,37,26,051,41,29,23,216,20,35,23,274,34,22,09,297,21,1*75
$GBGSV,5,5,18,07,05,193,,10,03,203,,1*75
$GBGSV,3,1,09,38,83,083,42,39,72,274,36,46,57,122,38,19,46,338,40,4*72
$GBGSV,3,2,09,20,44,055,42,36,29,184,40,37,26,051,39,29,23,216,20,4*7B
$GBGSV,3,3,09,35,23,274,29,4*47
$GNACCURACY,3.3*16
$PAIRSAT,1,35,1,0,200,2,0,200,3,0,200,4,0,200,5,0,201,6,0,200,7,0,200,8,0,200,9,0,200,10,0,221,11,0,200,12,0,200,13,0,201,14,0,200,15,0,201,16,0,200,17,0,200,18,0,221,19,0,200,20,0,200,21,0,200,23,0,221,24,0,221,25,0,200,26,0,200,27,0,200,28,0,200,29,0,200,30,0,200,31,0,200,32,0,200,194,0,621,195,0,621,196,0,620,199,0,621*6A
$PAIRSAT,2,23,65,0,200,67,0,200,68,0,200,69,0,201,70,0,201,71,0,201,72,0,200,73,0,201,74,0,200,75,0,200,76,0,200,77,0,200,78,0,200,79,0,201,80,0,201,81,0,200,82,0,200,83,0,200,84,0,201,85,0,201,86,0,201,87,0,200,88,0,200*52
$PAIRSAT,3,23,2,0,1221,3,0,1221,4,0,1200,5,0,200,7,0,1221,8,0,1221,9,0,1200,10,0,1200,11,0,1200,12,0,1200,13,0,1221,15,0,1221,19,0,1200,21,0,1200,24,0,1200,25,0,1200,26,0,1221,27,0,1200,30,0,1221,31,0,1200,33,0,1200,34,0,1200,36,0,1200*6A
$PAIRSAT,4,50,1,0,200,2,0,200,3,0,200,4,0,200,5,0,200,6,0,201,7,0,200,8,0,201,9,0,201,10,0,200,11,0,200,12,0,200,13,0,201,14,0,200,15,0,200,16,0,201,19,0,621,20,0,621,21,0,600,22,0,621,23,0,600,24,0,600,25,0,600,26,0,600,27,0,600,28,0,600,29,0,621,30,0,600,31,0,200,32,0,600,33,0,600,34,0,600,35,0,621,36,0,621,37,0,621,38,0,621,39,0,621,40,0,600,41,0,600,42,0,600,43,0,600,44,0,600,45,0,600,46,0,621,56,0,200,57,0,200,58,0,200,59,0,600,60,0,600,61,0,600*41
$PAIRDGP,7,5,10,13,15,18,23,24*52
$GNGGA,111340.200,2500.8049200,N,12132.4792548,E,4,67,0.42,15.893,M,15.25,M,4,3335*41
$GNRMC,111340.200,A,2500.8049200,N,12132.4792548,E,0.00,159.17,260623,,,R,V*17
$GPHDT,,T*1B
$GNACCURACY,3.3*16
$GNGGA,111340.300,2500.8049190,N,12132.4792548,E,4,67,0.42,15.895,M,15.25,M,4,3335*4C
$GNRMC,111340.300,A,2500.8049190,N,12132.4792548,E,0.00,159.17,260623,,,R,V*1C
$GPHDT,,T*1B
$GNACCURACY,3.3*16
$GNGGA,111340.400,2500.8049209,N,12132.4792574,E,4,67,0.42,15.896,M,15.25,M,4,3335*44
$GNRMC,111340.400,A,2500.8049209,N,12132.4792574,E,0.00,159.17,260623,,,R,V*17
$GPHDT,,T*1B
$GNACCURACY,3.3*16
$GNGGA,111340.500,2500.8049225,N,12132.4792557,E,4,67,0.42,15.899,M,15.25,M,4,3335*45
$GNRMC,111340.500,A,2500.8049225,N,12132.4792557,E,0.00,159.17,260623,,,R,V*19
$GPHDT,,T*1B
$GNACCURACY,3.3*16
$GNGGA,111340.600,2500.8049227,N,12132.4792579,E,4,67,0.42,15.895,M,15.25,M,4,3335*44
$GNRMC,111340.600,A,2500.8049227,N,12132.4792579,E,0.00,159.17,260623,,,R,V*14
$GPHDT,,T*1B
$GNACCURACY,3.3*16
$GNGGA,111340.700,2500.8049266,N,12132.4792696,E,4,67,0.42,15.930,M,15.25,M,4,3335*4C
$GNRMC,111340.700,A,2500.8049266,N,12132.4792696,E,0.00,159.17,260623,,,R,V*12
$GPHDT,,T*1B
$GNACCURACY,3.3*16
$GNGGA,111340.800,2500.8049320,N,12132.4792731,E,4,67,0.42,15.947,M,15.25,M,4,3335*4C
$GNRMC,111340.800,A,2500.8049320,N,12132.4792731,E,0.00,159.17,260623,,,R,V*12
$GPHDT,,T*1B
$GNACCURACY,3.3*16
$GNGGA,111340.900,2500.8049331,N,12132.4792745,E,4,67,0.42,15.946,M,15.25,M,4,3335*4F
$GNRMC,111340.900,A,2500.8049331,N,12132.4792745,E,0.00,159.17,260623,,,R,V*10
$GPHDT,,T*1B
$GNACCURACY,3.3*16
$GNGGA,111341.000,2500.8049334,N,12132.4792738,E,4,67,0.42,15.948,M,15.25,M,5,3335*47
$GNRMC,111341.000,A,2500.8049334,N,12132.4792738,E,0.00,159.17,260623,,,R,V*17
$GPHDT,,T*1B
$GNACCURACY,3.2*17
$GNGGA,111341.100,2500.8049319,N,12132.4792735,E,4,67,0.42,15.951,M,15.25,M,5,3335*4C
$GNRMC,111341.100,A,2500.8049319,N,12132.4792735,E,0.00,159.17,260623,,,R,V*14
$GPHDT,,T*1B
$GNGSA,A,3,24,196,18,199,23,15,195,194,05,10,13,,0.76,0.42,0.64,1*06
$GNGSA,A,3,80,70,85,73,86,71,79,69,84,,,,0.76,0.42,0.64,2*04
$GNGSA,A,3,13,08,07,26,15,02,30,03,,,,,0.76,0.42,0.64,3*09
$GNGSA,A,3,38,08,39,16,13,06,46,09,19,20,36,37,0.76,0.42,0.64,4*0B
$GNGSA,A,3,35,29,,,,,,,,,,,0.76,0.42,0.64,4*0C
$GPGSV,5,1,17,24,79,059,33,196,74,061,38,18,61,259,33,50,60,167,39,1*5A
$GPGSV,5,2,17,199,60,167,37,23,45,335,45,15,40,041,33,195,36,179,39,1*6A
$GPGSV,5,3,17,194,28,140,42,05,23,114,25,12,16,146,18,10,14,316,36,1*5D
$GPGSV,5,4,17,13,12,053,30,32,06,264,16,25,05,179,,29,03,201,,1*61
$GPGSV,5,5,17,20,01,127,,1*55
$GPGSV,2,1,08,24,79,059,45,196,74,061,40,18,61,259,34,199,60,167,47,8*6E
$GPGSV,2,2,08,23,45,335,45,195,36,179,41,194,28,140,40,10,14,316,38,8*6F
$GLGSV,3,1,09,80,48,088,23,70,40,001,28,85,39,254,29,73,31,162,32,1*73
$GLGSV,3,2,09,86,25,309,31,71,19,308,37,79,15,036,20,69,15,067,29,1*7C
$GLGSV,3,3,09,84,14,192,21,1*41
$GAGSV,3,1,09,13,60,240,20,08,49,019,37,07,43,297,30,26,29,311,23,7*73
$GAGSV,3,2,09,15,28,174,31,02,24,091,26,30,22,147,36,03,12,060,24,7*79
$GAGSV,3,3,09,25,04,047,,7*4A
$GAGSV,2,1,08,13,60,240,32,08,49,019,39,07,43,297,38,26,29,311,31,1*73
$GAGSV,2,2,08,15,28,174,38,02,24,091,25,30,22,147,31,03,12,060,31,1*76
$GBGSV,4,1,15,38,83,083,44,08,76,006,35,39,72,274,37,16,66,250,29,1*74
$GBGSV,4,2,15,13,66,337,41,06,65,246,20,46,57,122,36,09,49,233,19,1*79
$GBGSV,4,3,15,19,46,338,44,20,44,055,42,36,29,184,36,37,26,051,40,1*75
$GBGSV,4,4,15,35,23,274,33,29,23,216,17,22,09,297,20,1*4A
$GBGSV,3,1,09,38,83,083,42,39,72,274,37,46,57,122,41,19,46,338,41,4*7C
$GBGSV,3,2,09,20,44,055,42,36,29,184,41,37,26,051,41,29,23,216,21,4*74
$GBGSV,3,3,09,35,23,274,29,4*47
$GNACCURACY,3.2*17
$PAIRSAT,1,35,1,0,200,2,0,200,3,0,200,4,0,200,5,0,201,6,0,200,7,0,200,8,0,200,9,0,200,10,0,221,11,0,200,12,0,200,13,0,201,14,0,200,15,0,201,16,0,200,17,0,200,18,0,221,19,0,200,20,0,200,21,0,200,23,0,221,24,0,221,25,0,200,26,0,200,27,0,200,28,0,200,29,0,200,30,0,200,31,0,200,32,0,200,194,0,621,195,0,621,196,0,620,199,0,621*6A
$PAIRSAT,2,23,65,0,200,67,0,200,68,0,200,69,0,201,70,0,201,71,0,201,72,0,200,73,0,201,74,0,200,75,0,200,76,0,200,77,0,200,78,0,200,79,0,201,80,0,201,81,0,200,82,0,200,83,0,200,84,0,201,85,0,201,86,0,201,87,0,200,88,0,200*52
$PAIRSAT,3,23,2,0,1221,3,0,1221,4,0,1200,5,0,200,7,0,1221,8,0,1221,9,0,1200,10,0,1200,11,0,1200,12,0,1200,13,0,1221,15,0,1221,19,0,1200,21,0,1200,24,0,1200,25,0,1200,26,0,1221,27,0,1200,30,0,1221,31,0,1200,33,0,1200,34,0,1200,36,0,1200*6A
$PAIRSAT,4,50,1,0,200,2,0,200,3,0,200,4,0,200,5,0,200,6,0,201,7,0,200,8,0,201,9,0,201,10,0,200,11,0,200,12,0,200,13,0,201,14,0,200,15,0,200,16,0,201,19,0,621,20,0,621,21,0,600,22,0,621,23,0,600,24,0,600,25,0,600,26,0,600,27,0,600,28,0,600,29,0,621,30,0,600,31,0,200,32,0,600,33,0,600,34,0,600,35,0,621,36,0,621,37,0,621,38,0,621,39,0,621,40,0,600,41,0,600,42,0,600,43,0,600,44,0,600,45,0,600,46,0,621,56,0,200,57,0,200,58,0,200,59,0,600,60,0,600,61,0,600*41
$PAIRDGP,7,5,10,13,15,18,23,24*52
$GNGGA,111341.200,2500.8049346,N,12132.4792758,E,4,67,0.42,15.947,M,15.25,M,5,3335*49
$GNRMC,111341.200,A,2500.8049346,N,12132.4792758,E,0.00,159.17,260623,,,R,V*16
$GPHDT,,T*1B
$GNACCURACY,3.2*17
$GNGGA,111341.300,2500.8049337,N,12132.4792776,E,4,67,0.42,15.945,M,15.25,M,5,3335*40
$GNRMC,111341.300,A,2500.8049337,N,12132.4792776,E,0.00,159.17,260623,,,R,V*1D
$GPHDT,,T*1B
$GNACCURACY,3.2*17
$GNGGA,111341.400,2500.8049347,N,12132.4792762,E,4,67,0.42,15.947,M,15.25,M,5,3335*47
$GNRMC,111341.400,A,2500.8049347,N,12132.4792762,E,0.00,159.17,260623,,,R,V*18
$GPHDT,,T*1B
$GNACCURACY,3.2*17
$GNGGA,111341.500,2500.8049332,N,12132.4792742,E,4,67,0.42,15.943,M,15.25,M,5,3335*42
$GNRMC,111341.500,A,2500.8049332,N,12132.4792742,E,0.00,159.17,260623,,,R,V*19
$GPHDT,,T*1B
$GNACCURACY,3.2*17
$GNGGA,111341.600,2500.8049343,N,12132.4792779,E,4,67,0.42,15.957,M,15.25,M,5,3335*4A
$GNRMC,111341.600,A,2500.8049343,N,12132.4792779,E,0.00,159.17,260623,,,R,V*14
$GPHDT,,T*1B
$GNACCURACY,3.3*16
$GNGGA,111341.700,2500.8049348,N,12132.4792739,E,4,67,0.42,15.944,M,15.25,M,5,3335*46
$GNRMC,111341.700,A,2500.8049348,N,12132.4792739,E,0.00,159.17,260623,,,R,V*1A
$GPHDT,,T*1B
$GNACCURACY,3.3*16
$GNGGA,111341.800,2500.8049326,N,12132.4792741,E,4,67,0.42,15.945,M,15.25,M,5,3335*4F
$GNRMC,111341.800,A,2500.8049326,N,12132.4792741,E,0.00,159.17,260623,,,R,V*12
$GPHDT,,T*1B
$GNACCURACY,3.3*16
$GNGGA,111341.900,2500.8049347,N,12132.4792759,E,4,67,0.42,15.952,M,15.25,M,5,3335*46
$GNRMC,111341.900,A,2500.8049347,N,12132.4792759,E,0.00,159.17,260623,,,R,V*1D
$GPHDT,,T*1B
$GNACCURACY,3.3*16
$GNGGA,111342.000,2500.8049337,N,12132.4792753,E,4,66,0.42,15.945,M,15.25,M,6,3335*45
$GNRMC,111342.000,A,2500.8049337,N,12132.4792753,E,0.00,159.17,260623,,,R,V*1A
$GPHDT,,T*1B
$GNACCURACY,3.3*16
$GNGGA,111342.100,2500.8049344,N,12132.4792744,E,4,66,0.42,15.950,M,15.25,M,6,3335*42
$GNRMC,111342.100,A,2500.8049344,N,12132.4792744,E,0.00,159.17,260623,,,R,V*19
$GPHDT,,T*1B
$GNGSA,A,3,24,196,18,199,23,15,195,194,05,10,13,,0.76,0.42,0.64,1*06
$GNGSA,A,3,80,70,85,73,86,71,79,69,84,,,,0.76,0.42,0.64,2*04
$GNGSA,A,3,13,08,07,26,15,02,30,03,,,,,0.76,0.42,0.64,3*09
$GNGSA,A,3,38,08,39,16,13,46,09,19,20,36,37,35,0.76,0.42,0.64,4*0B
$GNGSA,A,3,29,,,,,,,,,,,,0.76,0.42,0.64,4*0A
$GPGSV,5,1,17,24,79,059,33,196,74,061,38,18,61,259,32,50,60,167,39,1*5B
$GPGSV,5,2,17,199,60,167,37,23,45,335,45,15,40,041,33,195,36,179,39,1*6A
$GPGSV,5,3,17,194,28,140,41,05,23,114,24,12,16,146,20,10,14,316,36,1*54
$GPGSV,5,4,17,13,12,053,29,32,06,264,14,25,05,179,,29,03,201,,1*6B
$GPGSV,5,5,17,20,01,127,,1*55
$GPGSV,2,1,08,24,79,059,45,196,74,061,39,18,61,259,34,199,60,167,47,8*60
$GPGSV,2,2,08,23,45,335,45,195,36,179,41,194,28,140,39,10,14,316,38,8*61
$GLGSV,3,1,09,80,48,088,25,70,40,001,29,85,39,254,29,73,31,162,32,1*74
$GLGSV,3,2,09,86,25,309,32,71,19,308,36,79,15,036,19,69,15,067,29,1*74
$GLGSV,3,3,09,84,14,192,21,1*41
$GAGSV,3,1,09,13,60,240,19,08,49,019,37,07,43,297,30,26,29,311,24,7*7E
$GAGSV,3,2,09,15,28,174,32,02,24,091,27,30,22,147,36,03,12,060,25,7*7A
$GAGSV,3,3,09,25,04,047,,7*4A
$GAGSV,2,1,08,13,60,240,31,08,49,019,39,07,43,297,38,26,29,311,30,1*71
$GAGSV,2,2,08,15,28,174,38,02,24,091,26,30,22,147,31,03,12,060,31,1*75
$GBGSV,4,1,15,38,83,084,44,08,76,006,36,39,72,274,37,16,66,250,29,1*70
$GBGSV,4,2,15,13,66,337,41,06,65,246,18,46,57,122,37,09,49,233,19,1*73
$GBGSV,4,3,15,19,46,338,44,20,44,055,42,36,30,184,36,37,26,051,39,1*73
$GBGSV,4,4,15,35,23,274,32,29,23,216,17,22,09,297,20,1*4B
$GBGSV,3,1,09,38,83,084,42,39,72,274,37,46,57,122,41,19,46,338,41,4*7B
$GBGSV,3,2,09,20,44,055,42,36,30,184,41,37,26,051,41,29,23,216,21,4*7C
$GBGSV,3,3,09,35,23,274,29,4*47
$GNACCURACY,3.3*16
$PAIRSAT,1,35,1,0,200,2,0,200,3,0,200,4,0,200,5,0,201,6,0,200,7,0,200,8,0,200,9,0,200,10,0,221,11,0,200,12,0,200,13,0,201,14,0,200,15,0,201,16,0,200,17,0,200,18,0,221,19,0,200,20,0,200,21,0,200,23,0,221,24,0,221,25,0,200,26,0,200,27,0,200,28,0,200,29,0,200,30,0,200,31,0,200,32,0,200,194,0,621,195,0,621,196,0,620,199,0,621*6A
$PAIRSAT,2,23,65,0,200,67,0,200,68,0,200,69,0,201,70,0,201,71,0,201,72,0,200,73,0,201,74,0,200,75,0,200,76,0,200,77,0,200,78,0,200,79,0,201,80,0,201,81,0,200,82,0,200,83,0,200,84,0,201,85,0,201,86,0,201,87,0,200,88,0,200*52
$PAIRSAT,3,23,2,0,1221,3,0,1221,4,0,1200,5,0,200,7,0,1221,8,0,1221,9,0,1200,10,0,1200,11,0,1200,12,0,1200,13,0,1221,15,0,1221,19,0,1200,21,0,1200,24,0,1200,25,0,1200,26,0,1221,27,0,1200,30,0,1221,31,0,1200,33,0,1200,34,0,1200,36,0,1200*6A
$PAIRSAT,4,50,1,0,200,2,0,200,3,0,200,4,0,200,5,0,200,6,0,201,7,0,200,8,0,201,9,0,201,10,0,200,11,0,200,12,0,200,13,0,201,14,0,200,15,0,200,16,0,201,19,0,621,20,0,621,21,0,600,22,0,621,23,0,600,24,0,600,25,0,600,26,0,600,27,0,600,28,0,600,29,0,621,30,0,600,31,0,200,32,0,600,33,0,600,34,0,600,35,0,621,36,0,621,37,0,621,38,0,621,39,0,621,40,0,600,41,0,600,42,0,600,43,0,600,44,0,600,45,0,600,46,0,621,56,0,200,57,0,200,58,0,200,59,0,600,60,0,600,61,0,600*41
$PAIRDGP,7,5,10,13,15,18,23,24*52
$GNGGA,111342.200,2500.8049363,N,12132.4792759,E,4,66,0.42,15.947,M,15.25,M,6,3335*4E
$GNRMC,111342.200,A,2500.8049363,N,12132.4792759,E,0.00,159.17,260623,,,R,V*13
$GPHDT,,T*1B
$GNACCURACY,3.3*16
$GNGGA,111342.300,2500.8049339,N,12132.4792738,E,4,66,0.42,15.950,M,15.25,M,6,3335*41
$GNRMC,111342.300,A,2500.8049339,N,12132.4792738,E,0.00,159.17,260623,,,R,V*1A
$GPHDT,,T*1B
$GNACCURACY,3.3*16
$GNGGA,111342.400,2500.8049325,N,12132.4792757,E,4,66,0.42,15.946,M,15.25,M,6,3335*45
$GNRMC,111342.400,A,2500.8049325,N,12132.4792757,E,0.00,159.17,260623,,,R,V*19
$GPHDT,,T*1B
$GNACCURACY,3.3*16
$GNGGA,111342.500,2500.8049349,N,12132.4792765,E,4,66,0.42,15.957,M,15.25,M,6,3335*4F
$GNRMC,111342.500,A,2500.8049349,N,12132.4792765,E,0.00,159.17,260623,,,R,V*13
$GPHDT,,T*1B
$GNACCURACY,3.3*16
$GNGGA,111342.600,2500.8049331,N,12132.4792740,E,4,66,0.42,15.954,M,15.25,M,6,3335*47
$GNRMC,111342.600,A,2500.8049331,N,12132.4792740,E,0.00,159.17,260623,,,R,V*18
$GPHDT,,T*1B
$GNACCURACY,3.3*16
$GNGGA,111342.700,2500.8049348,N,12132.4792728,E,4,66,0.42,15.946,M,15.25,M,6,3335*45
$GNRMC,111342.700,A,2500.8049348,N,12132.4792728,E,0.00,159.17,260623,,,R,V*19
$GPHDT,,T*1B
$GNACCURACY,3.3*16
$GNGGA,111342.800,2500.8049348,N,12132.4792745,E,4,66,0.42,15.955,M,15.25,M,6,3335*43
$GNRMC,111342.800,A,2500.8049348,N,12132.4792745,E,0.00,159.17,260623,,,R,V*1D
$GPHDT,,T*1B
$GNACCURACY,3.3*16
$GNGGA,111342.900,2500.8049327,N,12132.4792748,E,4,67,0.42,15.963,M,15.25,M,6,3335*42
$GNRMC,111342.900,A,2500.8049327,N,12132.4792748,E,0.00,159.17,260623,,,R,V*18
$GPHDT,,T*1B
$GNACCURACY,3.3*16
$GNGGA,111343.000,2500.8049349,N,12132.4792742,E,4,67,0.42,15.959,M,15.25,M,7,3335*40
$GNRMC,111343.000,A,2500.8049349,N,12132.4792742,E,0.00,159.17,260623,,,R,V*12
$GPHDT,,T*1B
$GNACCURACY,3.3*16
$GNGGA,111343.100,2500.8049292,N,12132.4792678,E,4,66,0.42,15.942,M,15.25,M,7,3335*45
$GNRMC,111343.100,A,2500.8049292,N,12132.4792678,E,0.00,159.17,260623,,,R,V*1C
$GPHDT,,T*1B
$GNGSA,A,3,24,196,18,199,23,15,195,194,05,10,13,,0.76,0.42,0.64,1*06
$GNGSA,A,3,80,70,85,73,86,71,79,69,84,,,,0.76,0.42,0.64,2*04
$GNGSA,A,3,13,08,07,26,15,02,30,03,,,,,0.76,0.42,0.64,3*09
$GNGSA,A,3,38,08,39,16,13,46,09,19,20,36,37,35,0.76,0.42,0.64,4*0B
$GNGSA,A,3,29,,,,,,,,,,,,0.76,0.42,0.64,4*0A
$GPGSV,5,1,17,24,79,059,33,196,74,061,38,18,61,259,33,50,60,167,39,1*5A
$GPGSV,5,2,17,199,60,167,37,23,45,335,45,15,40,041,34,195,36,179,39,1*6D
$GPGSV,5,3,17,194,28,140,41,05,23,114,24,12,16,146,21,10,14,316,37,1*54
$GPGSV,5,4,17,13,12,053,29,32,06,264,14,25,05,179,,29,03,201,,1*6B
$GPGSV,5,5,17,20,01,127,,1*55
$GPGSV,2,1,08,24,79,059,45,196,74,061,39,18,61,259,34,199,60,167,47,8*60
$GPGSV,2,2,08,23,45,335,45,195,36,179,41,194,28,140,39,10,14,316,38,8*61
$GLGSV,3,1,09,80,48,088,26,70,40,001,29,85,39,254,29,73,31,162,32,1*77
$GLGSV,3,2,09,86,25,309,32,71,19,308,36,79,15,036,18,69,15,067,28,1*74
$GLGSV,3,3,09,84,14,192,21,1*41
$GAGSV,3,1,09,13,60,240,23,08,49,019,37,07,43,297,30,26,29,311,24,7*77
$GAGSV,3,2,09,15,28,174,30,02,24,091,27,30,22,147,36,03,12,060,25,7*78
$GAGSV,3,3,09,25,04,047,,7*4A
$GAGSV,2,1,08,13,60,240,31,08,49,019,39,07,43,297,38,26,29,311,30,1*71
$GAGSV,2,2,08,15,28,174,38,02,24,091,26,30,22,147,32,03,12,060,31,1*76
$GBGSV,4,1,15,38,83,084,44,08,76,006,36,39,72,274,37,16,66,250,29,1*70
$GBGSV,4,2,15,13,66,337,41,06,65,246,18,46,57,122,37,09,49,233,19,1*73
$GBGSV,4,3,15,19,46,338,44,20,44,055,42,36,30,184,35,37,26,051,39,1*70
$GBGSV,4,4,15,35,23,274,31,29,23,216,17,22,09,297,18,1*43
$GBGSV,3,1,09,38,83,084,42,39,72,274,37,46,57,122,41,19,46,338,41,4*7B
$GBGSV,3,2,09,20,44,055,42,36,30,184,41,37,26,051,41,29,23,216,21,4*7C
$GBGSV,3,3,09,35,23,274,29,4*47
$GNACCURACY,3.3*16
$PAIRSAT,1,35,1,0,200,2,0,200,3,0,200,4,0,200,5,0,201,6,0,200,7,0,200,8,0,200,9,0,200,10,0,221,11,0,200,12,0,200,13,0,201,14,0,200,15,0,201,16,0,200,17,0,200,18,0,221,19,0,200,20,0,200,21,0,200,23,0,221,24,0,221,25,0,200,26,0,200,27,0,200,28,0,200,29,0,200,30,0,200,31,0,200,32,0,200,194,0,621,195,0,621,196,0,620,199,0,621*6A
$PAIRSAT,2,23,65,0,200,67,0,200,68,0,200,69,0,201,70,0,201,71,0,201,72,0,200,73,0,201,74,0,200,75,0,200,76,0,200,77,0,200,78,0,200,79,0,201,80,0,201,81,0,200,82,0,200,83,0,200,84,0,201,85,0,201,86,0,201,87,0,200,88,0,200*52
$PAIRSAT,3,23,2,0,1221,3,0,1221,4,0,1200,5,0,200,7,0,1221,8,0,1221,9,0,1200,10,0,1200,11,0,1200,12,0,1200,13,0,1221,15,0,1221,19,0,1200,21,0,1200,24,0,1200,25,0,1200,26,0,1221,27,0,1200,30,0,1221,31,0,1200,33,0,1200,34,0,1200,36,0,1200*6A
$PAIRSAT,4,50,1,0,200,2,0,200,3,0,200,4,0,200,5,0,200,6,0,201,7,0,200,8,0,201,9,0,201,10,0,200,11,0,200,12,0,200,13,0,201,14,0,200,15,0,200,16,0,201,19,0,621,20,0,621,21,0,600,22,0,621,23,0,600,24,0,600,25,0,600,26,0,600,27,0,600,28,0,600,29,0,621,30,0,600,31,0,200,32,0,600,33,0,600,34,0,600,35,0,621,36,0,621,37,0,621,38,0,621,39,0,621,40,0,600,41,0,600,42,0,600,43,0,600,44,0,600,45,0,600,46,0,621,56,0,200,57,0,200,58,0,200,59,0,600,60,0,600,61,0,600*41
$PAIRDGP,7,5,10,13,15,18,23,24*52
$GNGGA,111343.200,2500.8049302,N,12132.4792687,E,4,66,0.42,15.943,M,15.25,M,7,3335*4F
$GNRMC,111343.200,A,2500.8049302,N,12132.4792687,E,0.00,159.17,260623,,,R,V*17
$GPHDT,,T*1B
$GNACCURACY,3.3*16
$GNGGA,111343.300,2500.8049352,N,12132.4792753,E,4,67,0.42,15.955,M,15.25,M,7,3335*45
$GNRMC,111343.300,A,2500.8049352,N,12132.4792753,E,0.00,159.17,260623,,,R,V*1B
$GPHDT,,T*1B
$GNACCURACY,3.3*16
$GNGGA,111343.400,2500.8049336,N,12132.4792748,E,4,67,0.42,15.961,M,15.25,M,7,3335*4D
$GNRMC,111343.400,A,2500.8049336,N,12132.4792748,E,0.00,159.17,260623,,,R,V*14
$GPHDT,,T*1B
$GNACCURACY,3.3*16
$GNGGA,111343.500,2500.8049338,N,12132.4792718,E,4,67,0.42,15.951,M,15.25,M,7,3335*44
$GNRMC,111343.500,A,2500.8049338,N,12132.4792718,E,0.00,159.17,260623,,,R,V*1E
$GPHDT,,T*1B
$GNACCURACY,3.3*16
$GNGGA,111343.600,2500.8049346,N,12132.4792722,E,4,67,0.42,15.950,M,15.25,M,7,3335*46
$GNRMC,111343.600,A,2500.8049346,N,12132.4792722,E,0.00,159.17,260623,,,R,V*1D
$GPHDT,,T*1B
$GNACCURACY,3.3*16
$GNGGA,111343.700,2500.8049356,N,12132.4792728,E,4,67,0.42,15.957,M,15.25,M,7,3335*4B
$GNRMC,111343.700,A,2500.8049356,N,12132.4792728,E,0.00,159.17,260623,,,R,V*17
$GPHDT,,T*1B
$GNACCURACY,3.3*16
$GNGGA,111343.800,2500.8049356,N,12132.4792775,E,4,67,0.42,15.963,M,15.25,M,7,3335*4B
$GNRMC,111343.800,A,2500.8049356,N,12132.4792775,E,0.00,159.17,260623,,,R,V*10
$GPHDT,,T*1B
$GNACCURACY,3.3*16
$GNGGA,111343.900,2500.8049305,N,12132.4792697,E,4,67,0.42,15.949,M,15.25,M,7,3335*49
$GNRMC,111343.900,A,2500.8049305,N,12132.4792697,E,0.00,159.17,260623,,,R,V*1A
$GPHDT,,T*1B
$GNACCURACY,3.3*16
$GNGGA,111344.000,2500.8049329,N,12132.4792715,E,4,67,0.42,15.947,M,15.25,M,8,3335*43
$GNRMC,111344.000,A,2500.8049329,N,12132.4792715,E,0.00,159.17,260623,,,R,V*11
$GPHDT,,T*1B
$GNACCURACY,3.3*16
$GNGGA,111344.100,2500.8049307,N,12132.4792676,E,4,67,0.42,15.947,M,15.25,M,8,3335*4A
$GNRMC,111344.100,A,2500.8049307,N,12132.4792676,E,0.00,159.17,260623,,,R,V*18
$GPHDT,,T*1B
$GNGSA,A,3,24,196,18,199,23,15,195,194,05,10,13,,0.76,0.42,0.64,1*06
$GNGSA,A,3,80,70,85,73,86,71,79,69,84,,,,0.76,0.42,0.64,2*04
$GNGSA,A,3,13,08,07,26,15,02,30,03,,,,,0.76,0.42,0.64,3*09
$GNGSA,A,3,38,08,39,16,13,06,46,09,19,20,36,37,0.76,0.42,0.64,4*0B
$GNGSA,A,3,35,29,,,,,,,,,,,0.76,0.42,0.64,4*0C
$GPGSV,5,1,17,24,79,059,31,196,74,061,38,18,61,259,33,50,60,167,40,1*56
$GPGSV,5,2,17,199,60,167,37,23,45,335,45,15,40,041,34,195,36,179,39,1*6D
$GPGSV,5,3,17,194,28,140,41,05,23,114,22,12,16,146,21,10,14,316,37,1*52
$GPGSV,5,4,17,13,12,053,30,32,06,264,12,25,05,179,,29,03,201,,1*65
$GPGSV,5,5,17,20,01,127,,1*55
$GPGSV,2,1,08,24,79,059,46,196,74,061,39,18,61,259,34,199,60,167,47,8*63
$GPGSV,2,2,08,23,45,335,45,195,36,179,41,194,28,140,41,10,14,316,38,8*6E
$GLGSV,3,1,09,80,48,088,27,70,40,001,31,85,39,254,28,73,31,162,31,1*7D
$GLGSV,3,2,09,86,25,309,34,71,19,308,36,79,15,036,17,69,15,067,28,1*7D
$GLGSV,3,3,09,84,14,192,21,1*41
$GAGSV,3,1,09,13,60,240,23,08,49,019,37,07,43,297,30,26,29,311,21,7*72
$GAGSV,3,2,09,15,28,174,30,02,24,091,27,30,22,147,36,03,12,060,25,7*78
$GAGSV,3,3,09,25,04,047,,7*4A
$GAGSV,2,1,08,13,60,240,32,08,49,019,39,07,43,297,38,26,29,311,31,1*73
$GAGSV,2,2,08,15,28,174,38,02,24,091,26,30,22,147,31,03,12,060,31,1*75
$GBGSV,4,1,15,38,83,084,44,08,76,006,35,39,72,274,37,16,66,250,29,1*73
$GBGSV,4,2,15,13,66,337,41,06,65,246,18,46,57,122,38,09,49,233,19,1*7C
$GBGSV,4,3,15,19,46,338,43,20,44,055,42,36,30,184,34,37,26,051,39,1*76
$GBGSV,4,4,15,35,23,274,31,29,23,216,17,22,09,297,18,1*43
$GBGSV,3,1,09,38,83,084,43,39,72,274,36,46,57,122,41,19,46,338,41,4*7B
$GBGSV,3,2,09,20,44,055,42,36,30,184,41,37,26,051,41,29,23,216,20,4*7D
$GBGSV,3,3,09,35,23,274,29,4*47
$GNACCURACY,3.3*16
$PAIRSAT,1,35,1,0,200,2,0,200,3,0,200,4,0,200,5,0,201,6,0,200,7,0,200,8,0,200,9,0,200,10,0,221,11,0,200,12,0,200,13,0,201,14,0,200,15,0,201,16,0,200,17,0,200,18,0,221,19,0,200,20,0,200,21,0,200,23,0,221,24,0,221,25,0,200,26,0,200,27,0,200,28,0,200,29,0,200,30,0,200,31,0,200,32,0,200,194,0,621,195,0,621,196,0,620,199,0,621*6A
$PAIRSAT,2,23,65,0,200,67,0,200,68,0,200,69,0,201,70,0,201,71,0,201,72,0,200,73,0,201,74,0,200,75,0,200,76,0,200,77,0,200,78,0,200,79,0,201,80,0,201,81,0,200,82,0,200,83,0,200,84,0,201,85,0,201,86,0,201,87,0,200,88,0,200*52
$PAIRSAT,3,23,2,0,1221,3,0,1221,4,0,1200,5,0,200,7,0,1221,8,0,1221,9,0,1200,10,0,1200,11,0,1200,12,0,1200,13,0,1221,15,0,1221,19,0,1200,21,0,1200,24,0,1200,25,0,1200,26,0,1221,27,0,1200,30,0,1221,31,0,1200,33,0,1200,34,0,1200,36,0,1200*6A
$PAIRSAT,4,50,1,0,200,2,0,200,3,0,200,4,0,200,5,0,200,6,0,201,7,0,200,8,0,201,9,0,201,10,0,200,11,0,200,12,0,200,13,0,201,14,0,200,15,0,200,16,0,201,19,0,621,20,0,621,21,0,600,22,0,621,23,0,600,24,0,600,25,0,600,26,0,600,27,0,600,28,0,600,29,0,621,30,0,600,31,0,200,32,0,600,33,0,600,34,0,600,35,0,621,36,0,621,37,0,621,38,0,621,39,0,621,40,0,600,41,0,600,42,0,600,43,0,600,44,0,600,45,0,600,46,0,621,56,0,200,57,0,200,58,0,200,59,0,600,60,0,600,61,0,600*41
$PAIRDGP,7,5,10,13,15,18,23,24*52
$GNGGA,111344.200,2500.8049283,N,12132.4792683,E,4,67,0.42,15.949,M,15.25,M,8,3335*40
$GNRMC,111344.200,A,2500.8049283,N,12132.4792683,E,0.00,159.17,260623,,,R,V*1C
$GPHDT,,T*1B
$GNACCURACY,3.3*16
$GNGGA,111344.300,2500.8049306,N,12132.4792691,E,4,67,0.42,15.952,M,15.25,M,8,3335*44
$GNRMC,111344.300,A,2500.8049306,N,12132.4792691,E,0.00,159.17,260623,,,R,V*12
$GPHDT,,T*1B
$GNACCURACY,3.3*16
$GNGGA,111344.400,2500.8049293,N,12132.4792701,E,4,67,0.42,15.951,M,15.25,M,8,3335*45
$GNRMC,111344.400,A,2500.8049293,N,12132.4792701,E,0.00,159.17,260623,,,R,V*10
$GPHDT,,T*1B
$GNACCURACY,3.3*16
$GNGGA,111344.500,2500.8049312,N,12132.4792757,E,4,67,0.42,15.951,M,15.25,M,8,3335*4F
$GNRMC,111344.500,A,2500.8049312,N,12132.4792757,E,0.01,159.17,260623,,,R,V*1B
$GPHDT,,T*1B
$GNACCURACY,3.3*16
$GNGGA,111344.600,2500.8049295,N,12132.4792680,E,4,67,0.42,15.943,M,15.25,M,8,3335*4A
$GNRMC,111344.600,A,2500.8049295,N,12132.4792680,E,0.01,159.17,260623,,,R,V*1D
$GPHDT,,T*1B
$GNACCURACY,3.3*16
$GNGGA,111344.700,2500.8049284,N,12132.4792656,E,4,66,0.42,15.943,M,15.25,M,8,3335*41
$GNRMC,111344.700,A,2500.8049284,N,12132.4792656,E,0.01,159.17,260623,,,R,V*17
