$FW : RTK35X,V1.1X0314AS,Lib20210517,1*54
$Tool : LOCOSYS , GNSS Firebird , v1.0.0.19*39
$---------------------------------------------------*2D
$GNACCURACY,3.1*14
$GNGGA,111156.000,2500.8049735,N,12132.4792866,E,4,58,0.45,16.034,M,15.25,M,30,3335*7E
$GNRMC,111156.000,A,2500.8049735,N,12132.4792866,E,0.01,159.17,260623,,,R,V*13
$GPHDT,,T*1B
$GNACCURACY,3.1*14
$GNGGA,111156.100,2500.8049761,N,12132.4792884,E,4,58,0.45,16.035,M,15.25,M,30,3335*73
$GNRMC,111156.100,A,2500.8049761,N,12132.4792884,E,0.01,159.17,260623,,,R,V*1F
$GPHDT,,T*1B
$GNGSA,A,3,24,196,199,23,15,195,194,05,10,13,,,0.83,0.45,0.70,1*07
$GNGSA,A,3,80,70,85,73,86,71,79,,,,,,0.83,0.45,0.70,2*0F
$GNGSA,A,3,13,08,07,26,15,02,30,03,,,,,0.83,0.45,0.70,3*01
$GNGSA,A,3,38,08,39,13,06,46,09,19,20,36,37,35,0.83,0.45,0.70,4*02
$GPGSV,4,1,16,24,80,063,39,196,74,061,36,18,61,261,18,199,60,167,37,1*69
$GPGSV,4,2,16,23,45,334,40,15,40,040,34,195,36,179,42,194,28,140,44,1*64
$GPGSV,4,3,16,05,23,113,25,12,16,146,27,10,13,315,39,13,12,052,31,1*6C
$GPGSV,4,4,16,32,06,264,19,25,05,180,,29,04,201,,20,01,126,,1*6D
$GPGSV,2,1,07,24,80,063,44,196,74,061,36,199,60,167,44,23,45,334,44,8*6E
$GPGSV,2,2,07,195,36,179,39,194,28,140,38,10,13,315,41,8*5E
$GLGSV,3,1,09,80,47,089,35,70,40,000,26,85,40,255,23,73,30,162,41,1*75
$GLGSV,3,2,09,86,25,310,35,71,19,307,31,79,16,037,16,84,15,193,,1*7C
$GLGSV,3,3,09,69,15,066,16,1*4D
$GAGSV,3,1,09,13,61,241,26,08,49,019,37,07,43,296,32,26,29,312,36,7*71
$GAGSV,3,2,09,15,28,174,38,02,24,091,28,30,21,147,24,03,13,060,25,7*7E
$GAGSV,3,3,09,25,04,047,,7*4A
$GAGSV,2,1,06,13,61,241,27,08,49,019,35,07,43,296,35,26,29,312,24,1*7E
$GAGSV,2,2,06,15,28,174,38,03,13,060,29,1*78
$GBGSV,4,1,15,38,83,080,44,08,75,006,40,39,72,272,36,16,66,248,18,1*7A
$GBGSV,4,2,15,13,66,338,42,06,64,245,27,46,56,123,42,09,49,233,23,1*7A
$GBGSV,4,3,15,19,46,337,43,20,44,054,45,36,29,185,34,37,26,052,40,1*7B
$GBGSV,4,4,15,29,23,216,,35,23,275,24,22,08,296,,1*49
$GBGSV,3,1,09,38,83,080,42,39,72,272,35,46,56,123,41,19,46,337,38,4*7A
$GBGSV,3,2,09,20,44,054,40,36,29,185,33,37,26,052,37,35,23,275,32,4*7B
$GBGSV,3,3,09,22,08,296,29,4*44
$GNACCURACY,3.1*14
$PAIRSAT,1,35,1,0,200,2,0,200,3,0,200,4,0,200,5,0,201,6,0,200,7,0,200,8,0,200,9,0,200,10,0,221,11,0,200,12,0,200,13,0,201,14,0,200,15,0,201,16,0,200,17,0,200,18,0,221,19,0,200,20,0,200,21,0,200,23,0,221,24,0,221,25,0,200,26,0,200,27,0,200,28,0,200,29,0,200,30,0,200,31,0,200,32,0,200,194,0,621,195,0,621,196,0,620,199,0,621*6A
$PAIRSAT,2,23,65,0,200,67,0,200,68,0,200,69,0,201,70,0,201,71,0,201,72,0,200,73,0,201,74,0,200,75,0,200,76,0,200,77,0,200,78,0,200,79,0,201,80,0,201,81,0,200,82,0,200,83,0,200,84,0,201,85,0,201,86,0,201,87,0,200,88,0,200*52
$PAIRSAT,3,23,2,0,1221,3,0,1221,4,0,1200,5,0,200,7,0,1221,8,0,1221,9,0,1200,10,0,1200,11,0,1200,12,0,1200,13,0,1221,15,0,1221,19,0,1200,21,0,1200,24,0,1200,25,0,1200,26,0,1221,27,0,1200,30,0,1201,31,0,1200,33,0,1200,34,0,1200,36,0,1200*68
$PAIRSAT,4,50,1,0,200,2,0,200,3,0,200,4,0,200,5,0,200,6,0,201,7,0,200,8,0,201,9,0,201,10,0,200,11,0,200,12,0,200,13,0,201,14,0,200,15,0,200,16,0,201,19,0,621,20,0,621,21,0,600,22,0,621,23,0,600,24,0,600,25,0,600,26,0,600,27,0,600,28,0,600,29,0,621,30,0,600,31,0,200,32,0,600,33,0,600,34,0,600,35,0,621,36,0,621,37,0,621,38,0,621,39,0,621,40,0,600,41,0,600,42,0,600,43,0,600,44,0,600,45,0,600,46,0,621,56,0,200,57,0,200,58,0,200,59,0,600,60,0,600,61,0,600*41
$PAIRDGP,7,5,10,13,15,18,23,24*52
$GNGGA,111156.200,2500.8049795,N,12132.4792962,E,4,58,0.45,16.056,M,15.25,M,30,3335*77
$GNRMC,111156.200,A,2500.8049795,N,12132.4792962,E,0.01,159.17,260623,,,R,V*1E
$GPHDT,,T*1B
$GNACCURACY,3.1*14
$GNGGA,111156.300,2500.8049773,N,12132.4792915,E,4,58,0.45,16.030,M,15.25,M,30,3335*7E
$GNRMC,111156.300,A,2500.8049773,N,12132.4792915,E,0.01,159.17,260623,,,R,V*17
$GPHDT,,T*1B
$GNACCURACY,3.1*14
$GNGGA,111156.400,2500.8049764,N,12132.4792890,E,4,59,0.44,16.031,M,15.25,M,30,3335*72
$GNRMC,111156.400,A,2500.8049764,N,12132.4792890,E,0.01,159.17,260623,,,R,V*1A
$GPHDT,,T*1B
$GNACCURACY,3.2*17
$GNGGA,111156.500,2500.8049817,N,12132.4792981,E,4,59,0.44,16.054,M,15.25,M,30,3335*7A
$GNRMC,111156.500,A,2500.8049817,N,12132.4792981,E,0.01,159.17,260623,,,R,V*11
$GPHDT,,T*1B
$GNACCURACY,3.2*17
$GNGGA,111156.600,2500.8049755,N,12132.4792887,E,4,59,0.44,16.035,M,15.25,M,30,3335*70
$GNRMC,111156.600,A,2500.8049755,N,12132.4792887,E,0.01,159.17,260623,,,R,V*1C
$GPHDT,,T*1B
$GNACCURACY,3.2*17
$GNGGA,111156.700,2500.8049781,N,12132.4792908,E,4,59,0.44,16.047,M,15.25,M,30,3335*7B
$GNRMC,111156.700,A,2500.8049781,N,12132.4792908,E,0.01,159.17,260623,,,R,V*12
$GPHDT,,T*1B
$GNACCURACY,3.2*17
$GNGGA,111156.800,2500.8049794,N,12132.4792951,E,4,59,0.44,16.046,M,15.25,M,30,3335*7D
$GNRMC,111156.800,A,2500.8049794,N,12132.4792951,E,0.01,159.17,260623,,,R,V*15
$GPHDT,,T*1B
$GNACCURACY,3.2*17
$GNGGA,111156.900,2500.8049816,N,12132.4792969,E,4,59,0.44,16.061,M,15.25,M,30,3335*77
$GNRMC,111156.900,A,2500.8049816,N,12132.4792969,E,0.01,159.17,260623,,,R,V*1A
$GPHDT,,T*1B
$GNACCURACY,3.2*17
$GNGGA,111157.000,2500.8049801,N,12132.4792953,E,4,59,0.44,16.058,M,15.25,M,31,3335*7B
$GNRMC,111157.000,A,2500.8049801,N,12132.4792953,E,0.01,159.17,260623,,,R,V*1D
$GPHDT,,T*1B
$GNACCURACY,3.2*17
$GNGGA,111157.100,2500.8049849,N,12132.4792999,E,4,60,0.44,16.053,M,15.25,M,31,3335*71
$GNRMC,111157.100,A,2500.8049849,N,12132.4792999,E,0.00,159.17,260623,,,R,V*17
$GPHDT,,T*1B
$GNGSA,A,3,24,196,199,23,15,195,194,05,10,13,,,0.82,0.44,0.69,1*0F
$GNGSA,A,3,80,70,85,73,86,71,79,,,,,,0.82,0.44,0.69,2*07
$GNGSA,A,3,13,08,07,26,15,02,30,03,,,,,0.82,0.44,0.69,3*09
$GNGSA,A,3,38,08,39,13,06,46,09,19,20,36,37,35,0.82,0.44,0.69,4*0A
$GNGSA,A,3,29,,,,,,,,,,,,0.82,0.44,0.69,4*0A
$GPGSV,5,1,17,24,80,063,39,196,74,061,36,18,61,261,18,50,60,167,40,1*5D
$GPGSV,5,2,17,199,60,167,37,23,45,334,40,15,40,040,34,195,36,179,42,1*64
$GPGSV,5,3,17,194,28,140,44,05,23,113,25,12,16,146,28,10,13,315,39,1*54
$GPGSV,5,4,17,13,12,052,30,32,06,264,19,25,05,180,,29,04,201,,1*6E
$GPGSV,5,5,17,20,01,126,,1*54
$GPGSV,2,1,07,24,80,063,44,196,74,061,36,199,60,167,45,23,45,334,44,8*6F
$GPGSV,2,2,07,195,36,179,40,194,28,140,37,10,13,315,40,8*5E
$GLGSV,3,1,09,80,47,089,37,70,40,000,26,85,40,255,21,73,30,162,41,1*75
$GLGSV,3,2,09,86,25,310,34,71,19,307,32,79,16,037,16,69,15,066,14,1*73
$GLGSV,3,3,09,84,15,193,,1*42
$GAGSV,3,1,09,13,61,241,26,08,49,019,37,07,43,296,32,26,29,312,36,7*71
$GAGSV,3,2,09,15,28,174,39,02,24,091,28,30,21,147,22,03,13,060,26,7*7A
$GAGSV,3,3,09,25,04,047,,7*4A
$GAGSV,2,1,07,13,61,241,28,08,49,019,35,07,43,296,35,26,29,312,24,1*70
$GAGSV,2,2,07,15,28,174,38,30,21,147,22,03,13,060,29,1*4B
$GBGSV,4,1,15,38,83,080,44,08,75,006,40,39,72,272,36,16,66,248,17,1*75
$GBGSV,4,2,15,13,66,338,42,06,64,245,27,46,56,123,42,09,49,233,23,1*7A
$GBGSV,4,3,15,19,46,337,43,20,44,054,45,36,29,185,35,37,26,052,40,1*7A
$GBGSV,4,4,15,35,23,275,24,29,23,216,,22,08,296,,1*49
$GBGSV,3,1,10,38,83,080,42,39,72,272,35,46,56,123,41,19,46,337,38,4*72
$GBGSV,3,2,10,20,44,054,41,36,29,185,33,37,26,052,37,29,23,216,20,4*79
$GBGSV,3,3,10,35,23,275,32,22,08,296,29,4*7A
$GNACCURACY,3.2*17
$PAIRSAT,1,35,1,0,200,2,0,200,3,0,200,4,0,200,5,0,201,6,0,200,7,0,200,8,0,200,9,0,200,10,0,221,11,0,200,12,0,200,13,0,201,14,0,200,15,0,201,16,0,200,17,0,200,18,0,221,19,0,200,20,0,200,21,0,200,23,0,221,24,0,221,25,0,200,26,0,200,27,0,200,28,0,200,29,0,200,30,0,200,31,0,200,32,0,200,194,0,621,195,0,621,196,0,620,199,0,621*6A
$PAIRSAT,2,23,65,0,200,67,0,200,68,0,200,69,0,201,70,0,201,71,0,201,72,0,200,73,0,201,74,0,200,75,0,200,76,0,200,77,0,200,78,0,200,79,0,201,80,0,201,81,0,200,82,0,200,83,0,200,84,0,201,85,0,201,86,0,201,87,0,200,88,0,200*52
$PAIRSAT,3,23,2,0,1221,3,0,1221,4,0,1200,5,0,200,7,0,1221,8,0,1221,9,0,1200,10,0,1200,11,0,1200,12,0,1200,13,0,1221,15,0,1221,19,0,1200,21,0,1200,24,0,1200,25,0,1200,26,0,1221,27,0,1200,30,0,1201,31,0,1200,33,0,1200,34,0,1200,36,0,1200*68
$PAIRSAT,4,50,1,0,200,2,0,200,3,0,200,4,0,200,5,0,200,6,0,201,7,0,200,8,0,201,9,0,201,10,0,200,11,0,200,12,0,200,13,0,201,14,0,200,15,0,200,16,0,201,19,0,621,20,0,621,21,0,600,22,0,621,23,0,600,24,0,600,25,0,600,26,0,600,27,0,600,28,0,600,29,0,621,30,0,600,31,0,200,32,0,600,33,0,600,34,0,600,35,0,621,36,0,621,37,0,621,38,0,621,39,0,621,40,0,600,41,0,600,42,0,600,43,0,600,44,0,600,45,0,600,46,0,621,56,0,200,57,0,200,58,0,200,59,0,600,60,0,600,61,0,600*41
$PAIRDGP,7,5,10,13,15,18,23,24*52
$GNGGA,111157.200,2500.8049816,N,12132.4792972,E,4,60,0.44,16.062,M,15.25,M,31,3335*7F
$GNRMC,111157.200,A,2500.8049816,N,12132.4792972,E,0.00,159.17,260623,,,R,V*1B
$GPHDT,,T*1B
$GNACCURACY,3.2*17
$GNGGA,111157.300,2500.8049840,N,12132.4792994,E,4,60,0.44,16.068,M,15.25,M,31,3335*7F
$GNRMC,111157.300,A,2500.8049840,N,12132.4792994,E,0.00,159.17,260623,,,R,V*11
$GPHDT,,T*1B
$GNACCURACY,3.2*17
$GNGGA,111157.400,2500.8049827,N,12132.4792961,E,4,60,0.44,16.064,M,15.25,M,31,3335*7F
$GNRMC,111157.400,A,2500.8049827,N,12132.4792961,E,0.00,159.17,260623,,,R,V*1D
$GPHDT,,T*1B
$GNACCURACY,3.2*17
$GNGGA,111157.500,2500.8049821,N,12132.4792958,E,4,60,0.44,16.053,M,15.25,M,31,3335*76
$GNRMC,111157.500,A,2500.8049821,N,12132.4792958,E,0.00,159.17,260623,,,R,V*10
$GPHDT,,T*1B
$GNACCURACY,3.2*17
$GNGGA,111157.600,2500.8049853,N,12132.4793045,E,4,60,0.44,16.084,M,15.25,M,31,3335*7E
$GNRMC,111157.600,A,2500.8049853,N,12132.4793045,E,0.00,159.17,260623,,,R,V*12
$GPHDT,,T*1B
$GNACCURACY,3.2*17
$GNGGA,111157.700,2500.8049830,N,12132.4792969,E,4,60,0.44,16.066,M,15.25,M,31,3335*70
$GNRMC,111157.700,A,2500.8049830,N,12132.4792969,E,0.00,159.17,260623,,,R,V*10
$GPHDT,,T*1B
$GNACCURACY,3.2*17
$GNGGA,111157.800,2500.8049857,N,12132.4793016,E,4,60,0.44,16.079,M,15.25,M,31,3335*70
$GNRMC,111157.800,A,2500.8049857,N,12132.4793016,E,0.00,159.17,260623,,,R,V*1E
$GPHDT,,T*1B
$GNACCURACY,3.2*17
$GNGGA,111157.900,2500.8049820,N,12132.4792962,E,4,60,0.44,16.068,M,15.25,M,31,3335*7A
$GNRMC,111157.900,A,2500.8049820,N,12132.4792962,E,0.00,159.17,260623,,,R,V*14
$GPHDT,,T*1B
$GNACCURACY,3.1*14
$GNGGA,111158.000,2500.8049843,N,12132.4792979,E,4,60,0.44,16.072,M,15.25,M,32,3335*7B
$GNRMC,111158.000,A,2500.8049843,N,12132.4792979,E,0.00,159.17,260623,,,R,V*1D
$GPHDT,,T*1B
$GNACCURACY,3.2*17
$GNGGA,111158.100,2500.8049844,N,12132.4792971,E,4,60,0.44,16.065,M,15.25,M,32,3335*73
$GNRMC,111158.100,A,2500.8049844,N,12132.4792971,E,0.00,159.17,260623,,,R,V*13
$GPHDT,,T*1B
$GNGSA,A,3,24,196,199,23,15,195,194,05,10,13,,,0.82,0.44,0.69,1*0F
$GNGSA,A,3,80,85,70,73,86,71,79,,,,,,0.82,0.44,0.69,2*07
$GNGSA,A,3,13,08,07,26,15,02,30,03,,,,,0.82,0.44,0.69,3*09
$GNGSA,A,3,38,08,39,13,06,46,09,19,20,36,37,35,0.82,0.44,0.69,4*0A
$GNGSA,A,3,29,,,,,,,,,,,,0.82,0.44,0.69,4*0A
$GPGSV,5,1,17,24,80,063,40,196,74,061,35,18,61,261,19,50,60,167,39,1*5F
$GPGSV,5,2,17,199,60,167,37,23,45,334,40,15,40,040,35,195,36,179,43,1*64
$GPGSV,5,3,17,194,28,140,44,05,23,113,24,12,16,146,27,10,13,315,39,1*5A
$GPGSV,5,4,17,13,12,052,30,32,06,264,18,25,05,180,,29,04,201,,1*6F
$GPGSV,5,5,17,20,01,126,,1*54
$GPGSV,2,1,07,24,80,063,44,196,74,061,37,199,60,167,46,23,45,334,44,8*6D
$GPGSV,2,2,07,195,36,179,42,194,28,140,37,10,13,315,40,8*5C
$GLGSV,3,1,09,80,47,089,37,85,40,255,21,70,40,000,26,73,30,162,41,1*75
$GLGSV,3,2,09,86,25,310,34,71,19,307,31,79,16,037,16,69,15,066,15,1*71
$GLGSV,3,3,09,84,15,193,,1*42
$GAGSV,3,1,09,13,61,241,26,08,49,019,37,07,43,296,32,26,29,312,36,7*71
$GAGSV,3,2,09,15,28,174,39,02,24,091,28,30,22,147,24,03,13,060,26,7*7F
$GAGSV,3,3,09,25,04,047,,7*4A
$GAGSV,2,1,07,13,61,241,25,08,49,019,35,07,43,296,35,26,29,312,25,1*7C
$GAGSV,2,2,07,15,28,174,39,30,22,147,22,03,13,060,28,1*48
$GBGSV,5,1,18,38,83,080,44,08,75,006,40,39,72,272,36,13,66,338,42,1*7A
$GBGSV,5,2,18,16,66,248,17,06,64,245,27,46,56,123,42,09,49,233,22,1*74
$GBGSV,5,3,18,19,46,337,43,20,44,054,45,31,34,207,,36,29,185,35,1*75
$GBGSV,5,4,18,37,26,052,41,29,23,216,,35,23,275,21,22,08,296,,1*72
$GBGSV,5,5,18,07,05,194,,10,03,204,,1*75
$GBGSV,3,1,10,38,83,080,42,39,72,272,35,46,56,123,42,19,46,337,38,4*71
$GBGSV,3,2,10,20,44,054,41,36,29,185,35,37,26,052,37,29,23,216,19,4*75
$GBGSV,3,3,10,35,23,275,33,22,08,296,29,4*7B
$GNACCURACY,3.2*17
$PAIRSAT,1,35,1,0,200,2,0,200,3,0,200,4,0,200,5,0,201,6,0,200,7,0,200,8,0,200,9,0,200,10,0,221,11,0,200,12,0,200,13,0,201,14,0,200,15,0,201,16,0,200,17,0,200,18,0,221,19,0,200,20,0,200,21,0,200,23,0,221,24,0,221,25,0,200,26,0,200,27,0,200,28,0,200,29,0,200,30,0,200,31,0,200,32,0,200,194,0,621,195,0,621,196,0,620,199,0,621*6A
$PAIRSAT,2,23,65,0,200,67,0,200,68,0,200,69,0,201,70,0,201,71,0,201,72,0,200,73,0,201,74,0,200,75,0,200,76,0,200,77,0,200,78,0,200,79,0,201,80,0,201,81,0,200,82,0,200,83,0,200,84,0,201,85,0,201,86,0,201,87,0,200,88,0,200*52
$PAIRSAT,3,23,2,0,1221,3,0,1221,4,0,1200,5,0,200,7,0,1221,8,0,1221,9,0,1200,10,0,1200,11,0,1200,12,0,1200,13,0,1221,15,0,1221,19,0,1200,21,0,1200,24,0,1200,25,0,1200,26,0,1221,27,0,1200,30,0,1201,31,0,1200,33,0,1200,34,0,1200,36,0,1200*68
$PAIRSAT,4,50,1,0,200,2,0,200,3,0,200,4,0,200,5,0,200,6,0,201,7,0,200,8,0,201,9,0,201,10,0,200,11,0,200,12,0,200,13,0,201,14,0,200,15,0,200,16,0,201,19,0,621,20,0,621,21,0,600,22,0,621,23,0,600,24,0,600,25,0,600,26,0,600,27,0,600,28,0,600,29,0,621,30,0,600,31,0,200,32,0,600,33,0,600,34,0,600,35,0,621,36,0,621,37,0,621,38,0,621,39,0,621,40,0,600,41,0,600,42,0,600,43,0,600,44,0,600,45,0,600,46,0,621,56,0,200,57,0,200,58,0,200,59,0,600,60,0,600,61,0,600*41
$PAIRDGP,7,5,10,13,15,18,23,24*52
$GNGGA,111158.200,2500.8049841,N,12132.4792981,E,4,60,0.44,16.069,M,15.25,M,32,3335*76
$GNRMC,111158.200,A,2500.8049841,N,12132.4792981,E,0.00,159.17,260623,,,R,V*1A
$GPHDT,,T*1B
$GNACCURACY,3.2*17
$GNGGA,111158.300,2500.8049824,N,12132.4792959,E,4,60,0.44,16.068,M,15.25,M,32,3335*70
$GNRMC,111158.300,A,2500.8049824,N,12132.4792959,E,0.00,159.17,260623,,,R,V*1D
$GPHDT,,T*1B
$GNACCURACY,3.2*17
$GNGGA,111158.400,2500.8049813,N,12132.4792941,E,4,60,0.44,16.058,M,15.25,M,32,3335*79
$GNRMC,111158.400,A,2500.8049813,N,12132.4792941,E,0.00,159.17,260623,,,R,V*17
$GPHDT,,T*1B
$GNACCURACY,3.2*17
$GNGGA,111158.500,2500.8049831,N,12132.4792961,E,4,60,0.44,16.052,M,15.25,M,32,3335*70
$GNRMC,111158.500,A,2500.8049831,N,12132.4792961,E,0.00,159.17,260623,,,R,V*14
$GPHDT,,T*1B
$GNACCURACY,3.2*17
$GNGGA,111158.600,2500.8049864,N,12132.4793005,E,4,60,0.44,16.068,M,15.25,M,32,3335*70
$GNRMC,111158.600,A,2500.8049864,N,12132.4793005,E,0.00,159.17,260623,,,R,V*1D
$GPHDT,,T*1B
$GNACCURACY,3.2*17
$GNGGA,111158.700,2500.8049813,N,12132.4792883,E,4,60,0.44,16.045,M,15.25,M,32,3335*79
$GNRMC,111158.700,A,2500.8049813,N,12132.4792883,E,0.00,159.17,260623,,,R,V*1B
$GPHDT,,T*1B
$GNACCURACY,3.2*17
$GNGGA,111158.800,2500.8049811,N,12132.4792910,E,4,60,0.44,16.046,M,15.25,M,32,3335*7C
$GNRMC,111158.800,A,2500.8049811,N,12132.4792910,E,0.00,159.17,260623,,,R,V*1D
$GPHDT,,T*1B
$GNACCURACY,3.2*17
$GNGGA,111158.900,2500.8049825,N,12132.4792900,E,4,60,0.44,16.048,M,15.25,M,32,3335*75
$GNRMC,111158.900,A,2500.8049825,N,12132.4792900,E,0.00,159.17,260623,,,R,V*1A
$GPHDT,,T*1B
$GNACCURACY,3.2*17
$GNGGA,111159.000,2500.8049905,N,12132.4793014,E,4,60,0.44,16.082,M,15.25,M,33,3335*74
$GNRMC,111159.000,A,2500.8049905,N,12132.4793014,E,0.00,159.17,260623,,,R,V*1C
$GPHDT,,T*1B
$GNACCURACY,3.2*17
$GNGGA,111159.100,2500.8049826,N,12132.4792924,E,4,60,0.44,16.053,M,15.25,M,33,3335*72
$GNRMC,111159.100,A,2500.8049826,N,12132.4792924,E,0.00,159.17,260623,,,R,V*16
$GPHDT,,T*1B
$GNGSA,A,3,24,196,199,23,15,195,194,05,10,13,,,0.82,0.44,0.69,1*0F
$GNGSA,A,3,80,70,85,73,86,71,79,,,,,,0.82,0.44,0.69,2*07
$GNGSA,A,3,13,08,07,26,15,02,30,03,,,,,0.82,0.44,0.69,3*09
$GNGSA,A,3,38,08,39,13,06,46,09,19,20,36,37,35,0.82,0.44,0.69,4*0A
$GNGSA,A,3,29,,,,,,,,,,,,0.82,0.44,0.69,4*0A
$GPGSV,5,1,17,24,80,063,40,196,74,061,36,18,61,261,17,50,60,167,37,1*5C
$GPGSV,5,2,17,199,60,167,37,23,45,334,40,15,40,040,35,195,36,179,39,1*69
$GPGSV,5,3,17,194,28,140,43,05,23,113,22,12,16,146,27,10,13,315,39,1*5B
$GPGSV,5,4,17,13,12,052,29,32,06,264,19,25,05,180,,29,04,201,,1*66
$GPGSV,5,5,17,20,01,126,,1*54
$GPGSV,2,1,07,24,80,063,44,196,74,061,37,199,60,167,45,23,45,334,44,8*6E
$GPGSV,2,2,07,195,36,179,39,194,28,140,38,10,13,315,40,8*5F
$GLGSV,3,1,09,80,47,089,37,70,40,000,26,85,40,255,21,73,31,162,42,1*77
$GLGSV,3,2,09,86,25,310,34,71,19,307,32,79,16,037,17,69,15,066,13,1*75
$GLGSV,3,3,09,84,15,193,,1*42
$GAGSV,3,1,09,13,61,241,28,08,49,019,37,07,43,296,31,26,29,312,36,7*7C
$GAGSV,3,2,09,15,28,174,36,02,24,091,28,30,22,147,24,03,13,060,26,7*70
$GAGSV,3,3,09,25,04,047,,7*4A
$GAGSV,2,1,07,13,61,241,25,08,49,019,36,07,43,296,35,26,29,312,26,1*7C
$GAGSV,2,2,07,15,28,174,35,30,22,147,21,03,13,060,29,1*46
$GBGSV,4,1,15,38,83,080,44,08,75,006,40,39,72,272,36,16,66,248,17,1*75
$GBGSV,4,2,15,13,66,338,42,06,64,245,27,46,56,123,42,09,49,233,21,1*78
$GBGSV,4,3,15,19,46,337,43,20,44,054,45,36,29,185,29,37,26,052,41,1*76
$GBGSV,4,4,15,35,23,275,20,29,23,216,,22,08,296,,1*4D
$GBGSV,3,1,10,38,83,080,42,39,72,272,35,46,56,123,42,19,46,337,38,4*71
$GBGSV,3,2,10,20,44,054,41,36,29,185,31,37,26,052,37,29,23,216,19,4*71
$GBGSV,3,3,10,35,23,275,33,22,08,296,29,4*7B
$GNACCURACY,3.2*17
$PAIRSAT,1,35,1,0,200,2,0,200,3,0,200,4,0,200,5,0,201,6,0,200,7,0,200,8,0,200,9,0,200,10,0,221,11,0,200,12,0,200,13,0,201,14,0,200,15,0,201,16,0,200,17,0,200,18,0,221,19,0,200,20,0,200,21,0,200,23,0,221,24,0,221,25,0,200,26,0,200,27,0,200,28,0,200,29,0,200,30,0,200,31,0,200,32,0,200,194,0,621,195,0,621,196,0,620,199,0,621*6A
$PAIRSAT,2,23,65,0,200,67,0,200,68,0,200,69,0,201,70,0,201,71,0,201,72,0,200,73,0,201,74,0,200,75,0,200,76,0,200,77,0,200,78,0,200,79,0,201,80,0,201,81,0,200,82,0,200,83,0,200,84,0,201,85,0,201,86,0,201,87,0,200,88,0,200*52
$PAIRSAT,3,23,2,0,1221,3,0,1221,4,0,1200,5,0,200,7,0,1221,8,0,1221,9,0,1200,10,0,1200,11,0,1200,12,0,1200,13,0,1221,15,0,1221,19,0,1200,21,0,1200,24,0,1200,25,0,1200,26,0,1221,27,0,1200,30,0,1201,31,0,1200,33,0,1200,34,0,1200,36,0,1200*68
$PAIRSAT,4,50,1,0,200,2,0,200,3,0,200,4,0,200,5,0,200,6,0,201,7,0,200,8,0,201,9,0,201,10,0,200,11,0,200,12,0,200,13,0,201,14,0,200,15,0,200,16,0,201,19,0,621,20,0,621,21,0,600,22,0,621,23,0,600,24,0,600,25,0,600,26,0,600,27,0,600,28,0,600,29,0,621,30,0,600,31,0,200,32,0,600,33,0,600,34,0,600,35,0,621,36,0,621,37,0,621,38,0,621,39,0,621,40,0,600,41,0,600,42,0,600,43,0,600,44,0,600,45,0,600,46,0,621,56,0,200,57,0,200,58,0,200,59,0,600,60,0,600,61,0,600*41
$PAIRDGP,3,5,10,13*5C
$GNGGA,111159.200,2500.8049815,N,12132.4792908,E,4,60,0.44,16.047,M,15.25,M,33,3335*7A
$GNRMC,111159.200,A,2500.8049815,N,12132.4792908,E,0.00,159.17,260623,,,R,V*1B
$GPHDT,,T*1B
$GNACCURACY,3.2*17
$GNGGA,111159.300,2500.8049881,N,12132.4792990,E,4,60,0.44,16.068,M,15.25,M,33,3335*7A
$GNRMC,111159.300,A,2500.8049881,N,12132.4792990,E,0.00,159.17,260623,,,R,V*16
$GPHDT,,T*1B
$GNACCURACY,3.2*17
$GNGGA,111159.400,2500.8049911,N,12132.4793044,E,4,60,0.44,16.080,M,15.25,M,33,3335*72
$GNRMC,111159.400,A,2500.8049911,N,12132.4793044,E,0.00,159.17,260623,,,R,V*18
$GPHDT,,T*1B
$GNACCURACY,3.1*14
$GNGGA,111159.500,2500.8049915,N,12132.4792965,E,4,60,0.44,16.077,M,15.25,M,33,3335*74
$GNRMC,111159.500,A,2500.8049915,N,12132.4792965,E,0.00,159.17,260623,,,R,V*16
$GPHDT,,T*1B
$GNACCURACY,3.2*17
$GNGGA,111159.600,2500.8049849,N,12132.4792956,E,4,61,0.44,16.070,M,15.25,M,33,3335*79
$GNRMC,111159.600,A,2500.8049849,N,12132.4792956,E,0.00,159.17,260623,,,R,V*1D
$GPHDT,,T*1B
$GNACCURACY,3.2*17
$GNGGA,111159.700,2500.8049855,N,12132.4792964,E,4,61,0.44,16.077,M,15.25,M,33,3335*73
$GNRMC,111159.700,A,2500.8049855,N,12132.4792964,E,0.00,159.17,260623,,,R,V*10
$GPHDT,,T*1B
$GNACCURACY,3.2*17
$GNGGA,111159.800,2500.8049935,N,12132.4793070,E,4,61,0.44,16.088,M,15.25,M,33,3335*76
$GNRMC,111159.800,A,2500.8049935,N,12132.4793070,E,0.00,159.17,260623,,,R,V*15
$GPHDT,,T*1B
$GNACCURACY,3.1*14
$GNGGA,111159.900,2500.8049850,N,12132.4792988,E,4,61,0.44,16.059,M,15.25,M,33,3335*76
$GNRMC,111159.900,A,2500.8049850,N,12132.4792988,E,0.00,159.17,260623,,,R,V*19
$GPHDT,,T*1B
$GNACCURACY,3.1*14
$GNGGA,111200.000,2500.8049864,N,12132.4792979,E,4,61,0.44,16.068,M,15.25,M,34,3335*7C
$GNRMC,111200.000,A,2500.8049864,N,12132.4792979,E,0.00,159.17,260623,,,R,V*16
$GPHDT,,T*1B
$GNACCURACY,3.1*14
$GNGGA,111200.100,2500.8049869,N,12132.4792977,E,4,60,0.44,16.069,M,15.25,M,34,3335*7E
$GNRMC,111200.100,A,2500.8049869,N,12132.4792977,E,0.00,159.17,260623,,,R,V*14
$GPHDT,,T*1B
$GNGSA,A,3,24,196,199,23,15,195,194,05,10,13,,,0.81,0.44,0.68,1*0D
$GNGSA,A,3,80,70,85,73,86,71,79,,,,,,0.81,0.44,0.68,2*05
$GNGSA,A,3,13,08,07,26,15,02,30,03,,,,,0.81,0.44,0.68,3*0B
$GNGSA,A,3,38,08,39,16,13,06,46,09,19,20,36,37,0.81,0.44,0.68,4*09
$GNGSA,A,3,35,29,,,,,,,,,,,0.81,0.44,0.68,4*0E
$GPGSV,5,1,17,24,80,063,40,196,74,061,36,18,61,261,14,50,60,167,37,1*5F
$GPGSV,5,2,17,199,60,167,35,23,45,334,40,15,40,040,36,195,36,179,37,1*66
$GPGSV,5,3,17,194,28,140,43,05,23,113,26,12,16,146,27,10,13,315,39,1*5F
$GPGSV,5,4,17,13,12,052,30,32,06,264,19,25,05,180,,29,04,201,,1*6E
$GPGSV,5,5,17,20,01,126,,1*54
$GPGSV,2,1,07,24,80,063,44,196,74,061,37,199,60,167,45,23,45,334,44,8*6E
$GPGSV,2,2,07,195,36,179,41,194,28,140,41,10,13,315,40,8*5E
$GLGSV,3,1,09,80,47,089,36,70,40,000,26,85,40,255,20,73,31,162,39,1*7B
$GLGSV,3,2,09,86,25,310,35,71,19,307,32,79,16,037,17,69,15,066,14,1*73
$GLGSV,3,3,09,84,15,193,,1*42
$GAGSV,3,1,09,13,61,241,28,08,49,019,37,07,43,296,31,26,29,312,36,7*7C
$GAGSV,3,2,09,15,28,174,34,02,24,091,29,30,22,147,22,03,13,060,24,7*77
$GAGSV,3,3,09,25,04,047,,7*4A
$GAGSV,2,1,07,13,61,241,27,08,49,019,37,07,43,296,35,26,29,312,26,1*7F
$GAGSV,2,2,07,15,28,174,33,30,22,147,18,03,13,060,29,1*4A
$GBGSV,4,1,15,38,83,080,44,08,75,006,40,39,72,272,36,16,66,248,20,1*71
$GBGSV,4,2,15,13,66,338,42,06,64,245,27,46,56,123,43,09,49,233,21,1*79
$GBGSV,4,3,15,19,46,337,43,20,44,054,45,36,29,185,35,37,26,052,41,1*7B
$GBGSV,4,4,15,35,23,275,19,29,23,216,,22,08,296,,1*47
$GBGSV,3,1,10,38,83,080,42,39,72,272,36,46,56,123,42,19,46,337,38,4*72
$GBGSV,3,2,10,20,44,054,41,36,29,185,38,37,26,052,35,29,23,216,20,4*70
$GBGSV,3,3,10,35,23,275,33,22,08,296,30,4*73
$GNACCURACY,3.1*14
$PAIRSAT,1,35,1,0,200,2,0,200,3,0,200,4,0,200,5,0,201,6,0,200,7,0,200,8,0,200,9,0,200,10,0,221,11,0,200,12,0,200,13,0,201,14,0,200,15,0,201,16,0,200,17,0,200,18,0,221,19,0,200,20,0,200,21,0,200,23,0,221,24,0,221,25,0,200,26,0,200,27,0,200,28,0,200,29,0,200,30,0,200,31,0,200,32,0,200,194,0,621,195,0,621,196,0,620,199,0,621*6A
$PAIRSAT,2,23,65,0,200,67,0,200,68,0,200,69,0,201,70,0,201,71,0,201,72,0,200,73,0,201,74,0,200,75,0,200,76,0,200,77,0,200,78,0,200,79,0,201,80,0,201,81,0,200,82,0,200,83,0,200,84,0,201,85,0,201,86,0,201,87,0,200,88,0,200*52
$PAIRSAT,3,23,2,0,1221,3,0,1221,4,0,1200,5,0,200,7,0,1221,8,0,1221,9,0,1200,10,0,1200,11,0,1200,12,0,1200,13,0,1221,15,0,1221,19,0,1200,21,0,1200,24,0,1200,25,0,1200,26,0,1221,27,0,1200,30,0,1201,31,0,1200,33,0,1200,34,0,1200,36,0,1200*68
$PAIRSAT,4,50,1,0,200,2,0,200,3,0,200,4,0,200,5,0,200,6,0,201,7,0,200,8,0,201,9,0,201,10,0,200,11,0,200,12,0,200,13,0,201,14,0,200,15,0,200,16,0,201,19,0,621,20,0,621,21,0,600,22,0,621,23,0,600,24,0,600,25,0,600,26,0,600,27,0,600,28,0,600,29,0,621,30,0,600,31,0,200,32,0,600,33,0,600,34,0,600,35,0,621,36,0,621,37,0,621,38,0,621,39,0,621,40,0,600,41,0,600,42,0,600,43,0,600,44,0,600,45,0,600,46,0,621,56,0,200,57,0,200,58,0,200,59,0,600,60,0,600,61,0,600*41
$PAIRDGP,2,5,13*70
$GNGGA,111200.200,2500.8049858,N,12132.4792981,E,4,61,0.44,16.067,M,15.25,M,34,3335*79
$GNRMC,111200.200,A,2500.8049858,N,12132.4792981,E,0.00,159.17,260623,,,R,V*1C
$GPHDT,,T*1B
$GNACCURACY,3.1*14
$GNGGA,111200.300,2500.8049829,N,12132.4792891,E,4,61,0.44,16.038,M,15.25,M,34,3335*74
$GNRMC,111200.300,A,2500.8049829,N,12132.4792891,E,0.00,159.17,260623,,,R,V*1B
$GPHDT,,T*1B
$GNACCURACY,3.1*14
$GNGGA,111200.400,2500.8049841,N,12132.4792920,E,4,61,0.44,16.050,M,15.25,M,34,3335*78
$GNRMC,111200.400,A,2500.8049841,N,12132.4792920,E,0.00,159.17,260623,,,R,V*19
$GPHDT,,T*1B
$GNACCURACY,3.1*14
$GNGGA,111200.500,2500.8049855,N,12132.4792956,E,4,61,0.44,16.059,M,15.25,M,34,3335*74
$GNRMC,111200.500,A,2500.8049855,N,12132.4792956,E,0.00,159.17,260623,,,R,V*1C
$GPHDT,,T*1B
$GNACCURACY,3.2*17
$GNGGA,111200.600,2500.8049879,N,12132.4792979,E,4,61,0.44,16.070,M,15.25,M,34,3335*7F
$GNRMC,111200.600,A,2500.8049879,N,12132.4792979,E,0.00,159.17,260623,,,R,V*1C
$GPHDT,,T*1B
$GNACCURACY,3.2*17
$GNGGA,111200.700,2500.8049874,N,12132.4792975,E,4,60,0.44,16.066,M,15.25,M,34,3335*79
$GNRMC,111200.700,A,2500.8049874,N,12132.4792975,E,0.00,159.17,260623,,,R,V*1C
$GPHDT,,T*1B
$GNACCURACY,3.2*17
$GNGGA,111200.800,2500.8049882,N,12132.4792972,E,4,60,0.44,16.064,M,15.25,M,34,3335*7A
$GNRMC,111200.800,A,2500.8049882,N,12132.4792972,E,0.00,159.17,260623,,,R,V*1D
$GPHDT,,T*1B
$GNACCURACY,3.2*17
$GNGGA,111200.900,2500.8049890,N,12132.4793001,E,4,59,0.44,16.083,M,15.25,M,34,3335*77
$GNRMC,111200.900,A,2500.8049890,N,12132.4793001,E,0.00,159.17,260623,,,R,V*13
$GPHDT,,T*1B
$GNACCURACY,3.2*17
$GNGGA,111201.000,2500.8049851,N,12132.4792907,E,4,59,0.44,16.053,M,15.25,M,35,3335*70
$GNRMC,111201.000,A,2500.8049851,N,12132.4792907,E,0.00,159.17,260623,,,R,V*18
$GPHDT,,T*1B
$GNACCURACY,3.2*17
$GNGGA,111201.100,2500.8049861,N,12132.4792932,E,4,59,0.44,16.061,M,15.25,M,35,3335*75
$GNRMC,111201.100,A,2500.8049861,N,12132.4792932,E,0.00,159.17,260623,,,R,V*1C
$GPHDT,,T*1B
$GNGSA,A,3,24,196,199,23,15,195,194,05,10,13,,,0.81,0.44,0.68,1*0D
$GNGSA,A,3,80,70,85,73,86,71,79,,,,,,0.81,0.44,0.68,2*05
$GNGSA,A,3,13,08,07,26,15,02,30,03,,,,,0.81,0.44,0.68,3*0B
$GNGSA,A,3,38,08,39,16,13,06,46,09,19,20,36,37,0.81,0.44,0.68,4*09
$GNGSA,A,3,35,29,,,,,,,,,,,0.81,0.44,0.68,4*0E
$GPGSV,5,1,17,24,80,063,40,196,74,061,36,18,61,261,18,50,60,167,38,1*5C
$GPGSV,5,2,17,199,60,167,35,23,45,334,40,15,40,040,36,195,36,179,40,1*66
$GPGSV,5,3,17,194,28,140,43,05,23,113,26,12,16,146,27,10,13,315,39,1*5F
$GPGSV,5,4,17,13,12,052,29,32,06,264,18,25,05,180,,29,04,201,,1*67
$GPGSV,5,5,17,20,01,126,,1*54
$GPGSV,2,1,07,24,80,063,44,196,74,061,37,199,60,167,45,23,45,334,44,8*6E
$GPGSV,2,2,07,195,36,179,43,194,28,140,40,10,13,315,40,8*5D
$GLGSV,3,1,09,80,47,089,35,70,40,000,25,85,40,255,19,73,31,162,36,1*7E
$GLGSV,3,2,09,86,25,310,35,71,19,307,33,79,16,037,17,69,15,066,16,1*70
$GLGSV,3,3,09,84,15,193,,1*42
$GAGSV,3,1,09,13,61,241,28,08,49,019,37,07,43,296,32,26,29,312,36,7*7F
$GAGSV,3,2,09,15,28,174,33,02,24,091,28,30,22,147,20,03,13,060,26,7*71
$GAGSV,3,3,09,25,04,047,,7*4A
$GAGSV,2,1,06,13,61,241,26,08,49,019,37,07,43,296,35,26,29,312,26,1*7F
$GAGSV,2,2,06,15,28,174,32,03,13,060,28,1*73
$GBGSV,4,1,15,38,83,080,44,08,75,006,40,39,72,272,36,16,66,248,20,1*71
$GBGSV,4,2,15,13,66,338,42,06,65,245,26,46,56,123,43,09,49,233,20,1*78
$GBGSV,4,3,15,19,46,337,43,20,44,054,45,36,29,185,35,37,26,052,41,1*7B
$GBGSV,4,4,15,35,23,275,16,29,23,216,,22,08,296,,1*48
$GBGSV,3,1,10,38,83,080,42,39,72,272,36,46,56,123,42,19,46,337,38,4*72
$GBGSV,3,2,10,20,44,054,41,36,29,185,39,37,26,052,34,29,23,216,20,4*70
$GBGSV,3,3,10,35,23,275,33,22,08,296,29,4*7B
$GNACCURACY,3.2*17
$PAIRSAT,1,35,1,0,200,2,0,200,3,0,200,4,0,200,5,0,201,6,0,200,7,0,200,8,0,200,9,0,200,10,0,221,11,0,200,12,0,200,13,0,201,14,0,200,15,0,201,16,0,200,17,0,200,18,0,221,19,0,200,20,0,200,21,0,200,23,0,221,24,0,221,25,0,200,26,0,200,27,0,200,28,0,200,29,0,200,30,0,200,31,0,200,32,0,200,194,0,621,195,0,621,196,0,620,199,0,621*6A
$PAIRSAT,2,23,65,0,200,67,0,200,68,0,200,69,0,201,70,0,201,71,0,201,72,0,200,73,0,201,74,0,200,75,0,200,76,0,200,77,0,200,78,0,200,79,0,201,80,0,201,81,0,200,82,0,200,83,0,200,84,0,201,85,0,201,86,0,201,87,0,200,88,0,200*52
$PAIRSAT,3,23,2,0,1221,3,0,1221,4,0,1200,5,0,200,7,0,1221,8,0,1221,9,0,1200,10,0,1200,11,0,1200,12,0,1200,13,0,1221,15,0,1221,19,0,1200,21,0,1200,24,0,1200,25,0,1200,26,0,1221,27,0,1200,30,0,1201,31,0,1200,33,0,1200,34,0,1200,36,0,1200*68
$PAIRSAT,4,50,1,0,200,2,0,200,3,0,200,4,0,200,5,0,200,6,0,201,7,0,200,8,0,201,9,0,201,10,0,200,11,0,200,12,0,200,13,0,201,14,0,200,15,0,200,16,0,201,19,0,621,20,0,621,21,0,600,22,0,621,23,0,600,24,0,600,25,0,600,26,0,600,27,0,600,28,0,600,29,0,621,30,0,600,31,0,200,32,0,600,33,0,600,34,0,600,35,0,621,36,0,621,37,0,621,38,0,621,39,0,621,40,0,600,41,0,600,42,0,600,43,0,600,44,0,600,45,0,600,46,0,621,56,0,200,57,0,200,58,0,200,59,0,600,60,0,600,61,0,600*41
$PAIRDGP,2,5,13*70
$GNGGA,111201.200,2500.8049879,N,12132.4792972,E,4,60,0.44,16.060,M,15.25,M,35,3335*70
$GNRMC,111201.200,A,2500.8049879,N,12132.4792972,E,0.01,159.17,260623,,,R,V*13
$GPHDT,,T*1B
$GNACCURACY,3.2*17
$GNGGA,111201.300,2500.8049876,N,12132.4792917,E,4,60,0.44,16.053,M,15.25,M,35,3335*7D
$GNRMC,111201.300,A,2500.8049876,N,12132.4792917,E,0.01,159.17,260623,,,R,V*1E
$GPHDT,,T*1B
$GNACCURACY,3.2*17
$GNGGA,111201.400,2500.8049862,N,12132.4792932,E,4,60,0.44,16.062,M,15.25,M,35,3335*7A
$GNRMC,111201.400,A,2500.8049862,N,12132.4792932,E,0.01,159.17,260623,,,R,V*1B
$GPHDT,,T*1B
$GNACCURACY,3.2*17
$GNGGA,111201.500,2500.8049890,N,12132.4792969,E,4,60,0.44,16.074,M,15.25,M,35,3335*7F
$GNRMC,111201.500,A,2500.8049890,N,12132.4792969,E,0.00,159.17,260623,,,R,V*18
$GPHDT,,T*1B
$GNACCURACY,3.2*17
$GNGGA,111201.600,2500.8049864,N,12132.4792915,E,4,60,0.44,16.055,M,15.25,M,35,3335*7F
$GNRMC,111201.600,A,2500.8049864,N,12132.4792915,E,0.00,159.17,260623,,,R,V*1B
$GPHDT,,T*1B
$GNACCURACY,3.2*17
$GNGGA,111201.700,2500.8049898,N,12132.4792932,E,4,60,0.44,16.068,M,15.25,M,35,3335*76
$GNRMC,111201.700,A,2500.8049898,N,12132.4792932,E,0.01,159.17,260623,,,R,V*1D
$GPHDT,,T*1B
$GNACCURACY,3.2*17
$GNGGA,111201.800,2500.8049916,N,12132.4792962,E,4,60,0.44,16.086,M,15.25,M,35,3335*7B
$GNRMC,111201.800,A,2500.8049916,N,12132.4792962,E,0.01,159.17,260623,,,R,V*10
$GPHDT,,T*1B
$GNACCURACY,3.2*17
$GNGGA,111201.900,2500.8049948,N,12132.4792974,E,4,60,0.44,16.080,M,15.25,M,35,3335*70
$GNRMC,111201.900,A,2500.8049948,N,12132.4792974,E,0.01,159.17,260623,,,R,V*1D
$GPHDT,,T*1B
$GNACCURACY,3.2*17
$GNGGA,111202.000,2500.8049909,N,12132.4792932,E,4,60,0.44,16.076,M,15.25,M,36,3335*77
$GNRMC,111202.000,A,2500.8049909,N,12132.4792932,E,0.01,159.17,260623,,,R,V*10
$GPHDT,,T*1B
$GNACCURACY,3.2*17
$GNGGA,111202.100,2500.8049940,N,12132.4792976,E,4,60,0.44,16.090,M,15.25,M,36,3335*73
$GNRMC,111202.100,A,2500.8049940,N,12132.4792976,E,0.01,159.17,260623,,,R,V*1C
$GPHDT,,T*1B
$GNGSA,A,3,24,196,199,23,15,195,194,05,10,13,,,0.81,0.44,0.68,1*0D
$GNGSA,A,3,80,70,85,73,86,71,79,,,,,,0.81,0.44,0.68,2*05
$GNGSA,A,3,13,08,07,26,15,02,30,03,,,,,0.81,0.44,0.68,3*0B
$GNGSA,A,3,38,08,39,16,13,06,46,09,19,20,36,37,0.81,0.44,0.68,4*09
$GNGSA,A,3,35,29,,,,,,,,,,,0.81,0.44,0.68,4*0E
$GPGSV,5,1,17,24,80,063,40,196,74,061,36,18,61,261,16,50,60,167,38,1*52
$GPGSV,5,2,17,199,60,167,36,23,45,334,40,15,40,040,37,195,36,179,37,1*64
$GPGSV,5,3,17,194,28,140,44,05,23,113,25,12,16,146,27,10,13,315,39,1*5B
$GPGSV,5,4,17,13,12,052,29,32,06,264,18,25,05,180,,29,04,201,,1*67
$GPGSV,5,5,17,20,01,126,,1*54
$GPGSV,2,1,07,24,80,063,44,196,74,061,36,199,60,167,45,23,45,334,44,8*6F
$GPGSV,2,2,07,195,36,179,41,194,28,140,40,10,13,315,40,8*5F
$GLGSV,3,1,09,80,47,089,35,70,40,000,25,85,40,255,18,73,31,162,37,1*7E
$GLGSV,3,2,09,86,25,310,35,71,19,307,33,79,16,037,17,69,15,066,15,1*73
$GLGSV,3,3,09,84,15,193,,1*42
$GAGSV,3,1,09,13,61,241,28,08,49,019,37,07,43,296,31,26,29,312,36,7*7C
$GAGSV,3,2,09,15,28,174,33,02,24,091,28,30,22,147,27,03,13,060,23,7*73
$GAGSV,3,3,09,25,04,047,,7*4A
$GAGSV,2,1,06,13,61,241,26,08,49,019,36,07,43,296,35,26,29,312,28,1*70
$GAGSV,2,2,06,15,28,174,32,03,13,060,30,1*7A
$GBGSV,4,1,15,38,83,080,44,08,76,006,40,39,72,272,36,16,66,249,22,1*71
$GBGSV,4,2,15,13,66,338,42,06,65,245,27,46,56,123,43,09,49,233,20,1*79
$GBGSV,4,3,15,19,46,337,43,20,44,054,45,36,29,185,25,37,26,052,41,1*7A
$GBGSV,4,4,15,35,23,275,16,29,23,216,,22,08,296,,1*48
$GBGSV,3,1,10,38,83,080,42,39,72,272,36,46,56,123,42,19,46,337,38,4*72
$GBGSV,3,2,10,20,44,054,41,36,29,185,35,37,26,052,35,29,23,216,21,4*7C
$GBGSV,3,3,10,35,23,275,32,22,08,296,29,4*7A
$GNACCURACY,3.2*17
$PAIRSAT,1,35,1,0,200,2,0,200,3,0,200,4,0,200,5,0,201,6,0,200,7,0,200,8,0,200,9,0,200,10,0,221,11,0,200,12,0,200,13,0,201,14,0,200,15,0,201,16,0,200,17,0,200,18,0,221,19,0,200,20,0,200,21,0,200,23,0,221,24,0,221,25,0,200,26,0,200,27,0,200,28,0,200,29,0,200,30,0,200,31,0,200,32,0,200,194,0,621,195,0,621,196,0,620,199,0,621*6A
$PAIRSAT,2,23,65,0,200,67,0,200,68,0,200,69,0,201,70,0,201,71,0,201,72,0,200,73,0,201,74,0,200,75,0,200,76,0,200,77,0,200,78,0,200,79,0,201,80,0,201,81,0,200,82,0,200,83,0,200,84,0,201,85,0,201,86,0,201,87,0,200,88,0,200*52
$PAIRSAT,3,23,2,0,1221,3,0,1221,4,0,1200,5,0,200,7,0,1221,8,0,1221,9,0,1200,10,0,1200,11,0,1200,12,0,1200,13,0,1221,15,0,1221,19,0,1200,21,0,1200,24,0,1200,25,0,1200,26,0,1221,27,0,1200,30,0,1201,31,0,1200,33,0,1200,34,0,1200,36,0,1200*68
$PAIRSAT,4,50,1,0,200,2,0,200,3,0,200,4,0,200,5,0,200,6,0,201,7,0,200,8,0,201,9,0,201,10,0,200,11,0,200,12,0,200,13,0,201,14,0,200,15,0,200,16,0,201,19,0,621,20,0,621,21,0,600,22,0,621,23,0,600,24,0,600,25,0,600,26,0,600,27,0,600,28,0,600,29,0,621,30,0,600,31,0,200,32,0,600,33,0,600,34,0,600,35,0,621,36,0,621,37,0,621,38,0,621,39,0,621,40,0,600,41,0,600,42,0,600,43,0,600,44,0,600,45,0,600,46,0,621,56,0,200,57,0,200,58,0,200,59,0,600,60,0,600,61,0,600*41
$PAIRDGP,2,5,13*70
$GNGGA,111202.200,2500.8049893,N,12132.4792941,E,4,60,0.44,16.069,M,15.25,M,36,3335*7D
$GNRMC,111202.200,A,2500.8049893,N,12132.4792941,E,0.01,159.17,260623,,,R,V*14
$GPHDT,,T*1B
$GNACCURACY,3.2*17
$GNGGA,111202.300,2500.8049910,N,12132.4792958,E,4,60,0.44,16.077,M,15.25,M,36,3335*71
$GNRMC,111202.300,A,2500.8049910,N,12132.4792958,E,0.01,159.17,260623,,,R,V*17
$GPHDT,,T*1B
$GNACCURACY,3.2*17
$GNGGA,111202.400,2500.8049920,N,12132.4792944,E,4,59,0.44,16.074,M,15.25,M,36,3335*71
$GNRMC,111202.400,A,2500.8049920,N,12132.4792944,E,0.01,159.17,260623,,,R,V*1E
$GPHDT,,T*1B
$GNACCURACY,3.2*17
$GNGGA,111202.500,2500.8049921,N,12132.4792939,E,4,59,0.44,16.080,M,15.25,M,36,3335*70
$GNRMC,111202.500,A,2500.8049921,N,12132.4792939,E,0.00,159.17,260623,,,R,V*15
$GPHDT,,T*1B
$GNACCURACY,3.2*17
$GNGGA,111202.600,2500.8049905,N,12132.4792975,E,4,60,0.44,16.074,M,15.25,M,36,3335*7C
$GNRMC,111202.600,A,2500.8049905,N,12132.4792975,E,0.00,159.17,260623,,,R,V*18
$GPHDT,,T*1B
$GNACCURACY,3.2*17
$GNGGA,111202.700,2500.8049924,N,12132.4792984,E,4,60,0.44,16.075,M,15.25,M,36,3335*71
$GNRMC,111202.700,A,2500.8049924,N,12132.4792984,E,0.00,159.17,260623,,,R,V*14
$GPHDT,,T*1B
$GNACCURACY,3.2*17
$GNGGA,111202.800,2500.8049921,N,12132.4792973,E,4,60,0.44,16.089,M,15.25,M,36,3335*70
$GNRMC,111202.800,A,2500.8049921,N,12132.4792973,E,0.00,159.17,260623,,,R,V*16
$GPHDT,,T*1B
$GNACCURACY,3.2*17
$GNGGA,111202.900,2500.8049915,N,12132.4792972,E,4,60,0.44,16.083,M,15.25,M,36,3335*7D
$GNRMC,111202.900,A,2500.8049915,N,12132.4792972,E,0.00,159.17,260623,,,R,V*11
$GPHDT,,T*1B
$GNACCURACY,3.1*14
$GNGGA,111203.000,2500.8049918,N,12132.4792939,E,4,60,0.44,16.076,M,15.25,M,37,3335*7C
$GNRMC,111203.000,A,2500.8049918,N,12132.4792939,E,0.00,159.17,260623,,,R,V*1B
$GPHDT,,T*1B
$GNACCURACY,3.1*14
$GNGGA,111203.100,2500.8049913,N,12132.4792963,E,4,60,0.44,16.078,M,15.25,M,37,3335*77
$GNRMC,111203.100,A,2500.8049913,N,12132.4792963,E,0.00,159.17,260623,,,R,V*1E
$GPHDT,,T*1B
$GNGSA,A,3,24,196,199,23,15,195,194,05,10,13,,,0.81,0.44,0.68,1*0D
$GNGSA,A,3,80,70,85,73,86,71,79,,,,,,0.81,0.44,0.68,2*05
$GNGSA,A,3,13,08,07,26,15,02,30,03,,,,,0.81,0.44,0.68,3*0B
$GNGSA,A,3,38,08,39,16,13,06,46,09,19,20,36,37,0.81,0.44,0.68,4*09
$GNGSA,A,3,35,29,,,,,,,,,,,0.81,0.44,0.68,4*0E
$GPGSV,5,1,17,24,80,063,40,196,74,061,36,18,61,261,16,50,60,167,39,1*53
$GPGSV,5,2,17,199,60,167,36,23,45,334,40,15,40,040,37,195,36,179,39,1*6A
$GPGSV,5,3,17,194,28,140,43,05,23,113,29,12,16,146,26,10,13,315,39,1*51
$GPGSV,5,4,17,13,12,052,30,32,06,264,19,25,05,180,,29,04,201,,1*6E
$GPGSV,5,5,17,20,01,126,,1*54
$GPGSV,2,1,07,24,80,063,44,196,74,061,36,199,60,167,47,23,45,334,44,8*6D
$GPGSV,2,2,07,195,36,179,43,194,28,140,38,10,13,315,40,8*52
$GLGSV,3,1,09,80,47,089,35,70,40,000,25,85,40,255,21,73,31,162,41,1*75
$GLGSV,3,2,09,86,25,310,34,71,19,307,33,79,16,037,17,69,15,066,13,1*74
$GLGSV,3,3,09,84,15,193,,1*42
$GAGSV,3,1,09,13,61,241,28,08,49,019,37,07,43,296,31,26,29,312,36,7*7C
$GAGSV,3,2,09,15,28,174,33,02,24,091,29,30,22,147,24,03,13,060,24,7*76
$GAGSV,3,3,09,25,04,047,,7*4A
$GAGSV,2,1,06,13,61,241,27,08,49,019,36,07,43,296,35,26,29,312,28,1*71
$GAGSV,2,2,06,15,28,174,32,03,13,060,29,1*72
$GBGSV,4,1,15,38,83,080,44,08,76,006,40,39,72,272,36,16,66,249,22,1*71
$GBGSV,4,2,15,13,66,338,42,06,65,245,25,46,56,123,43,09,49,233,20,1*7B
$GBGSV,4,3,15,19,46,337,43,20,44,055,45,36,29,185,26,37,26,052,41,1*78
$GBGSV,4,4,15,35,23,275,16,29,23,216,,22,08,297,,1*49
$GBGSV,3,1,10,38,83,080,42,39,72,272,36,46,56,123,42,19,46,337,38,4*72
$GBGSV,3,2,10,20,44,055,41,36,29,185,36,37,26,052,36,29,23,216,22,4*7E
$GBGSV,3,3,10,35,23,275,32,22,08,297,29,4*7B
$GNACCURACY,3.2*17
$PAIRSAT,1,35,1,0,200,2,0,200,3,0,200,4,0,200,5,0,201,6,0,200,7,0,200,8,0,200,9,0,200,10,0,221,11,0,200,12,0,200,13,0,201,14,0,200,15,0,201,16,0,200,17,0,200,18,0,221,19,0,200,20,0,200,21,0,200,23,0,221,24,0,221,25,0,200,26,0,200,27,0,200,28,0,200,29,0,200,30,0,200,31,0,200,32,0,200,194,0,621,195,0,621,196,0,620,199,0,621*6A
$PAIRSAT,2,23,65,0,200,67,0,200,68,0,200,69,0,201,70,0,201,71,0,201,72,0,200,73,0,201,74,0,200,75,0,200,76,0,200,77,0,200,78,0,200,79,0,201,80,0,201,81,0,200,82,0,200,83,0,200,84,0,201,85,0,201,86,0,201,87,0,200,88,0,200*52
$PAIRSAT,3,23,2,0,1221,3,0,1221,4,0,1200,5,0,200,7,0,1221,8,0,1221,9,0,1200,10,0,1200,11,0,1200,12,0,1200,13,0,1221,15,0,1221,19,0,1200,21,0,1200,24,0,1200,25,0,1200,26,0,1221,27,0,1200,30,0,1201,31,0,1200,33,0,1200,34,0,1200,36,0,1200*68
$PAIRSAT,4,50,1,0,200,2,0,200,3,0,200,4,0,200,5,0,200,6,0,201,7,0,200,8,0,201,9,0,201,10,0,200,11,0,200,12,0,200,13,0,201,14,0,200,15,0,200,16,0,201,19,0,621,20,0,621,21,0,600,22,0,621,23,0,600,24,0,600,25,0,600,26,0,600,27,0,600,28,0,600,29,0,621,30,0,600,31,0,200,32,0,600,33,0,600,34,0,600,35,0,621,36,0,621,37,0,621,38,0,621,39,0,621,40,0,600,41,0,600,42,0,600,43,0,600,44,0,600,45,0,600,46,0,621,56,0,200,57,0,200,58,0,200,59,0,600,60,0,600,61,0,600*41
$PAIRDGP,2,5,13*70
$GNGGA,111203.200,2500.8049953,N,12132.4792982,E,4,60,0.44,16.083,M,15.25,M,37,3335*7B
$GNRMC,111203.200,A,2500.8049953,N,12132.4792982,E,0.00,159.17,260623,,,R,V*16
$GPHDT,,T*1B
$GNACCURACY,3.2*17
$GNGGA,111203.300,2500.8049931,N,12132.4792982,E,4,61,0.44,16.086,M,15.25,M,37,3335*7A
$GNRMC,111203.300,A,2500.8049931,N,12132.4792982,E,0.00,159.17,260623,,,R,V*13
$GPHDT,,T*1B
$GNACCURACY,3.2*17
$GNGGA,111203.400,2500.8049940,N,12132.4792970,E,4,61,0.44,16.093,M,15.25,M,37,3335*72
$GNRMC,111203.400,A,2500.8049940,N,12132.4792970,E,0.00,159.17,260623,,,R,V*1F
$GPHDT,,T*1B
$GNACCURACY,3.2*17
$GNGGA,111203.500,2500.8049941,N,12132.4792955,E,4,61,0.44,16.070,M,15.25,M,37,3335*78
$GNRMC,111203.500,A,2500.8049941,N,12132.4792955,E,0.00,159.17,260623,,,R,V*18
$GPHDT,,T*1B
$GNACCURACY,3.2*17
$GNGGA,111203.600,2500.8049968,N,12132.4793038,E,4,61,0.44,16.101,M,15.25,M,37,3335*74
$GNRMC,111203.600,A,2500.8049968,N,12132.4793038,E,0.00,159.17,260623,,,R,V*13
$GPHDT,,T*1B
$GNACCURACY,3.2*17
$GNGGA,111203.700,2500.8049969,N,12132.4792980,E,4,61,0.44,16.095,M,15.25,M,37,3335*73
$GNRMC,111203.700,A,2500.8049969,N,12132.4792980,E,0.00,159.17,260623,,,R,V*18
$GPHDT,,T*1B
$GNACCURACY,3.2*17
$GNGGA,111203.800,2500.8049958,N,12132.4793007,E,4,61,0.44,16.089,M,15.25,M,37,3335*74
$GNRMC,111203.800,A,2500.8049958,N,12132.4793007,E,0.00,159.17,260623,,,R,V*12
$GPHDT,,T*1B
$GNACCURACY,3.2*17
$GNGGA,111203.900,2500.8049932,N,12132.4792960,E,4,61,0.44,16.093,M,15.25,M,37,3335*7B
$GNRMC,111203.900,A,2500.8049932,N,12132.4792960,E,0.00,159.17,260623,,,R,V*16
$GPHDT,,T*1B
$GNACCURACY,3.2*17
$GNGGA,111204.000,2500.8049996,N,12132.4792987,E,4,60,0.44,16.089,M,15.25,M,38,3335*77
$GNRMC,111204.000,A,2500.8049996,N,12132.4792987,E,0.00,159.17,260623,,,R,V*1F
$GPHDT,,T*1B
$GNACCURACY,3.2*17
$GNGGA,111204.100,2500.8049960,N,12132.4792961,E,4,60,0.44,16.086,M,15.25,M,38,3335*78
$GNRMC,111204.100,A,2500.8049960,N,12132.4792961,E,0.00,159.17,260623,,,R,V*1F
$GPHDT,,T*1B
