$FW : RTK35X,V1.1X0314AS,Lib20210517,1*54
$Tool : LOCOSYS , GNSS Firebird , v1.0.0.19*39
$---------------------------------------------------*2D
$GNGSA,A,3,24,196,199,23,15,195,194,05,13,10,,,0.81,0.43,0.68,1*0A
$GNGSA,A,3,80,85,70,73,86,71,84,79,,,,,0.81,0.43,0.68,2*0E
$GNGSA,A,3,13,08,07,15,26,02,03,,,,,,0.81,0.43,0.68,3*0F
$GNGSA,A,3,38,08,39,16,13,46,19,20,36,37,29,35,0.81,0.43,0.68,4*0C
$GPGSV,4,1,14,24,81,067,45,196,74,060,36,18,61,263,,50,60,167,38,1*54
$GPGSV,4,2,14,199,60,167,37,23,44,334,35,15,41,039,25,195,37,179,45,1*6C
$GPGSV,4,3,14,194,28,140,44,05,24,112,34,12,16,147,24,13,13,052,18,1*5D
$GPGSV,4,4,14,10,13,315,31,32,06,263,,1*67
$GPGSV,2,1,07,24,81,067,48,196,74,060,37,199,60,167,46,23,44,334,41,8*61
$GPGSV,2,2,07,195,37,179,43,194,28,140,42,10,13,315,25,8*5D
$GLGSV,3,1,09,80,47,091,37,85,40,256,25,70,39,359,28,73,30,163,37,1*74
$GLGSV,3,2,09,86,24,311,31,71,19,306,31,84,16,193,18,79,16,038,18,1*72
$GLGSV,3,3,09,69,15,066,16,1*4D
$GAGSV,3,1,09,13,61,242,25,08,49,018,38,07,42,295,31,15,29,174,37,7*7D
$GAGSV,3,2,09,26,29,312,28,02,24,092,26,30,21,148,28,03,13,059,29,7*74
$GAGSV,3,3,09,25,04,048,,7*45
$GAGSV,2,1,07,13,61,242,23,08,49,018,39,07,42,295,32,15,29,174,42,1*72
$GAGSV,2,2,07,26,29,312,18,02,24,092,21,30,21,148,30,1*46
$GBGSV,4,1,15,38,82,078,44,08,75,006,39,39,72,271,34,16,66,248,23,1*7B
$GBGSV,4,2,15,13,65,338,40,06,64,244,18,46,56,124,43,09,49,232,,1*70
$GBGSV,4,3,15,19,46,337,39,20,44,054,35,36,28,185,38,37,26,052,41,1*7D
$GBGSV,4,4,15,29,24,217,24,35,23,276,27,22,08,296,,1*49
$GBGSV,2,1,08,38,82,078,45,39,72,271,29,46,56,124,42,19,46,337,39,4*70
$GBGSV,2,2,08,20,44,054,42,36,28,185,35,37,26,052,29,22,08,296,23,4*73
$GNACCURACY,3.7*12
$PAIRSAT,1,35,1,0,200,2,0,200,3,0,200,4,0,200,5,0,201,6,0,200,7,0,200,8,0,200,9,0,200,10,0,221,11,0,200,12,0,200,13,0,201,14,0,200,15,0,201,16,0,200,17,0,200,18,0,221,19,0,200,20,0,200,21,0,200,23,0,221,24,0,221,25,0,200,26,0,200,27,0,200,28,0,200,29,0,200,30,0,200,31,0,200,32,0,200,194,0,621,195,0,621,196,0,620,199,0,621*6A
$PAIRSAT,2,23,65,0,200,67,0,200,68,0,200,69,0,201,70,0,201,71,0,201,72,0,200,73,0,201,74,0,200,75,0,200,76,0,200,77,0,200,78,0,200,79,0,201,80,0,201,81,0,200,82,0,200,83,0,200,84,0,201,85,0,201,86,0,201,87,0,200,88,0,200*52
$PAIRSAT,3,23,2,0,1221,3,0,1221,4,0,1200,5,0,200,7,0,1221,8,0,1221,9,0,1200,10,0,1200,11,0,1200,12,0,1200,13,0,1221,15,0,1221,19,0,1200,21,0,1200,24,0,1200,25,0,1200,26,0,1221,27,0,1200,30,0,1200,31,0,1200,33,0,1200,34,0,1200,36,0,1200*69
$PAIRSAT,4,50,1,0,200,2,0,200,3,0,200,4,0,200,5,0,200,6,0,201,7,0,200,8,0,201,9,0,201,10,0,200,11,0,200,12,0,200,13,0,201,14,0,200,15,0,200,16,0,201,19,0,621,20,0,621,21,0,600,22,0,621,23,0,600,24,0,600,25,0,600,26,0,600,27,0,600,28,0,600,29,0,621,30,0,600,31,0,200,32,0,600,33,0,600,34,0,600,35,0,621,36,0,621,37,0,621,38,0,621,39,0,621,40,0,600,41,0,600,42,0,600,43,0,600,44,0,600,45,0,600,46,0,621,56,0,200,57,0,200,58,0,200,59,0,600,60,0,600,61,0,600*41
$PAIRDGP,7,5,10,13,15,18,23,24*52
$GNGGA,111031.200,2500.8049324,N,12132.4792967,E,4,57,0.43,15.961,M,15.25,M,1,3335*49
$GNRMC,111031.200,A,2500.8049324,N,12132.4792967,E,0.01,159.17,260623,,,R,V*15
$GPHDT,,T*1B
$GNACCURACY,3.7*12
$GNGGA,111031.300,2500.8049338,N,12132.4792936,E,4,57,0.43,15.956,M,15.25,M,1,3335*45
$GNRMC,111031.300,A,2500.8049338,N,12132.4792936,E,0.01,159.17,260623,,,R,V*1D
$GPHDT,,T*1B
$GNACCURACY,3.7*12
$GNGGA,111031.400,2500.8049370,N,12132.4792966,E,4,57,0.43,15.941,M,15.25,M,1,3335*4D
$GNRMC,111031.400,A,2500.8049370,N,12132.4792966,E,0.01,159.17,260623,,,R,V*13
$GPHDT,,T*1B
$GNACCURACY,3.7*12
$GNGGA,111031.500,2500.8049346,N,12132.4792964,E,4,57,0.43,15.943,M,15.25,M,1,3335*49
$GNRMC,111031.500,A,2500.8049346,N,12132.4792964,E,0.01,159.17,260623,,,R,V*15
$GPHDT,,T*1B
$GNACCURACY,3.7*12
$GNGGA,111031.600,2500.8049312,N,12132.4792894,E,4,57,0.43,15.961,M,15.25,M,1,3335*45
$GNRMC,111031.600,A,2500.8049312,N,12132.4792894,E,0.01,159.17,260623,,,R,V*19
$GPHDT,,T*1B
$GNACCURACY,3.7*12
$GNGGA,111031.700,2500.8049334,N,12132.4792913,E,4,57,0.43,15.946,M,15.25,M,1,3335*4B
$GNRMC,111031.700,A,2500.8049334,N,12132.4792913,E,0.01,159.17,260623,,,R,V*12
$GPHDT,,T*1B
$GNACCURACY,3.7*12
$GNGGA,111031.800,2500.8049348,N,12132.4792935,E,4,57,0.43,15.948,M,15.25,M,1,3335*45
$GNRMC,111031.800,A,2500.8049348,N,12132.4792935,E,0.01,159.17,260623,,,R,V*12
$GPHDT,,T*1B
$GNACCURACY,3.7*12
$GNGGA,111031.900,2500.8049339,N,12132.4792950,E,4,56,0.45,15.946,M,15.25,M,1,3335*48
$GNRMC,111031.900,A,2500.8049339,N,12132.4792950,E,0.01,159.17,260623,,,R,V*16
$GPHDT,,T*1B
$GNACCURACY,3.7*12
$GNGGA,111032.000,2500.8049366,N,12132.4792966,E,4,56,0.45,15.941,M,15.25,M,2,3335*49
$GNRMC,111032.000,A,2500.8049366,N,12132.4792966,E,0.01,159.17,260623,,,R,V*13
$GPHDT,,T*1B
$GNACCURACY,3.7*12
$GNGGA,111032.100,2500.8049352,N,12132.4792975,E,4,56,0.45,15.940,M,15.25,M,1,3335*4F
$GNRMC,111032.100,A,2500.8049352,N,12132.4792975,E,0.01,159.17,260623,,,R,V*17
$GPHDT,,T*1B
$GNGSA,A,3,24,196,199,23,15,195,194,05,10,,,,0.83,0.45,0.70,1*05
$GNGSA,A,3,80,85,70,73,86,71,84,79,,,,,0.83,0.45,0.70,2*03
$GNGSA,A,3,13,08,07,26,15,02,03,,,,,,0.83,0.45,0.70,3*02
$GNGSA,A,3,38,08,39,16,13,46,19,20,36,37,29,35,0.83,0.45,0.70,4*01
$GPGSV,4,1,16,24,80,066,45,196,74,060,36,18,61,262,,50,60,167,38,1*57
$GPGSV,4,2,16,199,60,167,36,23,44,334,34,15,41,039,21,195,37,179,45,1*6A
$GPGSV,4,3,16,194,28,140,44,05,24,112,34,12,16,147,23,13,13,052,18,1*58
$GPGSV,4,4,16,10,13,315,32,32,06,263,,29,04,202,,25,04,180,,1*63
$GPGSV,2,1,07,24,80,066,48,196,74,060,38,199,60,167,46,23,44,334,42,8*6D
$GPGSV,2,2,07,195,37,179,43,194,28,140,43,10,13,315,29,8*50
$GLGSV,3,1,09,80,47,091,38,85,40,256,25,70,39,359,28,73,30,163,38,1*74
$GLGSV,3,2,09,86,24,311,32,71,19,306,29,84,16,193,18,79,16,038,20,1*73
$GLGSV,3,3,09,69,15,066,13,1*48
$GAGSV,3,1,09,13,61,242,25,08,49,018,37,07,42,295,32,26,29,312,29,7*7C
$GAGSV,3,2,09,15,29,174,37,02,24,092,27,30,21,148,29,03,13,059,29,7*78
$GAGSV,3,3,09,25,04,048,,7*45
$GAGSV,2,1,07,13,61,242,24,08,49,018,40,07,42,295,34,15,29,174,43,1*7C
$GAGSV,2,2,07,26,29,312,17,02,24,092,22,30,21,148,30,1*4A
$GBGSV,4,1,15,38,82,078,44,08,75,006,38,39,72,271,36,16,66,248,23,1*78
$GBGSV,4,2,15,13,65,338,41,06,64,244,15,46,56,124,43,09,49,232,,1*7C
$GBGSV,4,3,15,19,46,337,40,20,44,054,35,36,28,185,38,37,26,052,41,1*73
$GBGSV,4,4,15,29,24,217,23,35,23,276,27,22,08,296,,1*4E
$GBGSV,2,1,08,38,82,078,45,39,72,271,32,46,56,124,42,19,46,337,37,4*74
$GBGSV,2,2,08,20,44,054,42,36,28,185,36,37,26,052,31,22,08,296,24,4*7E
$GNACCURACY,3.7*12
$PAIRSAT,1,35,1,0,200,2,0,200,3,0,200,4,0,200,5,0,201,6,0,200,7,0,200,8,0,200,9,0,200,10,0,221,11,0,200,12,0,200,13,0,201,14,0,200,15,0,201,16,0,200,17,0,200,18,0,221,19,0,200,20,0,200,21,0,200,23,0,221,24,0,221,25,0,200,26,0,200,27,0,200,28,0,200,29,0,200,30,0,200,31,0,200,32,0,200,194,0,621,195,0,621,196,0,620,199,0,621*6A
$PAIRSAT,2,23,65,0,200,67,0,200,68,0,200,69,0,201,70,0,201,71,0,201,72,0,200,73,0,201,74,0,200,75,0,200,76,0,200,77,0,200,78,0,200,79,0,201,80,0,201,81,0,200,82,0,200,83,0,200,84,0,201,85,0,201,86,0,201,87,0,200,88,0,200*52
$PAIRSAT,3,23,2,0,1221,3,0,1221,4,0,1200,5,0,200,7,0,1221,8,0,1221,9,0,1200,10,0,1200,11,0,1200,12,0,1200,13,0,1221,15,0,1221,19,0,1200,21,0,1200,24,0,1200,25,0,1200,26,0,1221,27,0,1200,30,0,1200,31,0,1200,33,0,1200,34,0,1200,36,0,1200*69
$PAIRSAT,4,50,1,0,200,2,0,200,3,0,200,4,0,200,5,0,200,6,0,201,7,0,200,8,0,201,9,0,201,10,0,200,11,0,200,12,0,200,13,0,201,14,0,200,15,0,200,16,0,201,19,0,621,20,0,621,21,0,600,22,0,621,23,0,600,24,0,600,25,0,600,26,0,600,27,0,600,28,0,600,29,0,621,30,0,600,31,0,200,32,0,600,33,0,600,34,0,600,35,0,621,36,0,621,37,0,621,38,0,621,39,0,621,40,0,600,41,0,600,42,0,600,43,0,600,44,0,600,45,0,600,46,0,621,56,0,200,57,0,200,58,0,200,59,0,600,60,0,600,61,0,600*41
$PAIRDGP,7,5,10,13,15,18,23,24*52
$GNGGA,111032.200,2500.8049358,N,12132.4792834,E,4,56,0.45,15.936,M,15.25,M,1,3335*43
$GNRMC,111032.200,A,2500.8049358,N,12132.4792834,E,0.01,159.17,260623,,,R,V*1A
$GPHDT,,T*1B
$GNACCURACY,3.7*12
$GNGGA,111032.300,2500.8049349,N,12132.4792860,E,4,56,0.45,15.938,M,15.25,M,1,3335*4D
$GNRMC,111032.300,A,2500.8049349,N,12132.4792860,E,0.01,159.17,260623,,,R,V*1A
$GPHDT,,T*1B
$GNACCURACY,3.7*12
$GNGGA,111032.400,2500.8049390,N,12132.4792813,E,4,57,0.44,15.924,M,15.25,M,1,3335*47
$GNRMC,111032.400,A,2500.8049390,N,12132.4792813,E,0.01,159.17,260623,,,R,V*1D
$GPHDT,,T*1B
$GNACCURACY,3.7*12
$GNGGA,111032.500,2500.8049378,N,12132.4792867,E,4,57,0.44,15.936,M,15.25,M,1,3335*40
$GNRMC,111032.500,A,2500.8049378,N,12132.4792867,E,0.01,159.17,260623,,,R,V*19
$GPHDT,,T*1B
$GNACCURACY,3.7*12
$GNGGA,111032.600,2500.8049380,N,12132.4792838,E,4,57,0.44,15.928,M,15.25,M,1,3335*41
$GNRMC,111032.600,A,2500.8049380,N,12132.4792838,E,0.01,159.17,260623,,,R,V*17
$GPHDT,,T*1B
$GNACCURACY,3.7*12
$GNGGA,111032.700,2500.8049380,N,12132.4792861,E,4,57,0.44,15.938,M,15.25,M,1,3335*4D
$GNRMC,111032.700,A,2500.8049380,N,12132.4792861,E,0.01,159.17,260623,,,R,V*1A
$GPHDT,,T*1B
$GNACCURACY,3.7*12
$GNGGA,111032.800,2500.8049387,N,12132.4792840,E,4,57,0.44,15.933,M,15.25,M,1,3335*4D
$GNRMC,111032.800,A,2500.8049387,N,12132.4792840,E,0.01,159.17,260623,,,R,V*11
$GPHDT,,T*1B
$GNACCURACY,3.7*12
$GNGGA,111032.900,2500.8049375,N,12132.4792848,E,4,57,0.44,15.936,M,15.25,M,1,3335*4C
$GNRMC,111032.900,A,2500.8049375,N,12132.4792848,E,0.01,159.17,260623,,,R,V*15
$GPHDT,,T*1B
$GNACCURACY,3.7*12
$GNGGA,111033.000,2500.8049384,N,12132.4792865,E,4,57,0.44,15.944,M,15.25,M,2,3335*43
$GNRMC,111033.000,A,2500.8049384,N,12132.4792865,E,0.01,159.17,260623,,,R,V*1C
$GPHDT,,T*1B
$GNACCURACY,3.7*12
$GNGGA,111033.100,2500.8049365,N,12132.4792863,E,4,57,0.44,15.940,M,15.25,M,2,3335*4F
$GNRMC,111033.100,A,2500.8049365,N,12132.4792863,E,0.01,159.17,260623,,,R,V*14
$GPHDT,,T*1B
$GNGSA,A,3,24,196,199,23,15,195,194,05,10,,,,0.81,0.44,0.68,1*0F
$GNGSA,A,3,80,85,70,73,86,71,84,79,69,,,,0.81,0.44,0.68,2*06
$GNGSA,A,3,13,08,07,26,15,02,03,,,,,,0.81,0.44,0.68,3*08
$GNGSA,A,3,38,08,39,16,13,46,19,20,36,37,29,35,0.81,0.44,0.68,4*0B
$GPGSV,4,1,16,24,80,066,45,196,74,061,36,18,61,262,,50,60,167,38,1*56
$GPGSV,4,2,16,199,60,167,36,23,44,334,35,15,41,039,19,195,37,179,45,1*60
$GPGSV,4,3,16,194,28,140,44,05,24,112,34,12,16,147,24,13,13,052,17,1*50
$GPGSV,4,4,16,10,13,315,25,32,06,263,,29,04,202,,25,04,180,,1*65
$GPGSV,2,1,07,24,80,066,48,196,74,061,37,199,60,167,46,23,44,334,41,8*60
$GPGSV,2,2,07,195,37,179,43,194,28,140,43,10,13,315,25,8*5C
$GLGSV,3,1,09,80,47,091,38,85,40,256,24,70,39,359,27,73,30,163,37,1*75
$GLGSV,3,2,09,86,24,311,29,71,19,306,24,84,16,193,18,79,16,038,22,1*76
$GLGSV,3,3,09,69,15,066,14,1*4F
$GAGSV,3,1,09,13,61,242,28,08,49,018,37,07,42,295,30,26,29,312,28,7*72
$GAGSV,3,2,09,15,29,174,38,02,24,092,28,30,21,148,29,03,13,059,29,7*78
$GAGSV,3,3,09,25,04,048,,7*45
$GAGSV,2,1,07,13,61,242,24,08,49,018,40,07,42,295,35,15,29,174,43,1*7D
$GAGSV,2,2,07,26,29,312,17,02,24,092,22,30,21,148,30,1*4A
$GBGSV,4,1,15,38,82,078,44,08,75,006,38,39,72,271,36,16,66,248,25,1*7E
$GBGSV,4,2,15,13,65,338,41,06,64,244,14,46,56,124,43,09,49,232,,1*7D
$GBGSV,4,3,15,19,46,337,39,20,44,054,35,36,28,185,38,37,26,052,41,1*7D
$GBGSV,4,4,15,29,24,217,22,35,23,276,29,22,08,296,23,1*40
$GBGSV,2,1,08,38,82,078,45,39,72,271,33,46,56,124,42,19,46,337,39,4*7B
$GBGSV,2,2,08,20,44,054,42,36,28,185,37,37,26,052,31,22,08,296,23,4*78
$GNACCURACY,3.7*12
$PAIRSAT,1,35,1,0,200,2,0,200,3,0,200,4,0,200,5,0,201,6,0,200,7,0,200,8,0,200,9,0,200,10,0,221,11,0,200,12,0,200,13,0,201,14,0,200,15,0,201,16,0,200,17,0,200,18,0,221,19,0,200,20,0,200,21,0,200,23,0,221,24,0,221,25,0,200,26,0,200,27,0,200,28,0,200,29,0,200,30,0,200,31,0,200,32,0,200,194,0,621,195,0,621,196,0,620,199,0,621*6A
$PAIRSAT,2,23,65,0,200,67,0,200,68,0,200,69,0,201,70,0,201,71,0,201,72,0,200,73,0,201,74,0,200,75,0,200,76,0,200,77,0,200,78,0,200,79,0,201,80,0,201,81,0,200,82,0,200,83,0,200,84,0,201,85,0,201,86,0,201,87,0,200,88,0,200*52
$PAIRSAT,3,23,2,0,1221,3,0,1221,4,0,1200,5,0,200,7,0,1221,8,0,1221,9,0,1200,10,0,1200,11,0,1200,12,0,1200,13,0,1221,15,0,1221,19,0,1200,21,0,1200,24,0,1200,25,0,1200,26,0,1221,27,0,1200,30,0,1200,31,0,1200,33,0,1200,34,0,1200,36,0,1200*69
$PAIRSAT,4,50,1,0,200,2,0,200,3,0,200,4,0,200,5,0,200,6,0,201,7,0,200,8,0,201,9,0,201,10,0,200,11,0,200,12,0,200,13,0,201,14,0,200,15,0,200,16,0,201,19,0,621,20,0,621,21,0,600,22,0,621,23,0,600,24,0,600,25,0,600,26,0,600,27,0,600,28,0,600,29,0,621,30,0,600,31,0,200,32,0,600,33,0,600,34,0,600,35,0,621,36,0,621,37,0,621,38,0,621,39,0,621,40,0,600,41,0,600,42,0,600,43,0,600,44,0,600,45,0,600,46,0,621,56,0,200,57,0,200,58,0,200,59,0,600,60,0,600,61,0,600*41
$PAIRDGP,7,5,10,13,15,18,23,24*52
$GNGGA,111033.200,2500.8049356,N,12132.4792804,E,4,57,0.44,15.945,M,15.25,M,2,3335*48
$GNRMC,111033.200,A,2500.8049356,N,12132.4792804,E,0.01,159.17,260623,,,R,V*16
$GPHDT,,T*1B
$GNACCURACY,3.7*12
$GNGGA,111033.300,2500.8049385,N,12132.4792850,E,4,56,0.44,15.938,M,15.25,M,2,3335*4D
$GNRMC,111033.300,A,2500.8049385,N,12132.4792850,E,0.01,159.17,260623,,,R,V*18
$GPHDT,,T*1B
$GNACCURACY,3.7*12
$GNGGA,111033.400,2500.8049333,N,12132.4792974,E,4,56,0.44,15.957,M,15.25,M,2,3335*49
$GNRMC,111033.400,A,2500.8049333,N,12132.4792974,E,0.01,159.17,260623,,,R,V*15
$GPHDT,,T*1B
$GNACCURACY,3.7*12
$GNGGA,111033.500,2500.8049325,N,12132.4792920,E,4,56,0.44,15.956,M,15.25,M,2,3335*4F
$GNRMC,111033.500,A,2500.8049325,N,12132.4792920,E,0.01,159.17,260623,,,R,V*12
$GPHDT,,T*1B
$GNACCURACY,3.7*12
$GNGGA,111033.600,2500.8049344,N,12132.4792924,E,4,56,0.44,15.941,M,15.25,M,2,3335*49
$GNRMC,111033.600,A,2500.8049344,N,12132.4792924,E,0.01,159.17,260623,,,R,V*12
$GPHDT,,T*1B
$GNACCURACY,3.7*12
$GNGGA,111033.700,2500.8049326,N,12132.4792928,E,4,56,0.44,15.951,M,15.25,M,2,3335*41
$GNRMC,111033.700,A,2500.8049326,N,12132.4792928,E,0.01,159.17,260623,,,R,V*1B
$GPHDT,,T*1B
$GNACCURACY,3.7*12
$GNGGA,111033.800,2500.8049335,N,12132.4792949,E,4,55,0.45,15.955,M,15.25,M,2,3335*4D
$GNRMC,111033.800,A,2500.8049335,N,12132.4792949,E,0.01,159.17,260623,,,R,V*11
$GPHDT,,T*1B
$GNACCURACY,3.7*12
$GNGGA,111033.900,2500.8049350,N,12132.4792925,E,4,55,0.45,15.957,M,15.25,M,2,3335*47
$GNRMC,111033.900,A,2500.8049350,N,12132.4792925,E,0.01,159.17,260623,,,R,V*19
$GPHDT,,T*1B
$GNACCURACY,3.7*12
$GNGGA,111034.000,2500.8049352,N,12132.4792922,E,4,56,0.45,15.949,M,15.25,M,3,3335*41
$GNRMC,111034.000,A,2500.8049352,N,12132.4792922,E,0.01,159.17,260623,,,R,V*12
$GPHDT,,T*1B
$GNACCURACY,3.6*13
$GNGGA,111034.100,2500.8049333,N,12132.4792894,E,4,56,0.45,15.955,M,15.25,M,3,3335*46
$GNRMC,111034.100,A,2500.8049333,N,12132.4792894,E,0.02,159.17,260623,,,R,V*1B
$GPHDT,,T*1B
$GNGSA,A,3,24,196,199,23,15,195,194,05,10,,,,0.81,0.44,0.68,1*0F
$GNGSA,A,3,80,85,70,73,86,71,79,84,69,,,,0.81,0.44,0.68,2*06
$GNGSA,A,3,13,08,07,15,26,02,03,,,,,,0.81,0.44,0.68,3*08
$GNGSA,A,3,38,08,39,16,13,46,19,20,36,37,29,35,0.81,0.44,0.68,4*0B
$GPGSV,5,1,17,24,80,066,45,196,74,061,36,18,61,262,,50,60,167,37,1*59
$GPGSV,5,2,17,199,60,167,36,23,44,334,37,15,41,039,20,195,37,179,45,1*68
$GPGSV,5,3,17,194,28,140,43,05,24,112,35,12,16,147,24,10,13,315,31,1*51
$GPGSV,5,4,17,13,13,052,16,32,06,263,15,29,04,202,,25,04,180,,1*62
$GPGSV,5,5,17,20,02,126,,1*57
$GPGSV,2,1,07,24,80,066,48,196,74,061,37,199,60,167,46,23,44,334,42,8*63
$GPGSV,2,2,07,195,37,179,43,194,28,140,43,10,13,315,30,8*58
$GLGSV,3,1,09,80,47,091,38,85,40,256,25,70,39,359,27,73,30,163,37,1*74
$GLGSV,3,2,09,86,24,311,34,71,19,306,31,79,16,038,24,84,16,193,18,1*78
$GLGSV,3,3,09,69,15,066,16,1*4D
$GAGSV,2,1,08,13,61,242,28,08,49,018,37,07,42,295,31,15,29,174,37,7*7F
$GAGSV,2,2,08,26,29,312,29,02,24,092,26,30,21,148,30,03,13,059,29,7*7C
$GAGSV,2,1,06,13,61,242,24,08,49,018,40,07,42,295,35,15,29,174,43,1*7C
$GAGSV,2,2,06,02,24,092,23,30,21,148,31,1*72
$GBGSV,4,1,16,38,82,078,44,08,75,006,38,39,72,271,36,16,66,248,24,1*7C
$GBGSV,4,2,16,13,65,338,41,06,64,244,12,46,56,124,43,09,49,232,,1*78
$GBGSV,4,3,16,19,46,337,39,20,44,054,35,36,28,185,38,37,26,052,41,1*7E
$GBGSV,4,4,16,29,24,217,24,35,23,276,30,22,08,296,21,32,05,093,,1*71
$GBGSV,2,1,08,38,82,078,45,39,72,271,31,46,56,124,42,19,46,337,40,4*77
$GBGSV,2,2,08,20,44,054,42,36,28,185,38,37,26,052,31,22,08,296,23,4*77
$GNACCURACY,3.6*13
$PAIRSAT,1,35,1,0,200,2,0,200,3,0,200,4,0,200,5,0,201,6,0,200,7,0,200,8,0,200,9,0,200,10,0,221,11,0,200,12,0,200,13,0,201,14,0,200,15,0,201,16,0,200,17,0,200,18,0,221,19,0,200,20,0,200,21,0,200,23,0,221,24,0,221,25,0,200,26,0,200,27,0,200,28,0,200,29,0,200,30,0,200,31,0,200,32,0,200,194,0,621,195,0,621,196,0,620,199,0,621*6A
$PAIRSAT,2,23,65,0,200,67,0,200,68,0,200,69,0,201,70,0,201,71,0,201,72,0,200,73,0,201,74,0,200,75,0,200,76,0,200,77,0,200,78,0,200,79,0,201,80,0,201,81,0,200,82,0,200,83,0,200,84,0,201,85,0,201,86,0,201,87,0,200,88,0,200*52
$PAIRSAT,3,23,2,0,1221,3,0,1221,4,0,1200,5,0,200,7,0,1221,8,0,1221,9,0,1200,10,0,1200,11,0,1200,12,0,1200,13,0,1221,15,0,1221,19,0,1200,21,0,1200,24,0,1200,25,0,1200,26,0,1221,27,0,1200,30,0,1200,31,0,1200,33,0,1200,34,0,1200,36,0,1200*69
$PAIRSAT,4,50,1,0,200,2,0,200,3,0,200,4,0,200,5,0,200,6,0,201,7,0,200,8,0,201,9,0,201,10,0,200,11,0,200,12,0,200,13,0,201,14,0,200,15,0,200,16,0,201,19,0,621,20,0,621,21,0,600,22,0,621,23,0,600,24,0,600,25,0,600,26,0,600,27,0,600,28,0,600,29,0,621,30,0,600,31,0,200,32,0,600,33,0,600,34,0,600,35,0,621,36,0,621,37,0,621,38,0,621,39,0,621,40,0,600,41,0,600,42,0,600,43,0,600,44,0,600,45,0,600,46,0,621,56,0,200,57,0,200,58,0,200,59,0,600,60,0,600,61,0,600*41
$PAIRDGP,7,5,10,13,15,18,23,24*52
$GNGGA,111034.200,2500.8049340,N,12132.4792874,E,4,56,0.44,15.957,M,15.25,M,3,3335*4C
$GNRMC,111034.200,A,2500.8049340,N,12132.4792874,E,0.02,159.17,260623,,,R,V*12
$GPHDT,,T*1B
$GNACCURACY,3.6*13
$GNGGA,111034.300,2500.8049357,N,12132.4792872,E,4,56,0.44,15.954,M,15.25,M,3,3335*4E
$GNRMC,111034.300,A,2500.8049357,N,12132.4792872,E,0.02,159.17,260623,,,R,V*13
$GPHDT,,T*1B
$GNACCURACY,3.6*13
$GNGGA,111034.400,2500.8049366,N,12132.4792851,E,4,56,0.44,15.949,M,15.25,M,3,3335*46
$GNRMC,111034.400,A,2500.8049366,N,12132.4792851,E,0.02,159.17,260623,,,R,V*17
$GPHDT,,T*1B
$GNACCURACY,3.6*13
$GNGGA,111034.500,2500.8049350,N,12132.4792908,E,4,56,0.44,15.949,M,15.25,M,3,3335*4F
$GNRMC,111034.500,A,2500.8049350,N,12132.4792908,E,0.02,159.17,260623,,,R,V*1E
$GPHDT,,T*1B
$GNACCURACY,3.6*13
$GNGGA,111034.600,2500.8049355,N,12132.4792921,E,4,56,0.44,15.950,M,15.25,M,3,3335*4A
$GNRMC,111034.600,A,2500.8049355,N,12132.4792921,E,0.02,159.17,260623,,,R,V*13
$GPHDT,,T*1B
$GNACCURACY,3.6*13
$GNGGA,111034.700,2500.8049337,N,12132.4792923,E,4,56,0.44,15.952,M,15.25,M,3,3335*4F
$GNRMC,111034.700,A,2500.8049337,N,12132.4792923,E,0.02,159.17,260623,,,R,V*14
$GPHDT,,T*1B
$GNACCURACY,3.6*13
$GNGGA,111034.800,2500.8049349,N,12132.4792904,E,4,55,0.44,15.949,M,15.25,M,3,3335*45
$GNRMC,111034.800,A,2500.8049349,N,12132.4792904,E,0.02,159.17,260623,,,R,V*17
$GPHDT,,T*1B
$GNACCURACY,3.6*13
$GNGGA,111034.900,2500.8049351,N,12132.4792924,E,4,55,0.44,15.958,M,15.25,M,3,3335*4F
$GNRMC,111034.900,A,2500.8049351,N,12132.4792924,E,0.02,159.17,260623,,,R,V*1D
$GPHDT,,T*1B
$GNACCURACY,3.6*13
$GNGGA,111035.000,2500.8049361,N,12132.4792897,E,4,55,0.44,15.949,M,15.25,M,4,3335*4A
$GNRMC,111035.000,A,2500.8049361,N,12132.4792897,E,0.02,159.17,260623,,,R,V*1F
$GPHDT,,T*1B
$GNACCURACY,3.6*13
$GNGGA,111035.100,2500.8049366,N,12132.4792914,E,4,56,0.44,15.951,M,15.25,M,4,3335*4C
$GNRMC,111035.100,A,2500.8049366,N,12132.4792914,E,0.02,159.17,260623,,,R,V*13
$GPHDT,,T*1B
$GNGSA,A,3,24,196,199,23,15,195,194,05,10,,,,0.81,0.44,0.68,1*0F
$GNGSA,A,3,80,85,70,73,86,71,84,79,69,,,,0.81,0.44,0.68,2*06
$GNGSA,A,3,13,08,07,15,26,02,03,,,,,,0.81,0.44,0.68,3*08
$GNGSA,A,3,38,08,39,16,13,46,19,20,36,37,29,35,0.81,0.44,0.68,4*0B
$GPGSV,5,1,17,24,80,066,45,196,74,061,36,18,61,262,,50,60,167,37,1*59
$GPGSV,5,2,17,199,60,167,36,23,44,334,36,15,41,039,22,195,37,179,45,1*6B
$GPGSV,5,3,17,194,28,140,43,05,24,112,34,12,16,147,24,10,13,315,30,1*51
$GPGSV,5,4,17,13,13,052,17,32,06,263,16,29,04,202,,25,04,180,,1*60
$GPGSV,5,5,17,20,02,126,,1*57
$GPGSV,2,1,07,24,80,066,48,196,74,061,37,199,60,167,46,23,44,334,42,8*63
$GPGSV,2,2,07,195,37,179,43,194,28,140,43,10,13,315,33,8*5B
$GLGSV,3,1,09,80,47,091,38,85,40,256,25,70,39,359,27,73,30,163,37,1*74
$GLGSV,3,2,09,86,24,311,35,71,19,306,34,84,16,193,18,79,16,038,24,1*7C
$GLGSV,3,3,09,69,15,066,17,1*4C
$GAGSV,3,1,09,13,61,242,28,08,49,018,37,07,42,295,32,15,29,174,37,7*7C
$GAGSV,3,2,09,26,29,312,29,02,24,092,27,30,21,148,28,03,13,059,30,7*7C
$GAGSV,3,3,09,25,04,048,,7*45
$GAGSV,2,1,06,13,61,242,25,08,49,018,40,07,42,295,35,15,29,174,43,1*7D
$GAGSV,2,2,06,02,24,092,22,30,21,148,30,1*72
$GBGSV,5,1,20,38,82,078,44,08,75,006,38,39,72,271,37,16,66,248,24,1*79
$GBGSV,5,2,20,13,65,338,41,06,64,244,15,46,56,124,43,09,49,232,,1*7B
$GBGSV,5,3,20,19,46,337,39,20,44,054,35,31,34,206,,36,28,185,38,1*79
$GBGSV,5,4,20,37,26,052,41,29,24,217,24,35,23,276,29,22,08,296,17,1*74
$GBGSV,5,5,20,32,05,093,,07,05,194,,10,03,204,,44,01,317,,1*74
$GBGSV,2,1,08,38,82,078,45,39,72,271,30,46,56,124,42,19,46,337,39,4*78
$GBGSV,2,2,08,20,44,054,42,36,28,185,38,37,26,052,31,22,08,296,23,4*77
$GNACCURACY,3.6*13
$PAIRSAT,1,35,1,0,200,2,0,200,3,0,200,4,0,200,5,0,201,6,0,200,7,0,200,8,0,200,9,0,200,10,0,221,11,0,200,12,0,200,13,0,201,14,0,200,15,0,201,16,0,200,17,0,200,18,0,221,19,0,200,20,0,200,21,0,200,23,0,221,24,0,221,25,0,200,26,0,200,27,0,200,28,0,200,29,0,200,30,0,200,31,0,200,32,0,200,194,0,621,195,0,621,196,0,620,199,0,621*6A
$PAIRSAT,2,23,65,0,200,67,0,200,68,0,200,69,0,201,70,0,201,71,0,201,72,0,200,73,0,201,74,0,200,75,0,200,76,0,200,77,0,200,78,0,200,79,0,201,80,0,201,81,0,200,82,0,200,83,0,200,84,0,201,85,0,201,86,0,201,87,0,200,88,0,200*52
$PAIRSAT,3,23,2,0,1221,3,0,1221,4,0,1200,5,0,200,7,0,1221,8,0,1221,9,0,1200,10,0,1200,11,0,1200,12,0,1200,13,0,1221,15,0,1221,19,0,1200,21,0,1200,24,0,1200,25,0,1200,26,0,1221,27,0,1200,30,0,1200,31,0,1200,33,0,1200,34,0,1200,36,0,1200*69
$PAIRSAT,4,50,1,0,200,2,0,200,3,0,200,4,0,200,5,0,200,6,0,201,7,0,200,8,0,201,9,0,201,10,0,200,11,0,200,12,0,200,13,0,201,14,0,200,15,0,200,16,0,201,19,0,621,20,0,621,21,0,600,22,0,621,23,0,600,24,0,600,25,0,600,26,0,600,27,0,600,28,0,600,29,0,621,30,0,600,31,0,200,32,0,600,33,0,600,34,0,600,35,0,621,36,0,621,37,0,621,38,0,621,39,0,621,40,0,600,41,0,600,42,0,600,43,0,600,44,0,600,45,0,600,46,0,621,56,0,200,57,0,200,58,0,200,59,0,600,60,0,600,61,0,600*41
$PAIRDGP,7,5,10,13,15,18,23,24*52
$GNGGA,111035.200,2500.8049364,N,12132.4792907,E,4,56,0.44,15.938,M,15.25,M,4,3335*40
$GNRMC,111035.200,A,2500.8049364,N,12132.4792907,E,0.02,159.17,260623,,,R,V*10
$GPHDT,,T*1B
$GNACCURACY,3.6*13
$GNGGA,111035.300,2500.8049334,N,12132.4792917,E,4,56,0.44,15.954,M,15.25,M,4,3335*4F
$GNRMC,111035.300,A,2500.8049334,N,12132.4792917,E,0.02,159.17,260623,,,R,V*15
$GPHDT,,T*1B
$GNACCURACY,3.6*13
$GNGGA,111035.400,2500.8049355,N,12132.4792893,E,4,56,0.44,15.950,M,15.25,M,4,3335*46
$GNRMC,111035.400,A,2500.8049355,N,12132.4792893,E,0.02,159.17,260623,,,R,V*18
$GPHDT,,T*1B
$GNACCURACY,3.6*13
$GNGGA,111035.500,2500.8049361,N,12132.4792903,E,4,56,0.44,15.947,M,15.25,M,4,3335*4E
$GNRMC,111035.500,A,2500.8049361,N,12132.4792903,E,0.02,159.17,260623,,,R,V*16
$GPHDT,,T*1B
$GNACCURACY,3.6*13
$GNGGA,111035.600,2500.8049364,N,12132.4792897,E,4,56,0.44,15.951,M,15.25,M,4,3335*43
$GNRMC,111035.600,A,2500.8049364,N,12132.4792897,E,0.02,159.17,260623,,,R,V*1C
$GPHDT,,T*1B
$GNACCURACY,3.6*13
$GNGGA,111035.700,2500.8049382,N,12132.4792914,E,4,56,0.44,15.943,M,15.25,M,4,3335*43
$GNRMC,111035.700,A,2500.8049382,N,12132.4792914,E,0.02,159.17,260623,,,R,V*1F
$GPHDT,,T*1B
$GNACCURACY,3.6*13
$GNGGA,111035.800,2500.8049370,N,12132.4792892,E,4,56,0.44,15.947,M,15.25,M,4,3335*4A
$GNRMC,111035.800,A,2500.8049370,N,12132.4792892,E,0.02,159.17,260623,,,R,V*12
$GPHDT,,T*1B
$GNACCURACY,3.6*13
$GNGGA,111035.900,2500.8049362,N,12132.4792937,E,4,56,0.44,15.947,M,15.25,M,4,3335*46
$GNRMC,111035.900,A,2500.8049362,N,12132.4792937,E,0.02,159.17,260623,,,R,V*1E
$GPHDT,,T*1B
$GNACCURACY,3.6*13
$GNGGA,111036.000,2500.8049356,N,12132.4792893,E,4,56,0.44,15.955,M,15.25,M,5,3335*46
$GNRMC,111036.000,A,2500.8049356,N,12132.4792893,E,0.02,159.17,260623,,,R,V*1C
$GPHDT,,T*1B
$GNACCURACY,3.6*13
$GNGGA,111036.100,2500.8049354,N,12132.4792902,E,4,56,0.44,15.958,M,15.25,M,5,3335*41
$GNRMC,111036.100,A,2500.8049354,N,12132.4792902,E,0.02,159.17,260623,,,R,V*16
$GPHDT,,T*1B
$GNGSA,A,3,24,196,199,23,15,195,194,05,10,,,,0.81,0.44,0.68,1*0F
$GNGSA,A,3,80,85,70,73,86,71,79,84,69,,,,0.81,0.44,0.68,2*06
$GNGSA,A,3,13,08,07,26,15,02,03,,,,,,0.81,0.44,0.68,3*08
$GNGSA,A,3,38,08,39,16,13,46,19,20,36,37,29,35,0.81,0.44,0.68,4*0B
$GPGSV,5,1,17,24,80,066,45,196,74,061,35,18,61,262,,50,60,167,37,1*5A
$GPGSV,5,2,17,199,60,167,36,23,44,334,36,15,41,039,23,195,37,179,45,1*6A
$GPGSV,5,3,17,194,28,140,43,05,24,112,34,12,16,147,24,10,13,315,29,1*59
$GPGSV,5,4,17,13,13,052,16,32,06,263,18,29,04,202,,25,04,180,,1*6F
$GPGSV,5,5,17,20,02,126,,1*57
$GPGSV,2,1,07,24,80,066,48,196,74,061,37,199,60,167,46,23,44,334,42,8*63
$GPGSV,2,2,07,195,37,179,43,194,28,140,43,10,13,315,34,8*5C
$GLGSV,3,1,09,80,47,091,38,85,40,256,28,70,39,359,28,73,30,163,37,1*76
$GLGSV,3,2,09,86,24,311,35,71,19,306,33,79,16,038,24,84,16,193,18,1*7B
$GLGSV,3,3,09,69,15,066,18,1*43
$GAGSV,3,1,09,13,61,242,28,08,49,018,37,07,42,295,31,26,29,312,30,7*7A
$GAGSV,3,2,09,15,29,174,37,02,24,092,27,30,21,148,29,03,13,059,30,7*70
$GAGSV,3,3,09,25,04,048,,7*45
$GAGSV,2,1,06,13,61,242,25,08,49,018,40,07,42,295,36,15,29,174,43,1*7E
$GAGSV,2,2,06,02,24,092,22,30,21,148,30,1*72
$GBGSV,4,1,15,38,82,078,44,08,75,006,38,39,72,271,37,16,66,248,23,1*79
$GBGSV,4,2,15,13,65,338,41,06,64,244,16,46,56,124,43,09,49,232,,1*7F
$GBGSV,4,3,15,19,46,337,39,20,44,054,35,36,28,185,38,37,26,052,41,1*7D
$GBGSV,4,4,15,29,24,217,24,35,23,276,29,22,08,296,19,1*4F
$GBGSV,2,1,08,38,82,078,45,39,72,271,30,46,56,124,42,19,46,337,39,4*78
$GBGSV,2,2,08,20,44,054,42,36,28,185,38,37,26,052,31,22,08,296,26,4*72
$GNACCURACY,3.6*13
$PAIRSAT,1,35,1,0,200,2,0,200,3,0,200,4,0,200,5,0,201,6,0,200,7,0,200,8,0,200,9,0,200,10,0,221,11,0,200,12,0,200,13,0,201,14,0,200,15,0,201,16,0,200,17,0,200,18,0,221,19,0,200,20,0,200,21,0,200,23,0,221,24,0,221,25,0,200,26,0,200,27,0,200,28,0,200,29,0,200,30,0,200,31,0,200,32,0,200,194,0,621,195,0,621,196,0,620,199,0,621*6A
$PAIRSAT,2,23,65,0,200,67,0,200,68,0,200,69,0,201,70,0,201,71,0,201,72,0,200,73,0,201,74,0,200,75,0,200,76,0,200,77,0,200,78,0,200,79,0,201,80,0,201,81,0,200,82,0,200,83,0,200,84,0,201,85,0,201,86,0,201,87,0,200,88,0,200*52
$PAIRSAT,3,23,2,0,1221,3,0,1221,4,0,1200,5,0,200,7,0,1221,8,0,1221,9,0,1200,10,0,1200,11,0,1200,12,0,1200,13,0,1221,15,0,1221,19,0,1200,21,0,1200,24,0,1200,25,0,1200,26,0,1221,27,0,1200,30,0,1200,31,0,1200,33,0,1200,34,0,1200,36,0,1200*69
$PAIRSAT,4,50,1,0,200,2,0,200,3,0,200,4,0,200,5,0,200,6,0,201,7,0,200,8,0,201,9,0,201,10,0,200,11,0,200,12,0,200,13,0,201,14,0,200,15,0,200,16,0,201,19,0,621,20,0,621,21,0,600,22,0,621,23,0,600,24,0,600,25,0,600,26,0,600,27,0,600,28,0,600,29,0,621,30,0,600,31,0,200,32,0,600,33,0,600,34,0,600,35,0,621,36,0,621,37,0,621,38,0,621,39,0,621,40,0,600,41,0,600,42,0,600,43,0,600,44,0,600,45,0,600,46,0,621,56,0,200,57,0,200,58,0,200,59,0,600,60,0,600,61,0,600*41
$PAIRDGP,7,5,10,13,15,18,23,24*52
$GNGGA,111036.200,2500.8049354,N,12132.4792903,E,4,56,0.44,15.948,M,15.25,M,5,3335*42
$GNRMC,111036.200,A,2500.8049354,N,12132.4792903,E,0.02,159.17,260623,,,R,V*14
$GPHDT,,T*1B
$GNACCURACY,3.6*13
$GNGGA,111036.300,2500.8049359,N,12132.4792913,E,4,56,0.44,15.958,M,15.25,M,5,3335*4E
$GNRMC,111036.300,A,2500.8049359,N,12132.4792913,E,0.02,159.17,260623,,,R,V*19
$GPHDT,,T*1B
$GNACCURACY,3.6*13
$GNGGA,111036.400,2500.8049372,N,12132.4792904,E,4,56,0.44,15.949,M,15.25,M,5,3335*46
$GNRMC,111036.400,A,2500.8049372,N,12132.4792904,E,0.02,159.17,260623,,,R,V*11
$GPHDT,,T*1B
$GNACCURACY,3.5*10
$GNGGA,111036.500,2500.8049364,N,12132.4792908,E,4,56,0.44,15.956,M,15.25,M,5,3335*42
$GNRMC,111036.500,A,2500.8049364,N,12132.4792908,E,0.02,159.17,260623,,,R,V*1B
$GPHDT,,T*1B
$GNACCURACY,3.5*10
$GNGGA,111036.600,2500.8049366,N,12132.4792888,E,4,56,0.44,15.950,M,15.25,M,5,3335*4C
$GNRMC,111036.600,A,2500.8049366,N,12132.4792888,E,0.02,159.17,260623,,,R,V*13
$GPHDT,,T*1B
$GNACCURACY,3.5*10
$GNGGA,111036.700,2500.8049354,N,12132.4792902,E,4,56,0.44,15.956,M,15.25,M,5,3335*49
$GNRMC,111036.700,A,2500.8049354,N,12132.4792902,E,0.02,159.17,260623,,,R,V*10
$GPHDT,,T*1B
$GNACCURACY,3.5*10
$GNGGA,111036.800,2500.8049371,N,12132.4792931,E,4,56,0.44,15.948,M,15.25,M,5,3335*4E
$GNRMC,111036.800,A,2500.8049371,N,12132.4792931,E,0.02,159.17,260623,,,R,V*18
$GPHDT,,T*1B
$GNACCURACY,3.5*10
$GNGGA,111036.900,2500.8049355,N,12132.4792904,E,4,56,0.44,15.955,M,15.25,M,5,3335*43
$GNRMC,111036.900,A,2500.8049355,N,12132.4792904,E,0.02,159.17,260623,,,R,V*19
$GPHDT,,T*1B
$GNACCURACY,3.5*10
$GNGGA,111037.000,2500.8049382,N,12132.4792920,E,4,56,0.44,15.950,M,15.25,M,6,3335*41
$GNRMC,111037.000,A,2500.8049382,N,12132.4792920,E,0.02,159.17,260623,,,R,V*1D
$GPHDT,,T*1B
$GNACCURACY,3.5*10
$GNGGA,111037.100,2500.8049368,N,12132.4792947,E,4,57,0.44,15.946,M,15.25,M,6,3335*43
$GNRMC,111037.100,A,2500.8049368,N,12132.4792947,E,0.02,159.17,260623,,,R,V*19
$GPHDT,,T*1B
$GNGSA,A,3,24,196,18,199,23,15,195,194,05,10,,,0.80,0.43,0.67,1*0F
$GNGSA,A,3,80,85,70,73,86,71,84,79,69,,,,0.80,0.43,0.67,2*0F
$GNGSA,A,3,13,08,07,26,15,02,30,03,,,,,0.80,0.43,0.67,3*02
$GNGSA,A,3,38,08,39,16,13,46,19,20,36,37,29,35,0.80,0.43,0.67,4*02
$GPGSV,5,1,17,24,80,066,45,196,74,061,34,18,61,262,25,50,60,167,39,1*52
$GPGSV,5,2,17,199,60,167,36,23,44,334,36,15,41,039,23,195,37,179,45,1*6A
$GPGSV,5,3,17,194,28,140,43,05,24,112,35,12,16,147,26,10,13,315,32,1*50
$GPGSV,5,4,17,13,13,052,16,32,06,263,17,29,04,202,,25,04,180,,1*60
$GPGSV,5,5,17,20,02,126,,1*57
$GPGSV,2,1,07,24,80,066,48,196,74,061,38,199,60,167,46,23,44,334,42,8*6C
$GPGSV,2,2,07,195,37,179,43,194,28,140,43,10,13,315,30,8*58
$GLGSV,3,1,09,80,47,091,38,85,40,256,28,70,39,359,28,73,30,163,37,1*76
$GLGSV,3,2,09,86,24,311,36,71,19,306,32,84,16,193,18,79,16,038,24,1*79
$GLGSV,3,3,09,69,15,066,19,1*42
$GAGSV,3,1,09,13,61,242,27,08,49,018,38,07,42,295,31,26,29,312,31,7*7B
$GAGSV,3,2,09,15,29,174,37,02,24,092,29,30,21,147,28,03,13,059,30,7*70
$GAGSV,3,3,09,25,04,048,,7*45
$GAGSV,2,1,07,13,61,242,25,08,49,018,40,07,42,295,36,26,29,312,29,1*71
$GAGSV,2,2,07,15,29,174,43,02,24,092,22,30,21,147,30,1*46
$GBGSV,4,1,15,38,82,078,44,08,75,006,38,39,72,271,36,16,66,248,23,1*78
$GBGSV,4,2,15,13,65,338,41,06,64,244,15,46,56,124,43,09,49,232,,1*7C
$GBGSV,4,3,15,19,46,337,38,20,44,054,35,36,28,185,38,37,26,052,41,1*7C
$GBGSV,4,4,15,29,24,217,26,35,23,276,28,22,08,296,17,1*42
$GBGSV,2,1,08,38,82,078,45,39,72,271,30,46,56,124,42,19,46,337,40,4*76
$GBGSV,2,2,08,20,44,054,42,36,28,185,38,37,26,052,32,22,08,296,27,4*70
$GNACCURACY,3.5*10
$PAIRSAT,1,35,1,0,200,2,0,200,3,0,200,4,0,200,5,0,201,6,0,200,7,0,200,8,0,200,9,0,200,10,0,221,11,0,200,12,0,200,13,0,201,14,0,200,15,0,201,16,0,200,17,0,200,18,0,221,19,0,200,20,0,200,21,0,200,23,0,221,24,0,221,25,0,200,26,0,200,27,0,200,28,0,200,29,0,200,30,0,200,31,0,200,32,0,200,194,0,621,195,0,621,196,0,620,199,0,621*6A
$PAIRSAT,2,23,65,0,200,67,0,200,68,0,200,69,0,201,70,0,201,71,0,201,72,0,200,73,0,201,74,0,200,75,0,200,76,0,200,77,0,200,78,0,200,79,0,201,80,0,201,81,0,200,82,0,200,83,0,200,84,0,201,85,0,201,86,0,201,87,0,200,88,0,200*52
$PAIRSAT,3,23,2,0,1221,3,0,1221,4,0,1200,5,0,200,7,0,1221,8,0,1221,9,0,1200,10,0,1200,11,0,1200,12,0,1200,13,0,1221,15,0,1221,19,0,1200,21,0,1200,24,0,1200,25,0,1200,26,0,1221,27,0,1200,30,0,1201,31,0,1200,33,0,1200,34,0,1200,36,0,1200*68
$PAIRSAT,4,50,1,0,200,2,0,200,3,0,200,4,0,200,5,0,200,6,0,201,7,0,200,8,0,201,9,0,201,10,0,200,11,0,200,12,0,200,13,0,201,14,0,200,15,0,200,16,0,201,19,0,621,20,0,621,21,0,600,22,0,621,23,0,600,24,0,600,25,0,600,26,0,600,27,0,600,28,0,600,29,0,621,30,0,600,31,0,200,32,0,600,33,0,600,34,0,600,35,0,621,36,0,621,37,0,621,38,0,621,39,0,621,40,0,600,41,0,600,42,0,600,43,0,600,44,0,600,45,0,600,46,0,621,56,0,200,57,0,200,58,0,200,59,0,600,60,0,600,61,0,600*41
$PAIRDGP,7,5,10,13,15,18,23,24*52
$GNGGA,111037.200,2500.8049370,N,12132.4792952,E,4,59,0.43,15.952,M,15.25,M,6,3335*41
$GNRMC,111037.200,A,2500.8049370,N,12132.4792952,E,0.03,159.17,260623,,,R,V*16
$GPHDT,,T*1B
$GNACCURACY,3.5*10
$GNGGA,111037.300,2500.8049370,N,12132.4792895,E,4,60,0.43,15.952,M,15.25,M,6,3335*40
$GNRMC,111037.300,A,2500.8049370,N,12132.4792895,E,0.03,159.17,260623,,,R,V*1D
$GPHDT,,T*1B
$GNACCURACY,3.5*10
$GNGGA,111037.400,2500.8049361,N,12132.4792890,E,4,60,0.43,15.948,M,15.25,M,6,3335*49
$GNRMC,111037.400,A,2500.8049361,N,12132.4792890,E,0.03,159.17,260623,,,R,V*1F
$GPHDT,,T*1B
$GNACCURACY,3.5*10
$GNGGA,111037.500,2500.8049352,N,12132.4792895,E,4,59,0.43,15.951,M,15.25,M,6,3335*4F
$GNRMC,111037.500,A,2500.8049352,N,12132.4792895,E,0.02,159.17,260623,,,R,V*1A
$GPHDT,,T*1B
$GNACCURACY,3.5*10
$GNGGA,111037.600,2500.8049352,N,12132.4792894,E,4,59,0.43,15.953,M,15.25,M,6,3335*4F
$GNRMC,111037.600,A,2500.8049352,N,12132.4792894,E,0.03,159.17,260623,,,R,V*19
$GPHDT,,T*1B
$GNACCURACY,3.5*10
$GNGGA,111037.700,2500.8049364,N,12132.4792900,E,4,61,0.43,15.953,M,15.25,M,6,3335*4C
$GNRMC,111037.700,A,2500.8049364,N,12132.4792900,E,0.03,159.17,260623,,,R,V*11
$GPHDT,,T*1B
$GNACCURACY,3.5*10
$GNGGA,111037.800,2500.8049376,N,12132.4792939,E,4,61,0.43,15.957,M,15.25,M,6,3335*4E
$GNRMC,111037.800,A,2500.8049376,N,12132.4792939,E,0.03,159.17,260623,,,R,V*17
$GPHDT,,T*1B
$GNACCURACY,3.5*10
$GNGGA,111037.900,2500.8049371,N,12132.4792908,E,4,60,0.43,15.948,M,15.25,M,6,3335*45
$GNRMC,111037.900,A,2500.8049371,N,12132.4792908,E,0.03,159.17,260623,,,R,V*13
$GPHDT,,T*1B
$GNACCURACY,3.5*10
$GNGGA,111038.000,2500.8049369,N,12132.4792905,E,4,60,0.43,15.951,M,15.25,M,7,3335*4E
$GNRMC,111038.000,A,2500.8049369,N,12132.4792905,E,0.03,159.17,260623,,,R,V*11
$GPHDT,,T*1B
$GNACCURACY,3.5*10
$GNGGA,111038.100,2500.8049372,N,12132.4792918,E,4,60,0.43,15.947,M,15.25,M,7,3335*4E
$GNRMC,111038.100,A,2500.8049372,N,12132.4792918,E,0.03,159.17,260623,,,R,V*16
$GPHDT,,T*1B
$GNGSA,A,3,24,196,199,23,15,195,194,05,10,18,,,0.80,0.43,0.67,1*0F
$GNGSA,A,3,80,85,70,73,86,71,84,79,69,,,,0.80,0.43,0.67,2*0F
$GNGSA,A,3,13,08,07,26,15,02,30,03,,,,,0.80,0.43,0.67,3*02
$GNGSA,A,3,38,08,39,16,13,46,19,20,36,37,29,35,0.80,0.43,0.67,4*02
$GPGSV,5,1,17,24,80,066,45,196,74,061,34,18,61,262,23,50,60,167,36,1*5B
$GPGSV,5,2,17,199,60,167,36,23,44,334,36,15,41,039,25,195,37,179,45,1*6C
$GPGSV,5,3,17,194,28,140,43,05,24,112,35,12,16,147,26,10,13,315,27,1*54
$GPGSV,5,4,17,13,13,052,15,32,06,263,17,29,04,202,,25,04,180,,1*63
$GPGSV,5,5,17,20,02,126,,1*57
$GPGSV,2,1,08,24,80,066,48,196,74,061,38,18,61,262,28,199,60,167,46,8*62
$GPGSV,2,2,08,23,44,334,42,195,37,179,43,194,28,140,43,10,13,315,32,8*66
$GLGSV,3,1,09,80,47,091,38,85,40,256,26,70,39,359,28,73,30,162,38,1*76
$GLGSV,3,2,09,86,24,311,36,71,19,306,34,84,16,193,19,79,16,038,22,1*78
$GLGSV,3,3,09,69,15,066,20,1*48
$GAGSV,3,1,09,13,61,242,27,08,49,018,38,07,42,295,33,26,29,312,31,7*79
$GAGSV,3,2,09,15,29,174,37,02,24,092,28,30,21,147,28,03,13,059,30,7*71
$GAGSV,3,3,09,25,04,048,,7*45
$GAGSV,2,1,07,13,61,242,25,08,49,018,40,07,42,295,36,15,29,174,43,1*7F
$GAGSV,2,2,07,26,29,312,29,02,24,092,22,30,21,147,30,1*48
$GBGSV,4,1,15,38,82,078,44,08,75,006,38,39,72,271,36,16,66,248,23,1*78
$GBGSV,4,2,15,13,65,338,41,06,64,244,12,46,56,124,43,09,49,232,,1*7B
$GBGSV,4,3,15,19,46,337,39,20,44,054,35,36,28,185,38,37,26,052,41,1*7D
$GBGSV,4,4,15,29,24,217,25,35,23,276,28,22,08,296,17,1*41
$GBGSV,2,1,08,38,82,078,45,39,72,271,33,46,56,124,42,19,46,337,39,4*7B
$GBGSV,2,2,08,20,44,054,42,36,28,185,38,37,26,052,32,22,08,296,26,4*71
$GNACCURACY,3.5*10
$PAIRSAT,1,35,1,0,200,2,0,200,3,0,200,4,0,200,5,0,201,6,0,200,7,0,200,8,0,200,9,0,200,10,0,221,11,0,200,12,0,200,13,0,201,14,0,200,15,0,201,16,0,200,17,0,200,18,0,221,19,0,200,20,0,200,21,0,200,23,0,221,24,0,221,25,0,200,26,0,200,27,0,200,28,0,200,29,0,200,30,0,200,31,0,200,32,0,200,194,0,621,195,0,621,196,0,620,199,0,621*6A
$PAIRSAT,2,23,65,0,200,67,0,200,68,0,200,69,0,201,70,0,201,71,0,201,72,0,200,73,0,201,74,0,200,75,0,200,76,0,200,77,0,200,78,0,200,79,0,201,80,0,201,81,0,200,82,0,200,83,0,200,84,0,201,85,0,201,86,0,201,87,0,200,88,0,200*52
$PAIRSAT,3,23,2,0,1221,3,0,1221,4,0,1200,5,0,200,7,0,1221,8,0,1221,9,0,1200,10,0,1200,11,0,1200,12,0,1200,13,0,1221,15,0,1221,19,0,1200,21,0,1200,24,0,1200,25,0,1200,26,0,1221,27,0,1200,30,0,1201,31,0,1200,33,0,1200,34,0,1200,36,0,1200*68
$PAIRSAT,4,50,1,0,200,2,0,200,3,0,200,4,0,200,5,0,200,6,0,201,7,0,200,8,0,201,9,0,201,10,0,200,11,0,200,12,0,200,13,0,201,14,0,200,15,0,200,16,0,201,19,0,621,20,0,621,21,0,600,22,0,621,23,0,600,24,0,600,25,0,600,26,0,600,27,0,600,28,0,600,29,0,621,30,0,600,31,0,200,32,0,600,33,0,600,34,0,600,35,0,621,36,0,621,37,0,621,38,0,621,39,0,621,40,0,600,41,0,600,42,0,600,43,0,600,44,0,600,45,0,600,46,0,621,56,0,200,57,0,200,58,0,200,59,0,600,60,0,600,61,0,600*41
$PAIRDGP,7,5,10,13,15,18,23,24*52
$GNGGA,111038.200,2500.8049376,N,12132.4792916,E,4,60,0.43,15.938,M,15.25,M,7,3335*4F
$GNRMC,111038.200,A,2500.8049376,N,12132.4792916,E,0.03,159.17,260623,,,R,V*1F
$GPHDT,,T*1B
$GNACCURACY,3.5*10
$GNGGA,111038.300,2500.8049369,N,12132.4792931,E,4,60,0.43,15.944,M,15.25,M,7,3335*4E
$GNRMC,111038.300,A,2500.8049369,N,12132.4792931,E,0.03,159.17,260623,,,R,V*15
$GPHDT,,T*1B
$GNACCURACY,3.5*10
$GNGGA,111038.400,2500.8049355,N,12132.4792905,E,4,60,0.43,15.957,M,15.25,M,7,3335*43
$GNRMC,111038.400,A,2500.8049355,N,12132.4792905,E,0.03,159.17,260623,,,R,V*1A
$GPHDT,,T*1B
$GNACCURACY,3.5*10
$GNGGA,111038.500,2500.8049354,N,12132.4792853,E,4,60,0.43,15.951,M,15.25,M,7,3335*47
$GNRMC,111038.500,A,2500.8049354,N,12132.4792853,E,0.03,159.17,260623,,,R,V*18
