$FW : RTK35X,V1.1X0314AS,Lib20210517,1*54
$Tool : LOCOSYS , GNSS Firebird , v1.0.0.19*39
$---------------------------------------------------*2D
$GPHDT,,T*1B
$GNGSA,A,3,24,196,18,199,23,15,195,194,05,10,13,,0.78,0.42,0.66,1*0A
$GNGSA,A,3,80,70,85,73,86,71,69,84,,,,,0.78,0.42,0.66,2*06
$GNGSA,A,3,13,08,07,26,15,02,30,03,,,,,0.78,0.42,0.66,3*05
$GNGSA,A,3,38,08,39,13,16,46,09,19,20,36,37,29,0.78,0.42,0.66,4*0A
$GNGSA,A,3,35,,,,,,,,,,,,0.78,0.42,0.66,4*0B
$GPGSV,5,1,17,24,79,058,40,196,74,061,39,18,61,259,32,50,60,167,40,1*51
$GPGSV,5,2,17,199,60,167,37,23,46,335,44,15,40,041,31,195,36,179,40,1*64
$GPGSV,5,3,17,194,29,140,43,05,23,114,31,12,17,145,25,10,14,316,31,1*53
$GPGSV,5,4,17,13,12,053,24,32,07,264,17,25,05,179,,29,03,200,,1*65
$GPGSV,5,5,17,20,01,127,,1*55
$GPGSV,2,1,08,24,79,058,43,196,74,061,38,18,61,259,37,199,60,167,47,8*65
$GPGSV,2,2,08,23,46,335,42,195,36,179,43,194,29,140,38,10,14,316,33,8*6C
$GLGSV,3,1,09,80,48,087,26,70,40,002,30,85,39,254,22,73,32,162,42,1*7C
$GLGSV,3,2,09,86,25,309,28,71,19,308,37,79,15,036,16,69,15,067,23,1*7B
$GLGSV,3,3,09,84,14,192,19,1*4A
$GAGSV,3,1,09,13,60,239,25,08,49,020,32,07,43,297,32,26,30,311,24,7*7A
$GAGSV,3,2,09,15,27,174,38,02,24,090,21,30,22,147,34,03,12,060,26,7*79
$GAGSV,3,3,09,25,04,047,,7*4A
$GAGSV,2,1,08,13,60,239,34,08,49,020,33,07,43,297,34,26,30,311,28,1*77
$GAGSV,2,2,08,15,27,174,41,02,24,090,22,30,22,147,34,03,12,060,26,1*72
$GBGSV,4,1,16,38,83,085,43,08,76,006,37,39,72,274,37,13,66,337,42,1*7C
$GBGSV,4,2,16,16,66,250,25,06,65,246,17,46,57,121,39,09,49,233,16,1*7A
$GBGSV,4,3,16,19,46,339,43,20,44,056,29,36,30,184,38,37,26,051,27,1*79
$GBGSV,4,4,16,29,22,215,28,35,22,274,29,22,09,297,35,44,01,316,,1*7C
$GBGSV,3,1,10,38,83,085,43,39,72,274,37,46,57,121,39,19,46,339,38,4*70
$GBGSV,3,2,10,20,44,056,35,36,30,184,39,37,26,051,36,29,22,215,18,4*70
$GBGSV,3,3,10,35,22,274,29,22,09,297,26,4*7F
$GNACCURACY,3.3*16
$PAIRSAT,1,35,1,0,200,2,0,200,3,0,200,4,0,200,5,0,201,6,0,200,7,0,200,8,0,200,9,0,200,10,0,221,11,0,200,12,0,200,13,0,201,14,0,200,15,0,201,16,0,200,17,0,200,18,0,221,19,0,200,20,0,200,21,0,200,23,0,221,24,0,221,25,0,200,26,0,200,27,0,200,28,0,200,29,0,200,30,0,200,31,0,200,32,0,200,194,0,621,195,0,621,196,0,620,199,0,621*6A
$PAIRSAT,2,23,65,0,200,67,0,200,68,0,200,69,0,201,70,0,201,71,0,201,72,0,200,73,0,201,74,0,200,75,0,200,76,0,200,77,0,200,78,0,200,79,0,201,80,0,201,81,0,200,82,0,200,83,0,200,84,0,201,85,0,201,86,0,201,87,0,200,88,0,200*52
$PAIRSAT,3,23,2,0,1221,3,0,1221,4,0,1200,5,0,200,7,0,1221,8,0,1221,9,0,1200,10,0,1200,11,0,1200,12,0,1200,13,0,1221,15,0,1221,19,0,1200,21,0,1200,24,0,1200,25,0,1200,26,0,1221,27,0,1200,30,0,1221,31,0,1200,33,0,1200,34,0,1200,36,0,1200*6A
$PAIRSAT,4,50,1,0,200,2,0,200,3,0,200,4,0,200,5,0,200,6,0,201,7,0,200,8,0,201,9,0,201,10,0,200,11,0,200,12,0,200,13,0,201,14,0,200,15,0,200,16,0,201,19,0,621,20,0,621,21,0,600,22,0,621,23,0,600,24,0,600,25,0,600,26,0,600,27,0,600,28,0,600,29,0,621,30,0,600,31,0,200,32,0,600,33,0,600,34,0,600,35,0,621,36,0,621,37,0,621,38,0,621,39,0,621,40,0,600,41,0,600,42,0,600,43,0,600,44,0,600,45,0,600,46,0,621,56,0,200,57,0,200,58,0,200,59,0,600,60,0,600,61,0,600*41
$PAIRDGP,7,5,10,13,15,18,23,24*52
$GNGGA,111415.200,2500.8046498,N,12132.4797458,E,2,65,0.42,15.229,M,15.25,M,13,3335*72
$GNRMC,111415.200,A,2500.8046498,N,12132.4797458,E,0.02,159.17,260623,,,D,V*09
$GPHDT,,T*1B
$GNACCURACY,3.3*16
$GNGGA,111415.300,2500.8046498,N,12132.4797638,E,2,65,0.42,15.220,M,15.25,M,13,3335*7E
$GNRMC,111415.300,A,2500.8046498,N,12132.4797638,E,0.02,159.17,260623,,,D,V*0C
$GPHDT,,T*1B
$GNACCURACY,3.3*16
$GNGGA,111415.400,2500.8046498,N,12132.4797698,E,2,65,0.42,15.208,M,15.25,M,13,3335*79
$GNRMC,111415.400,A,2500.8046498,N,12132.4797698,E,0.02,159.17,260623,,,D,V*01
$GPHDT,,T*1B
$GNACCURACY,3.3*16
$GNGGA,111415.500,2500.8046498,N,12132.4797818,E,2,65,0.42,15.198,M,15.25,M,13,3335*74
$GNRMC,111415.500,A,2500.8046498,N,12132.4797818,E,0.02,159.17,260623,,,D,V*06
$GPHDT,,T*1B
$GNACCURACY,3.3*16
$GNGGA,111415.600,2500.8046498,N,12132.4797938,E,2,65,0.42,15.190,M,15.25,M,13,3335*7C
$GNRMC,111415.600,A,2500.8046498,N,12132.4797938,E,0.02,159.17,260623,,,D,V*06
$GPHDT,,T*1B
$GNACCURACY,3.3*16
$GNGGA,111415.700,2500.8046498,N,12132.4798058,E,2,65,0.42,15.180,M,15.25,M,13,3335*7C
$GNRMC,111415.700,A,2500.8046498,N,12132.4798058,E,0.02,159.17,260623,,,D,V*07
$GPHDT,,T*1B
$GNACCURACY,3.3*16
$GNGGA,111415.800,2500.8046498,N,12132.4798178,E,2,65,0.42,15.173,M,15.25,M,13,3335*7C
$GNRMC,111415.800,A,2500.8046498,N,12132.4798178,E,0.02,159.17,260623,,,D,V*0B
$GPHDT,,T*1B
$GNACCURACY,3.3*16
$GNGGA,111415.900,2500.8046558,N,12132.4798358,E,2,65,0.42,15.164,M,15.25,M,13,3335*76
$GNRMC,111415.900,A,2500.8046558,N,12132.4798358,E,0.02,159.17,260623,,,D,V*07
$GPHDT,,T*1B
$GNACCURACY,3.3*16
$GNGGA,111416.000,2500.8046558,N,12132.4798478,E,2,65,0.42,15.154,M,15.25,M,14,3335*7D
$GNRMC,111416.000,A,2500.8046558,N,12132.4798478,E,0.02,159.17,260623,,,D,V*08
$GPHDT,,T*1B
$GNACCURACY,3.3*16
$GNGGA,111416.100,2500.8046558,N,12132.4798598,E,2,65,0.42,15.144,M,15.25,M,14,3335*72
$GNRMC,111416.100,A,2500.8046558,N,12132.4798598,E,0.02,159.17,260623,,,D,V*06
$GPHDT,,T*1B
$GNGSA,A,3,24,196,18,199,23,15,195,194,05,10,13,,0.78,0.42,0.66,1*0A
$GNGSA,A,3,80,70,85,73,86,71,69,84,,,,,0.78,0.42,0.66,2*06
$GNGSA,A,3,13,08,07,26,15,02,30,03,,,,,0.78,0.42,0.66,3*05
$GNGSA,A,3,38,08,39,16,13,46,09,19,20,36,37,35,0.78,0.42,0.66,4*07
$GNGSA,A,3,29,,,,,,,,,,,,0.78,0.42,0.66,4*06
$GPGSV,5,1,17,24,79,058,40,196,74,061,39,18,61,259,32,50,60,167,40,1*51
$GPGSV,5,2,17,199,60,167,37,23,46,335,44,15,40,041,31,195,36,179,40,1*64
$GPGSV,5,3,17,194,29,140,43,05,23,114,31,12,17,145,25,10,14,316,32,1*50
$GPGSV,5,4,17,13,12,053,23,32,07,264,16,25,05,179,,29,03,200,,1*63
$GPGSV,5,5,17,20,01,127,,1*55
$GPGSV,2,1,08,24,79,058,43,196,74,061,38,18,61,259,37,199,60,167,48,8*6A
$GPGSV,2,2,08,23,46,335,42,195,36,179,43,194,29,140,38,10,14,316,33,8*6C
$GLGSV,3,1,09,80,48,087,26,70,40,002,30,85,39,254,21,73,32,162,42,1*7F
$GLGSV,3,2,09,86,25,309,29,71,19,308,37,79,15,036,16,69,15,067,22,1*7B
$GLGSV,3,3,09,84,14,192,19,1*4A
$GAGSV,3,1,09,13,60,239,24,08,49,020,33,07,43,297,32,26,30,311,25,7*7B
$GAGSV,3,2,09,15,27,174,37,02,24,090,19,30,22,147,34,03,12,060,25,7*7E
$GAGSV,3,3,09,25,04,047,,7*4A
$GAGSV,2,1,08,13,60,239,35,08,49,020,33,07,43,297,34,26,30,311,28,1*76
$GAGSV,2,2,08,15,27,174,41,02,24,090,22,30,22,147,34,03,12,060,26,1*72
$GBGSV,4,1,15,38,83,085,43,08,76,006,37,39,72,274,37,16,66,250,26,1*78
$GBGSV,4,2,15,13,66,337,42,06,65,246,16,46,57,121,39,09,49,233,15,1*7F
$GBGSV,4,3,15,19,46,339,43,20,44,056,30,36,30,184,38,37,26,051,27,1*72
$GBGSV,4,4,15,35,22,274,28,29,22,215,28,22,09,297,35,1*4B
$GBGSV,3,1,10,38,83,085,43,39,72,274,37,46,57,121,39,19,46,339,38,4*70
$GBGSV,3,2,10,20,44,056,35,36,30,184,39,37,26,051,36,29,22,215,18,4*70
$GBGSV,3,3,10,35,22,274,30,22,09,297,26,4*77
$GNACCURACY,3.4*11
$PAIRSAT,1,35,1,0,200,2,0,200,3,0,200,4,0,200,5,0,201,6,0,200,7,0,200,8,0,200,9,0,200,10,0,221,11,0,200,12,0,200,13,0,201,14,0,200,15,0,201,16,0,200,17,0,200,18,0,221,19,0,200,20,0,200,21,0,200,23,0,221,24,0,221,25,0,200,26,0,200,27,0,200,28,0,200,29,0,200,30,0,200,31,0,200,32,0,200,194,0,621,195,0,621,196,0,620,199,0,621*6A
$PAIRSAT,2,23,65,0,200,67,0,200,68,0,200,69,0,201,70,0,201,71,0,201,72,0,200,73,0,201,74,0,200,75,0,200,76,0,200,77,0,200,78,0,200,79,0,201,80,0,201,81,0,200,82,0,200,83,0,200,84,0,201,85,0,201,86,0,201,87,0,200,88,0,200*52
$PAIRSAT,3,23,2,0,1221,3,0,1221,4,0,1200,5,0,200,7,0,1221,8,0,1221,9,0,1200,10,0,1200,11,0,1200,12,0,1200,13,0,1221,15,0,1221,19,0,1200,21,0,1200,24,0,1200,25,0,1200,26,0,1221,27,0,1200,30,0,1221,31,0,1200,33,0,1200,34,0,1200,36,0,1200*6A
$PAIRSAT,4,50,1,0,200,2,0,200,3,0,200,4,0,200,5,0,200,6,0,201,7,0,200,8,0,201,9,0,201,10,0,200,11,0,200,12,0,200,13,0,201,14,0,200,15,0,200,16,0,201,19,0,621,20,0,621,21,0,600,22,0,621,23,0,600,24,0,600,25,0,600,26,0,600,27,0,600,28,0,600,29,0,621,30,0,600,31,0,200,32,0,600,33,0,600,34,0,600,35,0,621,36,0,621,37,0,621,38,0,621,39,0,621,40,0,600,41,0,600,42,0,600,43,0,600,44,0,600,45,0,600,46,0,621,56,0,200,57,0,200,58,0,200,59,0,600,60,0,600,61,0,600*41
$PAIRDGP,7,5,10,13,15,18,23,24*52
$GNGGA,111416.200,2500.8046558,N,12132.4798658,E,2,65,0.42,15.131,M,15.25,M,14,3335*7C
$GNRMC,111416.200,A,2500.8046558,N,12132.4798658,E,0.02,159.17,260623,,,D,V*0A
$GPHDT,,T*1B
$GNACCURACY,3.4*11
$GNGGA,111416.300,2500.8046618,N,12132.4798718,E,2,65,0.42,15.119,M,15.25,M,14,3335*75
$GNRMC,111416.300,A,2500.8046618,N,12132.4798718,E,0.02,159.17,260623,,,D,V*09
$GPHDT,,T*1B
$GNACCURACY,3.4*11
$GNGGA,111416.400,2500.8046618,N,12132.4798838,E,2,65,0.42,15.108,M,15.25,M,14,3335*7F
$GNRMC,111416.400,A,2500.8046618,N,12132.4798838,E,0.02,159.17,260623,,,D,V*03
$GPHDT,,T*1B
$GNACCURACY,3.4*11
$GNGGA,111416.500,2500.8046618,N,12132.4799018,E,2,65,0.42,15.096,M,15.25,M,14,3335*73
$GNRMC,111416.500,A,2500.8046618,N,12132.4799018,E,0.02,159.17,260623,,,D,V*09
$GPHDT,,T*1B
$GNACCURACY,3.4*11
$GNGGA,111416.600,2500.8046678,N,12132.4799138,E,2,66,0.42,15.085,M,15.25,M,14,3335*74
$GNRMC,111416.600,A,2500.8046678,N,12132.4799138,E,0.02,159.17,260623,,,D,V*0F
$GPHDT,,T*1B
$GNACCURACY,3.4*11
$GNGGA,111416.700,2500.8046678,N,12132.4799198,E,2,66,0.42,15.072,M,15.25,M,14,3335*77
$GNRMC,111416.700,A,2500.8046678,N,12132.4799198,E,0.02,159.17,260623,,,D,V*04
$GPHDT,,T*1B
$GNACCURACY,3.4*11
$GNGGA,111416.800,2500.8046678,N,12132.4799318,E,2,66,0.42,15.058,M,15.25,M,14,3335*7A
$GNRMC,111416.800,A,2500.8046678,N,12132.4799318,E,0.02,159.17,260623,,,D,V*01
$GPHDT,,T*1B
$GNACCURACY,3.4*11
$GNGGA,111416.900,2500.8046678,N,12132.4799438,E,2,66,0.42,15.044,M,15.25,M,14,3335*73
$GNRMC,111416.900,A,2500.8046678,N,12132.4799438,E,0.02,159.17,260623,,,D,V*05
$GPHDT,,T*1B
$GNACCURACY,3.4*11
$GNGGA,111417.000,2500.8046738,N,12132.4799498,E,2,65,0.42,15.031,M,15.25,M,15,3335*74
$GNRMC,111417.000,A,2500.8046738,N,12132.4799498,E,0.02,159.17,260623,,,D,V*02
$GPHDT,,T*1B
$GNACCURACY,3.4*11
$GNGGA,111417.100,2500.8046738,N,12132.4799618,E,2,66,0.42,15.022,M,15.25,M,15,3335*7E
$GNRMC,111417.100,A,2500.8046738,N,12132.4799618,E,0.02,159.17,260623,,,D,V*09
$GPHDT,,T*1B
$GNGSA,A,3,24,196,18,199,23,15,195,194,05,10,13,,0.76,0.42,0.64,1*06
$GNGSA,A,3,80,70,85,73,86,71,79,69,84,,,,0.76,0.42,0.64,2*04
$GNGSA,A,3,13,08,07,26,15,02,30,03,,,,,0.76,0.42,0.64,3*09
$GNGSA,A,3,38,08,39,16,13,06,46,09,19,36,37,35,0.76,0.42,0.64,4*0F
$GNGSA,A,3,29,20,,,,,,,,,,,0.76,0.42,0.64,4*08
$GPGSV,5,1,17,24,79,058,40,196,74,061,39,18,61,259,32,50,60,167,40,1*51
$GPGSV,5,2,17,199,60,167,37,23,46,335,44,15,40,041,31,195,36,179,40,1*64
$GPGSV,5,3,17,194,29,140,43,05,22,114,30,12,17,145,24,10,14,316,32,1*51
$GPGSV,5,4,17,13,12,053,22,32,07,264,16,25,05,179,,29,03,200,,1*62
$GPGSV,5,5,17,20,01,127,,1*55
$GPGSV,2,1,08,24,79,058,43,196,74,061,39,18,61,259,37,199,60,167,48,8*6B
$GPGSV,2,2,08,23,46,335,42,195,36,179,43,194,29,140,38,10,14,316,33,8*6C
$GLGSV,3,1,09,80,48,087,26,70,40,002,30,85,39,254,21,73,32,162,42,1*7F
$GLGSV,3,2,09,86,25,309,29,71,19,308,38,79,15,036,16,69,15,067,23,1*75
$GLGSV,3,3,09,84,14,192,20,1*40
$GAGSV,3,1,09,13,60,239,24,08,49,020,31,07,43,297,32,26,30,311,26,7*7A
$GAGSV,3,2,09,15,27,174,37,02,24,090,20,30,22,147,34,03,12,060,25,7*74
$GAGSV,3,3,09,25,04,047,,7*4A
$GAGSV,2,1,08,13,60,239,34,08,49,020,30,07,43,297,33,26,30,311,27,1*7C
$GAGSV,2,2,08,15,27,174,41,02,24,090,19,30,22,147,35,03,12,060,27,1*7A
$GBGSV,4,1,15,38,83,085,43,08,76,006,37,39,72,274,37,16,66,250,26,1*78
$GBGSV,4,2,15,13,66,337,42,06,65,246,18,46,57,121,39,09,49,233,16,1*72
$GBGSV,4,3,15,19,46,339,43,20,44,056,23,36,30,184,38,37,26,051,24,1*73
$GBGSV,4,4,15,35,22,274,28,29,22,215,28,22,09,297,35,1*4B
$GBGSV,3,1,10,38,83,085,43,39,72,274,37,46,57,121,38,19,46,339,38,4*71
$GBGSV,3,2,10,20,44,056,35,36,30,184,40,37,26,051,36,29,22,215,18,4*7E
$GBGSV,3,3,10,35,22,274,30,22,09,297,26,4*77
$GNACCURACY,3.4*11
$PAIRSAT,1,35,1,0,200,2,0,200,3,0,200,4,0,200,5,0,201,6,0,200,7,0,200,8,0,200,9,0,200,10,0,221,11,0,200,12,0,200,13,0,201,14,0,200,15,0,201,16,0,200,17,0,200,18,0,221,19,0,200,20,0,200,21,0,200,23,0,221,24,0,221,25,0,200,26,0,200,27,0,200,28,0,200,29,0,200,30,0,200,31,0,200,32,0,200,194,0,621,195,0,621,196,0,620,199,0,621*6A
$PAIRSAT,2,23,65,0,200,67,0,200,68,0,200,69,0,201,70,0,201,71,0,201,72,0,200,73,0,201,74,0,200,75,0,200,76,0,200,77,0,200,78,0,200,79,0,201,80,0,201,81,0,200,82,0,200,83,0,200,84,0,201,85,0,201,86,0,201,87,0,200,88,0,200*52
$PAIRSAT,3,23,2,0,1221,3,0,1221,4,0,1200,5,0,200,7,0,1221,8,0,1221,9,0,1200,10,0,1200,11,0,1200,12,0,1200,13,0,1221,15,0,1221,19,0,1200,21,0,1200,24,0,1200,25,0,1200,26,0,1221,27,0,1200,30,0,1221,31,0,1200,33,0,1200,34,0,1200,36,0,1200*6A
$PAIRSAT,4,50,1,0,200,2,0,200,3,0,200,4,0,200,5,0,200,6,0,201,7,0,200,8,0,201,9,0,201,10,0,200,11,0,200,12,0,200,13,0,201,14,0,200,15,0,200,16,0,201,19,0,621,20,0,621,21,0,600,22,0,621,23,0,600,24,0,600,25,0,600,26,0,600,27,0,600,28,0,600,29,0,621,30,0,600,31,0,200,32,0,600,33,0,600,34,0,600,35,0,621,36,0,621,37,0,621,38,0,621,39,0,621,40,0,600,41,0,600,42,0,600,43,0,600,44,0,600,45,0,600,46,0,621,56,0,200,57,0,200,58,0,200,59,0,600,60,0,600,61,0,600*41
$PAIRDGP,7,5,10,13,15,18,23,24*52
$GNGGA,111417.200,2500.8046738,N,12132.4799738,E,2,66,0.42,15.013,M,15.25,M,15,3335*7C
$GNRMC,111417.200,A,2500.8046738,N,12132.4799738,E,0.02,159.17,260623,,,D,V*09
$GPHDT,,T*1B
$GNACCURACY,3.4*11
$GNGGA,111417.300,2500.8046738,N,12132.4799858,E,2,66,0.42,15.001,M,15.25,M,15,3335*77
$GNRMC,111417.300,A,2500.8046738,N,12132.4799858,E,0.03,159.17,260623,,,D,V*00
$GPHDT,,T*1B
$GNACCURACY,3.3*16
$GNGGA,111417.400,2500.8046798,N,12132.4800038,E,2,66,0.42,14.993,M,15.25,M,15,3335*78
$GNRMC,111417.400,A,2500.8046798,N,12132.4800038,E,0.03,159.17,260623,,,D,V*0C
$GPHDT,,T*1B
$GNACCURACY,3.3*16
$GNGGA,111417.500,2500.8046798,N,12132.4800158,E,2,66,0.42,14.989,M,15.25,M,15,3335*75
$GNRMC,111417.500,A,2500.8046798,N,12132.4800158,E,0.03,159.17,260623,,,D,V*0A
$GPHDT,,T*1B
$GNACCURACY,3.3*16
$GNGGA,111417.600,2500.8046858,N,12132.4800278,E,2,66,0.42,14.980,M,15.25,M,15,3335*7D
$GNRMC,111417.600,A,2500.8046858,N,12132.4800278,E,0.03,159.17,260623,,,D,V*0B
$GPHDT,,T*1B
$GNACCURACY,3.3*16
$GNGGA,111417.700,2500.8046918,N,12132.4800458,E,2,67,0.42,14.973,M,15.25,M,15,3335*70
$GNRMC,111417.700,A,2500.8046918,N,12132.4800458,E,0.03,159.17,260623,,,D,V*0B
$GPHDT,,T*1B
$GNACCURACY,3.3*16
$GNGGA,111417.800,2500.8046918,N,12132.4800578,E,2,67,0.42,14.966,M,15.25,M,15,3335*78
$GNRMC,111417.800,A,2500.8046918,N,12132.4800578,E,0.03,159.17,260623,,,D,V*07
$GPHDT,,T*1B
$GNACCURACY,3.3*16
$GNGGA,111417.900,2500.8046978,N,12132.4800758,E,2,67,0.42,14.957,M,15.25,M,15,3335*7D
$GNRMC,111417.900,A,2500.8046978,N,12132.4800758,E,0.03,159.17,260623,,,D,V*00
$GPHDT,,T*1B
$GNACCURACY,3.3*16
$GNGGA,111418.000,2500.8047038,N,12132.4800878,E,2,67,0.42,14.949,M,15.25,M,16,3335*76
$GNRMC,111418.000,A,2500.8047038,N,12132.4800878,E,0.03,159.17,260623,,,D,V*07
$GPHDT,,T*1B
$GNACCURACY,3.3*16
$GNGGA,111418.100,2500.8047098,N,12132.4801058,E,2,67,0.42,14.941,M,15.25,M,16,3335*7E
$GNRMC,111418.100,A,2500.8047098,N,12132.4801058,E,0.03,159.17,260623,,,D,V*07
$GPHDT,,T*1B
$GNGSA,A,3,24,196,18,199,23,15,195,194,05,10,13,,0.76,0.42,0.64,1*06
$GNGSA,A,3,80,70,85,73,86,71,79,69,84,,,,0.76,0.42,0.64,2*04
$GNGSA,A,3,13,08,07,26,15,02,30,03,,,,,0.76,0.42,0.64,3*09
$GNGSA,A,3,38,08,39,16,13,06,46,09,19,20,36,37,0.76,0.42,0.64,4*0B
$GNGSA,A,3,35,29,,,,,,,,,,,0.76,0.42,0.64,4*0C
$GPGSV,5,1,17,24,79,058,40,196,74,061,39,18,61,258,32,50,60,167,40,1*50
$GPGSV,5,2,17,199,60,167,37,23,46,335,44,15,40,041,31,195,36,179,40,1*64
$GPGSV,5,3,17,194,29,140,43,05,22,114,30,12,17,145,24,10,14,316,32,1*51
$GPGSV,5,4,17,13,11,053,21,32,07,264,16,25,05,179,,29,03,200,,1*62
$GPGSV,5,5,17,20,01,127,,1*55
$GPGSV,2,1,08,24,79,058,44,196,74,061,39,18,61,258,37,199,60,167,47,8*62
$GPGSV,2,2,08,23,46,335,42,195,36,179,43,194,29,140,39,10,14,316,32,8*6C
$GLGSV,3,1,09,80,48,087,23,70,40,002,30,85,39,254,24,73,32,162,42,1*7F
$GLGSV,3,2,09,86,25,309,30,71,19,308,38,79,15,036,17,69,15,067,23,1*7C
$GLGSV,3,3,09,84,14,192,21,1*41
$GAGSV,3,1,09,13,60,239,25,08,49,020,25,07,43,297,31,26,30,311,28,7*73
$GAGSV,3,2,09,15,27,174,37,02,24,090,22,30,22,147,34,03,12,060,26,7*75
$GAGSV,3,3,09,25,04,047,,7*4A
$GAGSV,2,1,08,13,60,239,34,08,49,020,33,07,43,297,33,26,30,311,29,1*71
$GAGSV,2,2,08,15,27,174,41,02,24,090,19,30,22,147,35,03,12,060,29,1*74
$GBGSV,4,1,15,38,83,085,43,08,76,006,37,39,72,274,37,16,66,250,24,1*7A
$GBGSV,4,2,15,13,66,337,42,06,65,246,21,46,57,121,39,09,49,233,18,1*76
$GBGSV,4,3,15,19,46,339,43,20,44,056,33,36,30,184,38,37,26,051,25,1*73
$GBGSV,4,4,15,35,22,274,28,29,22,215,29,22,09,297,35,1*4A
$GBGSV,3,1,10,38,83,085,43,39,72,274,37,46,57,121,38,19,46,339,38,4*71
$GBGSV,3,2,10,20,44,056,37,36,30,184,40,37,26,051,36,29,22,215,18,4*7C
$GBGSV,3,3,10,35,22,274,30,22,09,297,28,4*79
$GNACCURACY,3.3*16
$PAIRSAT,1,35,1,0,200,2,0,200,3,0,200,4,0,200,5,0,201,6,0,200,7,0,200,8,0,200,9,0,200,10,0,221,11,0,200,12,0,200,13,0,201,14,0,200,15,0,201,16,0,200,17,0,200,18,0,221,19,0,200,20,0,200,21,0,200,23,0,221,24,0,221,25,0,200,26,0,200,27,0,200,28,0,200,29,0,200,30,0,200,31,0,200,32,0,200,194,0,621,195,0,621,196,0,620,199,0,621*6A
$PAIRSAT,2,23,65,0,200,67,0,200,68,0,200,69,0,201,70,0,201,71,0,201,72,0,200,73,0,201,74,0,200,75,0,200,76,0,200,77,0,200,78,0,200,79,0,201,80,0,201,81,0,200,82,0,200,83,0,200,84,0,201,85,0,201,86,0,201,87,0,200,88,0,200*52
$PAIRSAT,3,23,2,0,1221,3,0,1221,4,0,1200,5,0,200,7,0,1221,8,0,1221,9,0,1200,10,0,1200,11,0,1200,12,0,1200,13,0,1221,15,0,1221,19,0,1200,21,0,1200,24,0,1200,25,0,1200,26,0,1221,27,0,1200,30,0,1221,31,0,1200,33,0,1200,34,0,1200,36,0,1200*6A
$PAIRSAT,4,50,1,0,200,2,0,200,3,0,200,4,0,200,5,0,200,6,0,201,7,0,200,8,0,201,9,0,201,10,0,200,11,0,200,12,0,200,13,0,201,14,0,200,15,0,200,16,0,201,19,0,621,20,0,621,21,0,600,22,0,621,23,0,600,24,0,600,25,0,600,26,0,600,27,0,600,28,0,600,29,0,621,30,0,600,31,0,200,32,0,600,33,0,600,34,0,600,35,0,621,36,0,621,37,0,621,38,0,621,39,0,621,40,0,600,41,0,600,42,0,600,43,0,600,44,0,600,45,0,600,46,0,621,56,0,200,57,0,200,58,0,200,59,0,600,60,0,600,61,0,600*41
$PAIRDGP,7,5,10,13,15,18,23,24*52
$GNGGA,111418.200,2500.8047158,N,12132.4801238,E,2,67,0.42,14.933,M,15.25,M,16,3335*71
$GNRMC,111418.200,A,2500.8047158,N,12132.4801238,E,0.03,159.17,260623,,,D,V*0D
$GPHDT,,T*1B
$GNACCURACY,3.3*16
$GNGGA,111418.300,2500.8047158,N,12132.4801418,E,2,67,0.42,14.929,M,15.25,M,16,3335*7F
$GNRMC,111418.300,A,2500.8047158,N,12132.4801418,E,0.03,159.17,260623,,,D,V*08
$GPHDT,,T*1B
$GNACCURACY,3.3*16
$GNGGA,111418.400,2500.8047278,N,12132.4801538,E,2,67,0.42,14.922,M,15.25,M,16,3335*71
$GNRMC,111418.400,A,2500.8047278,N,12132.4801538,E,0.03,159.17,260623,,,D,V*0D
$GPHDT,,T*1B
$GNACCURACY,3.3*16
$GNGGA,111418.500,2500.8047278,N,12132.4801658,E,2,67,0.42,14.910,M,15.25,M,16,3335*74
$GNRMC,111418.500,A,2500.8047278,N,12132.4801658,E,0.03,159.17,260623,,,D,V*09
$GPHDT,,T*1B
$GNACCURACY,3.3*16
$GNGGA,111418.600,2500.8047338,N,12132.4801838,E,2,67,0.42,14.902,M,15.25,M,16,3335*79
$GNRMC,111418.600,A,2500.8047338,N,12132.4801838,E,0.03,159.17,260623,,,D,V*07
$GPHDT,,T*1B
$GNACCURACY,3.3*16
$GNGGA,111418.700,2500.8047398,N,12132.4801958,E,2,67,0.42,14.892,M,15.25,M,16,3335*7D
$GNRMC,111418.700,A,2500.8047398,N,12132.4801958,E,0.04,159.17,260623,,,D,V*0C
$GPHDT,,T*1B
$GNACCURACY,3.3*16
$GNGGA,111418.800,2500.8047398,N,12132.4802078,E,2,67,0.42,14.886,M,15.25,M,16,3335*7F
$GNRMC,111418.800,A,2500.8047398,N,12132.4802078,E,0.04,159.17,260623,,,D,V*0B
$GPHDT,,T*1B
$GNACCURACY,3.3*16
$GNGGA,111418.900,2500.8047458,N,12132.4802198,E,2,67,0.42,14.876,M,15.25,M,16,3335*75
$GNRMC,111418.900,A,2500.8047458,N,12132.4802198,E,0.04,159.17,260623,,,D,V*0E
$GPHDT,,T*1B
$GNACCURACY,3.3*16
$GNGGA,111419.000,2500.8047458,N,12132.4802258,E,2,67,0.42,14.863,M,15.25,M,17,3335*77
$GNRMC,111419.000,A,2500.8047458,N,12132.4802258,E,0.04,159.17,260623,,,D,V*09
$GPHDT,,T*1B
$GNACCURACY,3.3*16
$GNGGA,111419.100,2500.8047518,N,12132.4802438,E,2,67,0.42,14.855,M,15.25,M,17,3335*76
$GNRMC,111419.100,A,2500.8047518,N,12132.4802438,E,0.04,159.17,260623,,,D,V*0D
$GPHDT,,T*1B
$GNGSA,A,3,24,196,18,199,23,15,195,194,05,10,13,,0.76,0.42,0.64,1*06
$GNGSA,A,3,80,70,85,73,86,71,79,69,84,,,,0.76,0.42,0.64,2*04
$GNGSA,A,3,13,08,07,26,15,02,30,03,,,,,0.76,0.42,0.64,3*09
$GNGSA,A,3,38,08,39,13,16,06,46,09,19,20,36,37,0.76,0.42,0.64,4*0B
$GNGSA,A,3,29,35,,,,,,,,,,,0.76,0.42,0.64,4*0C
$GPGSV,5,1,17,24,79,058,40,196,74,061,39,18,61,258,31,50,60,167,40,1*53
$GPGSV,5,2,17,199,60,167,37,23,46,335,43,15,40,041,31,195,36,179,40,1*63
$GPGSV,5,3,17,194,29,140,43,05,22,114,29,12,17,145,24,10,14,316,32,1*59
$GPGSV,5,4,17,13,11,053,21,32,07,264,16,25,05,179,,29,03,200,,1*62
$GPGSV,5,5,17,20,01,127,,1*55
$GPGSV,2,1,08,24,79,058,44,196,74,061,39,18,61,258,37,199,60,167,47,8*62
$GPGSV,2,2,08,23,46,335,42,195,36,179,43,194,29,140,39,10,14,316,32,8*6C
$GLGSV,3,1,09,80,48,087,23,70,40,002,29,85,39,254,24,73,32,162,42,1*77
$GLGSV,3,2,09,86,25,309,31,71,19,308,37,79,15,036,17,69,15,067,21,1*70
$GLGSV,3,3,09,84,14,192,21,1*41
$GAGSV,3,1,09,13,60,239,25,08,49,020,26,07,43,297,31,26,30,311,27,7*7F
$GAGSV,3,2,09,15,27,174,37,02,24,090,23,30,22,147,34,03,12,060,26,7*74
$GAGSV,3,3,09,25,04,047,,7*4A
$GAGSV,2,1,08,13,60,239,34,08,49,020,34,07,43,297,33,26,30,311,28,1*77
$GAGSV,2,2,08,15,27,174,41,02,24,090,19,30,22,147,34,03,12,060,29,1*75
$GBGSV,4,1,16,38,83,085,43,08,76,006,36,39,72,274,37,13,66,337,41,1*7E
$GBGSV,4,2,16,16,66,250,23,06,65,246,22,46,57,121,39,09,49,233,19,1*75
$GBGSV,4,3,16,19,46,339,43,20,44,056,35,36,30,184,38,37,26,051,23,1*70
$GBGSV,4,4,16,29,22,215,29,35,22,274,29,22,09,297,35,44,01,316,,1*7D
$GBGSV,3,1,10,38,83,085,43,39,72,274,37,46,57,121,38,19,46,339,38,4*71
$GBGSV,3,2,10,20,44,056,37,36,30,184,40,37,26,051,36,29,22,215,18,4*7C
$GBGSV,3,3,10,35,22,274,28,22,09,297,26,4*7E
$GNACCURACY,3.4*11
$PAIRSAT,1,35,1,0,200,2,0,200,3,0,200,4,0,200,5,0,201,6,0,200,7,0,200,8,0,200,9,0,200,10,0,221,11,0,200,12,0,200,13,0,201,14,0,200,15,0,201,16,0,200,17,0,200,18,0,221,19,0,200,20,0,200,21,0,200,23,0,221,24,0,221,25,0,200,26,0,200,27,0,200,28,0,200,29,0,200,30,0,200,31,0,200,32,0,200,194,0,621,195,0,621,196,0,620,199,0,621*6A
$PAIRSAT,2,23,65,0,200,67,0,200,68,0,200,69,0,201,70,0,201,71,0,201,72,0,200,73,0,201,74,0,200,75,0,200,76,0,200,77,0,200,78,0,200,79,0,201,80,0,201,81,0,200,82,0,200,83,0,200,84,0,201,85,0,201,86,0,201,87,0,200,88,0,200*52
$PAIRSAT,3,23,2,0,1221,3,0,1221,4,0,1200,5,0,200,7,0,1221,8,0,1221,9,0,1200,10,0,1200,11,0,1200,12,0,1200,13,0,1221,15,0,1221,19,0,1200,21,0,1200,24,0,1200,25,0,1200,26,0,1221,27,0,1200,30,0,1221,31,0,1200,33,0,1200,34,0,1200,36,0,1200*6A
$PAIRSAT,4,50,1,0,200,2,0,200,3,0,200,4,0,200,5,0,200,6,0,201,7,0,200,8,0,201,9,0,201,10,0,200,11,0,200,12,0,200,13,0,201,14,0,200,15,0,200,16,0,201,19,0,621,20,0,621,21,0,600,22,0,621,23,0,600,24,0,600,25,0,600,26,0,600,27,0,600,28,0,600,29,0,621,30,0,600,31,0,200,32,0,600,33,0,600,34,0,600,35,0,621,36,0,621,37,0,621,38,0,621,39,0,621,40,0,600,41,0,600,42,0,600,43,0,600,44,0,600,45,0,600,46,0,621,56,0,200,57,0,200,58,0,200,59,0,600,60,0,600,61,0,600*41
$PAIRDGP,7,5,10,13,15,18,23,24*52
$GNGGA,111419.200,2500.8047578,N,12132.4802558,E,2,67,0.42,14.846,M,15.25,M,17,3335*76
$GNRMC,111419.200,A,2500.8047578,N,12132.4802558,E,0.04,159.17,260623,,,D,V*0F
$GPHDT,,T*1B
$GNACCURACY,3.3*16
$GNGGA,111419.300,2500.8047578,N,12132.4802678,E,2,67,0.42,14.833,M,15.25,M,17,3335*74
$GNRMC,111419.300,A,2500.8047578,N,12132.4802678,E,0.04,159.17,260623,,,D,V*0F
$GPHDT,,T*1B
$GNACCURACY,3.3*16
$GNGGA,111419.400,2500.8047578,N,12132.4802798,E,2,67,0.42,14.822,M,15.25,M,17,3335*7C
$GNRMC,111419.400,A,2500.8047578,N,12132.4802798,E,0.04,159.17,260623,,,D,V*07
$GPHDT,,T*1B
$GNACCURACY,3.4*11
$GNGGA,111419.500,2500.8047638,N,12132.4802858,E,2,67,0.42,14.812,M,15.25,M,17,3335*7A
$GNRMC,111419.500,A,2500.8047638,N,12132.4802858,E,0.04,159.17,260623,,,D,V*02
$GPHDT,,T*1B
$GNACCURACY,3.4*11
$GNGGA,111419.600,2500.8047638,N,12132.4802978,E,2,67,0.42,14.804,M,15.25,M,17,3335*7D
$GNRMC,111419.600,A,2500.8047638,N,12132.4802978,E,0.04,159.17,260623,,,D,V*02
$GPHDT,,T*1B
$GNACCURACY,3.4*11
$GNGGA,111419.700,2500.8047638,N,12132.4803038,E,2,67,0.42,14.790,M,15.25,M,17,3335*72
$GNRMC,111419.700,A,2500.8047638,N,12132.4803038,E,0.04,159.17,260623,,,D,V*0F
$GPHDT,,T*1B
$GNACCURACY,3.4*11
$GNGGA,111419.800,2500.8047638,N,12132.4803098,E,2,67,0.42,14.774,M,15.25,M,17,3335*7D
$GNRMC,111419.800,A,2500.8047638,N,12132.4803098,E,0.04,159.17,260623,,,D,V*0A
$GPHDT,,T*1B
$GNACCURACY,3.4*11
$GNGGA,111419.900,2500.8047698,N,12132.4803218,E,2,67,0.42,14.763,M,15.25,M,17,3335*7A
$GNRMC,111419.900,A,2500.8047698,N,12132.4803218,E,0.04,159.17,260623,,,D,V*0B
$GPHDT,,T*1B
$GNACCURACY,3.4*11
$GNGGA,111420.000,2500.8047638,N,12132.4803338,E,2,67,0.42,14.749,M,15.25,M,18,3335*77
$GNRMC,111420.000,A,2500.8047638,N,12132.4803338,E,0.04,159.17,260623,,,D,V*01
$GPHDT,,T*1B
$GNACCURACY,3.3*16
$GNGGA,111420.100,2500.8047698,N,12132.4803458,E,2,66,0.42,14.739,M,15.25,M,18,3335*7B
$GNRMC,111420.100,A,2500.8047698,N,12132.4803458,E,0.04,159.17,260623,,,D,V*0B
$GPHDT,,T*1B
$GNGSA,A,3,24,196,18,199,23,15,195,194,05,10,13,,0.76,0.42,0.64,1*06
$GNGSA,A,3,80,70,85,73,86,71,79,69,84,,,,0.76,0.42,0.64,2*04
$GNGSA,A,3,13,08,07,26,15,02,30,03,,,,,0.76,0.42,0.64,3*09
$GNGSA,A,3,38,08,39,16,13,06,46,09,19,20,36,37,0.76,0.42,0.64,4*0B
$GNGSA,A,3,35,29,,,,,,,,,,,0.76,0.42,0.64,4*0C
$GPGSV,5,1,17,24,79,058,40,196,74,061,39,18,61,258,32,50,60,167,40,1*50
$GPGSV,5,2,17,199,60,167,37,23,46,335,43,15,40,041,30,195,36,179,40,1*62
$GPGSV,5,3,17,194,29,140,43,05,22,114,28,12,17,145,25,10,14,316,33,1*58
$GPGSV,5,4,17,13,11,053,22,32,07,264,16,25,05,179,,29,03,200,,1*61
$GPGSV,5,5,17,20,01,127,,1*55
$GPGSV,2,1,08,24,79,058,44,196,74,061,39,18,61,258,37,199,60,167,47,8*62
$GPGSV,2,2,08,23,46,335,43,195,36,179,43,194,29,140,39,10,14,316,34,8*6B
$GLGSV,3,1,09,80,48,087,20,70,40,002,29,85,39,254,24,73,32,162,42,1*74
$GLGSV,3,2,09,86,25,309,30,71,19,308,37,79,15,036,17,69,15,067,22,1*72
$GLGSV,3,3,09,84,14,192,20,1*40
$GAGSV,3,1,09,13,60,239,25,08,49,020,28,07,43,297,31,26,30,311,28,7*7E
$GAGSV,3,2,09,15,27,174,37,02,24,090,22,30,22,147,34,03,12,060,26,7*75
$GAGSV,3,3,09,25,04,047,,7*4A
$GAGSV,2,1,08,13,60,239,34,08,49,020,35,07,43,297,34,26,30,311,27,1*7E
$GAGSV,2,2,08,15,27,174,41,02,24,090,20,30,22,147,35,03,12,060,29,1*7E
$GBGSV,5,1,19,38,83,085,43,08,76,006,36,39,72,274,37,16,66,250,23,1*71
$GBGSV,5,2,19,13,66,337,41,06,65,246,23,46,57,121,39,09,49,233,20,1*71
$GBGSV,5,3,19,56,48,309,,19,46,339,43,20,44,056,35,31,35,207,,1*7F
$GBGSV,5,4,19,36,30,184,38,37,26,051,24,35,22,274,29,29,22,215,29,1*77
$GBGSV,5,5,19,22,09,297,35,07,05,193,,10,03,203,,1*47
$GBGSV,3,1,10,38,83,085,43,39,72,274,37,46,57,121,37,19,46,339,39,4*7F
$GBGSV,3,2,10,20,44,056,39,36,30,184,40,37,26,051,36,29,22,215,18,4*72
$GBGSV,3,3,10,35,22,274,28,22,09,297,26,4*7E
$GNACCURACY,3.3*16
$PAIRSAT,1,35,1,0,200,2,0,200,3,0,200,4,0,200,5,0,201,6,0,200,7,0,200,8,0,200,9,0,200,10,0,221,11,0,200,12,0,200,13,0,201,14,0,200,15,0,201,16,0,200,17,0,200,18,0,221,19,0,200,20,0,200,21,0,200,23,0,221,24,0,221,25,0,200,26,0,200,27,0,200,28,0,200,29,0,200,30,0,200,31,0,200,32,0,200,194,0,621,195,0,621,196,0,620,199,0,621*6A
$PAIRSAT,2,23,65,0,200,67,0,200,68,0,200,69,0,201,70,0,201,71,0,201,72,0,200,73,0,201,74,0,200,75,0,200,76,0,200,77,0,200,78,0,200,79,0,201,80,0,201,81,0,200,82,0,200,83,0,200,84,0,201,85,0,201,86,0,201,87,0,200,88,0,200*52
$PAIRSAT,3,23,2,0,1221,3,0,1221,4,0,1200,5,0,200,7,0,1221,8,0,1221,9,0,1200,10,0,1200,11,0,1200,12,0,1200,13,0,1221,15,0,1221,19,0,1200,21,0,1200,24,0,1200,25,0,1200,26,0,1221,27,0,1200,30,0,1221,31,0,1200,33,0,1200,34,0,1200,36,0,1200*6A
$PAIRSAT,4,50,1,0,200,2,0,200,3,0,200,4,0,200,5,0,200,6,0,201,7,0,200,8,0,201,9,0,201,10,0,200,11,0,200,12,0,200,13,0,201,14,0,200,15,0,200,16,0,201,19,0,621,20,0,621,21,0,600,22,0,621,23,0,600,24,0,600,25,0,600,26,0,600,27,0,600,28,0,600,29,0,621,30,0,600,31,0,200,32,0,600,33,0,600,34,0,600,35,0,621,36,0,621,37,0,621,38,0,621,39,0,621,40,0,600,41,0,600,42,0,600,43,0,600,44,0,600,45,0,600,46,0,621,56,0,200,57,0,200,58,0,200,59,0,600,60,0,600,61,0,600*41
$PAIRDGP,7,5,10,13,15,18,23,24*52
$GNGGA,111420.200,2500.8047698,N,12132.4803518,E,2,66,0.42,14.723,M,15.25,M,18,3335*76
$GNRMC,111420.200,A,2500.8047698,N,12132.4803518,E,0.04,159.17,260623,,,D,V*0D
$GPHDT,,T*1B
$GNACCURACY,3.3*16
$GNGGA,111420.300,2500.8047698,N,12132.4803698,E,2,66,0.42,14.711,M,15.25,M,18,3335*7D
$GNRMC,111420.300,A,2500.8047698,N,12132.4803698,E,0.04,159.17,260623,,,D,V*07
$GPHDT,,T*1B
$GNACCURACY,3.3*16
$GNGGA,111420.400,2500.8047698,N,12132.4803758,E,2,66,0.42,14.696,M,15.25,M,18,3335*79
$GNRMC,111420.400,A,2500.8047698,N,12132.4803758,E,0.04,159.17,260623,,,D,V*0D
$GPHDT,,T*1B
$GNACCURACY,3.3*16
$GNGGA,111420.500,2500.8047758,N,12132.4803878,E,2,66,0.42,14.683,M,15.25,M,18,3335*7C
$GNRMC,111420.500,A,2500.8047758,N,12132.4803878,E,0.04,159.17,260623,,,D,V*0C
$GPHDT,,T*1B
$GNACCURACY,3.3*16
$GNGGA,111420.600,2500.8047758,N,12132.4803998,E,2,66,0.42,14.667,M,15.25,M,18,3335*7A
$GNRMC,111420.600,A,2500.8047758,N,12132.4803998,E,0.04,159.17,260623,,,D,V*00
$GPHDT,,T*1B
$GNACCURACY,3.3*16
$GNGGA,111420.700,2500.8047758,N,12132.4804058,E,2,66,0.42,14.654,M,15.25,M,18,3335*79
$GNRMC,111420.700,A,2500.8047758,N,12132.4804058,E,0.04,159.17,260623,,,D,V*03
$GPHDT,,T*1B
$GNACCURACY,3.3*16
$GNGGA,111420.800,2500.8047758,N,12132.4804178,E,2,66,0.42,14.639,M,15.25,M,18,3335*7E
$GNRMC,111420.800,A,2500.8047758,N,12132.4804178,E,0.04,159.17,260623,,,D,V*0F
$GPHDT,,T*1B
$GNACCURACY,3.3*16
$GNGGA,111420.900,2500.8047818,N,12132.4804298,E,2,66,0.42,14.627,M,15.25,M,18,3335*76
$GNRMC,111420.900,A,2500.8047818,N,12132.4804298,E,0.04,159.17,260623,,,D,V*08
$GPHDT,,T*1B
$GNACCURACY,3.3*16
$GNGGA,111421.000,2500.8047818,N,12132.4804418,E,2,66,0.42,14.614,M,15.25,M,19,3335*71
$GNRMC,111421.000,A,2500.8047818,N,12132.4804418,E,0.04,159.17,260623,,,D,V*0E
$GPHDT,,T*1B
