$FW : RTK35X,V1.1X0314AS,Lib20210517,1*54
$Tool : LOCOSYS , GNSS Firebird , v1.0.0.19*39
$---------------------------------------------------*2D
2
$GBGSV,4,2,15,13,66,337,36,06,65,246,27,46,57,121,41,09,49,234,28,1*78
$GBGSV,4,3,15,19,47,339,36,20,44,056,32,36,30,184,39,37,26,051,25,1*70
$GBGSV,4,4,15,35,22,274,26,29,22,215,27,22,09,297,35,1*4A
$GBGSV,3,1,09,38,83,085,42,39,72,274,39,46,57,121,39,19,47,339,37,4*79
$GBGSV,3,2,09,20,44,056,40,36,30,184,42,37,26,051,38,29,22,215,23,4*70
$GBGSV,3,3,09,35,22,274,30,4*4E
$GNACCURACY,3.5*10
$PAIRSAT,1,35,1,0,200,2,0,200,3,0,200,4,0,200,5,0,201,6,0,200,7,0,200,8,0,200,9,0,200,10,0,221,11,0,200,12,0,201,13,0,201,14,0,200,15,0,201,16,0,200,17,0,200,18,0,221,19,0,200,20,0,200,21,0,200,23,0,221,24,0,221,25,0,200,26,0,200,27,0,200,28,0,200,29,0,200,30,0,200,31,0,200,32,0,200,194,0,621,195,0,621,196,0,620,199,0,621*6B
$PAIRSAT,2,23,65,0,200,67,0,200,68,0,200,69,0,201,70,0,201,71,0,201,72,0,200,73,0,201,74,0,200,75,0,200,76,0,200,77,0,200,78,0,200,79,0,201,80,0,201,81,0,200,82,0,200,83,0,200,84,0,201,85,0,201,86,0,201,87,0,200,88,0,200*52
$PAIRSAT,3,23,2,0,1221,3,0,1221,4,0,1200,5,0,200,7,0,1221,8,0,1221,9,0,1200,10,0,1200,11,0,1200,12,0,1200,13,0,1221,15,0,1221,19,0,1200,21,0,1200,24,0,1200,25,0,1200,26,0,1221,27,0,1200,30,0,1221,31,0,1200,33,0,1200,34,0,1200,36,0,1200*6A
$PAIRSAT,4,50,1,0,200,2,0,200,3,0,200,4,0,200,5,0,200,6,0,201,7,0,200,8,0,201,9,0,201,10,0,200,11,0,200,12,0,200,13,0,201,14,0,200,15,0,200,16,0,201,19,0,621,20,0,621,21,0,600,22,0,621,23,0,600,24,0,600,25,0,600,26,0,600,27,0,600,28,0,600,29,0,621,30,0,600,31,0,200,32,0,600,33,0,600,34,0,600,35,0,621,36,0,621,37,0,621,38,0,621,39,0,621,40,0,600,41,0,600,42,0,600,43,0,600,44,0,600,45,0,600,46,0,621,56,0,200,57,0,200,58,0,200,59,0,600,60,0,600,61,0,600*41
$PAIRDGP,8,5,10,12,13,15,18,23,24*72
$GNGGA,111433.200,2500.8052198,N,12132.4819238,E,2,68,0.40,13.411,M,15.25,M,31,3335*7B
$GNRMC,111433.200,A,2500.8052198,N,12132.4819238,E,0.03,159.17,260623,,,D,V*05
$GPHDT,,T*1B
$GNACCURACY,3.5*10
$GNGGA,111433.300,2500.8052138,N,12132.4819298,E,2,68,0.40,13.387,M,15.25,M,31,3335*72
$GNRMC,111433.300,A,2500.8052138,N,12132.4819298,E,0.02,159.17,260623,,,D,V*05
$GPHDT,,T*1B
$GNACCURACY,3.5*10
$GNGGA,111433.400,2500.8052138,N,12132.4819358,E,2,68,0.40,13.360,M,15.25,M,31,3335*71
$GNRMC,111433.400,A,2500.8052138,N,12132.4819358,E,0.02,159.17,260623,,,D,V*0F
$GPHDT,,T*1B
$GNACCURACY,3.5*10
$GNGGA,111433.500,2500.8052078,N,12132.4819418,E,2,68,0.40,13.336,M,15.25,M,31,3335*75
$GNRMC,111433.500,A,2500.8052078,N,12132.4819418,E,0.02,159.17,260623,,,D,V*08
$GPHDT,,T*1B
$GNACCURACY,3.4*11
$GNGGA,111433.600,2500.8052078,N,12132.4819598,E,2,68,0.40,13.313,M,15.25,M,31,3335*78
$GNRMC,111433.600,A,2500.8052078,N,12132.4819598,E,0.02,159.17,260623,,,D,V*02
$GPHDT,,T*1B
$GNACCURACY,3.5*10
$GNGGA,111433.700,2500.8052018,N,12132.4819718,E,2,68,0.40,13.293,M,15.25,M,31,3335*7C
$GNRMC,111433.700,A,2500.8052018,N,12132.4819718,E,0.02,159.17,260623,,,D,V*0F
$GPHDT,,T*1B
$GNACCURACY,3.5*10
$GNGGA,111433.800,2500.8051958,N,12132.4819838,E,2,68,0.40,13.274,M,15.25,M,31,3335*79
$GNRMC,111433.800,A,2500.8051958,N,12132.4819838,E,0.02,159.17,260623,,,D,V*03
$GPHDT,,T*1B
$GNACCURACY,3.5*10
$GNGGA,111433.900,2500.8051958,N,12132.4819958,E,2,67,0.40,13.254,M,15.25,M,31,3335*72
$GNRMC,111433.900,A,2500.8051958,N,12132.4819958,E,0.02,159.17,260623,,,D,V*05
$GPHDT,,T*1B
$GNACCURACY,3.5*10
$GNGGA,111434.000,2500.8051898,N,12132.4820138,E,2,67,0.40,13.235,M,15.25,M,32,3335*71
$GNRMC,111434.000,A,2500.8051898,N,12132.4820138,E,0.01,159.17,260623,,,D,V*01
$GPHDT,,T*1B
$GNACCURACY,3.5*10
$GNGGA,111434.100,2500.8051838,N,12132.4820258,E,2,67,0.40,13.215,M,15.25,M,32,3335*7D
$GNRMC,111434.100,A,2500.8051838,N,12132.4820258,E,0.02,159.17,260623,,,D,V*0C
$GPHDT,,T*1B
$GNGSA,A,3,24,196,18,199,23,15,195,194,05,12,10,13,0.67,0.40,0.53,1*03
$GNGSA,A,3,80,70,85,73,86,71,79,69,84,,,,0.67,0.40,0.53,2*02
$GNGSA,A,3,13,08,07,26,15,02,30,03,,,,,0.67,0.40,0.53,3*0F
$GNGSA,A,3,38,08,39,16,13,06,46,09,19,20,36,37,0.67,0.40,0.53,4*0D
$GNGSA,A,3,35,29,,,,,,,,,,,0.67,0.40,0.53,4*0A
$GPGSV,5,1,17,24,79,058,40,196,74,061,40,18,61,258,26,50,60,167,40,1*5B
$GPGSV,5,2,17,199,60,167,37,23,46,335,37,15,40,041,28,195,36,179,41,1*69
$GPGSV,5,3,17,194,29,140,44,05,22,114,29,12,17,145,20,10,14,316,27,1*5E
$GPGSV,5,4,17,13,11,053,18,32,07,264,17,25,05,179,,29,03,200,,1*69
$GPGSV,5,5,17,20,01,127,,1*55
$GPGSV,2,1,08,24,79,058,45,196,74,061,40,18,61,258,32,199,60,167,48,8*67
$GPGSV,2,2,08,23,46,335,32,195,36,179,45,194,29,140,41,10,14,316,24,8*65
$GLGSV,3,1,09,80,48,087,20,70,40,002,28,85,39,253,24,73,32,162,43,1*73
$GLGSV,3,2,09,86,25,309,21,71,19,308,32,79,15,036,18,69,15,068,23,1*76
$GLGSV,3,3,09,84,14,192,22,1*42
$GAGSV,3,1,09,13,60,239,19,08,48,020,31,07,43,297,28,26,30,311,29,7*71
$GAGSV,3,2,09,15,27,174,39,02,24,090,23,30,22,147,35,03,12,061,26,7*7A
$GAGSV,3,3,09,25,04,046,,7*4B
$GAGSV,2,1,07,13,60,239,33,08,48,020,32,26,30,311,23,15,27,174,44,1*7C
$GAGSV,2,2,07,02,24,090,20,30,22,147,35,03,12,061,28,1*47
$GBGSV,4,1,15,38,83,085,44,08,76,006,36,39,72,274,37,16,66,250,22,1*7A
$GBGSV,4,2,15,13,66,337,35,06,65,246,25,46,57,121,41,09,49,234,28,1*79
$GBGSV,4,3,15,19,47,339,39,20,44,056,29,36,30,184,39,37,26,051,27,1*77
$GBGSV,4,4,15,35,22,274,28,29,22,215,28,22,09,297,35,1*4B
$GBGSV,3,1,09,38,83,085,42,39,72,274,36,46,57,121,39,19,47,339,33,4*72
$GBGSV,3,2,09,20,44,056,41,36,30,184,42,37,26,051,39,29,22,215,19,4*79
$GBGSV,3,3,09,35,22,274,30,4*4E
$GNACCURACY,3.5*10
$PAIRSAT,1,35,1,0,200,2,0,200,3,0,200,4,0,200,5,0,201,6,0,200,7,0,200,8,0,200,9,0,200,10,0,221,11,0,200,12,0,201,13,0,201,14,0,200,15,0,201,16,0,200,17,0,200,18,0,221,19,0,200,20,0,200,21,0,200,23,0,221,24,0,221,25,0,200,26,0,200,27,0,200,28,0,200,29,0,200,30,0,200,31,0,200,32,0,200,194,0,621,195,0,621,196,0,620,199,0,621*6B
$PAIRSAT,2,23,65,0,200,67,0,200,68,0,200,69,0,201,70,0,201,71,0,201,72,0,200,73,0,201,74,0,200,75,0,200,76,0,200,77,0,200,78,0,200,79,0,201,80,0,201,81,0,200,82,0,200,83,0,200,84,0,201,85,0,201,86,0,201,87,0,200,88,0,200*52
$PAIRSAT,3,23,2,0,1221,3,0,1221,4,0,1200,5,0,200,7,0,1221,8,0,1221,9,0,1200,10,0,1200,11,0,1200,12,0,1200,13,0,1221,15,0,1221,19,0,1200,21,0,1200,24,0,1200,25,0,1200,26,0,1221,27,0,1200,30,0,1221,31,0,1200,33,0,1200,34,0,1200,36,0,1200*6A
$PAIRSAT,4,50,1,0,200,2,0,200,3,0,200,4,0,200,5,0,200,6,0,201,7,0,200,8,0,201,9,0,201,10,0,200,11,0,200,12,0,200,13,0,201,14,0,200,15,0,200,16,0,201,19,0,621,20,0,621,21,0,600,22,0,621,23,0,600,24,0,600,25,0,600,26,0,600,27,0,600,28,0,600,29,0,621,30,0,600,31,0,200,32,0,600,33,0,600,34,0,600,35,0,621,36,0,621,37,0,621,38,0,621,39,0,621,40,0,600,41,0,600,42,0,600,43,0,600,44,0,600,45,0,600,46,0,621,56,0,200,57,0,200,58,0,200,59,0,600,60,0,600,61,0,600*41
$PAIRDGP,8,5,10,12,13,15,18,23,24*72
$GNGGA,111434.200,2500.8051838,N,12132.4820378,E,2,67,0.40,13.194,M,15.25,M,32,3335*77
$GNRMC,111434.200,A,2500.8051838,N,12132.4820378,E,0.01,159.17,260623,,,D,V*0F
$GPHDT,,T*1B
$GNACCURACY,3.5*10
$GNGGA,111434.300,2500.8051838,N,12132.4820498,E,2,67,0.40,13.171,M,15.25,M,32,3335*74
$GNRMC,111434.300,A,2500.8051838,N,12132.4820498,E,0.02,159.17,260623,,,D,V*04
$GPHDT,,T*1B
$GNACCURACY,3.5*10
$GNGGA,111434.400,2500.8051778,N,12132.4820618,E,2,67,0.40,13.148,M,15.25,M,32,3335*78
$GNRMC,111434.400,A,2500.8051778,N,12132.4820618,E,0.02,159.17,260623,,,D,V*02
$GPHDT,,T*1B
$GNACCURACY,3.5*10
$GNGGA,111434.500,2500.8051718,N,12132.4820798,E,2,67,0.40,13.126,M,15.25,M,32,3335*7E
$GNRMC,111434.500,A,2500.8051718,N,12132.4820798,E,0.01,159.17,260623,,,D,V*0F
$GPHDT,,T*1B
$GNACCURACY,3.5*10
$GNGGA,111434.600,2500.8051718,N,12132.4820978,E,2,66,0.41,13.106,M,15.25,M,32,3335*7F
$GNRMC,111434.600,A,2500.8051718,N,12132.4820978,E,0.00,159.17,260623,,,D,V*0D
$GPHDT,,T*1B
$GNACCURACY,3.5*10
$GNGGA,111434.700,2500.8051718,N,12132.4821158,E,2,66,0.41,13.084,M,15.25,M,32,3335*7E
$GNRMC,111434.700,A,2500.8051718,N,12132.4821158,E,0.01,159.17,260623,,,D,V*06
$GPHDT,,T*1B
$GNACCURACY,3.4*11
$GNGGA,111434.800,2500.8051718,N,12132.4821278,E,2,66,0.41,13.060,M,15.25,M,31,3335*79
$GNRMC,111434.800,A,2500.8051718,N,12132.4821278,E,0.00,159.17,260623,,,D,V*09
$GPHDT,,T*1B
$GNACCURACY,3.4*11
$GNGGA,111434.900,2500.8051718,N,12132.4821458,E,2,66,0.41,13.038,M,15.25,M,31,3335*71
$GNRMC,111434.900,A,2500.8051718,N,12132.4821458,E,0.01,159.17,260623,,,D,V*0D
$GPHDT,,T*1B
$GNACCURACY,3.4*11
$GNGGA,111435.000,2500.8051718,N,12132.4821638,E,2,67,0.40,13.011,M,15.25,M,32,3335*75
$GNRMC,111435.000,A,2500.8051718,N,12132.4821638,E,0.02,159.17,260623,,,D,V*02
$GPHDT,,T*1B
$GNACCURACY,3.4*11
$GNGGA,111435.100,2500.8051658,N,12132.4821818,E,2,67,0.40,12.989,M,15.25,M,32,3335*74
$GNRMC,111435.100,A,2500.8051658,N,12132.4821818,E,0.02,159.17,260623,,,D,V*0A
$GPHDT,,T*1B
$GNGSA,A,3,24,196,18,199,23,15,195,194,05,12,10,13,0.67,0.40,0.53,1*03
$GNGSA,A,3,80,70,85,73,86,71,79,69,84,,,,0.67,0.40,0.53,2*02
$GNGSA,A,3,13,08,07,26,15,02,30,03,,,,,0.67,0.40,0.53,3*0F
$GNGSA,A,3,38,08,39,16,13,06,46,09,19,20,36,37,0.67,0.40,0.53,4*0D
$GNGSA,A,3,35,29,,,,,,,,,,,0.67,0.40,0.53,4*0A
$GPGSV,5,1,17,24,79,057,40,196,74,061,40,18,61,258,26,50,60,167,40,1*54
$GPGSV,5,2,17,199,60,167,37,23,46,335,39,15,40,041,27,195,36,179,40,1*69
$GPGSV,5,3,17,194,29,140,44,05,22,114,29,12,17,145,19,10,14,316,30,1*52
$GPGSV,5,4,17,13,11,053,16,32,07,264,14,25,06,179,,29,03,200,,1*67
$GPGSV,5,5,17,20,01,127,,1*55
$GPGSV,2,1,08,24,79,057,45,196,74,061,39,18,61,258,31,199,60,167,48,8*65
$GPGSV,2,2,08,23,46,335,29,195,36,179,45,194,29,140,40,10,14,316,27,8*6D
$GLGSV,3,1,09,80,48,087,22,70,40,002,26,85,39,253,24,73,32,162,43,1*7F
$GLGSV,3,2,09,86,25,309,27,71,19,308,34,79,15,036,18,69,15,068,24,1*71
$GLGSV,3,3,09,84,14,192,22,1*42
$GAGSV,3,1,09,13,60,239,19,08,48,020,30,07,43,297,32,26,30,311,30,7*73
$GAGSV,3,2,09,15,27,174,39,02,24,090,22,30,22,147,36,03,12,061,26,7*78
$GAGSV,3,3,09,25,04,046,,7*4B
$GAGSV,2,1,08,13,60,239,33,08,48,020,34,07,43,297,25,26,30,311,24,1*7A
$GAGSV,2,2,08,15,27,174,44,02,24,090,20,30,22,147,35,03,12,061,26,1*75
$GBGSV,4,1,15,38,83,085,44,08,76,006,36,39,72,274,37,16,66,250,24,1*7C
$GBGSV,4,2,15,13,66,337,33,06,65,246,26,46,57,121,41,09,49,234,27,1*73
$GBGSV,4,3,15,19,47,339,39,20,44,056,32,36,30,184,40,37,26,051,26,1*72
$GBGSV,4,4,15,35,22,274,23,29,22,215,29,22,09,297,35,1*41
$GBGSV,3,1,09,38,83,085,42,39,72,274,37,46,57,121,39,19,47,339,30,4*70
$GBGSV,3,2,09,20,44,056,40,36,30,184,43,37,26,051,39,29,22,215,20,4*73
$GBGSV,3,3,09,35,22,274,30,4*4E
$GNACCURACY,3.4*11
$PAIRSAT,1,35,1,0,200,2,0,200,3,0,200,4,0,200,5,0,201,6,0,200,7,0,200,8,0,200,9,0,200,10,0,221,11,0,200,12,0,201,13,0,201,14,0,200,15,0,201,16,0,200,17,0,200,18,0,221,19,0,200,20,0,200,21,0,200,23,0,221,24,0,221,25,0,200,26,0,200,27,0,200,28,0,200,29,0,200,30,0,200,31,0,200,32,0,200,194,0,621,195,0,621,196,0,620,199,0,621*6B
$PAIRSAT,2,23,65,0,200,67,0,200,68,0,200,69,0,201,70,0,201,71,0,201,72,0,200,73,0,201,74,0,200,75,0,200,76,0,200,77,0,200,78,0,200,79,0,201,80,0,201,81,0,200,82,0,200,83,0,200,84,0,201,85,0,201,86,0,201,87,0,200,88,0,200*52
$PAIRSAT,3,23,2,0,1221,3,0,1221,4,0,1200,5,0,200,7,0,1221,8,0,1221,9,0,1200,10,0,1200,11,0,1200,12,0,1200,13,0,1221,15,0,1221,19,0,1200,21,0,1200,24,0,1200,25,0,1200,26,0,1221,27,0,1200,30,0,1221,31,0,1200,33,0,1200,34,0,1200,36,0,1200*6A
$PAIRSAT,4,50,1,0,200,2,0,200,3,0,200,4,0,200,5,0,200,6,0,201,7,0,200,8,0,201,9,0,201,10,0,200,11,0,200,12,0,200,13,0,201,14,0,200,15,0,200,16,0,201,19,0,621,20,0,621,21,0,600,22,0,621,23,0,600,24,0,600,25,0,600,26,0,600,27,0,600,28,0,600,29,0,621,30,0,600,31,0,200,32,0,600,33,0,600,34,0,600,35,0,621,36,0,621,37,0,621,38,0,621,39,0,621,40,0,600,41,0,600,42,0,600,43,0,600,44,0,600,45,0,600,46,0,621,56,0,200,57,0,200,58,0,200,59,0,600,60,0,600,61,0,600*41
$PAIRDGP,8,5,10,12,13,15,18,23,24*72
$GNGGA,111435.200,2500.8051598,N,12132.4822058,E,2,68,0.40,12.971,M,15.25,M,32,3335*7F
$GNRMC,111435.200,A,2500.8051598,N,12132.4822058,E,0.02,159.17,260623,,,D,V*09
$GPHDT,,T*1B
$GNACCURACY,3.4*11
$GNGGA,111435.300,2500.8051538,N,12132.4822238,E,2,68,0.40,12.949,M,15.25,M,32,3335*7B
$GNRMC,111435.300,A,2500.8051538,N,12132.4822238,E,0.02,159.17,260623,,,D,V*06
$GPHDT,,T*1B
$GNACCURACY,3.4*11
$GNGGA,111435.400,2500.8051538,N,12132.4822418,E,2,68,0.40,12.931,M,15.25,M,32,3335*77
$GNRMC,111435.400,A,2500.8051538,N,12132.4822418,E,0.02,159.17,260623,,,D,V*05
$GPHDT,,T*1B
$GNACCURACY,3.4*11
$GNGGA,111435.500,2500.8051478,N,12132.4822538,E,2,67,0.41,12.913,M,15.25,M,32,3335*7E
$GNRMC,111435.500,A,2500.8051478,N,12132.4822538,E,0.02,159.17,260623,,,D,V*02
$GPHDT,,T*1B
$GNACCURACY,3.4*11
$GNGGA,111435.600,2500.8051478,N,12132.4822658,E,2,68,0.40,12.900,M,15.25,M,32,3335*74
$GNRMC,111435.600,A,2500.8051478,N,12132.4822658,E,0.02,159.17,260623,,,D,V*04
$GPHDT,,T*1B
$GNACCURACY,3.4*11
$GNGGA,111435.700,2500.8051478,N,12132.4822778,E,2,68,0.40,12.883,M,15.25,M,32,3335*7C
$GNRMC,111435.700,A,2500.8051478,N,12132.4822778,E,0.02,159.17,260623,,,D,V*06
$GPHDT,,T*1B
$GNACCURACY,3.4*11
$GNGGA,111435.800,2500.8051358,N,12132.4822838,E,2,68,0.40,12.864,M,15.25,M,32,3335*74
$GNRMC,111435.800,A,2500.8051358,N,12132.4822838,E,0.02,159.17,260623,,,D,V*07
$GPHDT,,T*1B
$GNACCURACY,3.4*11
$GNGGA,111435.900,2500.8051358,N,12132.4822958,E,2,67,0.42,12.849,M,15.25,M,32,3335*70
$GNRMC,111435.900,A,2500.8051358,N,12132.4822958,E,0.02,159.17,260623,,,D,V*01
$GPHDT,,T*1B
$GNACCURACY,3.4*11
$GNGGA,111436.000,2500.8051298,N,12132.4823018,E,2,67,0.42,12.832,M,15.25,M,33,3335*76
$GNRMC,111436.000,A,2500.8051298,N,12132.4823018,E,0.01,159.17,260623,,,D,V*09
$GPHDT,,T*1B
$GNACCURACY,3.4*11
$GNGGA,111436.100,2500.8051298,N,12132.4823138,E,2,67,0.42,12.815,M,15.25,M,33,3335*71
$GNRMC,111436.100,A,2500.8051298,N,12132.4823138,E,0.01,159.17,260623,,,D,V*0B
$GPHDT,,T*1B
$GNGSA,A,3,24,196,18,199,23,15,195,194,05,12,10,,0.68,0.42,0.54,1*0B
$GNGSA,A,3,80,70,85,73,86,71,79,69,84,,,,0.68,0.42,0.54,2*08
$GNGSA,A,3,13,08,07,26,15,02,30,03,,,,,0.68,0.42,0.54,3*05
$GNGSA,A,3,38,08,39,16,13,06,46,09,19,20,36,37,0.68,0.42,0.54,4*07
$GNGSA,A,3,29,35,,,,,,,,,,,0.68,0.42,0.54,4*00
$GPGSV,5,1,17,24,79,057,41,196,74,062,40,18,61,258,28,50,60,167,40,1*58
$GPGSV,5,2,17,199,60,167,37,23,46,335,38,15,40,041,28,195,36,179,41,1*66
$GPGSV,5,3,17,194,29,140,44,05,22,114,31,12,17,145,20,10,14,316,29,1*59
$GPGSV,5,4,17,13,11,053,15,32,07,265,15,25,06,179,,29,03,200,,1*64
$GPGSV,5,5,17,20,01,127,,1*55
$GPGSV,2,1,08,24,79,057,45,196,74,062,39,18,61,258,33,199,60,167,48,8*64
$GPGSV,2,2,08,23,46,335,39,195,36,179,45,194,29,140,41,10,14,316,26,8*6C
$GLGSV,3,1,09,80,48,087,22,70,40,002,29,85,39,253,24,73,32,162,42,1*71
$GLGSV,3,2,09,86,25,309,22,71,19,308,33,79,15,036,21,69,15,068,24,1*79
$GLGSV,3,3,09,84,14,192,23,1*43
$GAGSV,2,1,08,13,60,239,19,08,48,020,29,07,43,297,34,26,30,311,30,7*7D
$GAGSV,2,2,08,15,27,174,39,02,24,090,23,30,22,147,36,03,12,061,26,7*79
$GAGSV,2,1,08,13,60,239,33,08,48,020,33,07,43,297,30,26,30,311,24,1*79
$GAGSV,2,2,08,15,27,174,44,02,24,090,17,30,22,147,36,03,12,061,27,1*73
$GBGSV,5,1,18,38,83,085,44,08,76,006,36,39,72,274,36,16,66,250,19,1*7F
$GBGSV,5,2,18,13,66,337,36,06,65,246,26,46,57,121,41,09,49,234,28,1*75
$GBGSV,5,3,18,19,47,339,37,20,44,056,31,31,35,207,,36,30,184,40,1*72
$GBGSV,5,4,18,37,26,051,30,29,22,215,28,35,22,274,28,22,09,297,35,1*70
$GBGSV,5,5,18,07,05,193,,44,01,316,,1*73
$GBGSV,3,1,10,38,83,085,42,39,72,274,40,46,57,121,39,19,47,339,33,4*7B
$GBGSV,3,2,10,20,44,056,40,36,30,184,43,37,26,051,39,29,22,215,22,4*79
$GBGSV,3,3,10,35,22,274,30,22,09,297,24,4*75
$GNACCURACY,3.4*11
$PAIRSAT,1,35,1,0,200,2,0,200,3,0,200,4,0,200,5,0,201,6,0,200,7,0,200,8,0,200,9,0,200,10,0,221,11,0,200,12,0,201,13,0,201,14,0,200,15,0,201,16,0,200,17,0,200,18,0,221,19,0,200,20,0,200,21,0,200,23,0,221,24,0,221,25,0,200,26,0,200,27,0,200,28,0,200,29,0,200,30,0,200,31,0,200,32,0,200,194,0,621,195,0,621,196,0,620,199,0,621*6B
$PAIRSAT,2,23,65,0,200,67,0,200,68,0,200,69,0,201,70,0,201,71,0,201,72,0,200,73,0,201,74,0,200,75,0,200,76,0,200,77,0,200,78,0,200,79,0,201,80,0,201,81,0,200,82,0,200,83,0,200,84,0,201,85,0,201,86,0,201,87,0,200,88,0,200*52
$PAIRSAT,3,23,2,0,1221,3,0,1221,4,0,1200,5,0,200,7,0,1221,8,0,1221,9,0,1200,10,0,1200,11,0,1200,12,0,1200,13,0,1221,15,0,1221,19,0,1200,21,0,1200,24,0,1200,25,0,1200,26,0,1221,27,0,1200,30,0,1221,31,0,1200,33,0,1200,34,0,1200,36,0,1200*6A
$PAIRSAT,4,50,1,0,200,2,0,200,3,0,200,4,0,200,5,0,200,6,0,201,7,0,200,8,0,201,9,0,201,10,0,200,11,0,200,12,0,200,13,0,201,14,0,200,15,0,200,16,0,201,19,0,621,20,0,621,21,0,600,22,0,621,23,0,600,24,0,600,25,0,600,26,0,600,27,0,600,28,0,600,29,0,621,30,0,600,31,0,200,32,0,600,33,0,600,34,0,600,35,0,621,36,0,621,37,0,621,38,0,621,39,0,621,40,0,600,41,0,600,42,0,600,43,0,600,44,0,600,45,0,600,46,0,621,56,0,200,57,0,200,58,0,200,59,0,600,60,0,600,61,0,600*41
$PAIRDGP,8,5,10,12,13,15,18,23,24*72
$GNGGA,111436.200,2500.8051238,N,12132.4823258,E,2,67,0.42,12.804,M,15.25,M,33,3335*7D
$GNRMC,111436.200,A,2500.8051238,N,12132.4823258,E,0.01,159.17,260623,,,D,V*07
$GPHDT,,T*1B
$GNACCURACY,3.4*11
$GNGGA,111436.300,2500.8051238,N,12132.4823438,E,2,67,0.42,12.795,M,15.25,M,33,3335*7B
$GNRMC,111436.300,A,2500.8051238,N,12132.4823438,E,0.02,159.17,260623,,,D,V*05
$GPHDT,,T*1B
$GNACCURACY,3.4*11
$GNGGA,111436.400,2500.8051298,N,12132.4823498,E,2,67,0.42,12.781,M,15.25,M,33,3335*79
$GNRMC,111436.400,A,2500.8051298,N,12132.4823498,E,0.03,159.17,260623,,,D,V*03
$GPHDT,,T*1B
$GNACCURACY,3.4*11
$GNGGA,111436.500,2500.8051298,N,12132.4823558,E,2,67,0.42,12.765,M,15.25,M,0,3335*4F
$GNRMC,111436.500,A,2500.8051298,N,12132.4823558,E,0.03,159.17,260623,,,D,V*0F
$GPHDT,,T*1B
$GNACCURACY,3.3*16
$GNGGA,111436.600,2500.8051298,N,12132.4823678,E,2,67,0.42,12.749,M,15.25,M,0,3335*43
$GNRMC,111436.600,A,2500.8051298,N,12132.4823678,E,0.02,159.17,260623,,,D,V*0C
$GPHDT,,T*1B
$GNACCURACY,3.3*16
$GNGGA,111436.700,2500.8051298,N,12132.4823798,E,2,67,0.42,12.732,M,15.25,M,0,3335*41
$GNRMC,111436.700,A,2500.8051298,N,12132.4823798,E,0.03,159.17,260623,,,D,V*03
$GPHDT,,T*1B
$GNACCURACY,3.3*16
$GNGGA,111436.800,2500.8051238,N,12132.4823978,E,2,67,0.42,12.718,M,15.25,M,0,3335*4C
$GNRMC,111436.800,A,2500.8051238,N,12132.4823978,E,0.03,159.17,260623,,,D,V*06
$GPHDT,,T*1B
$GNACCURACY,3.3*16
$GNGGA,111436.900,2500.8051178,N,12132.4824098,E,2,67,0.42,12.702,M,15.25,M,0,3335*41
$GNRMC,111436.900,A,2500.8051178,N,12132.4824098,E,0.02,159.17,260623,,,D,V*01
$GPHDT,,T*1B
$GNACCURACY,3.3*16
$GNGGA,111437.000,2500.8051118,N,12132.4824278,E,2,67,0.42,12.693,M,15.25,M,1,3335*4B
$GNRMC,111437.000,A,2500.8051118,N,12132.4824278,E,0.02,159.17,260623,,,D,V*03
$GPHDT,,T*1B
$GNACCURACY,3.3*16
$GNGGA,111437.100,2500.8051118,N,12132.4824458,E,2,67,0.42,12.683,M,15.25,M,1,3335*4F
$GNRMC,111437.100,A,2500.8051118,N,12132.4824458,E,0.02,159.17,260623,,,D,V*06
$GPHDT,,T*1B
$GNGSA,A,3,24,196,18,199,23,15,195,194,05,12,10,,0.68,0.42,0.54,1*0B
$GNGSA,A,3,80,70,85,73,86,71,79,69,84,,,,0.68,0.42,0.54,2*08
$GNGSA,A,3,13,08,07,26,15,02,30,03,,,,,0.68,0.42,0.54,3*05
$GNGSA,A,3,38,08,39,16,13,06,46,09,19,20,36,37,0.68,0.42,0.54,4*07
$GNGSA,A,3,29,35,,,,,,,,,,,0.68,0.42,0.54,4*00
$GPGSV,5,1,17,24,79,057,41,196,74,062,40,18,61,258,23,50,60,167,40,1*53
$GPGSV,5,2,17,199,60,167,37,23,46,335,38,15,40,041,26,195,36,179,42,1*6B
$GPGSV,5,3,17,194,29,140,44,05,22,114,32,12,17,145,20,10,14,316,26,1*55
$GPGSV,5,4,17,13,11,053,16,32,07,265,15,25,06,179,,29,03,200,,1*67
$GPGSV,5,5,17,20,01,127,,1*55
$GPGSV,2,1,08,24,79,057,44,196,74,062,39,18,61,258,35,199,60,167,48,8*63
$GPGSV,2,2,08,23,46,335,29,195,36,179,45,194,29,140,42,10,14,316,25,8*6D
$GLGSV,3,1,09,80,48,087,22,70,40,002,29,85,39,253,23,73,32,162,42,1*76
$GLGSV,3,2,09,86,25,309,23,71,19,308,33,79,15,036,21,69,15,068,26,1*7A
$GLGSV,3,3,09,84,14,192,23,1*43
$GAGSV,2,1,08,13,60,239,18,08,48,020,27,07,43,297,32,26,30,311,32,7*76
$GAGSV,2,2,08,15,27,174,39,02,24,090,21,30,22,147,35,03,12,061,24,7*7A
$GAGSV,2,1,08,13,60,239,31,08,48,020,29,07,43,297,23,26,30,311,23,1*75
$GAGSV,2,2,08,15,27,174,44,02,24,090,16,30,22,147,36,03,12,061,26,1*73
$GBGSV,4,1,15,38,83,085,44,08,76,006,36,39,72,274,37,16,66,250,18,1*73
$GBGSV,4,2,15,13,66,337,37,06,65,246,27,46,57,121,42,09,49,234,26,1*74
$GBGSV,4,3,15,19,47,339,41,20,44,056,29,36,30,184,40,37,26,051,30,1*70
$GBGSV,4,4,15,29,22,215,28,35,22,274,29,22,09,297,36,1*49
$GBGSV,3,1,10,38,83,085,43,39,72,274,40,46,57,121,39,19,47,339,32,4*7B
$GBGSV,3,2,10,20,44,056,40,36,30,184,42,37,26,051,39,29,22,215,22,4*78
$GBGSV,3,3,10,35,22,274,30,22,09,297,25,4*74
$GNACCURACY,3.3*16
$PAIRSAT,1,35,1,0,200,2,0,200,3,0,200,4,0,200,5,0,201,6,0,200,7,0,200,8,0,200,9,0,200,10,0,221,11,0,200,12,0,201,13,0,201,14,0,200,15,0,201,16,0,200,17,0,200,18,0,221,19,0,200,20,0,200,21,0,200,23,0,221,24,0,221,25,0,200,26,0,200,27,0,200,28,0,200,29,0,200,30,0,200,31,0,200,32,0,200,194,0,621,195,0,621,196,0,620,199,0,621*6B
$PAIRSAT,2,23,65,0,200,67,0,200,68,0,200,69,0,201,70,0,201,71,0,201,72,0,200,73,0,201,74,0,200,75,0,200,76,0,200,77,0,200,78,0,200,79,0,201,80,0,201,81,0,200,82,0,200,83,0,200,84,0,201,85,0,201,86,0,201,87,0,200,88,0,200*52
$PAIRSAT,3,23,2,0,1221,3,0,1221,4,0,1200,5,0,200,7,0,1221,8,0,1221,9,0,1200,10,0,1200,11,0,1200,12,0,1200,13,0,1221,15,0,1221,19,0,1200,21,0,1200,24,0,1200,25,0,1200,26,0,1221,27,0,1200,30,0,1221,31,0,1200,33,0,1200,34,0,1200,36,0,1200*6A
$PAIRSAT,4,50,1,0,200,2,0,200,3,0,200,4,0,200,5,0,200,6,0,201,7,0,200,8,0,201,9,0,201,10,0,200,11,0,200,12,0,200,13,0,201,14,0,200,15,0,200,16,0,201,19,0,621,20,0,621,21,0,600,22,0,621,23,0,600,24,0,600,25,0,600,26,0,600,27,0,600,28,0,600,29,0,621,30,0,600,31,0,200,32,0,600,33,0,600,34,0,600,35,0,621,36,0,621,37,0,621,38,0,621,39,0,621,40,0,600,41,0,600,42,0,600,43,0,600,44,0,600,45,0,600,46,0,621,56,0,200,57,0,200,58,0,200,59,0,600,60,0,600,61,0,600*41
$PAIRDGP,8,5,10,12,13,15,18,23,24*72
$GNGGA,111437.200,2500.8051058,N,12132.4824578,E,2,67,0.42,12.670,M,15.25,M,1,3335*46
$GNRMC,111437.200,A,2500.8051058,N,12132.4824578,E,0.02,159.17,260623,,,D,V*03
$GPHDT,,T*1B
$GNACCURACY,3.3*16
$GNGGA,111437.300,2500.8050998,N,12132.4824698,E,2,67,0.42,12.655,M,15.25,M,1,3335*49
$GNRMC,111437.300,A,2500.8050998,N,12132.4824698,E,0.01,159.17,260623,,,D,V*08
$GPHDT,,T*1B
$GNACCURACY,3.3*16
$GNGGA,111437.400,2500.8050998,N,12132.4824698,E,2,67,0.42,12.638,M,15.25,M,1,3335*45
$GNRMC,111437.400,A,2500.8050998,N,12132.4824698,E,0.00,159.17,260623,,,D,V*0E
$GPHDT,,T*1B
$GNACCURACY,3.3*16
$GNGGA,111437.500,2500.8050938,N,12132.4824758,E,2,67,0.42,12.618,M,15.25,M,1,3335*41
$GNRMC,111437.500,A,2500.8050938,N,12132.4824758,E,0.00,159.17,260623,,,D,V*08
$GPHDT,,T*1B
$GNACCURACY,3.3*16
$GNGGA,111437.600,2500.8050938,N,12132.4824818,E,2,67,0.42,12.596,M,15.25,M,1,3335*4C
$GNRMC,111437.600,A,2500.8050938,N,12132.4824818,E,0.00,159.17,260623,,,D,V*00
$GPHDT,,T*1B
$GNACCURACY,3.3*16
$GNGGA,111437.700,2500.8050878,N,12132.4824878,E,2,67,0.42,12.571,M,15.25,M,1,3335*47
$GNRMC,111437.700,A,2500.8050878,N,12132.4824878,E,0.01,159.17,260623,,,D,V*03
$GPHDT,,T*1B
$GNACCURACY,3.3*16
$GNGGA,111437.800,2500.8050818,N,12132.4824878,E,2,67,0.42,12.549,M,15.25,M,1,3335*45
$GNRMC,111437.800,A,2500.8050818,N,12132.4824878,E,0.00,159.17,260623,,,D,V*0B
$GPHDT,,T*1B
$GNACCURACY,3.3*16
$GNGGA,111437.900,2500.8050698,N,12132.4824938,E,2,67,0.42,12.532,M,15.25,M,1,3335*4B
$GNRMC,111437.900,A,2500.8050698,N,12132.4824938,E,0.01,159.17,260623,,,D,V*08
$GPHDT,,T*1B
$GNACCURACY,3.3*16
$GNGGA,111438.000,2500.8050638,N,12132.4824998,E,2,67,0.42,12.511,M,15.25,M,2,3335*4F
$GNRMC,111438.000,A,2500.8050638,N,12132.4824998,E,0.01,159.17,260623,,,D,V*0E
$GPHDT,,T*1B
$GNACCURACY,3.3*16
$GNGGA,111438.100,2500.8050638,N,12132.4824998,E,2,67,0.42,12.490,M,15.25,M,2,3335*46
$GNRMC,111438.100,A,2500.8050638,N,12132.4824998,E,0.01,159.17,260623,,,D,V*0F
$GPHDT,,T*1B
$GNGSA,A,3,24,196,18,199,23,15,195,194,05,12,10,,0.68,0.42,0.54,1*0B
$GNGSA,A,3,80,70,85,73,86,71,79,69,84,,,,0.68,0.42,0.54,2*08
$GNGSA,A,3,13,08,07,26,15,02,30,03,,,,,0.68,0.42,0.54,3*05
$GNGSA,A,3,38,08,39,16,13,06,46,09,19,20,36,37,0.68,0.42,0.54,4*07
$GNGSA,A,3,35,29,,,,,,,,,,,0.68,0.42,0.54,4*00
$GPGSV,5,1,17,24,79,057,41,196,74,062,40,18,61,258,24,50,60,167,40,1*54
$GPGSV,5,2,17,199,60,167,37,23,46,335,41,15,40,041,29,195,36,179,42,1*6A
$GPGSV,5,3,17,194,29,140,44,05,22,114,30,12,17,145,22,10,14,316,30,1*52
$GPGSV,5,4,17,13,11,053,20,32,07,265,16,25,06,179,,29,03,200,,1*61
$GPGSV,5,5,17,20,01,127,,1*55
$GPGSV,2,1,08,24,79,057,44,196,74,062,39,18,61,258,33,199,60,167,48,8*65
$GPGSV,2,2,08,23,46,335,42,195,36,179,45,194,29,140,42,10,14,316,28,8*6D
$GLGSV,3,1,09,80,48,087,20,70,40,002,28,85,39,253,18,73,32,162,43,1*7C
$GLGSV,3,2,09,86,25,309,30,71,19,308,34,79,15,036,20,69,15,068,22,1*7A
$GLGSV,3,3,09,84,14,192,23,1*43
$GAGSV,3,1,09,13,60,239,19,08,48,020,35,07,43,297,30,26,30,311,29,7*7C
$GAGSV,3,2,09,15,27,174,39,02,24,090,23,30,22,147,35,03,12,061,24,7*78
$GAGSV,3,3,09,25,04,046,,7*4B
$GAGSV,2,1,08,13,60,239,32,08,48,020,35,07,43,297,32,26,30,311,19,1*72
$GAGSV,2,2,08,15,27,174,44,02,24,090,17,30,22,147,35,03,12,061,26,1*71
$GBGSV,4,1,15,38,83,085,44,08,76,006,34,39,72,274,36,16,66,250,22,1*79
$GBGSV,4,2,15,13,66,337,37,06,65,246,27,46,57,121,42,09,49,234,26,1*74
$GBGSV,4,3,15,19,47,339,41,20,44,056,29,36,30,184,39,37,26,051,33,1*7D
$GBGSV,4,4,15,35,22,274,27,29,22,215,26,22,09,297,36,1*49
$GBGSV,3,1,10,38,83,085,43,39,72,274,38,46,57,121,38,19,47,339,38,4*7F
$GBGSV,3,2,10,20,44,056,42,36,30,184,42,37,26,051,39,29,22,215,21,4*79
$GBGSV,3,3,10,35,22,274,27,22,09,297,24,4*73
$GNACCURACY,3.3*16
$PAIRSAT,1,35,1,0,200,2,0,200,3,0,200,4,0,200,5,0,201,6,0,200,7,0,200,8,0,200,9,0,200,10,0,221,11,0,200,12,0,201,13,0,201,14,0,200,15,0,201,16,0,200,17,0,200,18,0,221,19,0,200,20,0,200,21,0,200,23,0,221,24,0,221,25,0,200,26,0,200,27,0,200,28,0,200,29,0,200,30,0,200,31,0,200,32,0,200,194,0,621,195,0,621,196,0,620,199,0,621*6B
$PAIRSAT,2,23,65,0,200,67,0,200,68,0,200,69,0,201,70,0,201,71,0,201,72,0,200,73,0,201,74,0,200,75,0,200,76,0,200,77,0,200,78,0,200,79,0,201,80,0,201,81,0,200,82,0,200,83,0,200,84,0,201,85,0,201,86,0,201,87,0,200,88,0,200*52
$PAIRSAT,3,23,2,0,1221,3,0,1221,4,0,1200,5,0,200,7,0,1221,8,0,1221,9,0,1200,10,0,1200,11,0,1200,12,0,1200,13,0,1221,15,0,1221,19,0,1200,21,0,1200,24,0,1200,25,0,1200,26,0,1221,27,0,1200,30,0,1221,31,0,1200,33,0,1200,34,0,1200,36,0,1200*6A
$PAIRSAT,4,50,1,0,200,2,0,200,3,0,200,4,0,200,5,0,200,6,0,201,7,0,200,8,0,201,9,0,201,10,0,200,11,0,200,12,0,200,13,0,201,14,0,200,15,0,200,16,0,201,19,0,621,20,0,621,21,0,600,22,0,621,23,0,600,24,0,600,25,0,600,26,0,600,27,0,600,28,0,600,29,0,621,30,0,600,31,0,200,32,0,600,33,0,600,34,0,600,35,0,621,36,0,621,37,0,621,38,0,621,39,0,621,40,0,600,41,0,600,42,0,600,43,0,600,44,0,600,45,0,600,46,0,621,56,0,200,57,0,200,58,0,200,59,0,600,60,0,600,61,0,600*41
$PAIRDGP,8,5,10,12,13,15,18,23,24*72
$GNGGA,111438.200,2500.8050698,N,12132.4824998,E,2,67,0.42,12.468,M,15.25,M,2,3335*48
$GNRMC,111438.200,A,2500.8050698,N,12132.4824998,E,0.01,159.17,260623,,,D,V*06
$GPHDT,,T*1B
$GNACCURACY,3.3*16
$GNGGA,111438.300,2500.8050698,N,12132.4824998,E,2,67,0.42,12.447,M,15.25,M,2,3335*44
$GNRMC,111438.300,A,2500.8050698,N,12132.4824998,E,0.01,159.17,260623,,,D,V*07
$GPHDT,,T*1B
$GNACCURACY,3.3*16
$GNGGA,111438.400,2500.8050758,N,12132.4824998,E,2,66,0.42,12.427,M,15.25,M,2,3335*49
$GNRMC,111438.400,A,2500.8050758,N,12132.4824998,E,0.01,159.17,260623,,,D,V*0D
$GPHDT,,T*1B
$GNACCURACY,3.3*16
$GNGGA,111438.500,2500.8050818,N,12132.4824998,E,2,67,0.42,12.407,M,15.25,M,2,3335*40
$GNRMC,111438.500,A,2500.8050818,N,12132.4824998,E,0.01,159.17,260623,,,D,V*07
$GPHDT,,T*1B
$GNACCURACY,3.3*16
$GNGGA,111438.600,2500.8050818,N,12132.4824998,E,2,67,0.42,12.388,M,15.25,M,2,3335*43
$GNRMC,111438.600,A,2500.8050818,N,12132.4824998,E,0.01,159.17,260623,,,D,V*04
$GPHDT,,T*1B
$GNACCURACY,3.3*16
$GNGGA,111438.700,2500.8050818,N,12132.4824998,E,2,67,0.42,12.372,M,15.25,M,2,3335*47
$GNRMC,111438.700,A,2500.8050818,N,12132.4824998,E,0.01,159.17,260623,,,D,V*05
$GPHDT,,T*1B
$GNACCURACY,3.3*16
$GNGGA,111438.800,2500.8050818,N,12132.4824998,E,2,68,0.40,12.351,M,15.25,M,2,3335*44
$GNRMC,111438.800,A,2500.8050818,N,12132.4824998,E,0.02,159.17,260623,,,D,V*09
$GPHDT,,T*1B
$GNACCURACY,3.3*16
$GNGGA,111438.900,2500.8050758,N,12132.4825118,E,2,68,0.40,12.335,M,15.25,M,2,3335*4D
$GNRMC,111438.900,A,2500.8050758,N,12132.4825118,E,0.01,159.17,260623,,,D,V*01
$GPHDT,,T*1B
$GNACCURACY,3.3*16
$GNGGA,111439.000,2500.8050638,N,12132.4825118,E,2,68,0.40,12.320,M,15.25,M,3,3335*47
$GNRMC,111439.000,A,2500.8050638,N,12132.4825118,E,0.02,159.17,260623,,,D,V*0D
$GPHDT,,T*1B
$GNACCURACY,3.3*16
$GNGGA,111439.100,2500.8050578,N,12132.4825238,E,2,68,0.40,12.304,M,15.25,M,3,3335*46
$GNRMC,111439.100,A,2500.8050578,N,12132.4825238,E,0.02,159.17,260623,,,D,V*0A
$GPHDT,,T*1B
$GNGSA,A,3,24,196,18,199,23,15,195,194,05,12,10,,0.68,0.42,0.54,1*0B
$GNGSA,A,3,80,70,85,73,86,71,79,69,84,,,,0.68,0.42,0.54,2*08
$GNGSA,A,3,13,08,07,26,15,02,30,03,,,,,0.68,0.42,0.54,3*05
$GNGSA,A,3,38,08,39,16,13,06,46,09,19,20,36,37,0.68,0.42,0.54,4*07
$GNGSA,A,3,29,35,,,,,,,,,,,0.68,0.42,0.54,4*00
$GPGSV,4,1,16,24,79,057,41,196,74,062,40,18,61,258,23,50,60,167,40,1*53
$GPGSV,4,2,16,199,60,167,37,23,46,335,44,15,40,041,27,195,36,179,42,1*61
$GPGSV,4,3,16,194,29,140,44,05,22,114,32,12,17,145,22,10,14,316,30,1*50
$GPGSV,4,4,16,13,11,053,22,32,07,265,13,29,03,200,,20,01,127,,1*6F
$GPGSV,2,1,08,24,79,057,44,196,74,062,39,18,61,258,34,199,60,167,47,8*6D
$GPGSV,2,2,08,23,46,335,44,195,36,179,45,194,29,140,41,10,14,316,30,8*61
$GLGSV,3,1,09,80,48,087,22,70,40,002,25,85,39,253,15,73,32,162,43,1*7E
$GLGSV,3,2,09,86,25,309,32,71,19,308,33,79,15,036,18,69,15,068,27,1*71
$GLGSV,3,3,09,84,14,192,23,1*43
$GAGSV,3,1,09,13,60,239,21,08,48,020,29,07,43,297,30,26,30,311,32,7*70
$GAGSV,3,2,09,15,27,174,39,02,24,090,26,30,22,147,36,03,12,061,20,7*7A
$GAGSV,3,3,09,25,04,046,,7*4B
$GAGSV,2,1,08,13,60,239,33,08,48,020,36,07,43,297,31,26,30,311,18,1*72
$GAGSV,2,2,08,15,27,174,44,02,24,090,19,30,22,147,36,03,12,061,26,1*7C
$GBGSV,4,1,15,38,83,085,44,08,76,006,34,39,72,274,36,16,66,250,23,1*78
$GBGSV,4,2,15,13,66,337,39,06,65,246,25,46,57,121,42,09,49,234,24,1*7A
$GBGSV,4,3,15,19,47,339,43,20,44,056,32,36,30,184,39,37,26,051,34,1*72
$GBGSV,4,4,15,29,22,215,26,35,22,274,27,22,09,297,37,1*48
$GBGSV,3,1,10,38,83,085,42,39,72,274,38,46,57,121,38,19,47,339,42,4*73
$GBGSV,3,2,10,20,44,056,42,36,30,184,42,37,26,051,39,29,22,215,20,4*78
$GBGSV,3,3,10,35,22,274,27,22,09,297,24,4*73
$GNACCURACY,3.3*16
$PAIRSAT,1,35,1,0,200,2,0,200,3,0,200,4,0,200,5,0,201,6,0,200,7,0,200,8,0,200,9,0,200,10,0,221,11,0,200,12,0,201,13,0,201,14,0,200,15,0,201,16,0,200,17,0,200,18,0,221,19,0,200,20,0,200,21,0,200,23,0,221,24,0,221,25,0,200,26,0,200,27,0,200,28,0,200,29,0,200,30,0,200,31,0,200,32,0,200,194,0,621,195,0,621,196,0,620,199,0,621*6B
$PAIRSAT,2,23,65,0,200,67,0,200,68,0,200,69,0,201,70,0,201,71,0,201,72,0,200,73,0,201,74,0,200,75,0,200,76,0,200,77,0,200,78,0,200,79,0,201,80,0,201,81,0,200,82,0,200,83,0,200,84,0,201,85,0,201,86,0,201,87,0,200,88,0,200*52
$PAIRSAT,3,23,2,0,1221,3,0,1221,4,0,1200,5,0,200,7,0,1221,8,0,1221,9,0,1200,10,0,1200,11,0,1200,12,0,1200,13,0,1221,15,0,1221,19,0,1200,21,0,1200,24,0,1200,25,0,1200,26,0,1221,27,0,1200,30,0,1221,31,0,1200,33,0,1200,34,0,1200,36,0,1200*6A
$PAIRSAT,4,50,1,0,200,2,0,200,3,0,200,4,0,200,5,0,200,6,0,201,7,0,200,8,0,201,9,0,201,10,0,200,11,0,200,12,0,200,13,0,201,14,0,200,15,0,200,16,0,201,19,0,621,20,0,621,21,0,600,22,0,621,23,0,600,24,0,600,25,0,600,26,0,600,27,0,600,28,0,600,29,0,621,30,0,600,31,0,200,32,0,600,33,0,600,34,0,600,35,0,621,36,0,621,37,0,621,38,0,621,39,0,621,40,0,600,41,0,600,42,0,600,43,0,600,44,0,600,45,0,600,46,0,621,56,0,200,57,0,200,58,0,200,59,0,600,60,0,600,61,0,600*41
$PAIRDGP,8,5,10,12,13,15,18,23,24*72
$GNGGA,111439.200,2500.8050518,N,12132.4825298,E,2,67,0.42,12.286,M,15.25,M,3,3335*4F
$GNRMC,111439.200,A,2500.8050518,N,12132.4825298,E,0.01,159.17,260623,,,D,V*06
$GPHDT,,T*1B
$GNACCURACY,3.1*14
$GNGGA,111439.300,2500.8050398,N,12132.4825418,E,2,67,0.42,12.267,M,15.25,M,3,3335*41
$GNRMC,111439.300,A,2500.8050398,N,12132.4825418,E,0.01,159.17,260623,,,D,V*07
$GPHDT,,T*1B
$GNACCURACY,3.1*14
$GNGGA,111439.400,2500.8050398,N,12132.4825478,E,2,67,0.42,12.245,M,15.25,M,3,3335*40
$GNRMC,111439.400,A,2500.8050398,N,12132.4825478,E,0.01,159.17,260623,,,D,V*06
$GPHDT,,T*1B
$GNACCURACY,3.1*14
$GNGGA,111439.500,2500.8050278,N,12132.4825538,E,2,67,0.42,12.225,M,15.25,M,3,3335*4D
$GNRMC,111439.500,A,2500.8050278,N,12132.4825538,E,0.01,159.17,260623,,,D,V*0D
$GPHDT,,T*1B
$GNACCURACY,3.1*14
$GNGGA,111439.600,2500.8050218,N,12132.4825598,E,2,67,0.42,12.203,M,15.25,M,3,3335*46
$GNRMC,111439.600,A,2500.8050218,N,12132.4825598,E,0.01,159.17,260623,,,D,V*02
$GPHDT,,T*1B
$GNACCURACY,3.1*14
$GNGGA,111439.700,2500.8050158,N,12132.4825598,E,2,68,0.40,12.183,M,15.25,M,2,3335*47
$GNRMC,111439.700,A,2500.8050158,N,12132.4825598,E,0.01,159.17,260623,,,D,V*04
$GPHDT,,T*1B
$GNACCURACY,3.1*14
$GNGGA,111439.800,2500.8050098,N,12132.4825658,E,2,68,0.40,12.166,M,15.25,M,0,3335*43
$GNRMC,111439.800,A,2500.8050098,N,12132.4825658,E,0.01,159.17,260623,,,D,V*09
$GPHDT,,T*1B
$GNACCURACY,3.1*14
$GNGGA,111439.900,2500.8049978,N,12132.4825718,E,2,68,0.40,12.143,M,15.25,M,0,3335*4F
$GNRMC,111439.900,A,2500.8049978,N,12132.4825718,E,0.01,159.17,260623,,,D,V*02
$GPHDT,,T*1B
$GNACCURACY,3.1*14
$GNGGA,111440.000,2500.8049918,N,12132.4825718,E,2,67,0.42,12.119,M,15.25,M,1,3335*4D
$GNRMC,111440.000,A,2500.8049918,N,12132.4825718,E,0.01,159.17,260623,,,D,V*03
$GPHDT,,T*1B
$GNACCURACY,3.1*14
$GNGGA,111440.100,2500.8049858,N,12132.4825778,E,2,67,0.42,12.099,M,15.25,M,1,3335*46
$GNRMC,111440.100,A,2500.8049858,N,12132.4825778,E,0.01,159.17,260623,,,D,V*01
$GPHDT,,T*1B
$GNGSA,A,3,24,196,18,199,23,15,195,194,05,12,10,,0.68,0.42,0.54,1*0B
$GNGSA,A,3,80,70,85,73,86,71,79,69,84,,,,0.68,0.42,0.54,2*08
$GNGSA,A,3,13,08,07,26,15,02,30,03,,,,,0.68,0.42,0.54,3*05
$GNGSA,A,3,38,08,39,16,13,06,46,09,19,20,36,37,0.68,0.42,0.54,4*07
$GNGSA,A,3,35,29,,,,,,,,,,,0.68,0.42,0.54,4*00
$GPGSV,5,1,17,24,79,057,41,196,74,062,40,18,61,258,23,50,60,167,40,1*53
$GPGSV,5,2,17,199,60,167,37,23,46,335,44,15,40,041,27,195,36,179,42,1*61
$GPGSV,5,3,17,194,29,140,44,05,22,114,32,12,17,145,23,10,14,316,30,1*51
$GPGSV,5,4,17,13,11,053,22,32,07,265,12,25,06,179,,29,03,200,,1*67
$GPGSV,5,5,17,20,01,127,,1*55
$GPGSV,2,1,08,24,79,057,44,196,74,062,39,18,61,258,34,199,60,167,47,8*6D
$GPGSV,2,2,08,23,46,335,45,195,36,179,45,194,29,140,41,10,14,316,31,8*61
$GLGSV,3,1,09,80,48,087,23,70,40,002,25,85,39,253,14,73,32,162,43,1*7E
$GLGSV,3,2,09,86,25,309,32,71,19,308,33,79,15,036,18,69,15,068,27,1*71
$GLGSV,3,3,09,84,14,192,23,1*43
$GAGSV,3,1,09,13,60,239,23,08,48,020,31,07,43,297,29,26,30,311,33,7*72
$GAGSV,3,2,09,15,27,174,39,02,24,090,26,30,22,146,36,03,12,061,20,7*7B
$GAGSV,3,3,09,25,04,046,,7*4B
$GAGSV,2,1,08,13,60,239,33,08,48,020,36,07,43,297,30,26,30,311,16,1*7D
$GAGSV,2,2,08,15,27,174,44,02,24,090,19,30,22,146,36,03,12,061,26,1*7D
$GBGSV,4,1,15,38,83,085,44,08,76,006,35,39,72,274,36,16,66,250,24,1*7E
$GBGSV,4,2,15,13,66,337,39,06,65,246,28,46,57,121,42,09,49,234,24,1*77
$GBGSV,4,3,15,19,47,339,43,20,44,056,32,36,30,184,40,37,26,051,34,1*7C
$GBGSV,4,4,15,35,22,274,27,29,22,215,26,22,09,297,37,1*48
$GBGSV,3,1,10,38,83,085,42,39,72,274,38,46,57,121,38,19,47,339,43,4*72
$GBGSV,3,2,10,20,44,056,42,36,30,184,42,37,26,051,39,29,22,215,20,4*78
$GBGSV,3,3,10,35,22,274,27,22,09,297,25,4*72
$GNACCURACY,3.1*14
$PAIRSAT,1,35,1,0,200,2,0,200,3,0,200,4,0,200,5,0,201,6,0,200,7,0,200,8,0,200,9,0,200,10,0,221,11,0,200,12,0,201,13,0,201,14,0,200,15,0,201,16,0,200,17,0,200,18,0,221,19,0,200,20,0,200,21,0,200,23,0,221,24,0,221,25,0,200,26,0,200,27,0,200,28,0,200,29,0,200,30,0,200,31,0,200,32,0,200,194,0,621,195,0,621,196,0,620,199,0,621*6B
$PAIRSAT,2,23,65,0,200,67,0,200,68,0,200,69,0,201,70,0,201,71,0,201,72,0,200,73,0,201,74,0,200,75,0,200,76,0,200,77,0,200,78,0,200,79,0,201,80,0,201,81,0,200,82,0,200,83,0,200,84,0,201,85,0,201,86,0,201,87,0,200,88,0,200*52
$PAIRSAT,3,23,2,0,1221,3,0,1221,4,0,1200,5,0,200,7,0,1221,8,0,1221,9,0,1200,10,0,1200,11,0,1200,12,0,1200,13,0,1221,15,0,1221,19,0,1200,21,0,1200,24,0,1200,25,0,1200,26,0,1221,27,0,1200,30,0,1221,31,0,1200,33,0,1200,34,0,1200,36,0,1200*6A
$PAIRSAT,4,50,1,0,200,2,0,200,3,0,200,4,0,200,5,0,200,6,0,201,7,0,200,8,0,201,9,0,201,10,0,200,11,0,200,12,0,200,13,0,201,14,0,200,15,0,200,16,0,201,19,0,621,20,0,621,21,0,600,22,0,621,23,0,600,24,0,600,25,0,600,26,0,600,27,0,600,28,0,600,29,0,621,30,0,600,31,0,200,32,0,600,33,0,600,34,0,600,35,0,621,36,0,621,37,0,621,38,0,621,39,0,621,40,0,600,41,0,600,42,0,600,43,0,600,44,0,600,45,0,600,46,0,621,56,0,200,57,0,200,58,0,200,59,0,600,60,0,600,61,0,600*41
$PAIRDGP,8,5,10,12,13,15,18,23,24*72
$GNGGA,111440.200,2500.8049798,N,12132.4825838,E,2,67,0.42,12.084,M,15.25,M,1,3335*41
$GNRMC,111440.200,A,2500.8049798,N,12132.4825838,E,0.02,159.17,260623,,,D,V*09
$GPHDT,,T*1B
$GNACCURACY,3.1*14
$GNGGA,111440.300,2500.8049738,N,12132.4825838,E,2,67,0.42,12.065,M,15.25,M,1,3335*45
$GNRMC,111440.300,A,2500.8049738,N,12132.4825838,E,0.02,159.17,260623,,,D,V*02
$GPHDT,,T*1B
$GNACCURACY,3.1*14
$GNGGA,111440.400,2500.8049678,N,12132.4825898,E,2,68,0.40,12.045,M,15.25,M,1,3335*42
$GNRMC,111440.400,A,2500.8049678,N,12132.4825898,E,0.02,159.17,260623,,,D,V*0A
$GPHDT,,T*1B
$GNACCURACY,3.1*14
$GNGGA,111440.500,2500.8049678,N,12132.4825898,E,2,68,0.40,12.025,M,15.25,M,1,3335*45
$GNRMC,111440.500,A,2500.8049678,N,12132.4825898,E,0.02,159.17,260623,,,D,V*0B
$GPHDT,,T*1B
$GNACCURACY,3.1*14
$GNGGA,111440.600,2500.8049678,N,12132.4825898,E,2,68,0.40,12.007,M,15.25,M,1,3335*46
$GNRMC,111440.600,A,2500.8049678,N,12132.4825898,E,0.03,159.17,260623,,,D,V*09
$GPHDT,,T*1B
$GNACCURACY,3.1*14
$GNGGA,111440.700,2500.8049618,N,12132.4825838,E,2,68,0.40,11.986,M,15.25,M,1,3335*48
$GNRMC,111440.700,A,2500.8049618,N,12132.4825838,E,0.02,159.17,260623,,,D,V*05
$GPHDT,,T*1B
$GNACCURACY,3.1*14
$GNGGA,111440.800,2500.8049618,N,12132.4825838,E,2,68,0.40,11.966,M,15.25,M,1,3335*49
$GNRMC,111440.800,A,2500.8049618,N,12132.4825838,E,0.02,159.17,260623,,,D,V*0A
$GPHDT,,T*1B
$GNACCURACY,3.1*14
$GNGGA,111440.900,2500.8049618,N,12132.4825838,E,2,68,0.40,11.943,M,15.25,M,1,3335*4F
$GNRMC,111440.900,A,2500.8049618,N,12132.4825838,E,0.02,159.17,260623,,,D,V*0B
