$FW : RTK35X,V1.1X0314AS,Lib20210517,1*54
$Tool : LOCOSYS , GNSS Firebird , v1.0.0.19*39
$---------------------------------------------------*2D
$GPHDT,,T*1B
$GNGSA,A,3,19,196,195,199,17,06,20,09,194,11,12,04,0.93,0.49,0.79,1*02
$GNGSA,A,3,68,83,67,82,69,,,,,,,,0.93,0.49,0.79,2*0A
$GNGSA,A,3,10,12,24,04,11,19,25,33,,,,,0.93,0.49,0.79,3*05
$GNGSA,A,3,40,33,07,10,08,14,43,28,41,42,11,34,0.93,0.49,0.79,4*0B
$GPGSV,4,1,15,19,72,070,42,196,69,120,41,195,68,049,40,50,60,167,38,1*6C
$GPGSV,4,2,15,199,60,167,35,17,57,110,26,06,49,005,44,20,41,245,44,1*5D
$GPGSV,4,3,15,09,37,085,45,194,35,173,38,11,34,303,29,12,22,306,36,1*5D
$GPGSV,4,4,15,04,18,056,21,05,16,230,,14,11,172,15,1*5B
$GPGSV,2,1,08,196,69,120,45,195,68,049,46,199,60,167,42,06,49,005,46,8*54
$GPGSV,2,2,08,09,37,085,42,194,35,173,35,11,34,303,35,04,18,056,38,8*5E
$GLGSV,2,1,07,68,67,121,41,83,40,002,28,67,36,040,38,82,35,061,42,1*75
$GLGSV,2,2,07,69,28,184,31,73,18,270,17,80,11,217,,1*47
$GAGSV,3,1,09,10,49,353,40,12,45,032,37,24,41,227,27,04,40,145,42,7*75
$GAGSV,3,2,09,11,39,315,39,19,32,070,34,25,29,294,16,33,10,076,18,7*78
$GAGSV,3,3,09,09,09,189,,7*4A
$GAGSV,2,1,07,10,49,353,46,12,45,032,42,24,41,227,32,04,40,145,44,1*7A
$GAGSV,2,2,07,11,39,315,38,19,32,070,38,25,29,294,16,1*45
$GBGSV,4,1,14,40,77,174,44,33,75,110,43,07,74,226,40,10,70,267,40,1*72
$GBGSV,4,2,14,08,55,286,21,14,54,055,44,43,50,080,46,28,47,337,44,1*70
$GBGSV,4,3,14,41,37,200,28,42,29,043,40,11,27,097,29,37,11,259,,1*79
$GBGSV,4,4,14,23,10,210,,34,10,110,17,1*70
$GBGSV,2,1,06,40,77,174,45,33,75,110,47,43,50,080,42,28,47,337,43,4*75
$GBGSV,2,2,06,42,29,043,43,34,10,110,18,4*77
$GNGGA,042159.000,2500.7913984,N,12132.4418245,E,4,58,0.49,15.695,M,15.25,M,1,3335*41
$GNRMC,042159.000,A,2500.7913984,N,12132.4418245,E,0.03,20.94,270623,,,R,V*2B
$GPHDT,,T*1B
$GNGGA,042159.200,2500.7914021,N,12132.4418261,E,4,58,0.49,15.702,M,15.25,M,1,3335*4B
$GNRMC,042159.200,A,2500.7914021,N,12132.4418261,E,0.02,20.94,270623,,,R,V*2F
$GPHDT,,T*1B
$GNGGA,042159.400,2500.7913982,N,12132.4418231,E,4,58,0.49,15.694,M,15.25,M,1,3335*41
$GNRMC,042159.400,A,2500.7913982,N,12132.4418231,E,0.02,20.94,270623,,,R,V*2B
$GPHDT,,T*1B
$GNGGA,042159.600,2500.7913975,N,12132.4418180,E,4,57,0.49,15.680,M,15.25,M,0,3335*49
$GNRMC,042159.600,A,2500.7913975,N,12132.4418180,E,0.02,20.94,270623,,,R,V*28
$GPHDT,,T*1B
$GNGGA,042159.800,2500.7914000,N,12132.4418140,E,4,57,0.49,15.704,M,15.25,M,0,3335*4A
$GNRMC,042159.800,A,2500.7914000,N,12132.4418140,E,0.02,20.94,270623,,,R,V*26
$GPHDT,,T*1B
$GNGSA,A,3,19,196,195,199,06,20,09,194,11,12,04,,0.94,0.49,0.80,1*05
$GNGSA,A,3,68,83,67,82,69,,,,,,,,0.94,0.49,0.80,2*0B
$GNGSA,A,3,10,12,24,04,11,19,25,33,,,,,0.94,0.49,0.80,3*04
$GNGSA,A,3,40,33,07,10,08,14,43,28,41,42,11,34,0.94,0.49,0.80,4*0A
$GPGSV,4,1,15,19,72,070,42,196,69,120,41,195,68,049,40,50,60,167,37,1*63
$GPGSV,4,2,15,199,60,167,35,17,57,110,28,06,49,005,44,20,41,245,43,1*54
$GPGSV,4,3,15,09,37,085,44,194,35,173,38,11,34,303,30,12,22,306,37,1*55
$GPGSV,4,4,15,04,18,056,23,05,16,230,,14,11,172,15,1*59
$GPGSV,2,1,08,196,69,120,45,195,68,049,46,199,60,167,42,06,49,005,46,8*54
$GPGSV,2,2,08,09,37,085,41,194,35,173,37,11,34,303,35,04,18,056,38,8*5F
$GLGSV,2,1,07,68,67,121,41,83,40,002,28,67,36,040,38,82,35,061,40,1*77
$GLGSV,2,2,07,69,28,184,34,73,18,270,18,80,11,217,,1*4D
$GAGSV,3,1,09,10,49,353,40,12,45,032,37,24,41,227,34,04,40,145,42,7*77
$GAGSV,3,2,09,11,39,315,39,19,32,070,35,25,29,294,16,33,10,076,18,7*79
$GAGSV,3,3,09,09,09,189,,7*4A
$GAGSV,2,1,07,10,49,353,46,12,45,032,42,24,41,227,35,04,40,145,44,1*7D
$GAGSV,2,2,07,11,39,315,38,19,32,070,38,25,29,294,16,1*45
$GBGSV,4,1,14,40,77,174,44,33,75,110,43,07,74,226,40,10,70,267,40,1*72
$GBGSV,4,2,14,08,55,286,21,14,54,055,44,43,50,080,47,28,47,337,44,1*71
$GBGSV,4,3,14,41,37,200,27,42,29,043,40,11,27,097,30,37,11,259,,1*7E
$GBGSV,4,4,14,23,10,210,,34,10,110,18,1*7F
$GBGSV,2,1,06,40,77,174,45,33,75,110,47,43,50,080,42,28,47,337,44,4*72
$GBGSV,2,2,06,42,29,043,43,34,10,110,19,4*76
$GNGGA,042200.000,2500.7914002,N,12132.4418126,E,4,57,0.49,15.687,M,15.25,M,1,3335*44
$GNRMC,042200.000,A,2500.7914002,N,12132.4418126,E,0.02,20.94,270623,,,R,V*23
$GPHDT,,T*1B
$GNGGA,042200.200,2500.7914006,N,12132.4418129,E,4,57,0.49,15.683,M,15.25,M,1,3335*49
$GNRMC,042200.200,A,2500.7914006,N,12132.4418129,E,0.02,20.94,270623,,,R,V*2A
$GPHDT,,T*1B
$GNGGA,042200.400,2500.7914002,N,12132.4418151,E,4,57,0.49,15.694,M,15.25,M,1,3335*42
$GNRMC,042200.400,A,2500.7914002,N,12132.4418151,E,0.02,20.94,270623,,,R,V*27
$GPHDT,,T*1B
$GNGGA,042200.600,2500.7914000,N,12132.4418148,E,4,57,0.49,15.694,M,15.25,M,0,3335*4B
$GNRMC,042200.600,A,2500.7914000,N,12132.4418148,E,0.02,20.94,270623,,,R,V*2F
$GPHDT,,T*1B
$GNGGA,042200.800,2500.7914044,N,12132.4418249,E,4,57,0.49,15.706,M,15.25,M,0,3335*4D
$GNRMC,042200.800,A,2500.7914044,N,12132.4418249,E,0.02,20.94,270623,,,R,V*23
$GPHDT,,T*1B
$GNGSA,A,3,19,196,195,199,17,06,20,09,194,11,12,04,0.93,0.49,0.79,1*02
$GNGSA,A,3,68,83,67,82,69,,,,,,,,0.93,0.49,0.79,2*0A
$GNGSA,A,3,10,12,24,04,11,19,25,33,,,,,0.93,0.49,0.79,3*05
$GNGSA,A,3,40,33,07,10,08,14,43,28,41,42,11,34,0.93,0.49,0.79,4*0B
$GPGSV,4,1,15,19,72,070,42,196,69,120,41,195,68,049,40,50,60,167,37,1*63
$GPGSV,4,2,15,199,60,167,35,17,57,110,32,06,49,005,44,20,41,245,43,1*5F
$GPGSV,4,3,15,09,37,085,44,194,35,173,34,11,34,303,30,12,22,306,36,1*58
$GPGSV,4,4,15,04,18,056,19,05,16,230,,14,11,172,13,1*56
$GPGSV,2,1,08,196,69,120,45,195,68,049,45,199,60,167,43,06,49,005,46,8*56
$GPGSV,2,2,08,09,37,085,42,194,35,173,34,11,34,303,34,04,18,056,35,8*53
$GLGSV,2,1,07,68,67,121,41,83,40,002,28,67,36,040,37,82,35,061,40,1*78
$GLGSV,2,2,07,69,28,184,26,73,18,270,21,80,11,217,,1*44
$GAGSV,3,1,09,10,49,353,41,12,45,032,38,24,41,227,34,04,40,145,42,7*79
$GAGSV,3,2,09,11,39,315,39,19,32,070,34,25,29,294,17,33,10,076,18,7*79
$GAGSV,3,3,09,09,09,189,,7*4A
$GAGSV,2,1,07,10,49,353,46,12,45,032,42,24,41,227,36,04,40,145,44,1*7E
$GAGSV,2,2,07,11,39,315,38,19,32,070,38,25,29,294,14,1*47
$GBGSV,4,1,14,40,77,174,44,33,75,110,43,07,74,226,40,10,70,267,40,1*72
$GBGSV,4,2,14,08,55,286,23,14,54,055,44,43,50,080,46,28,47,337,45,1*73
$GBGSV,4,3,14,41,37,200,28,42,29,043,40,11,27,097,28,37,11,259,,1*78
$GBGSV,4,4,14,23,10,210,,34,10,110,18,1*7F
$GBGSV,2,1,06,40,77,174,45,33,75,110,47,43,50,080,43,28,47,337,44,4*73
$GBGSV,2,2,06,42,29,043,43,34,10,110,20,4*7C
$GNGGA,042201.000,2500.7914058,N,12132.4418247,E,4,57,0.49,15.715,M,15.25,M,1,3335*44
$GNRMC,042201.000,A,2500.7914058,N,12132.4418247,E,0.02,20.94,270623,,,R,V*29
$GPHDT,,T*1B
$GNGGA,042201.200,2500.7913867,N,12132.4418236,E,4,57,0.49,16.010,M,15.25,M,1,3335*42
$GNRMC,042201.200,A,2500.7913867,N,12132.4418236,E,0.02,20.94,270623,,,R,V*2E
$GPHDT,,T*1B
$GNGGA,042201.400,2500.7913837,N,12132.4418197,E,4,57,0.49,16.002,M,15.25,M,1,3335*4A
$GNRMC,042201.400,A,2500.7913837,N,12132.4418197,E,0.03,20.94,270623,,,R,V*24
$GPHDT,,T*1B
$GNGGA,042201.600,2500.7913807,N,12132.4418253,E,4,56,0.49,15.984,M,15.25,M,1,3335*45
$GNRMC,042201.600,A,2500.7913807,N,12132.4418253,E,0.02,20.94,270623,,,R,V*2F
$GPHDT,,T*1B
$GNGGA,042201.800,2500.7913816,N,12132.4418256,E,4,58,0.49,15.992,M,15.25,M,0,3335*46
$GNRMC,042201.800,A,2500.7913816,N,12132.4418256,E,0.03,20.94,270623,,,R,V*25
$GPHDT,,T*1B
$GNGSA,A,3,19,196,195,199,17,06,20,09,194,11,12,04,0.88,0.47,0.74,1*0B
$GNGSA,A,3,14,,,,,,,,,,,,0.88,0.47,0.74,1*04
$GNGSA,A,3,68,83,67,82,69,,,,,,,,0.88,0.47,0.74,2*03
$GNGSA,A,3,10,12,24,04,11,19,25,33,,,,,0.88,0.47,0.74,3*0C
$GNGSA,A,3,40,33,07,10,08,14,43,28,41,42,11,34,0.88,0.47,0.74,4*02
$GPGSV,4,1,15,19,72,070,42,196,69,120,41,195,68,049,40,50,60,167,37,1*63
$GPGSV,4,2,15,199,60,167,35,17,57,110,35,06,49,005,44,20,41,245,43,1*58
$GPGSV,4,3,15,09,37,085,44,194,34,173,34,11,34,303,30,12,22,306,35,1*5A
$GPGSV,4,4,15,04,18,056,22,05,16,230,,14,11,172,13,1*5E
$GPGSV,2,1,08,196,69,120,45,195,68,049,45,199,60,167,43,06,49,005,46,8*56
$GPGSV,2,2,08,09,37,085,42,11,34,303,34,194,34,173,35,04,18,056,36,8*50
$GLGSV,2,1,06,68,67,121,40,83,40,002,28,67,36,040,37,82,35,061,40,1*78
$GLGSV,2,2,06,69,28,184,29,73,18,270,21,1*76
$GAGSV,3,1,09,10,49,353,41,12,45,032,38,24,41,227,35,04,40,145,43,7*79
$GAGSV,3,2,09,11,39,315,39,19,32,070,35,25,29,294,15,33,10,076,17,7*75
$GAGSV,3,3,09,09,09,189,,7*4A
$GAGSV,2,1,06,10,49,353,46,12,45,032,42,24,41,227,36,04,40,145,45,1*7E
$GAGSV,2,2,06,11,39,315,38,19,32,070,38,1*70
$GBGSV,4,1,14,40,77,174,44,33,75,110,43,07,74,226,40,10,70,267,39,1*7C
$GBGSV,4,2,14,08,55,286,25,14,54,055,44,43,50,080,45,28,47,337,45,1*76
$GBGSV,4,3,14,41,37,200,26,42,29,043,40,11,27,097,28,37,11,259,,1*76
$GBGSV,4,4,14,23,10,210,,34,10,110,18,1*7F
$GBGSV,2,1,07,40,77,174,45,33,75,110,47,43,50,080,44,28,47,337,44,4*75
$GBGSV,2,2,07,41,37,200,29,42,29,043,43,34,10,110,20,4*45
$GNGGA,042202.000,2500.7913872,N,12132.4418208,E,4,59,0.47,15.990,M,15.25,M,1,3335*48
$GNRMC,042202.000,A,2500.7913872,N,12132.4418208,E,0.02,20.94,270623,,,R,V*26
$GPHDT,,T*1B
$GNGGA,042202.200,2500.7913878,N,12132.4418215,E,4,58,0.49,15.998,M,15.25,M,1,3335*4B
$GNRMC,042202.200,A,2500.7913878,N,12132.4418215,E,0.03,20.94,270623,,,R,V*23
$GPHDT,,T*1B
$GNGGA,042202.400,2500.7913831,N,12132.4418254,E,4,57,0.49,16.000,M,15.25,M,1,3335*41
$GNRMC,042202.400,A,2500.7913831,N,12132.4418254,E,0.03,20.94,270623,,,R,V*2D
$GPHDT,,T*1B
$GNGGA,042202.600,2500.7913842,N,12132.4418244,E,4,57,0.49,15.999,M,15.25,M,0,3335*4D
$GNRMC,042202.600,A,2500.7913842,N,12132.4418244,E,0.03,20.94,270623,,,R,V*2A
$GPHDT,,T*1B
$GNGGA,042202.800,2500.7913851,N,12132.4418270,E,4,57,0.49,15.994,M,15.25,M,0,3335*4B
$GNRMC,042202.800,A,2500.7913851,N,12132.4418270,E,0.02,20.94,270623,,,R,V*20
$GPHDT,,T*1B
$GNGSA,A,3,19,195,196,199,17,06,20,09,194,11,12,04,0.93,0.49,0.79,1*02
$GNGSA,A,3,68,83,67,82,69,,,,,,,,0.93,0.49,0.79,2*0A
$GNGSA,A,3,10,12,24,04,11,19,25,33,,,,,0.93,0.49,0.79,3*05
$GNGSA,A,3,40,33,07,10,08,14,43,28,41,42,11,34,0.93,0.49,0.79,4*0B
$GPGSV,4,1,15,19,72,070,42,195,69,049,40,196,69,120,41,50,60,167,38,1*6D
$GPGSV,4,2,15,199,60,167,35,17,57,110,35,06,49,005,44,20,41,245,43,1*58
$GPGSV,4,3,15,09,37,085,43,194,34,173,34,11,34,303,30,12,22,306,35,1*5D
$GPGSV,4,4,15,04,18,056,18,05,16,230,,14,11,172,13,1*57
$GPGSV,2,1,08,196,69,120,45,195,69,049,45,199,60,167,43,06,49,005,46,8*57
$GPGSV,2,2,08,09,37,085,42,11,34,303,34,194,34,173,35,04,18,056,36,8*50
$GLGSV,2,1,08,68,67,121,40,83,40,002,28,67,36,040,37,82,35,061,40,1*76
$GLGSV,2,2,08,69,28,184,28,73,18,270,20,74,08,312,,84,05,308,,1*71
$GAGSV,3,1,10,10,49,353,41,12,45,032,38,24,41,227,35,04,40,145,43,7*71
$GAGSV,3,2,10,11,39,315,39,19,32,070,35,25,29,294,14,33,10,076,17,7*7C
$GAGSV,3,3,10,09,09,189,,36,03,281,,7*7F
$GAGSV,2,1,06,10,49,353,46,12,45,032,42,24,41,227,36,04,40,145,45,1*7E
$GAGSV,2,2,06,11,39,315,38,19,32,070,38,1*70
$GBGSV,4,1,14,40,77,174,44,33,75,110,43,07,74,226,40,10,70,267,39,1*7C
$GBGSV,4,2,14,08,55,286,25,14,54,055,44,43,50,080,45,28,47,337,45,1*76
$GBGSV,4,3,14,41,37,200,28,42,29,043,40,11,27,097,28,37,11,259,,1*78
$GBGSV,4,4,14,23,10,210,,34,10,110,19,1*7E
$GBGSV,2,1,07,40,77,174,45,33,75,110,47,43,50,080,44,28,47,337,44,4*75
$GBGSV,2,2,07,41,37,200,29,42,29,043,42,34,10,110,20,4*44
$GNGGA,042203.000,2500.7913828,N,12132.4418257,E,4,57,0.49,16.008,M,15.25,M,1,3335*47
$GNRMC,042203.000,A,2500.7913828,N,12132.4418257,E,0.03,20.94,270623,,,R,V*23
$GPHDT,,T*1B
$GNGGA,042203.200,2500.7913808,N,12132.4418268,E,4,57,0.49,15.997,M,15.25,M,1,3335*47
$GNRMC,042203.200,A,2500.7913808,N,12132.4418268,E,0.03,20.94,270623,,,R,V*2F
$GPHDT,135.972,T*3E
$GNGGA,042203.400,2500.7913803,N,12132.4418271,E,4,58,0.47,15.997,M,15.25,M,1,3335*43
$GNRMC,042203.400,A,2500.7913803,N,12132.4418271,E,0.02,20.94,270623,,,R,V*2B
$GPHDT,136.160,T*36
$GNGGA,042203.600,2500.7913815,N,12132.4418242,E,4,57,0.49,15.988,M,15.25,M,0,3335*48
$GNRMC,042203.600,A,2500.7913815,N,12132.4418242,E,0.02,20.94,270623,,,R,V*2E
$GPHDT,136.201,T*32
$GNGGA,042203.800,2500.7913822,N,12132.4418264,E,4,57,0.49,16.001,M,15.25,M,0,3335*4D
$GNRMC,042203.800,A,2500.7913822,N,12132.4418264,E,0.02,20.94,270623,,,R,V*20
$GPHDT,135.948,T*37
$GNGSA,A,3,19,195,196,199,17,06,20,09,11,194,12,14,0.88,0.47,0.74,1*0A
$GNGSA,A,3,04,,,,,,,,,,,,0.88,0.47,0.74,1*05
$GNGSA,A,3,68,83,67,82,69,,,,,,,,0.88,0.47,0.74,2*03
$GNGSA,A,3,10,12,24,04,11,19,25,33,,,,,0.88,0.47,0.74,3*0C
$GNGSA,A,3,40,33,07,10,08,14,43,28,41,42,11,34,0.88,0.47,0.74,4*02
$GPGSV,4,1,15,19,72,070,42,195,69,049,40,196,69,120,41,199,60,167,36,1*57
$GPGSV,4,2,15,50,60,167,38,17,57,110,35,06,49,005,44,20,41,245,43,1*61
$GPGSV,4,3,15,09,37,085,43,11,34,303,30,194,34,173,32,12,22,306,35,1*5B
$GPGSV,4,4,15,04,18,056,16,05,16,230,,14,11,172,14,1*5E
$GPGSV,2,1,08,196,69,120,45,195,69,049,45,199,60,167,43,06,49,005,46,8*57
$GPGSV,2,2,08,09,37,085,41,11,34,303,34,194,34,173,35,04,18,056,36,8*53
$GLGSV,2,1,08,68,67,121,40,83,40,002,28,67,36,040,36,82,35,061,40,1*77
$GLGSV,2,2,08,69,28,184,26,73,18,270,19,74,08,312,,84,05,308,,1*75
$GAGSV,3,1,09,10,49,353,41,12,45,032,38,24,41,227,35,04,40,145,43,7*79
$GAGSV,3,2,09,11,39,315,39,19,32,070,35,25,29,294,14,33,10,076,17,7*74
$GAGSV,3,3,09,36,03,281,,7*47
$GAGSV,2,1,06,10,49,353,46,12,45,032,42,24,41,227,36,04,40,145,45,1*7E
$GAGSV,2,2,06,11,39,315,38,19,32,070,38,1*70
$GBGSV,4,1,15,40,77,174,44,33,75,110,43,07,74,226,40,10,70,267,39,1*7D
$GBGSV,4,2,15,08,55,286,25,14,54,055,44,43,50,080,45,13,48,272,,1*71
$GBGSV,4,3,15,28,47,337,45,41,37,200,26,42,29,043,40,11,27,097,28,1*72
$GBGSV,4,4,15,37,11,259,,34,10,110,21,23,10,210,,1*4E
$GBGSV,2,1,07,40,77,174,45,33,75,110,47,43,50,080,44,28,47,337,44,4*75
$GBGSV,2,2,07,41,37,200,27,42,29,043,42,34,10,110,20,4*4A
$GNGGA,042204.000,2500.7913809,N,12132.4418258,E,4,58,0.47,16.000,M,15.25,M,1,3335*45
$GNRMC,042204.000,A,2500.7913809,N,12132.4418258,E,0.02,20.94,270623,,,R,V*29
$GPHDT,135.682,T*3E
$GNGGA,042204.200,2500.7913814,N,12132.4418251,E,4,58,0.47,15.998,M,15.25,M,1,3335*49
$GNRMC,042204.200,A,2500.7913814,N,12132.4418251,E,0.02,20.94,270623,,,R,V*2E
$GPHDT,136.062,T*35
$GNGGA,042204.400,2500.7913817,N,12132.4418246,E,4,58,0.47,15.994,M,15.25,M,1,3335*46
$GNRMC,042204.400,A,2500.7913817,N,12132.4418246,E,0.02,20.94,270623,,,R,V*2D
$GPHDT,135.917,T*3D
$GNGGA,042204.600,2500.7913808,N,12132.4418253,E,4,59,0.47,15.991,M,15.25,M,1,3335*4A
$GNRMC,042204.600,A,2500.7913808,N,12132.4418253,E,0.02,20.94,270623,,,R,V*25
$GPHDT,135.886,T*34
$GNGGA,042204.800,2500.7913801,N,12132.4418191,E,4,58,0.47,15.986,M,15.25,M,0,3335*46
$GNRMC,042204.800,A,2500.7913801,N,12132.4418191,E,0.02,20.94,270623,,,R,V*2F
$GPHDT,136.077,T*31
$GNGSA,A,3,19,195,196,199,17,06,20,09,194,11,12,14,0.88,0.47,0.74,1*0A
$GNGSA,A,3,04,,,,,,,,,,,,0.88,0.47,0.74,1*05
$GNGSA,A,3,68,83,67,82,69,,,,,,,,0.88,0.47,0.74,2*03
$GNGSA,A,3,10,12,24,04,11,19,25,33,,,,,0.88,0.47,0.74,3*0C
$GNGSA,A,3,40,33,07,10,08,14,43,28,41,42,11,34,0.88,0.47,0.74,4*02
$GPGSV,4,1,15,19,72,070,42,195,69,049,40,196,69,120,41,50,60,167,39,1*6C
$GPGSV,4,2,15,199,60,167,36,17,57,110,35,06,49,005,44,20,41,245,43,1*5B
$GPGSV,4,3,15,09,37,085,43,194,34,173,35,11,34,303,30,12,22,306,35,1*5C
$GPGSV,4,4,15,04,18,056,17,05,16,230,,14,11,172,14,1*5F
$GPGSV,3,1,09,196,69,120,45,195,69,049,45,199,60,167,43,06,49,005,47,8*56
$GPGSV,3,2,09,09,37,085,41,11,34,303,34,194,34,173,35,04,18,056,37,8*52
$GPGSV,3,3,09,14,11,172,17,8*53
$GLGSV,3,1,09,68,67,121,40,83,40,002,28,67,36,040,36,82,35,061,40,1*77
$GLGSV,3,2,09,69,28,184,28,73,18,270,18,80,11,217,,74,08,312,,1*74
$GLGSV,3,3,09,84,05,308,,1*43
$GAGSV,3,1,09,10,49,354,41,12,45,032,38,24,41,227,35,04,40,145,43,7*7E
$GAGSV,3,2,09,11,39,315,39,19,32,070,35,25,29,294,16,33,10,076,17,7*76
$GAGSV,3,3,09,36,03,281,,7*47
$GAGSV,2,1,07,10,49,354,46,12,45,032,42,24,41,227,36,04,40,145,45,1*78
$GAGSV,2,2,07,11,39,315,38,19,32,070,38,33,10,076,19,1*49
$GBGSV,4,1,14,40,77,174,44,33,75,110,43,07,74,226,40,10,70,267,39,1*7C
$GBGSV,4,2,14,08,55,286,25,14,54,055,44,43,50,080,45,13,48,272,,1*70
$GBGSV,4,3,14,28,47,337,45,41,37,200,26,42,29,043,40,11,27,097,28,1*73
$GBGSV,4,4,14,23,10,210,,34,10,110,22,1*76
$GBGSV,2,1,07,40,77,174,45,33,75,110,47,43,50,080,44,28,47,337,44,4*75
$GBGSV,2,2,07,41,37,200,29,42,29,043,42,34,10,110,19,4*4E
$GNGGA,042205.000,2500.7913821,N,12132.4418204,E,4,60,0.47,15.983,M,15.25,M,1,3335*4D
$GNRMC,042205.000,A,2500.7913821,N,12132.4418204,E,0.02,20.94,270623,,,R,V*2B
$GPHDT,136.171,T*36
$GNGGA,042205.200,2500.7913802,N,12132.4418228,E,4,60,0.47,15.988,M,15.25,M,1,3335*4B
$GNRMC,042205.200,A,2500.7913802,N,12132.4418228,E,0.02,20.94,270623,,,R,V*26
$GPHDT,135.753,T*33
$GNGGA,042205.400,2500.7913783,N,12132.4418230,E,4,60,0.47,15.997,M,15.25,M,1,3335*4C
$GNRMC,042205.400,A,2500.7913783,N,12132.4418230,E,0.02,20.94,270623,,,R,V*2F
$GPHDT,136.116,T*37
$GNGGA,042205.600,2500.7913809,N,12132.4418219,E,4,60,0.47,15.970,M,15.25,M,0,3335*40
$GNRMC,042205.600,A,2500.7913809,N,12132.4418219,E,0.02,20.94,270623,,,R,V*2B
$GPHDT,136.135,T*36
$GNGGA,042205.800,2500.7913794,N,12132.4418257,E,4,60,0.47,16.002,M,15.25,M,0,3335*40
$GNRMC,042205.800,A,2500.7913794,N,12132.4418257,E,0.02,20.94,270623,,,R,V*24
$GPHDT,136.391,T*3A
$GNGSA,A,3,19,195,196,199,17,06,20,09,194,11,12,14,0.88,0.47,0.74,1*0A
$GNGSA,A,3,04,,,,,,,,,,,,0.88,0.47,0.74,1*05
$GNGSA,A,3,68,83,67,82,69,,,,,,,,0.88,0.47,0.74,2*03
$GNGSA,A,3,10,12,24,04,11,19,25,33,,,,,0.88,0.47,0.74,3*0C
$GNGSA,A,3,40,33,07,10,08,14,43,28,41,42,11,34,0.88,0.47,0.74,4*02
$GPGSV,4,1,15,19,72,070,42,195,69,049,40,196,69,120,41,50,60,167,39,1*6C
$GPGSV,4,2,15,199,60,167,36,17,57,110,37,06,49,005,44,20,41,245,43,1*59
$GPGSV,4,3,15,09,37,085,43,194,34,173,35,11,34,303,30,12,22,306,35,1*5C
$GPGSV,4,4,15,04,18,056,19,05,16,230,,14,11,172,16,1*53
$GPGSV,3,1,09,196,69,120,45,195,69,049,45,199,60,167,43,06,49,005,47,8*56
$GPGSV,3,2,09,09,37,085,41,11,34,303,34,194,34,173,35,04,18,056,37,8*52
$GPGSV,3,3,09,14,11,172,17,8*53
$GLGSV,2,1,08,68,67,121,40,83,40,002,28,67,36,040,36,82,35,061,40,1*77
$GLGSV,2,2,08,69,28,184,28,73,18,270,18,80,11,217,,74,08,312,,1*74
$GAGSV,3,1,10,10,49,354,41,12,45,033,37,24,41,227,35,04,40,145,43,7*78
$GAGSV,3,2,10,11,39,316,39,19,32,070,35,25,29,294,17,33,10,076,13,7*78
$GAGSV,3,3,10,09,09,189,,36,03,281,,7*7F
$GAGSV,2,1,07,10,49,354,46,12,45,033,42,24,41,227,36,04,40,145,45,1*79
$GAGSV,2,2,07,11,39,316,38,19,32,070,38,33,10,076,20,1*40
$GBGSV,4,1,14,40,77,174,44,33,75,110,43,07,74,226,40,10,70,267,39,1*7C
$GBGSV,4,2,14,08,55,286,25,14,54,055,44,43,50,080,45,13,48,272,,1*70
$GBGSV,4,3,14,28,47,337,45,41,37,200,27,42,29,043,40,11,27,097,29,1*73
$GBGSV,4,4,14,34,10,110,22,23,10,210,,1*76
$GBGSV,2,1,07,40,77,174,45,33,75,110,47,43,50,080,44,28,47,337,44,4*75
$GBGSV,2,2,07,41,37,200,29,42,29,043,42,34,10,110,19,4*4E
$GNGGA,042206.000,2500.7913804,N,12132.4418242,E,4,60,0.47,16.009,M,15.25,M,1,3335*43
$GNRMC,042206.000,A,2500.7913804,N,12132.4418242,E,0.02,20.94,270623,,,R,V*2D
$GPHDT,136.222,T*33
$GNGGA,042206.200,2500.7913813,N,12132.4418248,E,4,60,0.47,16.016,M,15.25,M,1,3335*43
$GNRMC,042206.200,A,2500.7913813,N,12132.4418248,E,0.02,20.94,270623,,,R,V*23
$GPHDT,136.028,T*3B
$GNGGA,042206.400,2500.7913821,N,12132.4418247,E,4,60,0.47,16.015,M,15.25,M,1,3335*48
$GNRMC,042206.400,A,2500.7913821,N,12132.4418247,E,0.02,20.94,270623,,,R,V*2B
$GPHDT,135.936,T*3E
$GNGGA,042206.600,2500.7913801,N,12132.4418262,E,4,60,0.47,15.993,M,15.25,M,0,3335*4A
$GNRMC,042206.600,A,2500.7913801,N,12132.4418262,E,0.02,20.94,270623,,,R,V*2C
$GPHDT,135.865,T*39
$GNGGA,042206.800,2500.7913804,N,12132.4418219,E,4,61,0.47,16.012,M,15.25,M,0,3335*4F
$GNRMC,042206.800,A,2500.7913804,N,12132.4418219,E,0.01,20.94,270623,,,R,V*28
$GPHDT,136.166,T*30
$GNGSA,A,3,19,196,195,199,17,06,20,09,11,194,12,04,0.88,0.47,0.74,1*0B
$GNGSA,A,3,14,,,,,,,,,,,,0.88,0.47,0.74,1*04
$GNGSA,A,3,68,83,67,82,69,,,,,,,,0.88,0.47,0.74,2*03
$GNGSA,A,3,10,12,24,04,11,19,25,33,,,,,0.88,0.47,0.74,3*0C
$GNGSA,A,3,40,33,07,10,08,14,43,28,41,42,11,34,0.88,0.47,0.74,4*02
$GPGSV,4,1,15,19,72,070,42,196,69,120,41,195,69,049,40,199,60,167,36,1*57
$GPGSV,4,2,15,50,60,167,38,17,57,110,38,06,49,005,44,20,41,245,42,1*6D
$GPGSV,4,3,15,09,37,085,43,11,34,303,30,194,34,173,35,12,22,306,35,1*5C
$GPGSV,4,4,15,04,18,056,22,05,16,230,,14,11,172,16,1*5B
$GPGSV,3,1,09,196,69,120,45,195,69,049,45,199,60,167,43,06,49,005,47,8*56
$GPGSV,3,2,09,09,37,085,41,11,34,303,33,194,34,173,35,04,18,056,37,8*55
$GPGSV,3,3,09,14,11,172,17,8*53
$GLGSV,2,1,07,68,67,121,40,83,40,002,29,67,36,040,36,82,35,061,41,1*78
$GLGSV,2,2,07,69,28,184,26,73,18,270,19,80,11,217,,1*4F
$GAGSV,3,1,10,10,49,354,41,12,45,033,37,24,41,227,35,04,40,145,43,7*78
$GAGSV,3,2,10,11,39,316,39,19,32,070,35,25,29,294,15,33,10,076,13,7*7A
$GAGSV,3,3,10,09,09,189,,36,03,281,,7*7F
$GAGSV,2,1,07,10,49,354,46,12,45,033,42,24,41,227,36,04,40,145,44,1*78
$GAGSV,2,2,07,11,39,316,38,19,32,070,38,33,10,076,20,1*40
$GBGSV,4,1,14,40,77,174,44,33,75,110,43,07,74,226,40,10,70,267,39,1*7C
$GBGSV,4,2,14,08,55,286,25,14,54,055,44,43,50,080,45,13,48,272,,1*70
$GBGSV,4,3,14,28,47,337,45,41,37,200,26,42,29,043,39,11,27,097,29,1*7C
$GBGSV,4,4,14,34,10,110,24,23,10,210,,1*70
$GBGSV,2,1,07,40,77,174,45,33,75,110,47,43,50,080,43,28,47,337,44,4*72
$GBGSV,2,2,07,41,37,200,29,42,29,043,42,34,10,110,19,4*4E
$GNGGA,042207.000,2500.7913837,N,12132.4418209,E,4,61,0.47,15.975,M,15.25,M,1,3335*4D
$GNRMC,042207.000,A,2500.7913837,N,12132.4418209,E,0.01,20.94,270623,,,R,V*20
$GPHDT,136.067,T*30
$GNGGA,042207.200,2500.7913798,N,12132.4418229,E,4,61,0.47,15.973,M,15.25,M,1,3335*41
$GNRMC,042207.200,A,2500.7913798,N,12132.4418229,E,0.01,20.94,270623,,,R,V*2A
$GPHDT,136.230,T*30
$GNGGA,042207.400,2500.7913775,N,12132.4418225,E,4,60,0.47,15.993,M,15.25,M,1,3335*47
$GNRMC,042207.400,A,2500.7913775,N,12132.4418225,E,0.01,20.94,270623,,,R,V*23
$GPHDT,135.915,T*3F
$GNGGA,042207.600,2500.7913845,N,12132.4418221,E,4,60,0.47,16.006,M,15.25,M,0,3335*4A
$GNRMC,042207.600,A,2500.7913845,N,12132.4418221,E,0.01,20.94,270623,,,R,V*29
$GPHDT,135.798,T*34
$GNGGA,042207.800,2500.7913820,N,12132.4418255,E,4,60,0.47,15.995,M,15.25,M,0,3335*44
$GNRMC,042207.800,A,2500.7913820,N,12132.4418255,E,0.01,20.94,270623,,,R,V*27
$GPHDT,136.985,T*35
$GNGSA,A,3,19,195,196,199,17,06,20,09,194,11,12,04,0.88,0.47,0.74,1*0B
$GNGSA,A,3,14,,,,,,,,,,,,0.88,0.47,0.74,1*04
$GNGSA,A,3,68,83,67,82,69,,,,,,,,0.88,0.47,0.74,2*03
$GNGSA,A,3,10,12,24,04,11,19,25,33,,,,,0.88,0.47,0.74,3*0C
$GNGSA,A,3,40,33,07,10,08,14,43,28,41,42,11,34,0.88,0.47,0.74,4*02
$GPGSV,4,1,15,19,72,070,42,195,69,049,40,196,69,120,41,50,60,167,38,1*6D
$GPGSV,4,2,15,199,60,167,36,17,57,110,40,06,49,005,43,20,41,245,42,1*5F
$GPGSV,4,3,15,09,37,085,43,194,34,173,35,11,34,303,30,12,22,306,35,1*5C
$GPGSV,4,4,15,04,18,056,21,05,16,230,,14,11,172,16,1*58
$GPGSV,2,1,08,196,69,120,45,195,69,049,45,199,60,167,44,06,49,005,47,8*51
$GPGSV,2,2,08,09,37,085,42,11,34,303,33,194,34,173,34,04,18,056,37,8*57
$GLGSV,2,1,08,68,67,121,41,83,40,002,28,67,36,040,37,82,35,061,41,1*76
$GLGSV,2,2,08,69,28,184,24,73,18,270,19,80,11,217,,74,08,312,,1*79
$GAGSV,3,1,10,10,49,354,41,12,45,033,37,24,41,227,35,04,40,145,43,7*78
$GAGSV,3,2,10,11,39,316,39,19,32,070,35,25,29,293,15,33,10,076,13,7*7D
$GAGSV,3,3,10,09,09,189,,36,03,281,,7*7F
$GAGSV,2,1,07,10,49,354,46,12,45,033,42,24,41,227,36,04,40,145,44,1*78
$GAGSV,2,2,07,11,39,316,38,19,32,070,38,33,10,076,22,1*42
$GBGSV,4,1,14,40,77,174,44,33,75,110,43,07,74,226,40,10,70,267,39,1*7C
$GBGSV,4,2,14,08,55,286,24,14,54,055,43,43,50,080,45,13,48,272,,1*76
$GBGSV,4,3,14,28,47,337,45,41,37,200,26,42,29,043,39,11,27,097,29,1*7C
$GBGSV,4,4,14,34,10,110,24,23,10,210,,1*70
$GBGSV,2,1,07,40,77,174,45,33,75,110,47,43,50,080,43,28,47,337,44,4*72
$GBGSV,2,2,07,41,37,200,30,42,29,043,42,34,10,110,20,4*4C
$GNGGA,042208.000,2500.7913818,N,12132.4418194,E,4,60,0.47,15.991,M,15.25,M,1,3335*43
$GNRMC,042208.000,A,2500.7913818,N,12132.4418194,E,0.01,20.94,270623,,,R,V*25
$GPHDT,136.707,T*31
$GNGGA,042208.200,2500.7913817,N,12132.4418206,E,4,60,0.47,15.980,M,15.25,M,1,3335*46
$GNRMC,042208.200,A,2500.7913817,N,12132.4418206,E,0.01,20.94,270623,,,R,V*20
$GPHDT,136.755,T*36
$GNGGA,042208.400,2500.7913814,N,12132.4418236,E,4,60,0.47,15.999,M,15.25,M,1,3335*48
$GNRMC,042208.400,A,2500.7913814,N,12132.4418236,E,0.01,20.94,270623,,,R,V*26
$GPHDT,136.909,T*31
$GNGGA,042208.600,2500.7913816,N,12132.4418272,E,4,60,0.47,15.971,M,15.25,M,0,3335*4F
$GNRMC,042208.600,A,2500.7913816,N,12132.4418272,E,0.01,20.94,270623,,,R,V*26
$GPHDT,136.230,T*30
$GNGGA,042208.800,2500.7913828,N,12132.4418266,E,4,61,0.47,15.984,M,15.25,M,0,3335*42
$GNRMC,042208.800,A,2500.7913828,N,12132.4418266,E,0.01,20.94,270623,,,R,V*20
$GPHDT,136.306,T*34
$GNGSA,A,3,19,195,196,199,17,06,20,09,194,11,12,04,0.86,0.45,0.73,1*00
$GNGSA,A,3,14,,,,,,,,,,,,0.86,0.45,0.73,1*0F
$GNGSA,A,3,68,83,67,82,69,,,,,,,,0.86,0.45,0.73,2*08
$GNGSA,A,3,10,12,24,04,11,19,33,25,,,,,0.86,0.45,0.73,3*07
$GNGSA,A,3,40,33,07,10,08,14,43,28,41,42,11,34,0.86,0.45,0.73,4*09
$GPGSV,4,1,15,19,72,070,42,195,69,049,40,196,69,120,41,50,60,167,38,1*6D
$GPGSV,4,2,15,199,60,167,36,17,57,110,40,06,49,005,43,20,41,245,42,1*5F
$GPGSV,4,3,15,09,37,085,43,194,34,173,35,11,34,303,31,12,22,306,35,1*5D
$GPGSV,4,4,15,04,18,056,22,05,16,230,,14,11,172,17,1*5A
$GPGSV,2,1,08,196,69,120,45,195,69,049,45,199,60,167,44,06,49,005,47,8*51
$GPGSV,2,2,08,09,37,085,42,11,34,303,33,194,34,173,34,04,18,056,37,8*57
$GLGSV,2,1,08,68,67,121,41,83,40,002,29,67,36,040,38,82,35,061,41,1*78
$GLGSV,2,2,08,69,28,184,22,73,18,270,19,80,11,217,,74,08,312,,1*7F
$GAGSV,3,1,10,10,49,354,41,12,45,033,37,24,41,227,35,04,40,145,43,7*78
$GAGSV,3,2,10,11,39,316,39,19,32,070,35,25,29,293,,33,10,076,14,7*7E
$GAGSV,3,3,10,09,09,189,,36,03,281,,7*7F
$GAGSV,2,1,08,10,49,354,46,12,45,033,42,24,41,227,36,04,40,145,44,1*77
$GAGSV,2,2,08,11,39,316,38,19,32,070,38,25,29,293,22,33,10,076,21,1*7A
$GBGSV,4,1,13,40,77,174,44,33,75,110,43,07,74,226,40,10,70,267,39,1*7B
$GBGSV,4,2,13,08,55,286,24,14,54,055,43,43,50,080,45,28,47,337,45,1*77
$GBGSV,4,3,13,41,37,200,28,42,29,043,40,11,27,097,30,34,10,110,24,1*7C
$GBGSV,4,4,13,23,10,210,,1*47
$GBGSV,2,1,07,40,77,174,45,33,75,110,47,43,50,080,43,28,47,337,44,4*72
$GBGSV,2,2,07,41,37,200,30,42,29,043,42,34,10,110,19,4*46
$GNGGA,042209.000,2500.7913820,N,12132.4418268,E,4,60,0.45,15.999,M,15.25,M,1,3335*43
$GNRMC,042209.000,A,2500.7913820,N,12132.4418268,E,0.01,20.94,270623,,,R,V*2F
$GPHDT,135.929,T*30
$GNGGA,042209.200,2500.7913839,N,12132.4418264,E,4,60,0.47,15.999,M,15.25,M,1,3335*47
$GNRMC,042209.200,A,2500.7913839,N,12132.4418264,E,0.00,20.94,270623,,,R,V*28
$GPHDT,136.242,T*35
$GNGGA,042209.400,2500.7913826,N,12132.4418292,E,4,60,0.47,15.990,M,15.25,M,1,3335*4F
$GNRMC,042209.400,A,2500.7913826,N,12132.4418292,E,0.01,20.94,270623,,,R,V*28
$GPHDT,136.741,T*33
$GNGGA,042209.600,2500.7913802,N,12132.4418282,E,4,60,0.47,15.993,M,15.25,M,0,3335*48
$GNRMC,042209.600,A,2500.7913802,N,12132.4418282,E,0.00,20.94,270623,,,R,V*2C
$GPHDT,136.521,T*37
$GNGGA,042209.800,2500.7913842,N,12132.4418291,E,4,59,0.47,16.000,M,15.25,M,0,3335*4A
$GNRMC,042209.800,A,2500.7913842,N,12132.4418291,E,0.01,20.94,270623,,,R,V*25
