$FW : RTK35X,V1.1X0314AS,Lib20210517,1*54
$Tool : LOCOSYS , GNSS Firebird , v1.0.0.19*39
$---------------------------------------------------*2D
$GNGGA,041841.200,2500.7913910,N,12132.4418234,E,4,57,0.48,15.948,M,15.25,M,1,3335*4A
$GNRMC,041841.200,A,2500.7913910,N,12132.4418234,E,0.00,20.94,270623,,,R,V*22
$GPHDT,3.407,T*35
$GNGGA,041841.400,2500.7913897,N,12132.4418209,E,4,57,0.48,15.933,M,15.25,M,1,3335*40
$GNRMC,041841.400,A,2500.7913897,N,12132.4418209,E,0.00,20.94,270623,,,R,V*24
$GPHDT,3.337,T*31
$GNGGA,041841.600,2500.7913918,N,12132.4418255,E,4,57,0.48,15.941,M,15.25,M,1,3335*48
$GNRMC,041841.600,A,2500.7913918,N,12132.4418255,E,0.00,20.94,270623,,,R,V*29
$GPHDT,3.062,T*32
$GNGGA,041841.800,2500.7913898,N,12132.4418207,E,4,57,0.48,15.948,M,15.25,M,1,3335*41
$GNRMC,041841.800,A,2500.7913898,N,12132.4418207,E,0.00,20.94,270623,,,R,V*29
$GPHDT,2.989,T*3F
$GNGSA,A,3,19,195,196,199,17,06,20,09,194,11,12,04,0.92,0.48,0.78,1*03
$GNGSA,A,3,14,,,,,,,,,,,,0.92,0.48,0.78,1*0C
$GNGSA,A,3,68,83,67,82,69,,,,,,,,0.92,0.48,0.78,2*0B
$GNGSA,A,3,10,12,24,04,19,25,33,,,,,,0.92,0.48,0.78,3*04
$GNGSA,A,3,40,07,33,10,08,14,43,28,41,42,11,,0.92,0.48,0.78,4*0D
$GPGSV,4,1,15,19,72,064,42,195,68,049,38,196,68,120,40,50,60,167,39,1*67
$GPGSV,4,2,15,199,60,167,36,17,58,107,41,06,49,002,44,20,40,243,35,1*50
$GPGSV,4,3,15,09,37,087,43,194,35,173,43,11,33,301,25,12,22,307,39,1*52
$GPGSV,4,4,15,04,19,058,18,05,14,229,,14,12,173,17,1*54
$GPGSV,3,1,09,196,68,120,45,195,68,049,43,199,60,167,44,06,49,002,48,8*5F
$GPGSV,3,2,09,09,37,087,43,194,35,173,39,11,33,301,31,04,19,058,24,8*52
$GPGSV,3,3,09,14,12,173,21,8*54
$GLGSV,2,1,08,68,66,125,42,83,39,000,30,67,37,041,38,82,36,059,27,1*72
$GLGSV,2,2,08,69,27,184,40,73,19,271,22,80,12,218,,74,08,314,,1*76
$GAGSV,2,1,08,10,49,352,44,12,45,031,37,24,42,228,37,04,38,146,43,7*73
$GAGSV,2,2,08,19,32,072,31,25,29,295,20,33,10,075,27,09,08,189,21,7*71
$GAGSV,2,1,07,10,49,352,45,12,45,031,37,24,42,228,38,04,38,146,44,1*73
$GAGSV,2,2,07,19,32,072,30,25,29,295,23,33,10,075,15,1*49
$GBGSV,4,1,15,40,78,172,40,07,75,227,39,33,75,116,44,10,71,269,38,1*71
$GBGSV,4,2,15,08,56,285,19,14,55,057,40,43,50,078,37,28,46,336,46,1*7E
$GBGSV,4,3,15,41,35,200,37,42,30,043,35,11,27,095,25,37,12,260,,1*79
$GBGSV,4,4,15,23,11,211,,34,11,109,,39,05,175,,1*42
$GBGSV,2,1,06,40,78,172,47,33,75,116,45,43,50,078,37,28,46,336,42,4*7E
$GBGSV,2,2,06,41,35,200,35,42,30,043,37,4*74
$GNGGA,041842.000,2500.7913902,N,12132.4418214,E,4,58,0.48,15.942,M,15.25,M,1,3335*4F
$GNRMC,041842.000,A,2500.7913902,N,12132.4418214,E,0.00,20.94,270623,,,R,V*22
$GPHDT,3.232,T*35
$GNGGA,041842.200,2500.7913906,N,12132.4418193,E,4,58,0.48,15.956,M,15.25,M,1,3335*40
$GNRMC,041842.200,A,2500.7913906,N,12132.4418193,E,0.00,20.94,270623,,,R,V*28
$GPHDT,3.077,T*36
$GNGGA,041842.400,2500.7913908,N,12132.4418213,E,4,58,0.48,15.955,M,15.25,M,1,3335*40
$GNRMC,041842.400,A,2500.7913908,N,12132.4418213,E,0.00,20.94,270623,,,R,V*2B
$GPHDT,3.099,T*36
$GNGGA,041842.600,2500.7913905,N,12132.4418213,E,4,58,0.48,15.955,M,15.25,M,0,3335*4E
$GNRMC,041842.600,A,2500.7913905,N,12132.4418213,E,0.00,20.94,270623,,,R,V*24
$GPHDT,3.248,T*38
$GNGGA,041842.800,2500.7913903,N,12132.4418241,E,4,58,0.48,15.957,M,15.25,M,0,3335*43
$GNRMC,041842.800,A,2500.7913903,N,12132.4418241,E,0.00,20.94,270623,,,R,V*2B
$GPHDT,3.032,T*37
$GNGSA,A,3,19,195,196,199,17,06,20,09,194,11,12,04,0.92,0.48,0.78,1*03
$GNGSA,A,3,14,,,,,,,,,,,,0.92,0.48,0.78,1*0C
$GNGSA,A,3,68,83,67,82,69,,,,,,,,0.92,0.48,0.78,2*0B
$GNGSA,A,3,10,12,24,04,19,25,33,,,,,,0.92,0.48,0.78,3*04
$GNGSA,A,3,40,33,07,10,08,14,43,28,41,42,11,,0.92,0.48,0.78,4*0D
$GPGSV,4,1,15,19,72,064,42,195,68,049,38,196,68,120,40,50,60,167,39,1*67
$GPGSV,4,2,15,199,60,167,36,17,58,107,41,06,49,002,44,20,40,243,34,1*51
$GPGSV,4,3,15,09,37,087,43,194,35,173,43,11,33,301,28,12,22,307,39,1*5F
$GPGSV,4,4,15,04,19,058,19,05,14,229,,14,12,173,17,1*55
$GPGSV,3,1,09,196,68,120,45,195,68,049,43,199,60,167,45,06,49,002,48,8*5E
$GPGSV,3,2,09,09,37,087,43,194,35,173,40,11,33,301,31,04,19,058,24,8*5C
$GPGSV,3,3,09,14,12,173,22,8*57
$GLGSV,2,1,08,68,66,125,42,83,39,000,30,67,37,041,37,82,36,059,24,1*7E
$GLGSV,2,2,08,69,27,184,40,73,19,271,21,80,12,218,,84,04,307,,1*74
$GAGSV,3,1,09,10,49,352,44,12,45,031,37,24,42,228,36,04,38,146,43,7*72
$GAGSV,3,2,09,19,32,072,31,25,29,295,22,33,10,075,29,09,08,189,21,7*7D
$GAGSV,3,3,09,36,03,280,,7*46
$GAGSV,2,1,06,10,49,352,45,12,45,031,38,24,42,228,38,04,38,146,44,1*7D
$GAGSV,2,2,06,19,32,072,30,25,29,295,24,1*78
$GBGSV,4,1,14,40,78,172,40,33,75,116,44,07,75,227,40,10,71,269,38,1*7E
$GBGSV,4,2,14,08,56,285,21,14,55,057,40,43,50,078,36,28,46,336,46,1*75
$GBGSV,4,3,14,41,35,200,37,42,30,043,36,11,27,095,25,37,12,260,,1*7B
$GBGSV,4,4,14,23,11,211,,34,11,109,,1*7F
$GBGSV,2,1,06,40,78,172,47,33,75,116,45,43,50,078,37,28,46,336,42,4*7E
$GBGSV,2,2,06,41,35,200,36,42,30,043,36,4*76
$GNGGA,041843.000,2500.7913915,N,12132.4418221,E,4,57,0.48,15.949,M,15.25,M,1,3335*4A
$GNRMC,041843.000,A,2500.7913915,N,12132.4418221,E,0.00,20.94,270623,,,R,V*23
$GPHDT,3.206,T*32
$GNGGA,041843.200,2500.7913906,N,12132.4418195,E,4,57,0.48,15.955,M,15.25,M,1,3335*4B
$GNRMC,041843.200,A,2500.7913906,N,12132.4418195,E,0.00,20.94,270623,,,R,V*2F
$GPHDT,3.285,T*39
$GNGGA,041843.400,2500.7913922,N,12132.4418211,E,4,57,0.48,15.959,M,15.25,M,1,3335*48
$GNRMC,041843.400,A,2500.7913922,N,12132.4418211,E,0.00,20.94,270623,,,R,V*20
$GPHDT,3.307,T*32
$GNGGA,041843.600,2500.7913907,N,12132.4418209,E,4,57,0.48,15.965,M,15.25,M,1,3335*4B
$GNRMC,041843.600,A,2500.7913907,N,12132.4418209,E,0.00,20.94,270623,,,R,V*2C
$GPHDT,3.369,T*3A
$GNGGA,041843.800,2500.7913907,N,12132.4418221,E,4,56,0.49,15.956,M,15.25,M,0,3335*4E
$GNRMC,041843.800,A,2500.7913907,N,12132.4418221,E,0.00,20.94,270623,,,R,V*28
$GPHDT,3.249,T*39
$GNGSA,A,3,19,196,195,199,17,06,20,09,194,11,12,04,0.93,0.49,0.79,1*02
$GNGSA,A,3,14,,,,,,,,,,,,0.93,0.49,0.79,1*0D
$GNGSA,A,3,68,83,67,82,69,,,,,,,,0.93,0.49,0.79,2*0A
$GNGSA,A,3,10,12,24,04,19,25,33,,,,,,0.93,0.49,0.79,3*05
$GNGSA,A,3,40,07,33,10,08,14,43,28,41,42,,,0.93,0.49,0.79,4*0C
$GPGSV,4,1,15,19,72,064,42,196,68,120,40,195,68,049,38,199,60,167,36,1*5C
$GPGSV,4,2,15,50,60,167,38,17,58,107,41,06,49,002,44,20,40,243,33,1*6C
$GPGSV,4,3,15,09,37,087,43,194,35,173,43,11,33,301,28,12,22,307,39,1*5F
$GPGSV,4,4,15,04,19,058,17,05,14,229,,14,12,172,17,1*5A
$GPGSV,3,1,09,196,68,120,45,195,68,049,43,199,60,167,45,06,49,002,48,8*5E
$GPGSV,3,2,09,09,37,087,43,194,35,173,39,11,33,301,31,04,19,058,24,8*52
$GPGSV,3,3,09,14,12,172,22,8*56
$GLGSV,2,1,07,68,66,125,42,83,39,000,30,67,37,041,37,82,36,059,27,1*72
$GLGSV,2,2,07,69,27,184,40,73,19,271,20,80,12,218,,1*46
$GAGSV,3,1,09,10,49,352,44,12,45,031,37,24,42,228,37,04,38,146,43,7*73
$GAGSV,3,2,09,19,32,072,32,25,29,295,23,33,10,075,29,09,08,189,22,7*7C
$GAGSV,3,3,09,36,03,280,,7*46
$GAGSV,2,1,06,10,49,352,45,12,45,031,37,24,42,228,38,04,38,146,44,1*72
$GAGSV,2,2,06,19,32,072,29,25,29,295,25,1*71
$GBGSV,4,1,14,40,78,172,39,07,75,227,41,33,75,116,44,10,71,269,38,1*71
$GBGSV,4,2,14,08,56,285,22,14,55,057,40,43,50,078,38,13,48,271,,1*7E
$GBGSV,4,3,14,28,46,336,46,41,35,200,37,42,30,043,36,11,27,095,26,1*77
$GBGSV,4,4,14,34,11,109,,23,11,211,,1*7F
$GBGSV,2,1,06,40,78,172,47,33,75,116,45,43,50,078,37,28,46,336,42,4*7E
$GBGSV,2,2,06,41,35,200,35,42,30,043,37,4*74
$GNGGA,041844.000,2500.7913904,N,12132.4418221,E,4,56,0.49,15.974,M,15.25,M,1,3335*43
$GNRMC,041844.000,A,2500.7913904,N,12132.4418221,E,0.00,20.94,270623,,,R,V*24
$GPHDT,3.308,T*3D
$GNGGA,041844.200,2500.7913924,N,12132.4418219,E,4,56,0.48,15.945,M,15.25,M,1,3335*4B
$GNRMC,041844.200,A,2500.7913924,N,12132.4418219,E,0.00,20.94,270623,,,R,V*2F
$GPHDT,3.576,T*32
$GNGGA,041844.400,2500.7913919,N,12132.4418234,E,4,56,0.48,15.954,M,15.25,M,1,3335*4C
$GNRMC,041844.400,A,2500.7913919,N,12132.4418234,E,0.00,20.94,270623,,,R,V*28
$GPHDT,3.658,T*3D
$GNGGA,041844.600,2500.7913940,N,12132.4418240,E,4,56,0.48,15.953,M,15.25,M,0,3335*47
$GNRMC,041844.600,A,2500.7913940,N,12132.4418240,E,0.00,20.94,270623,,,R,V*25
$GPHDT,3.565,T*30
$GNGGA,041844.800,2500.7913935,N,12132.4418236,E,4,56,0.48,15.946,M,15.25,M,0,3335*4E
$GNRMC,041844.800,A,2500.7913935,N,12132.4418236,E,0.00,20.94,270623,,,R,V*28
$GPHDT,3.432,T*33
$GNGSA,A,3,19,195,196,199,17,06,20,09,194,11,12,14,0.92,0.48,0.78,1*02
$GNGSA,A,3,04,,,,,,,,,,,,0.92,0.48,0.78,1*0D
$GNGSA,A,3,68,83,67,82,69,,,,,,,,0.92,0.48,0.78,2*0B
$GNGSA,A,3,10,12,24,04,19,25,33,,,,,,0.92,0.48,0.78,3*04
$GNGSA,A,3,40,33,07,10,08,14,43,28,41,42,11,,0.92,0.48,0.78,4*0D
$GPGSV,4,1,15,19,72,065,42,195,68,049,37,196,68,120,41,50,60,167,38,1*69
$GPGSV,4,2,15,199,60,167,36,17,58,108,40,06,49,002,44,20,40,244,33,1*5F
$GPGSV,4,3,15,09,37,087,43,194,35,173,43,11,33,301,25,12,22,307,39,1*52
$GPGSV,4,4,15,04,19,058,20,05,14,229,,14,12,172,15,1*5C
$GPGSV,3,1,09,196,68,120,45,195,68,049,43,199,60,167,45,06,49,002,48,8*5E
$GPGSV,3,2,09,09,37,087,43,194,35,173,38,11,33,301,31,04,19,058,21,8*56
$GPGSV,3,3,09,14,12,172,22,8*56
$GLGSV,2,1,08,68,66,125,42,83,39,000,30,67,37,041,37,82,36,059,28,1*72
$GLGSV,2,2,08,69,27,184,40,73,19,271,18,80,12,218,,74,08,314,,1*7F
$GAGSV,3,1,09,10,49,352,44,12,45,031,37,24,42,228,37,04,38,146,43,7*73
$GAGSV,3,2,09,19,32,072,32,25,29,295,22,33,10,075,29,09,08,189,21,7*7E
$GAGSV,3,3,09,36,03,280,,7*46
$GAGSV,2,1,06,10,49,352,45,12,45,031,37,24,42,228,39,04,38,146,44,1*73
$GAGSV,2,2,06,19,32,072,30,25,29,295,24,1*78
$GBGSV,4,1,14,40,78,172,39,33,75,116,44,07,75,227,41,10,71,269,38,1*71
$GBGSV,4,2,14,08,56,285,21,14,55,057,40,43,50,078,39,28,46,336,45,1*79
$GBGSV,4,3,14,41,35,200,37,42,30,043,34,11,27,095,26,37,12,260,,1*7A
$GBGSV,4,4,14,23,11,211,,34,11,109,,1*7F
$GBGSV,2,1,06,40,78,172,47,33,75,116,45,43,50,078,37,28,46,336,42,4*7E
$GBGSV,2,2,06,41,35,200,34,42,30,043,38,4*7A
$GNGGA,041845.000,2500.7913958,N,12132.4418253,E,4,55,0.48,15.953,M,15.25,M,1,3335*49
$GNRMC,041845.000,A,2500.7913958,N,12132.4418253,E,0.00,20.94,270623,,,R,V*29
$GPHDT,3.687,T*3F
$GNGGA,041845.200,2500.7913929,N,12132.4418238,E,4,56,0.48,15.954,M,15.25,M,1,3335*44
$GNRMC,041845.200,A,2500.7913929,N,12132.4418238,E,0.00,20.94,270623,,,R,V*20
$GPHDT,3.503,T*30
$GNGGA,041845.400,2500.7913931,N,12132.4418217,E,4,56,0.48,15.963,M,15.25,M,1,3335*42
$GNRMC,041845.400,A,2500.7913931,N,12132.4418217,E,0.00,20.94,270623,,,R,V*22
$GPHDT,3.629,T*3B
$GNGGA,041845.600,2500.7913931,N,12132.4418255,E,4,55,0.49,15.971,M,15.25,M,0,3335*46
$GNRMC,041845.600,A,2500.7913931,N,12132.4418255,E,0.00,20.94,270623,,,R,V*26
$GPHDT,3.528,T*39
$GNGGA,041845.800,2500.7913945,N,12132.4418257,E,4,55,0.49,15.957,M,15.25,M,0,3335*4D
$GNRMC,041845.800,A,2500.7913945,N,12132.4418257,E,0.00,20.94,270623,,,R,V*29
$GPHDT,3.725,T*36
$GNGSA,A,3,19,195,196,199,17,06,20,09,194,11,12,04,0.92,0.48,0.78,1*03
$GNGSA,A,3,14,,,,,,,,,,,,0.92,0.48,0.78,1*0C
$GNGSA,A,3,68,83,67,82,69,,,,,,,,0.92,0.48,0.78,2*0B
$GNGSA,A,3,10,12,24,04,19,25,33,,,,,,0.92,0.48,0.78,3*04
$GNGSA,A,3,40,07,33,10,08,14,43,28,41,42,11,,0.92,0.48,0.78,4*0D
$GPGSV,4,1,15,19,72,065,42,195,68,049,37,196,68,120,41,50,60,167,38,1*69
$GPGSV,4,2,15,199,60,167,36,17,58,108,39,06,49,002,44,20,40,244,33,1*51
$GPGSV,4,3,15,09,37,087,43,194,35,173,43,11,33,301,26,12,22,307,39,1*51
$GPGSV,4,4,15,04,19,058,21,05,14,229,,14,12,172,14,1*5C
$GPGSV,3,1,09,196,68,120,45,195,68,049,43,199,60,167,45,06,49,002,48,8*5E
$GPGSV,3,2,09,09,37,087,42,194,35,173,38,11,33,301,31,04,19,058,21,8*57
$GPGSV,3,3,09,14,12,172,22,8*56
$GLGSV,3,1,09,68,66,125,41,83,39,000,30,67,37,041,37,82,36,059,25,1*7C
$GLGSV,3,2,09,69,27,184,40,73,19,271,17,80,12,218,,74,08,314,,1*70
$GLGSV,3,3,09,84,04,307,,1*4D
$GAGSV,3,1,09,10,49,352,44,12,45,031,37,24,42,228,37,04,38,146,43,7*73
$GAGSV,3,2,09,19,32,072,32,25,29,295,22,33,10,075,29,09,08,189,21,7*7E
$GAGSV,3,3,09,36,03,280,,7*46
$GAGSV,2,1,06,10,49,352,45,12,45,031,37,24,42,228,39,04,38,146,44,1*73
$GAGSV,2,2,06,19,32,072,29,25,29,295,24,1*70
$GBGSV,4,1,13,40,78,172,39,07,75,227,41,33,75,116,44,10,71,269,38,1*76
$GBGSV,4,2,13,08,56,285,21,14,55,057,40,43,50,078,39,28,46,336,45,1*7E
$GBGSV,4,3,13,41,35,200,37,42,30,043,32,11,27,095,26,34,11,109,,1*77
$GBGSV,4,4,13,23,11,211,,1*47
$GBGSV,2,1,06,40,78,172,47,33,75,116,45,43,50,078,37,28,46,336,42,4*7E
$GBGSV,2,2,06,41,35,200,33,42,30,043,38,4*7D
$GNGGA,041846.000,2500.7913922,N,12132.4418250,E,4,55,0.48,15.959,M,15.25,M,1,3335*4E
$GNRMC,041846.000,A,2500.7913922,N,12132.4418250,E,0.00,20.94,270623,,,R,V*24
$GPHDT,3.527,T*36
$GNGGA,041846.200,2500.7913926,N,12132.4418222,E,4,55,0.48,15.966,M,15.25,M,1,3335*41
$GNRMC,041846.200,A,2500.7913926,N,12132.4418222,E,0.00,20.94,270623,,,R,V*27
$GPHDT,3.797,T*3F
$GNGGA,041846.400,2500.7913917,N,12132.4418236,E,4,55,0.48,15.962,M,15.25,M,1,3335*44
$GNRMC,041846.400,A,2500.7913917,N,12132.4418236,E,0.00,20.94,270623,,,R,V*26
$GPHDT,3.538,T*38
$GNGGA,041846.600,2500.7913907,N,12132.4418217,E,4,55,0.48,15.965,M,15.25,M,0,3335*42
$GNRMC,041846.600,A,2500.7913907,N,12132.4418217,E,0.00,20.94,270623,,,R,V*26
$GPHDT,3.643,T*37
$GNGGA,041846.800,2500.7913919,N,12132.4418209,E,4,55,0.48,15.960,M,15.25,M,0,3335*49
$GNRMC,041846.800,A,2500.7913919,N,12132.4418209,E,0.00,20.94,270623,,,R,V*28
$GPHDT,3.652,T*37
$GNGSA,A,3,19,195,196,199,17,06,20,09,194,11,12,04,0.92,0.48,0.78,1*03
$GNGSA,A,3,14,,,,,,,,,,,,0.92,0.48,0.78,1*0C
$GNGSA,A,3,68,83,67,82,69,,,,,,,,0.92,0.48,0.78,2*0B
$GNGSA,A,3,10,12,24,04,19,25,33,,,,,,0.92,0.48,0.78,3*04
$GNGSA,A,3,40,07,33,10,08,14,43,28,41,42,11,,0.92,0.48,0.78,4*0D
$GPGSV,4,1,15,19,72,065,42,195,68,049,37,196,68,120,41,199,60,167,36,1*53
$GPGSV,4,2,15,50,60,167,39,17,58,108,39,06,49,002,44,20,40,244,33,1*6A
$GPGSV,4,3,15,09,37,087,43,194,35,173,43,11,33,301,26,12,22,307,39,1*51
$GPGSV,4,4,15,04,19,058,20,05,14,229,,14,12,172,16,1*5F
$GPGSV,2,1,08,196,68,120,45,195,68,049,43,199,60,167,45,06,49,002,48,8*5E
$GPGSV,2,2,08,09,37,087,42,194,35,173,38,11,33,301,31,14,12,172,22,8*57
$GLGSV,2,1,07,68,66,125,41,83,39,000,30,67,37,041,37,82,36,059,23,1*75
$GLGSV,2,2,07,69,27,184,39,73,19,271,16,80,12,218,,1*4D
$GAGSV,3,1,09,10,49,352,44,12,45,031,37,24,42,228,37,04,38,146,43,7*73
$GAGSV,3,2,09,19,32,072,32,25,29,295,22,33,10,075,29,09,08,189,21,7*7E
$GAGSV,3,3,09,36,03,280,,7*46
$GAGSV,2,1,06,10,49,352,45,12,45,031,37,24,42,228,39,04,38,146,44,1*73
$GAGSV,2,2,06,19,32,072,29,25,29,295,24,1*70
$GBGSV,4,1,14,40,78,172,39,07,75,227,41,33,75,116,44,10,71,269,38,1*71
$GBGSV,4,2,14,08,56,285,21,14,55,057,40,43,50,078,38,28,46,336,45,1*78
$GBGSV,4,3,14,41,35,200,37,42,30,043,30,11,27,095,27,37,12,260,,1*7F
$GBGSV,4,4,14,34,11,109,,23,11,211,,1*7F
$GBGSV,2,1,06,40,78,172,47,33,75,116,45,43,50,078,37,28,46,336,42,4*7E
$GBGSV,2,2,06,41,35,200,33,42,30,043,38,4*7D
$GNGGA,041847.000,2500.7913906,N,12132.4418197,E,4,54,0.48,15.960,M,15.25,M,1,3335*4A
$GNRMC,041847.000,A,2500.7913906,N,12132.4418197,E,0.00,20.94,270623,,,R,V*2B
$GPHDT,3.472,T*37
$GNGGA,041847.200,2500.7913914,N,12132.4418210,E,4,54,0.48,15.952,M,15.25,M,1,3335*46
$GNRMC,041847.200,A,2500.7913914,N,12132.4418210,E,0.00,20.94,270623,,,R,V*26
$GPHDT,3.544,T*33
$GNGGA,041847.400,2500.7913900,N,12132.4418186,E,4,54,0.48,15.971,M,15.25,M,1,3335*48
$GNRMC,041847.400,A,2500.7913900,N,12132.4418186,E,0.00,20.94,270623,,,R,V*29
$GPHDT,3.640,T*34
$GNGGA,041847.600,2500.7913913,N,12132.4418203,E,4,54,0.48,15.958,M,15.25,M,1,3335*4D
$GNRMC,041847.600,A,2500.7913913,N,12132.4418203,E,0.00,20.94,270623,,,R,V*27
$GPHDT,3.569,T*3C
$GNGGA,041847.800,2500.7913911,N,12132.4418198,E,4,54,0.48,15.971,M,15.25,M,0,3335*4A
$GNRMC,041847.800,A,2500.7913911,N,12132.4418198,E,0.00,20.94,270623,,,R,V*2A
$GPHDT,3.609,T*39
$GNGSA,A,3,19,195,196,199,17,06,20,09,194,11,12,04,0.92,0.48,0.78,1*03
$GNGSA,A,3,14,,,,,,,,,,,,0.92,0.48,0.78,1*0C
$GNGSA,A,3,68,83,67,82,69,,,,,,,,0.92,0.48,0.78,2*0B
$GNGSA,A,3,10,12,24,04,19,25,33,,,,,,0.92,0.48,0.78,3*04
$GNGSA,A,3,40,07,33,10,08,14,43,28,41,42,11,,0.92,0.48,0.78,4*0D
$GPGSV,4,1,15,19,72,065,42,195,68,049,38,196,68,120,41,50,60,167,39,1*67
$GPGSV,4,2,15,199,60,167,36,17,58,108,39,06,49,002,44,20,40,244,32,1*50
$GPGSV,4,3,15,09,37,087,42,194,35,173,43,11,33,301,25,12,22,307,39,1*53
$GPGSV,4,4,15,04,19,058,18,05,14,229,,14,12,172,17,1*55
$GPGSV,2,1,08,196,68,120,45,195,68,049,43,199,60,167,44,06,49,002,48,8*5F
$GPGSV,2,2,08,09,37,087,42,194,35,173,38,11,33,301,31,14,12,172,22,8*57
$GLGSV,3,1,09,68,66,125,41,83,39,000,30,67,37,041,36,82,36,059,24,1*7C
$GLGSV,3,2,09,69,27,184,39,73,19,271,15,80,12,218,,74,08,314,,1*7C
$GLGSV,3,3,09,84,04,307,,1*4D
$GAGSV,3,1,09,10,49,352,44,12,45,031,37,24,42,228,37,04,38,146,43,7*73
$GAGSV,3,2,09,19,32,072,32,25,29,295,21,33,10,075,29,09,08,189,22,7*7E
$GAGSV,3,3,09,36,03,280,,7*46
$GAGSV,2,1,06,10,49,352,45,12,45,031,37,24,42,228,39,04,38,146,44,1*73
$GAGSV,2,2,06,19,32,072,28,25,29,295,23,1*76
$GBGSV,4,1,14,40,78,172,39,07,75,227,41,33,75,116,44,10,71,269,38,1*71
$GBGSV,4,2,14,08,56,285,21,14,55,057,40,43,50,078,38,28,46,336,45,1*78
$GBGSV,4,3,14,41,35,200,37,42,30,043,29,11,27,095,26,37,12,260,,1*76
$GBGSV,4,4,14,34,11,109,,23,11,211,,1*7F
$GBGSV,2,1,06,40,78,172,47,33,75,116,45,43,50,078,37,28,46,336,42,4*7E
$GBGSV,2,2,06,41,35,200,33,42,30,043,38,4*7D
$GNGGA,041848.000,2500.7913934,N,12132.4418218,E,4,54,0.48,15.952,M,15.25,M,1,3335*41
$GNRMC,041848.000,A,2500.7913934,N,12132.4418218,E,0.00,20.94,270623,,,R,V*21
$GPHDT,3.506,T*35
$GNGGA,041848.200,2500.7913939,N,12132.4418219,E,4,54,0.48,15.956,M,15.25,M,1,3335*4B
$GNRMC,041848.200,A,2500.7913939,N,12132.4418219,E,0.00,20.94,270623,,,R,V*2F
$GPHDT,3.370,T*32
$GNGGA,041848.400,2500.7913933,N,12132.4418225,E,4,54,0.48,15.969,M,15.25,M,1,3335*44
$GNRMC,041848.400,A,2500.7913933,N,12132.4418225,E,0.00,20.94,270623,,,R,V*2C
$GPHDT,3.463,T*37
$GNGGA,041848.600,2500.7913932,N,12132.4418250,E,4,55,0.48,15.955,M,15.25,M,1,3335*4B
$GNRMC,041848.600,A,2500.7913932,N,12132.4418250,E,0.00,20.94,270623,,,R,V*2D
$GPHDT,3.368,T*3B
$GNGGA,041848.800,2500.7913923,N,12132.4418240,E,4,54,0.49,15.965,M,15.25,M,0,3335*46
$GNRMC,041848.800,A,2500.7913923,N,12132.4418240,E,0.00,20.94,270623,,,R,V*22
$GPHDT,3.755,T*31
$GNGSA,A,3,19,195,196,199,17,06,20,09,194,12,14,11,0.95,0.49,0.81,1*02
$GNGSA,A,3,68,83,67,82,69,,,,,,,,0.95,0.49,0.81,2*0B
$GNGSA,A,3,10,12,24,04,19,25,33,,,,,,0.95,0.49,0.81,3*04
$GNGSA,A,3,40,33,07,10,08,14,43,28,41,42,11,,0.95,0.49,0.81,4*0D
$GPGSV,4,1,15,19,72,065,42,195,68,049,38,196,68,120,41,50,60,167,39,1*67
$GPGSV,4,2,15,199,60,167,36,17,58,108,39,06,49,002,44,20,40,244,31,1*53
$GPGSV,4,3,15,09,37,087,42,194,35,173,43,11,33,301,23,12,22,307,39,1*55
$GPGSV,4,4,15,04,19,058,17,05,14,229,,14,12,172,17,1*5A
$GPGSV,2,1,08,196,68,120,45,195,68,049,43,199,60,167,45,06,49,002,48,8*5E
$GPGSV,2,2,08,09,37,087,42,194,35,173,38,11,33,301,32,14,12,172,23,8*55
$GLGSV,2,1,08,68,66,125,41,83,39,000,30,67,37,041,37,82,36,059,21,1*78
$GLGSV,2,2,08,69,27,184,40,73,19,271,14,80,12,218,,84,04,307,,1*72
$GAGSV,3,1,09,10,49,352,44,12,45,031,37,24,42,228,36,04,38,146,43,7*72
$GAGSV,3,2,09,19,32,072,32,25,29,295,21,33,10,075,29,09,08,189,22,7*7E
$GAGSV,3,3,09,36,03,280,,7*46
$GAGSV,2,1,06,10,49,352,45,12,45,031,37,24,42,228,39,04,38,146,44,1*73
$GAGSV,2,2,06,19,32,072,29,25,29,295,23,1*77
$GBGSV,4,1,14,40,78,172,40,33,75,116,44,07,75,227,41,10,71,269,38,1*7F
$GBGSV,4,2,14,08,56,285,21,14,55,057,40,43,50,078,38,28,46,336,45,1*78
$GBGSV,4,3,14,41,35,200,37,42,30,043,29,11,27,095,26,37,12,260,,1*76
$GBGSV,4,4,14,23,11,211,,34,11,109,,1*7F
$GBGSV,2,1,06,40,78,172,47,33,75,116,45,43,50,078,36,28,46,336,42,4*7F
$GBGSV,2,2,06,41,35,200,34,42,30,043,38,4*7A
$GNGGA,041849.000,2500.7913914,N,12132.4418247,E,4,53,0.49,15.966,M,15.25,M,1,3335*49
$GNRMC,041849.000,A,2500.7913914,N,12132.4418247,E,0.00,20.94,270623,,,R,V*28
$GPHDT,3.478,T*3D
$GNGGA,041849.200,2500.7913910,N,12132.4418226,E,4,53,0.49,15.964,M,15.25,M,1,3335*4A
$GNRMC,041849.200,A,2500.7913910,N,12132.4418226,E,0.00,20.94,270623,,,R,V*29
$GPHDT,3.427,T*37
$GNGGA,041849.400,2500.7913918,N,12132.4418246,E,4,53,0.49,15.960,M,15.25,M,1,3335*46
$GNRMC,041849.400,A,2500.7913918,N,12132.4418246,E,0.00,20.94,270623,,,R,V*21
$GPHDT,3.543,T*34
$GNGGA,041849.600,2500.7913916,N,12132.4418236,E,4,53,0.49,15.968,M,15.25,M,1,3335*45
$GNRMC,041849.600,A,2500.7913916,N,12132.4418236,E,0.00,20.94,270623,,,R,V*2A
$GPHDT,3.528,T*39
$GNGGA,041849.800,2500.7913938,N,12132.4418247,E,4,53,0.49,15.951,M,15.25,M,0,3335*4A
$GNRMC,041849.800,A,2500.7913938,N,12132.4418247,E,0.00,20.94,270623,,,R,V*2E
$GPHDT,3.441,T*37
$GNGSA,A,3,19,195,196,199,17,06,20,09,194,12,14,11,0.95,0.49,0.81,1*02
$GNGSA,A,3,68,83,67,82,69,,,,,,,,0.95,0.49,0.81,2*0B
$GNGSA,A,3,10,12,24,04,19,25,33,,,,,,0.95,0.49,0.81,3*04
$GNGSA,A,3,40,07,33,10,08,14,43,28,41,42,11,,0.95,0.49,0.81,4*0D
$GPGSV,4,1,15,19,72,065,42,195,68,049,37,196,68,120,41,199,60,167,36,1*53
$GPGSV,4,2,15,50,60,167,39,17,58,108,40,06,49,002,44,20,40,244,32,1*65
$GPGSV,4,3,15,09,37,087,42,194,35,173,43,11,33,301,20,12,22,307,39,1*56
$GPGSV,4,4,15,04,19,058,20,05,14,229,,14,12,172,16,1*5F
$GPGSV,2,1,08,196,68,120,45,195,68,049,43,199,60,167,45,06,49,002,48,8*5E
$GPGSV,2,2,08,09,37,087,42,194,35,173,39,11,33,301,32,14,12,172,23,8*54
$GLGSV,2,1,07,68,66,125,41,83,39,000,30,67,37,041,37,82,36,059,21,1*77
$GLGSV,2,2,07,69,27,184,40,73,19,271,16,80,12,218,,1*43
$GAGSV,3,1,09,10,49,352,44,12,45,031,37,24,42,228,36,04,39,146,43,7*73
$GAGSV,3,2,09,19,32,072,32,25,29,295,21,33,10,075,30,09,08,189,23,7*77
$GAGSV,3,3,09,36,03,280,,7*46
$GAGSV,2,1,06,10,49,352,45,12,45,031,37,24,42,228,39,04,39,146,44,1*72
$GAGSV,2,2,06,19,32,072,29,25,29,295,24,1*70
$GBGSV,4,1,14,40,78,172,40,07,75,227,41,33,75,116,44,10,71,269,38,1*7F
$GBGSV,4,2,14,08,56,285,22,14,55,057,40,43,50,078,38,28,46,336,45,1*7B
$GBGSV,4,3,14,41,35,200,38,42,30,043,29,11,27,095,28,37,12,260,,1*77
$GBGSV,4,4,14,34,11,109,,23,11,211,,1*7F
$GBGSV,2,1,06,40,78,172,47,33,75,116,45,43,50,078,36,28,46,336,42,4*7F
$GBGSV,2,2,06,41,35,200,34,42,30,043,38,4*7A
$GNGGA,041850.000,2500.7913933,N,12132.4418263,E,4,53,0.49,15.966,M,15.25,M,1,3335*42
$GNRMC,041850.000,A,2500.7913933,N,12132.4418263,E,0.00,20.94,270623,,,R,V*23
$GPHDT,3.258,T*39
$GNGGA,041850.200,2500.7913937,N,12132.4418235,E,4,54,0.49,15.969,M,15.25,M,1,3335*4F
$GNRMC,041850.200,A,2500.7913937,N,12132.4418235,E,0.00,20.94,270623,,,R,V*26
$GPHDT,3.623,T*31
$GNGGA,041850.400,2500.7913931,N,12132.4418251,E,4,54,0.49,15.971,M,15.25,M,1,3335*44
$GNRMC,041850.400,A,2500.7913931,N,12132.4418251,E,0.00,20.94,270623,,,R,V*24
$GPHDT,3.286,T*3A
$GNGGA,041850.600,2500.7913926,N,12132.4418248,E,4,54,0.49,15.957,M,15.25,M,0,3335*4D
$GNRMC,041850.600,A,2500.7913926,N,12132.4418248,E,0.00,20.94,270623,,,R,V*28
$GPHDT,3.477,T*32
$GNGGA,041850.800,2500.7913932,N,12132.4418245,E,4,54,0.49,15.958,M,15.25,M,0,3335*44
$GNRMC,041850.800,A,2500.7913932,N,12132.4418245,E,0.00,20.94,270623,,,R,V*2E
$GPHDT,3.536,T*36
$GNGSA,A,3,19,195,196,199,17,06,20,09,194,12,14,11,0.95,0.49,0.81,1*02
$GNGSA,A,3,68,83,67,82,69,,,,,,,,0.95,0.49,0.81,2*0B
$GNGSA,A,3,10,12,24,04,19,25,33,,,,,,0.95,0.49,0.81,3*04
$GNGSA,A,3,40,33,07,10,08,14,43,28,41,42,11,,0.95,0.49,0.81,4*0D
$GPGSV,4,1,15,19,72,065,42,195,68,049,37,196,68,120,41,50,60,167,39,1*68
$GPGSV,4,2,15,199,60,167,36,17,58,108,40,06,49,002,44,20,40,244,33,1*5F
$GPGSV,4,3,15,09,37,087,42,194,35,173,43,11,33,301,21,12,22,307,39,1*57
$GPGSV,4,4,15,04,19,058,22,05,14,229,,14,12,172,15,1*5E
$GPGSV,3,1,09,196,68,120,45,195,68,049,43,199,60,167,45,06,49,002,48,8*5E
$GPGSV,3,2,09,09,37,087,43,194,35,173,39,11,33,301,32,04,19,058,28,8*5D
$GPGSV,3,3,09,14,12,172,23,8*57
$GLGSV,2,1,06,68,66,125,41,83,39,000,29,67,37,041,37,82,36,059,23,1*7C
$GLGSV,2,2,06,69,27,184,40,73,19,271,16,1*72
$GAGSV,3,1,09,10,49,352,44,12,45,031,37,24,42,228,36,04,39,146,43,7*73
$GAGSV,3,2,09,19,32,072,32,25,29,295,21,33,10,075,30,09,08,189,22,7*76
$GAGSV,3,3,09,36,03,280,,7*46
$GAGSV,2,1,06,10,49,352,45,12,45,031,37,24,42,228,39,04,39,146,44,1*72
$GAGSV,2,2,06,19,32,072,29,25,29,295,25,1*71
$GBGSV,4,1,14,40,78,172,40,33,75,116,44,07,75,227,41,10,71,269,38,1*7F
$GBGSV,4,2,14,08,56,285,21,14,55,057,40,43,50,078,38,28,46,336,45,1*78
$GBGSV,4,3,14,41,35,200,38,42,30,043,30,11,27,095,29,37,12,260,,1*7E
$GBGSV,4,4,14,23,11,211,,34,11,109,,1*7F
$GBGSV,2,1,06,40,78,172,47,33,75,116,45,43,50,078,35,28,46,336,42,4*7C
$GBGSV,2,2,06,41,35,200,34,42,30,043,38,4*7A
$GNGGA,041851.000,2500.7913918,N,12132.4418226,E,4,54,0.49,15.965,M,15.25,M,1,3335*4F
$GNRMC,041851.000,A,2500.7913918,N,12132.4418226,E,0.00,20.94,270623,,,R,V*2A
$GPHDT,3.485,T*3F
$GNGGA,041851.200,2500.7913927,N,12132.4418231,E,4,56,0.48,15.969,M,15.25,M,1,3335*48
$GNRMC,041851.200,A,2500.7913927,N,12132.4418231,E,0.00,20.94,270623,,,R,V*22
$GPHDT,3.443,T*35
$GNGGA,041851.400,2500.7913911,N,12132.4418217,E,4,56,0.48,15.970,M,15.25,M,1,3335*47
$GNRMC,041851.400,A,2500.7913911,N,12132.4418217,E,0.00,20.94,270623,,,R,V*25
$GPHDT,3.590,T*3A
$GNGGA,041851.600,2500.7913907,N,12132.4418251,E,4,57,0.48,15.967,M,15.25,M,0,3335*46
$GNRMC,041851.600,A,2500.7913907,N,12132.4418251,E,0.00,20.94,270623,,,R,V*22
$GPHDT,3.477,T*32
$GNGGA,041851.800,2500.7913901,N,12132.4418226,E,4,57,0.48,15.972,M,15.25,M,0,3335*4A
$GNRMC,041851.800,A,2500.7913901,N,12132.4418226,E,0.00,20.94,270623,,,R,V*2A
$GPHDT,3.474,T*31
$GNGSA,A,3,19,195,196,199,17,06,20,09,194,11,12,04,0.92,0.48,0.78,1*03
$GNGSA,A,3,14,,,,,,,,,,,,0.92,0.48,0.78,1*0C
$GNGSA,A,3,68,83,67,82,69,,,,,,,,0.92,0.48,0.78,2*0B
$GNGSA,A,3,10,12,24,04,19,25,33,,,,,,0.92,0.48,0.78,3*04
$GNGSA,A,3,40,33,07,10,08,14,43,28,41,42,11,,0.92,0.48,0.78,4*0D
$GPGSV,4,1,15,19,72,065,42,195,68,049,37,196,68,120,41,50,60,167,39,1*68
$GPGSV,4,2,15,199,60,167,36,17,58,108,40,06,49,002,44,20,40,244,32,1*5E
$GPGSV,4,3,15,09,37,087,42,194,35,173,43,11,33,301,24,12,22,307,39,1*52
$GPGSV,4,4,15,04,19,058,24,05,14,229,,14,12,172,15,1*58
$GPGSV,3,1,09,196,68,120,45,195,68,049,43,199,60,167,45,06,49,002,48,8*5E
$GPGSV,3,2,09,09,37,087,43,194,35,173,39,11,33,301,33,04,19,058,30,8*55
$GPGSV,3,3,09,14,12,172,23,8*57
$GLGSV,2,1,06,68,66,125,41,83,39,000,28,67,37,041,37,82,36,059,25,1*7B
$GLGSV,2,2,06,69,27,184,40,73,19,271,17,1*73
$GAGSV,3,1,09,10,49,352,44,12,45,031,37,24,42,228,36,04,39,146,43,7*73
$GAGSV,3,2,09,19,32,072,31,25,29,295,23,33,10,075,30,09,08,189,22,7*77
$GAGSV,3,3,09,36,03,280,,7*46
$GAGSV,2,1,06,10,49,352,45,12,45,031,37,24,42,228,39,04,39,146,44,1*72
$GAGSV,2,2,06,19,32,072,31,25,29,295,24,1*79
$GBGSV,4,1,14,40,78,172,41,33,75,116,44,07,75,227,40,10,71,269,38,1*7F
$GBGSV,4,2,14,08,56,285,21,14,55,057,40,43,50,078,38,28,46,336,44,1*79
$GBGSV,4,3,14,41,35,200,38,42,30,043,31,11,27,095,28,37,12,260,,1*7E
$GBGSV,4,4,14,23,11,211,,34,11,109,,1*7F
$GBGSV,2,1,06,40,78,172,47,33,75,116,45,43,50,078,35,28,46,336,43,4*7D
$GBGSV,2,2,06,41,35,200,35,42,30,043,38,4*7B
$GNGGA,041852.000,2500.7913892,N,12132.4418236,E,4,57,0.48,15.968,M,15.25,M,1,3335*41
$GNRMC,041852.000,A,2500.7913892,N,12132.4418236,E,0.00,20.94,270623,,,R,V*2B
$GPHDT,3.315,T*31
$GNGGA,041852.200,2500.7913901,N,12132.4418243,E,4,57,0.48,15.972,M,15.25,M,1,3335*41
$GNRMC,041852.200,A,2500.7913901,N,12132.4418243,E,0.00,20.94,270623,,,R,V*20
$GPHDT,3.497,T*3C
$GNGGA,041852.400,2500.7913877,N,12132.4418238,E,4,56,0.48,15.975,M,15.25,M,1,3335*4D
$GNRMC,041852.400,A,2500.7913877,N,12132.4418238,E,0.00,20.94,270623,,,R,V*2A
$GPHDT,3.468,T*3C
$GNGGA,041852.600,2500.7913839,N,12132.4418245,E,4,56,0.49,15.986,M,15.25,M,1,3335*42
$GNRMC,041852.600,A,2500.7913839,N,12132.4418245,E,0.00,20.94,270623,,,R,V*28
$GPHDT,3.750,T*34
$GNGGA,041852.800,2500.7913802,N,12132.4418203,E,4,55,0.49,15.990,M,15.25,M,1,3335*42
$GNRMC,041852.800,A,2500.7913802,N,12132.4418203,E,0.00,20.94,270623,,,R,V*2C
$GPHDT,3.712,T*32
$GNGSA,A,3,19,195,196,199,17,06,20,09,194,11,12,04,0.93,0.49,0.79,1*02
$GNGSA,A,3,14,,,,,,,,,,,,0.93,0.49,0.79,1*0D
$GNGSA,A,3,68,83,67,82,69,,,,,,,,0.93,0.49,0.79,2*0A
$GNGSA,A,3,10,12,24,04,19,25,33,,,,,,0.93,0.49,0.79,3*05
$GNGSA,A,3,40,07,33,10,14,43,28,41,42,11,,,0.93,0.49,0.79,4*04
$GPGSV,4,1,15,19,72,065,42,195,68,049,38,196,68,120,42,50,60,167,37,1*6A
$GPGSV,4,2,15,199,60,167,34,17,58,108,41,06,49,002,44,20,40,244,33,1*5C
$GPGSV,4,3,15,09,37,087,42,194,35,173,42,11,33,301,25,12,22,307,39,1*52
$GPGSV,4,4,15,04,19,058,25,05,14,229,,14,12,172,16,1*5A
$GPGSV,3,1,09,196,68,120,45,195,68,049,43,199,60,167,45,06,49,002,48,8*5E
$GPGSV,3,2,09,09,37,087,43,194,35,173,40,11,33,301,31,04,19,058,30,8*59
$GPGSV,3,3,09,14,12,172,23,8*57
$GLGSV,2,1,06,68,66,125,42,83,39,000,28,67,37,041,39,82,36,059,27,1*74
$GLGSV,2,2,06,69,27,184,40,73,19,271,17,1*73
$GAGSV,2,1,08,10,49,352,42,12,45,031,37,24,42,228,36,04,39,146,42,7*74
$GAGSV,2,2,08,19,32,071,31,25,29,295,22,33,10,075,28,09,08,189,22,7*7C
$GAGSV,2,1,06,10,49,352,46,12,45,031,37,24,42,228,38,04,39,146,43,1*77
$GAGSV,2,2,06,19,32,071,30,25,29,295,25,1*7A
$GBGSV,4,1,14,40,78,172,40,07,75,227,37,33,75,116,44,10,71,269,37,1*71
$GBGSV,4,2,14,08,56,285,19,14,55,057,40,43,50,078,40,28,46,336,45,1*7C
$GBGSV,4,3,14,41,35,200,38,42,30,043,31,11,27,095,25,37,12,260,,1*73
$GBGSV,4,4,14,23,11,211,,34,11,109,,1*7F
$GBGSV,2,1,06,40,78,172,46,33,75,116,45,43,50,078,33,28,46,336,43,4*7A
$GBGSV,2,2,06,41,35,200,35,42,30,043,38,4*7B
$GNGGA,041853.000,2500.7913816,N,12132.4418280,E,4,56,0.49,15.986,M,15.25,M,2,3335*42
$GNRMC,041853.000,A,2500.7913816,N,12132.4418280,E,0.00,20.94,270623,,,R,V*2B
$GPHDT,3.048,T*3A
$GNGGA,041853.200,2500.7913868,N,12132.4418190,E,4,56,0.49,16.002,M,15.25,M,2,3335*4D
$GNRMC,041853.200,A,2500.7913868,N,12132.4418190,E,0.01,20.94,270623,,,R,V*23
$GPHDT,4.167,T*31
$GNGGA,041853.400,2500.7913969,N,12132.4418296,E,4,56,0.49,16.027,M,15.25,M,2,3335*49
$GNRMC,041853.400,A,2500.7913969,N,12132.4418296,E,0.00,20.94,270623,,,R,V*21
$GPHDT,2.852,T*38
$GNGGA,041853.600,2500.7913928,N,12132.4418276,E,4,56,0.48,16.034,M,15.25,M,2,3335*43
$GNRMC,041853.600,A,2500.7913928,N,12132.4418276,E,0.00,20.94,270623,,,R,V*28
$GPHDT,3.020,T*34
$GNGGA,041853.800,2500.7913960,N,12132.4418260,E,4,56,0.48,16.004,M,15.25,M,2,3335*45
$GNRMC,041853.800,A,2500.7913960,N,12132.4418260,E,0.00,20.94,270623,,,R,V*2D
$GPHDT,3.217,T*32
$GNGSA,A,3,19,195,196,199,17,06,20,09,194,12,04,14,0.92,0.48,0.78,1*06
$GNGSA,A,3,11,,,,,,,,,,,,0.92,0.48,0.78,1*09
$GNGSA,A,3,68,83,67,82,69,,,,,,,,0.92,0.48,0.78,2*0B
$GNGSA,A,3,10,12,24,04,19,25,33,,,,,,0.92,0.48,0.78,3*04
$GNGSA,A,3,40,07,33,10,08,14,43,28,41,42,11,,0.92,0.48,0.78,4*0D
$GPGSV,4,1,15,19,72,065,41,195,68,049,36,196,68,120,43,50,60,167,39,1*68
$GPGSV,4,2,15,199,60,167,36,17,58,108,42,06,49,002,44,20,40,244,25,1*5A
$GPGSV,4,3,15,09,37,087,43,194,35,173,41,11,33,301,23,12,22,307,32,1*5D
$GPGSV,4,4,15,04,19,058,17,05,14,229,,14,12,172,15,1*58
$GPGSV,3,1,09,196,68,120,44,195,68,049,43,199,60,167,47,06,49,002,48,8*5D
$GPGSV,3,2,09,09,37,087,41,194,35,173,43,11,33,301,28,04,19,058,29,8*58
$GPGSV,3,3,09,14,12,172,20,8*54
$GLGSV,2,1,07,68,66,125,43,83,39,000,28,67,37,041,40,82,36,059,29,1*74
$GLGSV,2,2,07,69,27,184,42,73,19,271,17,80,12,218,,1*40
$GAGSV,2,1,08,10,49,352,42,12,45,031,39,24,42,228,26,04,39,146,42,7*7B
$GAGSV,2,2,08,19,32,071,31,25,29,295,22,33,10,075,21,09,08,189,20,7*77
$GAGSV,2,1,06,10,49,352,44,12,45,031,39,24,42,228,34,04,39,146,44,1*70
$GAGSV,2,2,06,19,32,071,30,25,29,295,27,1*78
$GBGSV,4,1,14,40,78,172,41,07,75,227,36,33,75,116,44,10,71,269,35,1*73
$GBGSV,4,2,14,08,56,285,16,14,55,057,40,43,50,078,42,13,48,271,,1*74
$GBGSV,4,3,14,28,46,336,36,41,35,200,37,42,30,043,32,11,27,095,26,1*74
$GBGSV,4,4,14,23,11,211,,34,11,109,,1*7F
$GBGSV,2,1,06,40,78,172,42,33,75,116,44,43,50,078,36,28,46,336,39,4*77
$GBGSV,2,2,06,41,35,200,33,42,30,043,37,4*72
$GNGGA,041854.000,2500.7913889,N,12132.4418230,E,4,56,0.48,16.074,M,15.25,M,3,3335*4F
$GNRMC,041854.000,A,2500.7913889,N,12132.4418230,E,0.00,20.94,270623,,,R,V*21
$GPHDT,4.347,T*31
$GNGGA,041854.200,2500.7913961,N,12132.4418336,E,4,55,0.48,16.047,M,15.25,M,3,3335*4E
$GNRMC,041854.200,A,2500.7913961,N,12132.4418336,E,0.00,20.94,270623,,,R,V*23
$GPHDT,3.545,T*32
$GNGGA,041854.400,2500.7913927,N,12132.4418313,E,4,56,0.48,16.032,M,15.25,M,3,3335*4C
$GNRMC,041854.400,A,2500.7913927,N,12132.4418313,E,0.00,20.94,270623,,,R,V*20
