$FW : RTK35X,V1.1X0314AS,Lib20210517,1*54
$Tool : LOCOSYS , GNSS Firebird , v1.0.0.19*39
$---------------------------------------------------*2D
$GNGSA,A,3,19,195,196,199,17,06,20,09,194,11,12,04,0.88,0.47,0.74,1*0B
$GNGSA,A,3,14,,,,,,,,,,,,0.88,0.47,0.74,1*04
$GNGSA,A,3,68,83,67,82,69,,,,,,,,0.88,0.47,0.74,2*03
$GNGSA,A,3,10,12,24,04,11,19,33,25,,,,,0.88,0.47,0.74,3*0C
$GNGSA,A,3,40,33,07,10,08,14,43,28,41,42,11,34,0.88,0.47,0.74,4*02
$GPGSV,4,1,15,19,72,070,43,195,69,049,37,196,69,120,41,50,60,167,37,1*63
$GPGSV,4,2,15,199,60,167,35,17,57,110,43,06,49,005,42,20,41,245,44,1*58
$GPGSV,4,3,15,09,37,085,43,194,34,173,43,11,34,303,26,12,22,306,36,1*59
$GPGSV,4,4,15,04,18,056,28,05,16,230,,14,11,172,18,1*5F
$GPGSV,2,1,08,196,69,120,44,195,69,049,41,199,60,167,44,06,49,005,45,8*56
$GPGSV,2,2,08,09,37,085,39,11,34,303,33,194,34,173,39,04,18,056,32,8*53
$GLGSV,2,1,06,68,67,121,42,83,40,003,31,67,36,040,38,82,35,062,38,1*70
$GLGSV,2,2,06,69,29,184,41,73,18,269,13,1*70
$GAGSV,2,1,08,10,49,354,42,12,45,033,29,24,41,227,33,04,40,145,36,7*78
$GAGSV,2,2,08,11,39,316,39,19,32,070,33,25,29,293,,33,10,076,18,7*7C
$GAGSV,2,1,08,10,49,354,44,12,45,033,35,24,41,227,35,04,40,145,40,1*72
$GAGSV,2,2,08,11,39,316,39,19,32,070,35,25,29,293,16,33,10,076,19,1*7A
$GBGSV,4,1,15,40,77,174,43,33,75,110,44,07,74,225,40,10,70,267,40,1*70
$GBGSV,4,2,15,08,55,286,26,14,54,055,32,43,50,080,44,13,48,272,,1*72
$GBGSV,4,3,15,28,47,337,45,41,37,200,36,42,29,043,39,11,26,097,34,1*71
$GBGSV,4,4,15,37,11,259,,34,10,110,20,23,10,210,,1*4F
$GBGSV,2,1,07,40,77,174,45,33,75,110,46,43,50,080,44,28,47,337,42,4*72
$GBGSV,2,2,07,41,37,200,38,42,29,043,37,34,10,110,12,4*47
$GNGGA,042220.000,2500.7913929,N,12132.4418295,E,4,60,0.47,15.955,M,15.25,M,1,3335*40
$GNRMC,042220.000,A,2500.7913929,N,12132.4418295,E,0.00,20.94,270623,,,R,V*2F
$GPHDT,,T*1B
$GNGGA,042220.200,2500.7913959,N,12132.4418274,E,4,60,0.47,15.974,M,15.25,M,1,3335*49
$GNRMC,042220.200,A,2500.7913959,N,12132.4418274,E,0.01,20.94,270623,,,R,V*24
$GPHDT,,T*1B
$GNGGA,042220.400,2500.7913943,N,12132.4418290,E,4,60,0.47,15.962,M,15.25,M,1,3335*49
$GNRMC,042220.400,A,2500.7913943,N,12132.4418290,E,0.00,20.94,270623,,,R,V*22
$GPHDT,,T*1B
$GNGGA,042220.600,2500.7913916,N,12132.4418276,E,4,60,0.47,15.989,M,15.25,M,0,3335*47
$GNRMC,042220.600,A,2500.7913916,N,12132.4418276,E,0.00,20.94,270623,,,R,V*28
$GPHDT,,T*1B
$GNGGA,042220.800,2500.7913893,N,12132.4418275,E,4,60,0.47,15.988,M,15.25,M,0,3335*47
$GNRMC,042220.800,A,2500.7913893,N,12132.4418275,E,0.00,20.94,270623,,,R,V*29
$GPHDT,,T*1B
$GNGSA,A,3,19,195,196,199,17,06,20,09,194,11,12,04,0.88,0.47,0.74,1*0B
$GNGSA,A,3,14,,,,,,,,,,,,0.88,0.47,0.74,1*04
$GNGSA,A,3,68,83,67,82,69,,,,,,,,0.88,0.47,0.74,2*03
$GNGSA,A,3,10,12,24,04,11,19,33,25,,,,,0.88,0.47,0.74,3*0C
$GNGSA,A,3,40,33,07,10,08,14,43,28,41,42,11,34,0.88,0.47,0.74,4*02
$GPGSV,4,1,15,19,72,070,44,195,69,049,39,196,69,120,41,50,60,167,37,1*6A
$GPGSV,4,2,15,199,60,167,35,17,57,110,43,06,49,005,42,20,41,245,43,1*5F
$GPGSV,4,3,15,09,37,085,43,194,34,173,43,11,34,303,26,12,22,306,36,1*59
$GPGSV,4,4,15,04,18,056,29,05,16,230,,14,11,172,18,1*5E
$GPGSV,2,1,08,196,69,120,44,195,69,049,44,199,60,167,44,06,49,005,47,8*51
$GPGSV,2,2,08,09,37,085,36,11,34,303,33,194,34,173,40,04,18,056,33,8*53
$GLGSV,2,1,06,68,67,121,41,83,40,003,30,67,36,040,42,82,35,062,39,1*7E
$GLGSV,2,2,06,69,29,184,41,73,18,269,13,1*70
$GAGSV,2,1,08,10,49,354,42,12,45,033,35,24,41,227,32,04,40,145,36,7*74
$GAGSV,2,2,08,11,39,316,39,19,32,070,30,25,29,293,,33,10,076,18,7*7F
$GAGSV,2,1,08,10,49,354,45,12,45,033,40,24,41,227,36,04,40,145,40,1*72
$GAGSV,2,2,08,11,39,316,39,19,32,070,31,25,29,293,15,33,10,076,19,1*7D
$GBGSV,4,1,15,40,77,174,43,33,75,110,44,07,74,225,40,10,70,267,40,1*70
$GBGSV,4,2,15,08,55,286,26,14,54,055,42,43,50,080,44,13,48,272,,1*75
$GBGSV,4,3,15,28,48,338,44,41,37,200,36,42,29,043,41,11,26,097,35,1*7E
$GBGSV,4,4,15,37,11,259,,34,10,110,21,23,10,210,,1*4E
$GBGSV,2,1,07,40,77,174,45,33,75,110,46,43,50,080,44,28,48,338,42,4*72
$GBGSV,2,2,07,41,37,200,38,42,29,043,41,34,10,110,14,4*40
$GNGGA,042221.000,2500.7913928,N,12132.4418224,E,4,60,0.47,16.003,M,15.25,M,1,3335*43
$GNRMC,042221.000,A,2500.7913928,N,12132.4418224,E,0.00,20.94,270623,,,R,V*25
$GPHDT,,T*1B
$GNGGA,042221.200,2500.7913898,N,12132.4418252,E,4,60,0.47,16.017,M,15.25,M,1,3335*4F
$GNRMC,042221.200,A,2500.7913898,N,12132.4418252,E,0.00,20.94,270623,,,R,V*2C
$GPHDT,,T*1B
$GNGGA,042221.400,2500.7913889,N,12132.4418201,E,4,60,0.47,16.021,M,15.25,M,1,3335*4A
$GNRMC,042221.400,A,2500.7913889,N,12132.4418201,E,0.00,20.94,270623,,,R,V*2C
$GPHDT,,T*1B
$GNGGA,042221.600,2500.7913891,N,12132.4418234,E,4,59,0.47,15.990,M,15.25,M,0,3335*4C
$GNRMC,042221.600,A,2500.7913891,N,12132.4418234,E,0.00,20.94,270623,,,R,V*21
$GPHDT,,T*1B
$GNGGA,042221.800,2500.7913890,N,12132.4418231,E,4,59,0.47,15.999,M,15.25,M,0,3335*4F
$GNRMC,042221.800,A,2500.7913890,N,12132.4418231,E,0.00,20.94,270623,,,R,V*2B
$GPHDT,,T*1B
$GNGSA,A,3,19,195,196,199,17,06,20,09,194,11,12,04,0.88,0.47,0.74,1*0B
$GNGSA,A,3,14,,,,,,,,,,,,0.88,0.47,0.74,1*04
$GNGSA,A,3,68,83,67,82,69,,,,,,,,0.88,0.47,0.74,2*03
$GNGSA,A,3,10,12,24,04,11,19,33,25,,,,,0.88,0.47,0.74,3*0C
$GNGSA,A,3,40,33,07,10,08,14,43,28,41,42,11,34,0.88,0.47,0.74,4*02
$GPGSV,4,1,15,19,72,070,44,195,69,049,40,196,69,120,41,50,60,167,37,1*64
$GPGSV,4,2,15,199,60,167,35,17,57,110,43,06,49,005,42,20,41,245,43,1*5F
$GPGSV,4,3,15,09,37,085,40,194,34,173,43,11,34,303,29,12,22,306,36,1*55
$GPGSV,4,4,15,04,18,056,27,05,16,230,,14,11,172,18,1*50
$GPGSV,2,1,08,196,69,120,44,195,69,049,44,199,60,167,44,06,49,005,47,8*51
$GPGSV,2,2,08,09,37,085,35,11,34,303,35,194,34,173,40,04,18,056,35,8*50
$GLGSV,2,1,07,68,67,121,41,83,40,003,30,67,36,040,42,82,35,062,41,1*70
$GLGSV,2,2,07,69,29,184,41,73,18,269,13,80,11,216,,1*4C
$GAGSV,2,1,08,10,49,354,42,12,45,033,36,24,41,227,34,04,40,145,36,7*71
$GAGSV,2,2,08,11,39,316,39,19,32,070,32,25,29,293,,33,10,076,18,7*7D
$GAGSV,2,1,08,10,49,354,45,12,45,033,41,24,41,227,36,04,40,145,40,1*73
$GAGSV,2,2,08,11,39,316,39,19,32,070,32,25,29,293,17,33,10,076,19,1*7C
$GBGSV,4,1,15,40,77,174,43,33,75,109,44,07,74,225,39,10,70,267,40,1*76
$GBGSV,4,2,15,08,55,286,25,14,54,055,43,43,50,080,44,13,48,272,,1*77
$GBGSV,4,3,15,28,48,338,44,41,37,200,36,42,29,043,41,11,26,097,35,1*7E
$GBGSV,4,4,15,37,11,259,,23,10,210,,34,10,110,17,1*4B
$GBGSV,2,1,06,40,77,174,45,33,75,109,46,43,50,080,44,28,48,338,42,4*7B
$GBGSV,2,2,06,41,37,200,39,42,29,043,41,4*73
$GNGGA,042222.000,2500.7913843,N,12132.4418241,E,4,59,0.47,15.991,M,15.25,M,1,3335*44
$GNRMC,042222.000,A,2500.7913843,N,12132.4418241,E,0.00,20.94,270623,,,R,V*29
$GPHDT,,T*1B
$GNGGA,042222.200,2500.7913839,N,12132.4418238,E,4,59,0.47,16.013,M,15.25,M,1,3335*45
$GNRMC,042222.200,A,2500.7913839,N,12132.4418238,E,0.00,20.94,270623,,,R,V*28
$GPHDT,,T*1B
$GNGGA,042222.400,2500.7913826,N,12132.4418252,E,4,59,0.47,15.984,M,15.25,M,1,3335*45
$GNRMC,042222.400,A,2500.7913826,N,12132.4418252,E,0.00,20.94,270623,,,R,V*2C
$GPHDT,,T*1B
$GNGGA,042222.600,2500.7913838,N,12132.4418236,E,4,58,0.47,15.979,M,15.25,M,1,3335*49
$GNRMC,042222.600,A,2500.7913838,N,12132.4418236,E,0.00,20.94,270623,,,R,V*23
$GPHDT,,T*1B
$GNGGA,042222.800,2500.7913824,N,12132.4418269,E,4,58,0.47,15.993,M,15.25,M,0,3335*45
$GNRMC,042222.800,A,2500.7913824,N,12132.4418269,E,0.00,20.94,270623,,,R,V*2A
$GPHDT,,T*1B
$GNGSA,A,3,19,195,196,199,17,06,20,09,11,194,12,04,0.88,0.47,0.74,1*0B
$GNGSA,A,3,14,,,,,,,,,,,,0.88,0.47,0.74,1*04
$GNGSA,A,3,68,83,67,82,69,,,,,,,,0.88,0.47,0.74,2*03
$GNGSA,A,3,10,12,24,04,11,19,33,25,,,,,0.88,0.47,0.74,3*0C
$GNGSA,A,3,40,33,07,10,08,14,43,28,41,42,11,34,0.88,0.47,0.74,4*02
$GPGSV,4,1,15,19,72,070,44,195,69,049,40,196,69,120,41,199,60,167,35,1*52
$GPGSV,4,2,15,50,60,167,37,17,57,110,43,06,49,005,42,20,41,245,43,1*69
$GPGSV,4,3,15,09,37,085,42,11,34,303,30,194,34,173,43,12,22,306,35,1*5C
$GPGSV,4,4,15,04,18,056,27,05,16,230,,14,11,172,18,1*50
$GPGSV,2,1,08,196,69,120,44,195,69,049,44,199,60,167,44,06,49,005,47,8*51
$GPGSV,2,2,08,09,37,085,37,11,34,303,35,194,34,173,41,04,18,056,35,8*53
$GLGSV,2,1,08,68,67,121,40,83,40,003,31,67,36,040,42,82,35,062,42,1*7C
$GLGSV,2,2,08,69,29,184,42,73,18,269,13,80,11,216,,74,08,312,,1*7B
$GAGSV,2,1,08,10,49,354,42,12,45,033,36,24,41,227,34,04,40,145,36,7*71
$GAGSV,2,2,08,11,39,316,38,19,32,070,35,33,10,076,18,09,09,189,,7*7F
$GAGSV,2,1,07,10,49,354,45,12,45,033,42,24,41,227,36,04,40,145,40,1*7F
$GAGSV,2,2,07,11,39,316,39,19,32,070,35,25,29,293,18,1*43
$GBGSV,4,1,15,40,77,175,43,33,75,109,44,07,74,225,39,10,70,267,40,1*77
$GBGSV,4,2,15,08,55,286,25,14,54,055,43,43,50,080,46,13,48,272,,1*75
$GBGSV,4,3,15,28,48,338,44,41,37,200,35,42,29,043,41,11,26,097,35,1*7D
$GBGSV,4,4,15,37,11,259,,34,10,110,18,23,10,210,,1*44
$GBGSV,2,1,06,40,77,175,45,33,75,109,46,43,50,080,44,28,48,338,42,4*7A
$GBGSV,2,2,06,41,37,200,39,42,29,043,41,4*73
$GNGGA,042223.000,2500.7913882,N,12132.4418250,E,4,58,0.47,15.996,M,15.25,M,1,3335*4E
$GNRMC,042223.000,A,2500.7913882,N,12132.4418250,E,0.00,20.94,270623,,,R,V*25
$PAIR010,0,1,2268,188561*37
$GPHDT,,T*1B
$GNGGA,042223.200,2500.7913888,N,12132.4418210,E,4,59,0.47,15.998,M,15.25,M,1,3335*4D
$GNRMC,042223.200,A,2500.7913888,N,12132.4418210,E,0.00,20.94,270623,,,R,V*29
$GPHDT,,T*1B
$GNGGA,042223.400,2500.7913919,N,12132.4418186,E,4,59,0.47,16.022,M,15.25,M,1,3335*45
$GNRMC,042223.400,A,2500.7913919,N,12132.4418186,E,0.00,20.94,270623,,,R,V*2A
$GPHDT,,T*1B
$GNGGA,042223.600,2500.7913912,N,12132.4418213,E,4,59,0.47,16.034,M,15.25,M,1,3335*44
$GNRMC,042223.600,A,2500.7913912,N,12132.4418213,E,0.00,20.94,270623,,,R,V*2C
$GPHDT,,T*1B
$GNGGA,042223.800,2500.7913877,N,12132.4418229,E,4,58,0.47,15.987,M,15.25,M,0,3335*43
$GNRMC,042223.800,A,2500.7913877,N,12132.4418229,E,0.00,20.94,270623,,,R,V*29
$GPHDT,,T*1B
$GNGSA,A,3,19,195,196,199,17,06,20,09,194,11,12,04,0.88,0.47,0.74,1*0B
$GNGSA,A,3,14,,,,,,,,,,,,0.88,0.47,0.74,1*04
$GNGSA,A,3,68,83,67,82,69,,,,,,,,0.88,0.47,0.74,2*03
$GNGSA,A,3,10,12,24,04,11,19,25,33,,,,,0.88,0.47,0.74,3*0C
$GNGSA,A,3,40,33,07,10,08,14,43,28,41,42,11,34,0.88,0.47,0.74,4*02
$GPGSV,4,1,15,19,72,070,44,195,69,049,40,196,69,120,41,50,60,167,38,1*6B
$GPGSV,4,2,15,199,60,167,35,17,57,110,43,06,49,005,42,20,41,245,43,1*5F
$GPGSV,4,3,15,09,37,085,42,194,34,173,43,11,34,303,30,12,22,306,34,1*5D
$GPGSV,4,4,15,04,18,056,27,05,16,230,,14,11,172,18,1*50
$GPGSV,2,1,08,196,69,120,44,195,69,049,44,199,60,167,44,06,49,005,47,8*51
$GPGSV,2,2,08,09,37,085,39,11,34,303,35,194,34,173,41,04,18,056,35,8*5D
$GLGSV,2,1,08,68,67,121,41,83,40,003,31,67,36,040,42,82,35,062,42,1*7D
$GLGSV,2,2,08,69,29,184,42,73,18,269,14,80,11,216,,74,08,312,,1*7C
$GAGSV,3,1,10,10,49,354,42,12,45,033,36,24,41,227,34,04,40,145,36,7*79
$GAGSV,3,2,10,11,39,316,38,19,32,070,34,25,29,293,,33,10,076,,7*7B
$GAGSV,3,3,10,09,09,189,,36,03,281,,7*7F
$GAGSV,2,1,08,10,49,354,45,12,45,033,41,24,41,227,36,04,40,145,40,1*73
$GAGSV,2,2,08,11,39,316,40,19,32,070,35,25,29,293,18,33,10,076,20,1*70
$GBGSV,4,1,14,40,77,175,43,33,75,109,44,07,74,225,39,10,70,267,40,1*76
$GBGSV,4,2,14,08,55,286,26,14,54,055,42,43,50,080,46,28,48,338,44,1*71
$GBGSV,4,3,14,41,37,200,35,42,29,043,41,11,26,097,35,37,11,259,,1*78
$GBGSV,4,4,14,23,10,210,,34,10,110,21,1*75
$GBGSV,2,1,06,40,77,175,45,33,75,109,47,43,50,080,44,28,48,338,42,4*7B
$GBGSV,2,2,06,41,37,200,39,42,29,043,42,4*70
$GNGGA,042224.000,2500.7913906,N,12132.4418227,E,4,58,0.47,15.978,M,15.25,M,1,3335*44
$GNRMC,042224.000,A,2500.7913906,N,12132.4418227,E,0.00,20.94,270623,,,R,V*2F
$GPHDT,,T*1B
$GNGGA,042224.200,2500.7913794,N,12132.4418266,E,4,58,0.47,15.952,M,15.25,M,1,3335*4E
$GNRMC,042224.200,A,2500.7913794,N,12132.4418266,E,0.00,20.94,270623,,,R,V*2D
$GPHDT,,T*1B
$GNGGA,042224.400,2500.7913816,N,12132.4418262,E,4,58,0.47,15.956,M,15.25,M,1,3335*4D
$GNRMC,042224.400,A,2500.7913816,N,12132.4418262,E,0.00,20.94,270623,,,R,V*2A
$GPHDT,,T*1B
$GNGGA,042224.600,2500.7913837,N,12132.4418257,E,4,58,0.47,15.947,M,15.25,M,0,3335*4B
$GNRMC,042224.600,A,2500.7913837,N,12132.4418257,E,0.00,20.94,270623,,,R,V*2D
$GPHDT,,T*1B
$GNGGA,042224.800,2500.7913834,N,12132.4418256,E,4,58,0.47,15.940,M,15.25,M,0,3335*40
$GNRMC,042224.800,A,2500.7913834,N,12132.4418256,E,0.00,20.94,270623,,,R,V*21
$GPHDT,,T*1B
$GNGSA,A,3,19,195,196,199,17,06,20,09,194,11,12,04,0.88,0.47,0.74,1*0B
$GNGSA,A,3,14,,,,,,,,,,,,0.88,0.47,0.74,1*04
$GNGSA,A,3,68,83,67,82,69,,,,,,,,0.88,0.47,0.74,2*03
$GNGSA,A,3,10,12,24,04,11,19,25,33,,,,,0.88,0.47,0.74,3*0C
$GNGSA,A,3,40,33,07,10,08,14,43,28,41,42,11,34,0.88,0.47,0.74,4*02
$GPGSV,4,1,15,19,72,070,44,195,69,049,40,196,69,120,41,50,60,167,38,1*6B
$GPGSV,4,2,15,199,60,167,35,17,57,110,43,06,49,005,42,20,41,245,43,1*5F
$GPGSV,4,3,15,09,37,085,42,194,34,173,43,11,34,303,28,12,22,306,34,1*54
$GPGSV,4,4,15,04,18,056,27,05,16,230,,14,11,172,18,1*50
$GPGSV,2,1,08,196,69,120,44,195,69,049,44,199,60,167,44,06,49,005,47,8*51
$GPGSV,2,2,08,09,37,085,38,11,34,303,35,194,34,173,41,04,18,056,35,8*5C
$GLGSV,2,1,08,68,67,121,41,83,40,003,31,67,36,040,42,82,35,062,42,1*7D
$GLGSV,2,2,08,69,29,184,41,73,18,269,14,80,11,216,,74,08,312,,1*7F
$GAGSV,3,1,10,10,49,354,42,12,45,033,36,24,41,227,33,04,40,145,34,7*7C
$GAGSV,3,2,10,11,39,316,38,19,32,070,34,25,29,293,,33,10,076,,7*7B
$GAGSV,3,3,10,09,09,189,,36,03,281,,7*7F
$GAGSV,2,1,08,10,49,354,45,12,45,033,41,24,41,227,36,04,40,145,39,1*7D
$GAGSV,2,2,08,11,39,316,40,19,32,070,35,25,29,293,14,33,10,076,20,1*7C
$GBGSV,4,1,14,40,77,175,43,33,75,109,44,07,74,225,39,10,70,267,40,1*76
$GBGSV,4,2,14,08,55,286,26,14,54,055,42,43,50,080,46,28,48,338,44,1*71
$GBGSV,4,3,14,41,37,200,35,42,29,043,41,11,26,097,35,37,11,259,,1*78
$GBGSV,4,4,14,23,10,210,,34,10,110,23,1*77
$GBGSV,2,1,06,40,77,175,45,33,75,109,47,43,50,080,44,28,48,338,42,4*7B
$GBGSV,2,2,06,41,37,200,39,42,29,043,42,4*70
$GNGGA,042225.000,2500.7913826,N,12132.4418279,E,4,58,0.47,15.954,M,15.25,M,1,3335*43
$GNRMC,042225.000,A,2500.7913826,N,12132.4418279,E,0.00,20.94,270623,,,R,V*26
$GPHDT,,T*1B
$GNGGA,042225.200,2500.7913821,N,12132.4418282,E,4,58,0.47,15.961,M,15.25,M,1,3335*44
$GNRMC,042225.200,A,2500.7913821,N,12132.4418282,E,0.00,20.94,270623,,,R,V*27
$GPHDT,,T*1B
$GNGGA,042225.400,2500.7913859,N,12132.4418263,E,4,58,0.47,15.982,M,15.25,M,1,3335*4F
$GNRMC,042225.400,A,2500.7913859,N,12132.4418263,E,0.00,20.94,270623,,,R,V*21
$GPHDT,,T*1B
$GNGGA,042225.600,2500.7913827,N,12132.4418227,E,4,58,0.47,15.980,M,15.25,M,0,3335*47
$GNRMC,042225.600,A,2500.7913827,N,12132.4418227,E,0.00,20.94,270623,,,R,V*2A
$GPHDT,,T*1B
$GNGGA,042225.800,2500.7913911,N,12132.4418236,E,4,58,0.47,15.975,M,15.25,M,0,3335*47
$GNRMC,042225.800,A,2500.7913911,N,12132.4418236,E,0.00,20.94,270623,,,R,V*20
$GPHDT,,T*1B
$GNGSA,A,3,19,195,196,199,17,06,20,09,194,11,12,04,0.88,0.47,0.74,1*0B
$GNGSA,A,3,14,,,,,,,,,,,,0.88,0.47,0.74,1*04
$GNGSA,A,3,68,83,67,82,69,,,,,,,,0.88,0.47,0.74,2*03
$GNGSA,A,3,10,12,24,04,11,19,25,33,,,,,0.88,0.47,0.74,3*0C
$GNGSA,A,3,40,33,07,10,08,14,43,28,41,42,11,34,0.88,0.47,0.74,4*02
$GPGSV,4,1,15,19,72,070,44,195,69,049,40,196,69,120,41,50,60,167,38,1*6B
$GPGSV,4,2,15,199,60,167,35,17,57,110,41,06,49,005,42,20,41,245,43,1*5D
$GPGSV,4,3,15,09,37,085,41,194,34,173,43,11,34,303,29,12,22,306,34,1*56
$GPGSV,4,4,15,04,18,056,29,05,16,230,,14,11,172,18,1*5E
$GPGSV,2,1,08,196,69,120,44,195,69,049,44,199,60,167,44,06,49,005,47,8*51
$GPGSV,2,2,08,09,37,085,38,11,34,303,34,194,34,173,41,04,18,056,35,8*5D
$GLGSV,2,1,06,68,67,121,41,83,40,003,31,67,36,040,40,82,35,062,42,1*71
$GLGSV,2,2,06,69,29,184,42,73,18,269,13,1*73
$GAGSV,3,1,10,10,49,354,42,12,45,033,36,24,41,227,33,04,40,145,37,7*7F
$GAGSV,3,2,10,11,39,316,38,19,32,070,35,25,29,293,,33,10,076,,7*7A
$GAGSV,3,3,10,09,09,189,,36,03,281,,7*7F
$GAGSV,2,1,08,10,49,354,45,12,45,033,41,24,41,227,36,04,40,145,39,1*7D
$GAGSV,2,2,08,11,39,316,40,19,32,070,35,25,29,293,13,33,10,076,20,1*7B
$GBGSV,4,1,14,40,77,175,43,33,75,109,44,07,74,225,40,10,70,267,40,1*78
$GBGSV,4,2,14,08,55,286,26,14,54,055,42,43,50,080,46,28,48,338,44,1*71
$GBGSV,4,3,14,13,48,272,,41,37,200,35,42,29,043,41,11,26,097,35,1*7B
$GBGSV,4,4,14,23,10,210,,34,10,110,23,1*77
$GBGSV,2,1,07,40,77,175,45,33,75,109,47,43,50,080,44,28,48,338,42,4*7A
$GBGSV,2,2,07,41,37,200,39,42,29,043,42,34,10,110,16,4*40
$GNGGA,042226.000,2500.7913903,N,12132.4418236,E,4,58,0.47,15.981,M,15.25,M,1,3335*45
$GNRMC,042226.000,A,2500.7913903,N,12132.4418236,E,0.00,20.94,270623,,,R,V*28
$GPHDT,,T*1B
$GNGGA,042226.200,2500.7913844,N,12132.4418219,E,4,58,0.47,16.013,M,15.25,M,1,3335*49
$GNRMC,042226.200,A,2500.7913844,N,12132.4418219,E,0.00,20.94,270623,,,R,V*25
$GPHDT,,T*1B
$GNGGA,042226.400,2500.7913766,N,12132.4418265,E,4,58,0.47,15.965,M,15.25,M,1,3335*40
$GNRMC,042226.400,A,2500.7913766,N,12132.4418265,E,0.00,20.94,270623,,,R,V*27
$GPHDT,,T*1B
$GNGGA,042226.600,2500.7913808,N,12132.4418257,E,4,59,0.47,15.933,M,15.25,M,1,3335*46
$GNRMC,042226.600,A,2500.7913808,N,12132.4418257,E,0.00,20.94,270623,,,R,V*23
$GPHDT,,T*1B
$GNGGA,042226.800,2500.7913799,N,12132.4418275,E,4,59,0.47,15.996,M,15.25,M,0,3335*41
$GNRMC,042226.800,A,2500.7913799,N,12132.4418275,E,0.00,20.94,270623,,,R,V*2A
$GPHDT,,T*1B
$GNGSA,A,3,19,195,196,199,17,06,20,09,194,11,12,04,0.88,0.47,0.74,1*0B
$GNGSA,A,3,14,,,,,,,,,,,,0.88,0.47,0.74,1*04
$GNGSA,A,3,68,83,67,82,69,,,,,,,,0.88,0.47,0.74,2*03
$GNGSA,A,3,10,12,24,04,11,19,25,33,,,,,0.88,0.47,0.74,3*0C
$GNGSA,A,3,40,33,07,10,08,14,43,28,41,42,11,34,0.88,0.47,0.74,4*02
$GPGSV,4,1,15,19,72,070,44,195,69,049,40,196,69,120,41,50,60,167,37,1*64
$GPGSV,4,2,15,199,60,167,35,17,57,110,41,06,49,005,42,20,41,245,43,1*5D
$GPGSV,4,3,15,09,37,085,40,194,34,173,39,11,34,303,28,12,22,306,35,1*5A
$GPGSV,4,4,15,04,18,056,27,05,16,230,,14,11,172,18,1*50
$GPGSV,2,1,08,196,69,120,44,195,69,049,44,199,60,167,44,06,49,005,47,8*51
$GPGSV,2,2,08,09,37,085,39,11,34,303,34,194,34,173,38,04,18,056,35,8*52
$GLGSV,2,1,06,68,67,121,41,83,40,003,30,67,36,040,38,82,35,062,42,1*7F
$GLGSV,2,2,06,69,29,184,43,73,18,269,15,1*74
$GAGSV,3,1,10,10,49,354,42,12,45,033,36,24,41,227,34,04,40,145,35,7*7A
$GAGSV,3,2,10,11,39,316,38,19,32,070,35,25,29,293,,33,10,076,,7*7A
$GAGSV,3,3,10,09,09,189,,36,03,281,,7*7F
$GAGSV,2,1,08,10,49,354,46,12,45,033,41,24,41,227,35,04,40,145,39,1*7D
$GAGSV,2,2,08,11,39,316,40,19,32,070,36,25,29,293,13,33,10,076,21,1*79
$GBGSV,4,1,14,40,77,175,43,33,75,109,44,07,74,225,40,10,70,267,40,1*78
$GBGSV,4,2,14,08,55,286,27,14,54,055,42,43,50,080,45,28,48,338,44,1*73
$GBGSV,4,3,14,41,37,200,36,42,29,043,41,11,26,097,35,37,11,259,,1*7B
$GBGSV,4,4,14,23,10,210,,34,10,110,23,1*77
$GBGSV,2,1,07,40,77,175,45,33,75,109,47,43,50,080,44,28,48,338,42,4*7A
$GBGSV,2,2,07,41,37,200,41,42,29,043,42,34,10,110,15,4*4C
$GNGGA,042227.000,2500.7913789,N,12132.4418246,E,4,59,0.47,16.018,M,15.25,M,1,3335*44
$GNRMC,042227.000,A,2500.7913789,N,12132.4418246,E,0.00,20.94,270623,,,R,V*22
$GPHDT,,T*1B
$GNGGA,042227.200,2500.7913854,N,12132.4418232,E,4,59,0.47,16.008,M,15.25,M,1,3335*4B
$GNRMC,042227.200,A,2500.7913854,N,12132.4418232,E,0.00,20.94,270623,,,R,V*2C
$GPHDT,,T*1B
$GNGGA,042227.400,2500.7913790,N,12132.4418265,E,4,59,0.47,16.022,M,15.25,M,1,3335*40
$GNRMC,042227.400,A,2500.7913790,N,12132.4418265,E,0.00,20.94,270623,,,R,V*2F
$GPHDT,,T*1B
$GNGGA,042227.600,2500.7913799,N,12132.4418278,E,4,58,0.49,16.008,M,15.25,M,0,3335*41
$GNRMC,042227.600,A,2500.7913799,N,12132.4418278,E,0.00,20.94,270623,,,R,V*28
$GPHDT,,T*1B
$GNGGA,042227.800,2500.7913801,N,12132.4418284,E,4,59,0.47,16.014,M,15.25,M,0,3335*40
$GNRMC,042227.800,A,2500.7913801,N,12132.4418284,E,0.00,20.94,270623,,,R,V*2B
$GPHDT,,T*1B
$GNGSA,A,3,19,195,196,199,17,06,20,09,194,11,12,04,0.88,0.47,0.74,1*0B
$GNGSA,A,3,14,,,,,,,,,,,,0.88,0.47,0.74,1*04
$GNGSA,A,3,68,83,67,82,69,,,,,,,,0.88,0.47,0.74,2*03
$GNGSA,A,3,10,12,24,04,11,19,25,33,,,,,0.88,0.47,0.74,3*0C
$GNGSA,A,3,40,33,07,10,08,14,43,28,41,42,11,34,0.88,0.47,0.74,4*02
$GPGSV,4,1,15,19,72,070,44,195,69,049,39,196,69,120,41,50,60,167,36,1*6B
$GPGSV,4,2,15,199,60,167,35,17,57,110,41,06,49,005,42,20,41,245,43,1*5D
$GPGSV,4,3,15,09,37,085,39,194,34,173,39,11,34,303,28,12,22,306,35,1*54
$GPGSV,4,4,15,04,18,056,25,05,16,230,,14,11,172,18,1*52
$GPGSV,2,1,08,196,69,120,44,195,69,049,44,199,60,167,44,06,49,005,47,8*51
$GPGSV,2,2,08,09,37,085,39,11,34,303,34,194,34,173,37,04,18,056,35,8*5D
$GLGSV,2,1,06,68,67,121,41,83,40,003,30,67,36,040,38,82,35,062,42,1*7F
$GLGSV,2,2,06,69,29,184,43,73,18,269,17,1*76
$GAGSV,3,1,09,10,49,354,42,12,45,033,36,24,41,227,35,04,40,145,33,7*75
$GAGSV,3,2,09,11,39,316,38,19,32,070,34,25,29,293,16,33,10,076,,7*74
$GAGSV,3,3,09,36,03,281,,7*47
$GAGSV,2,1,07,10,49,354,46,12,45,033,41,24,41,227,35,04,40,145,39,1*72
$GAGSV,2,2,07,11,39,316,40,19,32,070,36,33,10,076,22,1*43
$GBGSV,4,1,14,40,77,175,43,33,75,109,44,07,74,225,40,10,70,267,40,1*78
$GBGSV,4,2,14,08,55,286,27,14,54,055,41,43,50,080,45,28,48,338,44,1*70
$GBGSV,4,3,14,41,37,200,36,42,29,043,40,11,26,097,35,37,11,259,,1*7A
$GBGSV,4,4,14,23,10,210,,34,10,110,24,1*70
$GBGSV,2,1,07,40,77,175,45,33,75,109,47,43,50,080,44,28,48,338,42,4*7A
$GBGSV,2,2,07,41,37,200,41,42,29,043,42,34,10,110,13,4*4A
$GNGGA,042228.000,2500.7913780,N,12132.4418275,E,4,59,0.47,16.010,M,15.25,M,1,3335*4A
$GNRMC,042228.000,A,2500.7913780,N,12132.4418275,E,0.00,20.94,270623,,,R,V*24
$GPHDT,,T*1B
$GNGGA,042228.200,2500.7913808,N,12132.4418288,E,4,58,0.47,16.009,M,15.25,M,1,3335*4C
$GNRMC,042228.200,A,2500.7913808,N,12132.4418288,E,0.00,20.94,270623,,,R,V*2B
$GPHDT,,T*1B
$GNGGA,042228.400,2500.7913803,N,12132.4418296,E,4,58,0.47,16.020,M,15.25,M,1,3335*45
$GNRMC,042228.400,A,2500.7913803,N,12132.4418296,E,0.00,20.94,270623,,,R,V*29
$GPHDT,,T*1B
$GNGGA,042228.600,2500.7913871,N,12132.4418273,E,4,59,0.47,16.014,M,15.25,M,0,3335*4E
$GNRMC,042228.600,A,2500.7913871,N,12132.4418273,E,0.00,20.94,270623,,,R,V*25
$GPHDT,,T*1B
$GNGGA,042228.800,2500.7913872,N,12132.4418264,E,4,59,0.47,16.012,M,15.25,M,0,3335*43
$GNRMC,042228.800,A,2500.7913872,N,12132.4418264,E,0.00,20.94,270623,,,R,V*2E
$GPHDT,,T*1B
$GNGSA,A,3,19,195,196,199,17,06,20,09,194,11,12,04,0.88,0.47,0.74,1*0B
$GNGSA,A,3,14,,,,,,,,,,,,0.88,0.47,0.74,1*04
$GNGSA,A,3,68,83,67,82,69,,,,,,,,0.88,0.47,0.74,2*03
$GNGSA,A,3,10,12,24,04,11,19,25,33,,,,,0.88,0.47,0.74,3*0C
$GNGSA,A,3,40,33,07,10,08,14,43,28,41,42,11,34,0.88,0.47,0.74,4*02
$GPGSV,4,1,15,19,72,070,44,195,69,049,39,196,69,120,41,50,60,167,38,1*65
$GPGSV,4,2,15,199,60,167,35,17,57,110,41,06,49,005,42,20,41,245,43,1*5D
$GPGSV,4,3,15,09,37,085,39,194,34,173,39,11,34,303,28,12,22,306,33,1*52
$GPGSV,4,4,15,04,18,056,25,05,16,230,,14,11,172,18,1*52
$GPGSV,2,1,08,196,69,120,44,195,69,049,44,199,60,167,44,06,49,005,47,8*51
$GPGSV,2,2,08,09,37,085,39,11,34,303,33,194,34,173,37,04,18,056,35,8*5A
$GLGSV,2,1,07,68,67,121,41,83,40,003,30,67,36,040,37,82,35,062,42,1*71
$GLGSV,2,2,07,69,29,184,43,73,18,269,20,80,11,216,,1*4E
$GAGSV,2,1,08,10,49,354,42,12,45,033,36,24,41,227,34,04,40,145,35,7*72
$GAGSV,2,2,08,11,39,316,38,19,32,070,34,25,29,293,16,09,09,189,,7*74
$GAGSV,2,1,07,10,49,354,46,12,45,033,41,24,41,227,35,04,40,145,39,1*72
$GAGSV,2,2,07,11,39,316,40,19,32,070,36,33,10,076,22,1*43
$GBGSV,4,1,14,40,77,175,43,33,75,109,44,07,74,225,40,10,70,267,40,1*78
$GBGSV,4,2,14,08,55,286,27,14,54,055,41,43,50,080,45,28,48,338,44,1*70
$GBGSV,4,3,14,41,37,200,36,42,29,043,40,11,26,097,35,37,11,259,,1*7A
$GBGSV,4,4,14,23,10,210,,34,10,110,24,1*70
$GBGSV,2,1,07,40,77,175,45,33,75,109,47,43,50,080,44,28,48,338,42,4*7A
$GBGSV,2,2,07,41,37,200,41,42,29,043,42,34,10,110,14,4*4D
$GNGGA,042229.000,2500.7913765,N,12132.4418280,E,4,59,0.47,15.931,M,15.25,M,1,3335*43
$GNRMC,042229.000,A,2500.7913765,N,12132.4418280,E,0.00,20.94,270623,,,R,V*24
$GPHDT,,T*1B
$GNGGA,042229.200,2500.7913767,N,12132.4418287,E,4,58,0.47,15.933,M,15.25,M,1,3335*47
$GNRMC,042229.200,A,2500.7913767,N,12132.4418287,E,0.00,20.94,270623,,,R,V*23
$GPHDT,,T*1B
$GNGGA,042229.400,2500.7913782,N,12132.4418285,E,4,58,0.47,15.927,M,15.25,M,1,3335*4D
$GNRMC,042229.400,A,2500.7913782,N,12132.4418285,E,0.00,20.94,270623,,,R,V*2C
$GPHDT,,T*1B
$GNGGA,042229.600,2500.7913850,N,12132.4418312,E,4,58,0.47,15.971,M,15.25,M,1,3335*43
$GNRMC,042229.600,A,2500.7913850,N,12132.4418312,E,0.00,20.94,270623,,,R,V*21
$GPHDT,,T*1B
$GNGGA,042229.800,2500.7913845,N,12132.4418249,E,4,58,0.47,16.001,M,15.25,M,0,3335*4A
$GNRMC,042229.800,A,2500.7913845,N,12132.4418249,E,0.00,20.94,270623,,,R,V*24
$GPHDT,,T*1B
$GNGSA,A,3,19,195,196,199,17,06,20,09,194,11,12,04,0.88,0.47,0.74,1*0B
$GNGSA,A,3,14,,,,,,,,,,,,0.88,0.47,0.74,1*04
$GNGSA,A,3,68,83,67,82,69,,,,,,,,0.88,0.47,0.74,2*03
$GNGSA,A,3,10,12,24,04,11,19,25,33,,,,,0.88,0.47,0.74,3*0C
$GNGSA,A,3,40,33,07,10,08,14,43,28,41,42,11,34,0.88,0.47,0.74,4*02
$GPGSV,4,1,15,19,72,070,44,195,69,049,39,196,69,120,41,50,60,167,38,1*65
$GPGSV,4,2,15,199,60,167,35,17,57,110,42,06,49,005,42,20,41,245,43,1*5E
$GPGSV,4,3,15,09,37,085,39,194,34,173,43,11,34,303,28,12,22,305,33,1*5C
$GPGSV,4,4,15,04,18,056,27,05,16,230,,14,11,172,19,1*51
$GPGSV,2,1,08,196,69,120,44,195,69,049,44,199,60,167,45,06,49,005,47,8*50
$GPGSV,2,2,08,09,37,085,38,11,34,303,33,194,34,173,39,04,18,056,35,8*55
$GLGSV,2,1,07,68,67,121,42,83,40,003,30,67,36,040,39,82,35,062,42,1*7C
$GLGSV,2,2,07,69,29,184,43,73,18,269,21,80,11,216,,1*4F
$GAGSV,3,1,09,10,49,354,42,12,45,033,36,24,41,227,33,04,40,145,35,7*75
$GAGSV,3,2,09,11,39,316,38,19,32,070,34,25,29,293,17,33,10,076,,7*75
$GAGSV,3,3,09,09,09,189,,7*4A
$GAGSV,2,1,07,10,49,354,46,12,45,033,41,24,41,227,35,04,40,145,39,1*72
$GAGSV,2,2,07,11,39,316,40,19,32,070,36,33,10,076,21,1*40
$GBGSV,4,1,14,40,77,175,43,33,75,109,44,07,74,225,40,10,70,267,40,1*78
$GBGSV,4,2,14,08,55,286,27,14,54,055,41,43,50,080,45,28,48,338,44,1*70
$GBGSV,4,3,14,41,37,200,36,42,29,043,40,11,26,097,35,37,11,259,,1*7A
$GBGSV,4,4,14,23,10,210,,34,10,110,23,1*77
$GBGSV,2,1,06,40,77,175,45,33,75,109,47,43,50,080,44,28,48,338,42,4*7B
$GBGSV,2,2,06,41,37,200,41,42,29,043,42,4*7F
$GNGGA,042230.000,2500.7913859,N,12132.4418255,E,4,58,0.47,16.002,M,15.25,M,1,3335*48
$GNRMC,042230.000,A,2500.7913859,N,12132.4418255,E,0.00,20.94,270623,,,R,V*24
$GPHDT,,T*1B
$GNGGA,042230.200,2500.7913844,N,12132.4418249,E,4,58,0.47,15.993,M,15.25,M,1,3335*49
$GNRMC,042230.200,A,2500.7913844,N,12132.4418249,E,0.00,20.94,270623,,,R,V*27
$GPHDT,,T*1B
$GNGGA,042230.400,2500.7913850,N,12132.4418243,E,4,58,0.47,15.987,M,15.25,M,1,3335*45
$GNRMC,042230.400,A,2500.7913850,N,12132.4418243,E,0.00,20.94,270623,,,R,V*2E
$GPHDT,,T*1B
$GNGGA,042230.600,2500.7913838,N,12132.4418289,E,4,59,0.47,15.999,M,15.25,M,1,3335*41
$GNRMC,042230.600,A,2500.7913838,N,12132.4418289,E,0.00,20.94,270623,,,R,V*24
$GPHDT,,T*1B
$GNGGA,042230.800,2500.7913908,N,12132.4418215,E,4,59,0.47,16.001,M,15.25,M,0,3335*42
$GNRMC,042230.800,A,2500.7913908,N,12132.4418215,E,0.00,20.94,270623,,,R,V*2D
$GPHDT,,T*1B
