$FW : RTK35X,V1.1X0314AS,Lib20210517,1*54
$Tool : LOCOSYS , GNSS Firebird , v1.0.0.19*39
$---------------------------------------------------*2D
,145,44,1*79
$GAGSV,2,2,07,19,32,071,36,25,29,294,24,33,10,075,22,1*4E
$GBGSV,4,1,15,40,77,173,42,33,75,114,42,07,74,226,41,10,70,268,39,1*77
$GBGSV,4,2,15,08,56,285,15,14,55,056,44,43,50,078,46,13,48,271,,1*77
$GBGSV,4,3,15,28,47,337,45,41,36,200,33,42,30,043,38,11,27,096,27,1*7E
$GBGSV,4,4,15,37,12,260,,23,10,210,,34,10,109,,1*4C
$GBGSV,2,1,06,40,77,173,44,33,75,114,46,43,50,078,42,28,47,337,44,4*76
$GBGSV,2,2,06,41,36,200,37,42,30,043,41,4*74
$GNGGA,041950.000,2500.7913924,N,12132.4418253,E,4,56,0.49,15.988,M,15.25,M,1,3335*43
$GNRMC,041950.000,A,2500.7913924,N,12132.4418253,E,0.00,20.94,270623,,,R,V*27
$GPHDT,,T*1B
$GNGGA,041950.200,2500.7913900,N,12132.4418256,E,4,56,0.49,15.983,M,15.25,M,1,3335*49
$GNRMC,041950.200,A,2500.7913900,N,12132.4418256,E,0.00,20.94,270623,,,R,V*26
$GPHDT,,T*1B
$GNGGA,041950.400,2500.7913917,N,12132.4418258,E,4,56,0.49,15.982,M,15.25,M,1,3335*46
$GNRMC,041950.400,A,2500.7913917,N,12132.4418258,E,0.00,20.94,270623,,,R,V*28
$GPHDT,,T*1B
$GNGGA,041950.600,2500.7913918,N,12132.4418261,E,4,56,0.49,15.986,M,15.25,M,1,3335*45
$GNRMC,041950.600,A,2500.7913918,N,12132.4418261,E,0.00,20.94,270623,,,R,V*2F
$GPHDT,,T*1B
$GNGGA,041950.800,2500.7913907,N,12132.4418230,E,4,56,0.49,15.999,M,15.25,M,0,3335*4E
$GNRMC,041950.800,A,2500.7913907,N,12132.4418230,E,0.00,20.94,270623,,,R,V*2B
$GPHDT,,T*1B
$GNGSA,A,3,19,195,196,199,17,06,20,09,194,11,12,04,0.93,0.49,0.79,1*02
$GNGSA,A,3,14,,,,,,,,,,,,0.93,0.49,0.79,1*0D
$GNGSA,A,3,68,83,67,82,69,,,,,,,,0.93,0.49,0.79,2*0A
$GNGSA,A,3,10,12,24,04,19,25,33,,,,,,0.93,0.49,0.79,3*05
$GNGSA,A,3,40,33,07,10,14,43,28,41,42,11,,,0.93,0.49,0.79,4*04
$GPGSV,4,1,15,19,72,067,43,195,68,049,39,196,68,120,40,199,60,167,36,1*5F
$GPGSV,4,2,15,50,60,167,39,17,57,109,42,06,49,003,22,20,40,244,39,1*63
$GPGSV,4,3,15,09,37,086,45,194,35,173,40,11,34,301,28,12,22,306,41,1*52
$GPGSV,4,4,15,04,18,057,26,05,15,229,17,14,12,172,11,1*57
$GPGSV,3,1,09,196,68,120,45,195,68,049,44,199,60,167,46,06,49,003,38,8*5C
$GPGSV,3,2,09,09,37,086,44,194,35,173,39,11,34,301,30,04,18,057,23,8*5B
$GPGSV,3,3,09,14,12,172,19,8*5E
$GLGSV,2,1,07,68,66,124,41,83,39,001,22,67,37,041,44,82,35,060,46,1*78
$GLGSV,2,2,07,69,27,184,41,73,19,271,14,80,11,217,,1*4C
$GAGSV,3,1,09,10,49,352,39,12,45,031,31,24,42,228,36,04,39,145,42,7*7D
$GAGSV,3,2,09,19,32,071,37,25,29,294,17,33,10,075,24,09,08,189,16,7*76
$GAGSV,3,3,09,36,03,280,,7*46
$GAGSV,2,1,07,10,49,352,39,12,45,031,35,24,42,228,39,04,39,145,44,1*79
$GAGSV,2,2,07,19,32,071,36,25,29,294,24,33,10,075,23,1*4F
$GBGSV,4,1,15,40,77,173,42,33,75,114,42,07,74,226,41,10,70,268,39,1*77
$GBGSV,4,2,15,08,56,285,15,14,55,056,44,43,50,078,46,13,48,271,,1*77
$GBGSV,4,3,15,28,47,337,45,41,36,200,34,42,30,043,38,11,27,096,27,1*79
$GBGSV,4,4,15,37,12,260,,34,10,109,,23,10,210,,1*4C
$GBGSV,2,1,06,40,77,173,44,33,75,114,46,43,50,078,42,28,47,337,44,4*76
$GBGSV,2,2,06,41,36,200,37,42,30,043,41,4*74
$GNGGA,041951.000,2500.7913905,N,12132.4418259,E,4,56,0.49,15.997,M,15.25,M,1,3335*45
$GNRMC,041951.000,A,2500.7913905,N,12132.4418259,E,0.00,20.94,270623,,,R,V*2F
$GPHDT,,T*1B
$GNGGA,041951.200,2500.7913906,N,12132.4418233,E,4,56,0.49,15.985,M,15.25,M,1,3335*4B
$GNRMC,041951.200,A,2500.7913906,N,12132.4418233,E,0.00,20.94,270623,,,R,V*22
$GPHDT,,T*1B
$GNGGA,041951.400,2500.7913934,N,12132.4418229,E,4,55,0.49,15.989,M,15.25,M,1,3335*48
$GNRMC,041951.400,A,2500.7913934,N,12132.4418229,E,0.00,20.94,270623,,,R,V*2E
$GPHDT,,T*1B
$GNGGA,041951.600,2500.7913906,N,12132.4418228,E,4,56,0.49,15.984,M,15.25,M,0,3335*45
$GNRMC,041951.600,A,2500.7913906,N,12132.4418228,E,0.00,20.94,270623,,,R,V*2C
$GPHDT,,T*1B
$GNGGA,041951.800,2500.7913889,N,12132.4418251,E,4,56,0.49,15.987,M,15.25,M,0,3335*40
$GNRMC,041951.800,A,2500.7913889,N,12132.4418251,E,0.00,20.94,270623,,,R,V*2A
$GPHDT,,T*1B
$GNGSA,A,3,19,195,196,199,17,06,20,09,194,11,12,04,0.93,0.49,0.79,1*02
$GNGSA,A,3,14,,,,,,,,,,,,0.93,0.49,0.79,1*0D
$GNGSA,A,3,68,83,67,82,69,,,,,,,,0.93,0.49,0.79,2*0A
$GNGSA,A,3,10,12,24,04,19,25,33,,,,,,0.93,0.49,0.79,3*05
$GNGSA,A,3,40,33,07,10,14,43,28,41,42,11,,,0.93,0.49,0.79,4*04
$GPGSV,4,1,15,19,72,067,43,195,68,049,39,196,68,120,40,199,60,167,36,1*5F
$GPGSV,4,2,15,50,60,167,39,17,57,109,42,06,49,003,24,20,40,244,39,1*65
$GPGSV,4,3,15,09,37,086,45,194,35,173,40,11,34,301,30,12,22,306,41,1*5B
$GPGSV,4,4,15,04,18,057,24,05,15,229,17,14,12,172,14,1*50
$GPGSV,3,1,09,196,68,120,45,195,68,049,44,199,60,167,46,06,49,003,38,8*5C
$GPGSV,3,2,09,09,37,086,44,194,35,173,39,11,34,301,30,04,18,057,24,8*5C
$GPGSV,3,3,09,14,12,172,20,8*54
$GLGSV,2,1,07,68,66,124,41,83,39,001,21,67,37,041,45,82,35,060,46,1*7A
$GLGSV,2,2,07,69,27,184,41,73,19,271,16,80,11,217,,1*4E
$GAGSV,3,1,09,10,49,352,39,12,45,031,30,24,42,228,36,04,39,145,42,7*7C
$GAGSV,3,2,09,19,32,071,37,25,29,294,17,33,10,075,25,09,08,189,15,7*74
$GAGSV,3,3,09,36,03,280,,7*46
$GAGSV,2,1,07,10,49,352,39,12,45,031,35,24,42,228,39,04,39,145,44,1*79
$GAGSV,2,2,07,19,32,071,36,25,29,294,25,33,10,075,23,1*4E
$GBGSV,4,1,15,40,77,173,42,33,75,114,42,07,74,226,41,10,70,268,39,1*77
$GBGSV,4,2,15,08,56,285,17,14,55,056,44,43,50,078,46,13,48,271,,1*75
$GBGSV,4,3,15,28,47,337,45,41,36,200,32,42,30,043,40,11,27,096,27,1*70
$GBGSV,4,4,15,37,12,260,,34,10,109,,23,10,210,,1*4C
$GBGSV,2,1,06,40,77,173,44,33,75,114,46,43,50,078,43,28,47,337,45,4*76
$GBGSV,2,2,06,41,36,200,37,42,30,043,41,4*74
$GNGGA,041952.000,2500.7913916,N,12132.4418236,E,4,56,0.49,15.999,M,15.25,M,1,3335*43
$GNRMC,041952.000,A,2500.7913916,N,12132.4418236,E,0.00,20.94,270623,,,R,V*27
$GPHDT,,T*1B
$GNGGA,041952.200,2500.7913927,N,12132.4418259,E,4,55,0.49,15.997,M,15.25,M,1,3335*47
$GNRMC,041952.200,A,2500.7913927,N,12132.4418259,E,0.00,20.94,270623,,,R,V*2E
$GPHDT,,T*1B
$GNGGA,041952.400,2500.7913939,N,12132.4418229,E,4,56,0.49,15.989,M,15.25,M,1,3335*45
$GNRMC,041952.400,A,2500.7913939,N,12132.4418229,E,0.00,20.94,270623,,,R,V*20
$GPHDT,,T*1B
$GNGGA,041952.600,2500.7913952,N,12132.4418242,E,4,56,0.49,15.990,M,15.25,M,0,3335*4E
$GNRMC,041952.600,A,2500.7913952,N,12132.4418242,E,0.00,20.94,270623,,,R,V*22
$GPHDT,,T*1B
$GNGGA,041952.800,2500.7913941,N,12132.4418237,E,4,56,0.49,15.985,M,15.25,M,0,3335*44
$GNRMC,041952.800,A,2500.7913941,N,12132.4418237,E,0.00,20.94,270623,,,R,V*2C
$GPHDT,,T*1B
$GNGSA,A,3,19,195,196,199,17,06,20,09,194,11,12,04,0.93,0.49,0.79,1*02
$GNGSA,A,3,14,,,,,,,,,,,,0.93,0.49,0.79,1*0D
$GNGSA,A,3,68,83,67,82,69,,,,,,,,0.93,0.49,0.79,2*0A
$GNGSA,A,3,10,12,24,04,19,25,33,,,,,,0.93,0.49,0.79,3*05
$GNGSA,A,3,40,33,07,10,14,43,28,41,42,11,,,0.93,0.49,0.79,4*04
$GPGSV,4,1,15,19,72,067,43,195,68,049,39,196,68,120,40,199,60,167,36,1*5F
$GPGSV,4,2,15,50,60,167,39,17,57,109,42,06,49,003,17,20,40,244,40,1*6B
$GPGSV,4,3,15,09,37,086,45,194,35,173,40,11,34,301,29,12,22,306,39,1*5C
$GPGSV,4,4,15,04,18,057,24,05,15,229,16,14,12,172,14,1*51
$GPGSV,3,1,09,196,68,120,45,195,68,049,44,199,60,167,46,06,49,003,36,8*52
$GPGSV,3,2,09,09,37,086,43,194,35,173,40,11,34,301,29,04,18,057,24,8*5D
$GPGSV,3,3,09,14,12,172,19,8*5E
$GLGSV,2,1,07,68,66,124,41,83,39,001,18,67,37,041,45,82,35,060,46,1*70
$GLGSV,2,2,07,69,27,184,42,73,19,271,15,80,11,217,,1*4E
$GAGSV,3,1,09,10,49,352,39,12,45,031,31,24,42,228,36,04,39,145,42,7*7D
$GAGSV,3,2,09,19,32,071,36,25,29,294,17,33,10,075,25,09,08,189,16,7*76
$GAGSV,3,3,09,36,03,280,,7*46
$GAGSV,2,1,07,10,49,352,38,12,45,031,35,24,42,228,39,04,39,145,44,1*78
$GAGSV,2,2,07,19,32,071,36,25,29,294,25,33,10,075,23,1*4E
$GBGSV,4,1,15,40,77,173,42,33,75,114,43,07,74,226,40,10,70,268,39,1*77
$GBGSV,4,2,15,08,56,285,17,14,55,056,44,43,50,078,46,13,48,271,,1*75
$GBGSV,4,3,15,28,47,337,45,41,36,200,32,42,30,043,40,11,27,096,28,1*7F
$GBGSV,4,4,15,37,12,260,,34,10,109,,23,10,210,,1*4C
$GBGSV,2,1,06,40,77,173,44,33,75,114,46,43,50,078,43,28,47,337,45,4*76
$GBGSV,2,2,06,41,36,200,36,42,30,043,41,4*75
$GNGGA,041953.000,2500.7913923,N,12132.4418235,E,4,56,0.49,15.985,M,15.25,M,1,3335*4A
$GNRMC,041953.000,A,2500.7913923,N,12132.4418235,E,0.00,20.94,270623,,,R,V*23
$GPHDT,,T*1B
$GNGGA,041953.200,2500.7913922,N,12132.4418235,E,4,55,0.49,15.991,M,15.25,M,1,3335*4F
$GNRMC,041953.200,A,2500.7913922,N,12132.4418235,E,0.00,20.94,270623,,,R,V*20
$GPHDT,,T*1B
$GNGGA,041953.400,2500.7913923,N,12132.4418238,E,4,55,0.49,15.987,M,15.25,M,1,3335*42
$GNRMC,041953.400,A,2500.7913923,N,12132.4418238,E,0.00,20.94,270623,,,R,V*2A
$GPHDT,,T*1B
$GNGGA,041953.600,2500.7913912,N,12132.4418230,E,4,56,0.49,15.982,M,15.25,M,1,3335*4C
$GNRMC,041953.600,A,2500.7913912,N,12132.4418230,E,0.00,20.94,270623,,,R,V*22
$GPHDT,,T*1B
$GNGGA,041953.800,2500.7913933,N,12132.4418238,E,4,56,0.49,15.996,M,15.25,M,0,3335*4D
$GNRMC,041953.800,A,2500.7913933,N,12132.4418238,E,0.00,20.94,270623,,,R,V*27
$GPHDT,,T*1B
$GNGSA,A,3,19,195,196,199,17,06,20,09,194,11,12,04,0.93,0.49,0.79,1*02
$GNGSA,A,3,14,,,,,,,,,,,,0.93,0.49,0.79,1*0D
$GNGSA,A,3,68,83,67,82,69,,,,,,,,0.93,0.49,0.79,2*0A
$GNGSA,A,3,10,12,24,04,19,25,33,,,,,,0.93,0.49,0.79,3*05
$GNGSA,A,3,40,33,07,10,14,43,28,41,42,11,,,0.93,0.49,0.79,4*04
$GPGSV,4,1,15,19,72,067,43,195,68,049,39,196,68,120,40,199,60,167,36,1*5F
$GPGSV,4,2,15,50,60,167,40,17,57,109,43,06,49,003,23,20,40,244,39,1*6D
$GPGSV,4,3,15,09,37,086,45,194,35,173,40,11,34,301,26,12,22,306,39,1*53
$GPGSV,4,4,15,04,18,057,26,05,15,229,16,14,12,172,14,1*53
$GPGSV,3,1,09,196,68,120,45,195,68,049,44,199,60,167,46,06,49,003,35,8*51
$GPGSV,3,2,09,09,37,086,43,194,35,173,40,11,34,301,28,04,18,057,24,8*5C
$GPGSV,3,3,09,14,12,172,20,8*54
$GLGSV,2,1,07,68,66,124,41,83,39,001,18,67,37,041,45,82,35,060,46,1*70
$GLGSV,2,2,07,69,27,184,42,73,19,271,15,80,11,217,,1*4E
$GAGSV,3,1,09,10,49,352,39,12,45,031,29,24,42,228,36,04,39,145,42,7*74
$GAGSV,3,2,09,19,32,071,36,25,29,294,17,33,10,075,24,09,08,189,15,7*74
$GAGSV,3,3,09,36,03,280,,7*46
$GAGSV,2,1,07,10,49,352,38,12,45,031,35,24,42,228,39,04,39,145,44,1*78
$GAGSV,2,2,07,19,32,071,36,25,29,294,25,33,10,075,23,1*4E
$GBGSV,4,1,15,40,77,173,42,33,75,114,43,07,74,226,40,10,70,268,39,1*77
$GBGSV,4,2,15,08,56,285,12,14,55,056,44,43,50,078,46,13,48,271,,1*70
$GBGSV,4,3,15,28,47,337,45,41,36,200,34,42,30,043,41,11,27,096,31,1*70
$GBGSV,4,4,15,37,12,260,,34,10,109,,23,10,210,,1*4C
$GBGSV,2,1,06,40,77,173,44,33,75,114,46,43,50,078,43,28,47,337,45,4*76
$GBGSV,2,2,06,41,36,200,36,42,30,043,41,4*75
$GNGGA,041954.000,2500.7913913,N,12132.4418244,E,4,56,0.49,15.992,M,15.25,M,1,3335*4E
$GNRMC,041954.000,A,2500.7913913,N,12132.4418244,E,0.00,20.94,270623,,,R,V*21
$GPHDT,,T*1B
$GNGGA,041954.200,2500.7913916,N,12132.4418240,E,4,55,0.49,15.985,M,15.25,M,1,3335*48
$GNRMC,041954.200,A,2500.7913916,N,12132.4418240,E,0.00,20.94,270623,,,R,V*22
$GPHDT,,T*1B
$GNGGA,041954.400,2500.7913919,N,12132.4418230,E,4,55,0.49,15.989,M,15.25,M,1,3335*4A
$GNRMC,041954.400,A,2500.7913919,N,12132.4418230,E,0.00,20.94,270623,,,R,V*2C
$GPHDT,,T*1B
$GNGGA,041954.600,2500.7913944,N,12132.4418258,E,4,55,0.49,16.007,M,15.25,M,1,3335*42
$GNRMC,041954.600,A,2500.7913944,N,12132.4418258,E,0.00,20.94,270623,,,R,V*28
$GPHDT,,T*1B
$GNGGA,041954.800,2500.7913945,N,12132.4418260,E,4,55,0.49,15.995,M,15.25,M,0,3335*46
$GNRMC,041954.800,A,2500.7913945,N,12132.4418260,E,0.00,20.94,270623,,,R,V*2C
$GPHDT,,T*1B
$GNGSA,A,3,19,195,196,199,17,06,20,09,194,11,12,04,0.93,0.49,0.79,1*02
$GNGSA,A,3,14,,,,,,,,,,,,0.93,0.49,0.79,1*0D
$GNGSA,A,3,68,83,67,82,69,,,,,,,,0.93,0.49,0.79,2*0A
$GNGSA,A,3,10,12,24,04,19,25,33,,,,,,0.93,0.49,0.79,3*05
$GNGSA,A,3,40,33,07,10,14,43,28,41,42,11,,,0.93,0.49,0.79,4*04
$GPGSV,4,1,15,19,72,067,43,195,68,049,39,196,68,120,40,50,60,167,40,1*6A
$GPGSV,4,2,15,199,60,167,36,17,57,109,44,06,49,003,25,20,40,244,40,1*57
$GPGSV,4,3,15,09,37,086,44,194,35,173,40,11,34,301,26,12,22,306,39,1*52
$GPGSV,4,4,15,04,18,057,22,05,15,229,16,14,12,172,15,1*56
$GPGSV,3,1,09,196,68,120,45,195,68,049,44,199,60,167,46,06,49,003,35,8*51
$GPGSV,3,2,09,09,37,086,43,194,35,173,40,11,34,301,28,04,18,057,24,8*5C
$GPGSV,3,3,09,14,12,172,19,8*5E
$GLGSV,2,1,08,68,66,124,41,83,39,001,17,67,37,041,45,82,35,060,46,1*70
$GLGSV,2,2,08,69,27,184,42,73,19,271,15,80,11,217,,74,08,313,,1*7B
$GAGSV,3,1,09,10,49,352,40,12,45,031,29,24,42,228,35,04,39,145,42,7*79
$GAGSV,3,2,09,19,32,071,36,25,29,294,17,33,10,075,24,09,08,189,15,7*74
$GAGSV,3,3,09,36,03,280,,7*46
$GAGSV,2,1,07,10,49,352,38,12,45,031,35,24,42,228,39,04,39,145,44,1*78
$GAGSV,2,2,07,19,32,071,36,25,29,294,25,33,10,075,24,1*49
$GBGSV,4,1,15,40,77,173,42,33,75,114,43,07,74,226,40,10,70,268,40,1*79
$GBGSV,4,2,15,08,56,285,13,14,55,056,44,43,50,078,46,13,48,271,,1*71
$GBGSV,4,3,15,28,47,337,45,41,36,200,35,42,30,043,41,11,27,096,30,1*70
$GBGSV,4,4,15,37,12,260,,23,10,210,,34,10,109,,1*4C
$GBGSV,2,1,06,40,77,173,44,33,75,114,46,43,50,078,43,28,47,337,45,4*76
$GBGSV,2,2,06,41,36,200,36,42,30,043,41,4*75
$GNGGA,041955.000,2500.7913911,N,12132.4418234,E,4,55,0.49,16.011,M,15.25,M,1,3335*48
$GNRMC,041955.000,A,2500.7913911,N,12132.4418234,E,0.00,20.94,270623,,,R,V*25
$GPHDT,,T*1B
$GNGGA,041955.200,2500.7913923,N,12132.4418231,E,4,55,0.49,16.001,M,15.25,M,1,3335*4F
$GNRMC,041955.200,A,2500.7913923,N,12132.4418231,E,0.00,20.94,270623,,,R,V*23
$GPHDT,,T*1B
$GNGGA,041955.400,2500.7913932,N,12132.4418230,E,4,55,0.49,16.000,M,15.25,M,1,3335*49
$GNRMC,041955.400,A,2500.7913932,N,12132.4418230,E,0.00,20.94,270623,,,R,V*24
$GPHDT,,T*1B
$GNGGA,041955.600,2500.7913916,N,12132.4418236,E,4,54,0.49,15.999,M,15.25,M,1,3335*40
$GNRMC,041955.600,A,2500.7913916,N,12132.4418236,E,0.00,20.94,270623,,,R,V*26
$GPHDT,,T*1B
$GNGGA,041955.800,2500.7913960,N,12132.4418232,E,4,54,0.49,16.001,M,15.25,M,0,3335*41
$GNRMC,041955.800,A,2500.7913960,N,12132.4418232,E,0.00,20.94,270623,,,R,V*2D
$GPHDT,,T*1B
$GNGSA,A,3,19,195,196,199,17,06,20,09,194,12,11,04,0.93,0.49,0.79,1*02
$GNGSA,A,3,14,,,,,,,,,,,,0.93,0.49,0.79,1*0D
$GNGSA,A,3,68,83,67,82,69,,,,,,,,0.93,0.49,0.79,2*0A
$GNGSA,A,3,10,12,24,04,19,25,33,,,,,,0.93,0.49,0.79,3*05
$GNGSA,A,3,40,33,07,10,14,43,28,41,42,11,,,0.93,0.49,0.79,4*04
$GPGSV,4,1,15,19,72,067,43,195,68,049,39,196,68,120,40,50,60,167,40,1*6A
$GPGSV,4,2,15,199,60,167,36,17,57,109,44,06,49,003,28,20,40,244,40,1*5A
$GPGSV,4,3,15,09,37,086,44,194,35,173,40,11,34,301,21,12,22,306,39,1*55
$GPGSV,4,4,15,04,18,057,21,05,15,229,15,14,12,172,14,1*57
$GPGSV,3,1,09,196,68,120,45,195,68,049,44,199,60,167,46,06,49,003,34,8*50
$GPGSV,3,2,09,09,37,086,43,194,35,173,40,11,34,301,29,04,18,057,23,8*5A
$GPGSV,3,3,09,14,12,172,19,8*5E
$GLGSV,2,1,08,68,66,124,41,83,39,001,17,67,37,041,45,82,35,060,46,1*70
$GLGSV,2,2,08,69,27,184,42,73,19,271,13,80,11,217,,84,04,308,,1*74
$GAGSV,3,1,09,10,49,352,40,12,45,032,29,24,42,228,36,04,39,145,42,7*79
$GAGSV,3,2,09,19,32,071,36,25,29,294,16,33,10,075,24,09,08,189,15,7*75
$GAGSV,3,3,09,36,03,280,,7*46
$GAGSV,2,1,07,10,49,352,39,12,45,032,35,24,42,228,39,04,39,145,44,1*7A
$GAGSV,2,2,07,19,32,071,36,25,29,294,26,33,10,075,24,1*4A
$GBGSV,4,1,14,40,77,173,42,33,75,114,43,07,74,226,39,10,70,268,40,1*76
$GBGSV,4,2,14,08,56,285,15,14,55,056,43,43,50,078,47,13,48,271,,1*70
$GBGSV,4,3,14,28,47,337,45,41,36,200,37,42,30,043,41,11,27,096,30,1*73
$GBGSV,4,4,14,34,10,109,,23,10,210,,1*7E
$GBGSV,2,1,06,40,77,173,44,33,75,114,46,43,50,078,43,28,47,337,45,4*76
$GBGSV,2,2,06,41,36,200,37,42,30,043,41,4*74
$GNGGA,041956.000,2500.7913946,N,12132.4418240,E,4,54,0.49,15.990,M,15.25,M,1,3335*48
$GNRMC,041956.000,A,2500.7913946,N,12132.4418240,E,0.00,20.94,270623,,,R,V*27
$GPHDT,,T*1B
$GNGGA,041956.200,2500.7913944,N,12132.4418229,E,4,54,0.49,15.994,M,15.25,M,1,3335*43
$GNRMC,041956.200,A,2500.7913944,N,12132.4418229,E,0.00,20.94,270623,,,R,V*28
$GPHDT,316.418,T*3C
$GNGGA,041956.400,2500.7913929,N,12132.4418238,E,4,54,0.49,15.990,M,15.25,M,1,3335*4A
$GNRMC,041956.400,A,2500.7913929,N,12132.4418238,E,0.00,20.94,270623,,,R,V*25
$GPHDT,316.344,T*32
$GNGGA,041956.600,2500.7913941,N,12132.4418227,E,4,54,0.49,15.985,M,15.25,M,1,3335*4C
$GNRMC,041956.600,A,2500.7913941,N,12132.4418227,E,0.00,20.94,270623,,,R,V*27
$GPHDT,316.046,T*33
$GNGGA,041956.800,2500.7913916,N,12132.4418217,E,4,54,0.49,15.983,M,15.25,M,0,3335*44
$GNRMC,041956.800,A,2500.7913916,N,12132.4418217,E,0.00,20.94,270623,,,R,V*28
$GPHDT,315.604,T*30
$GNGSA,A,3,19,195,196,199,17,06,20,09,194,12,11,04,0.93,0.49,0.79,1*02
$GNGSA,A,3,14,,,,,,,,,,,,0.93,0.49,0.79,1*0D
$GNGSA,A,3,68,83,67,82,69,,,,,,,,0.93,0.49,0.79,2*0A
$GNGSA,A,3,10,12,24,04,19,25,33,,,,,,0.93,0.49,0.79,3*05
$GNGSA,A,3,40,33,07,10,14,43,28,41,42,11,,,0.93,0.49,0.79,4*04
$GPGSV,4,1,15,19,72,067,43,195,68,049,39,196,68,120,40,199,60,167,36,1*5F
$GPGSV,4,2,15,50,60,167,40,17,57,109,45,06,49,003,30,20,40,244,40,1*67
$GPGSV,4,3,15,09,37,086,44,194,35,173,40,11,34,301,18,12,22,306,38,1*5E
$GPGSV,4,4,15,04,18,057,20,05,15,229,16,14,12,172,12,1*53
$GPGSV,3,1,09,196,68,120,45,195,68,049,44,199,60,167,46,06,49,003,35,8*51
$GPGSV,3,2,09,09,37,086,42,194,35,173,40,11,34,301,29,04,18,057,21,8*59
$GPGSV,3,3,09,14,12,172,19,8*5E
$GLGSV,2,1,07,68,66,124,41,83,39,001,17,67,37,041,45,82,35,060,46,1*7F
$GLGSV,2,2,07,69,27,184,42,73,19,271,13,80,11,217,,1*48
$GAGSV,3,1,09,10,49,352,40,12,45,032,29,24,42,228,36,04,39,145,42,7*79
$GAGSV,3,2,09,19,32,071,36,25,29,294,17,33,10,075,24,09,08,189,15,7*74
$GAGSV,3,3,09,36,03,280,,7*46
$GAGSV,2,1,07,10,49,352,39,12,45,032,35,24,42,228,39,04,39,145,44,1*7A
$GAGSV,2,2,07,19,32,071,36,25,29,294,26,33,10,075,24,1*4A
$GBGSV,4,1,14,40,77,173,42,33,75,114,43,07,74,226,39,10,70,268,40,1*76
$GBGSV,4,2,14,08,56,285,15,14,55,056,43,43,50,078,47,28,47,337,45,1*75
$GBGSV,4,3,14,41,36,200,37,42,30,043,41,11,27,096,30,37,12,260,,1*7F
$GBGSV,4,4,14,34,10,109,,23,10,210,,1*7E
$GBGSV,2,1,06,40,77,173,44,33,75,114,46,43,50,078,43,28,47,337,45,4*76
$GBGSV,2,2,06,41,36,200,37,42,30,043,41,4*74
$GNGGA,041957.000,2500.7913918,N,12132.4418233,E,4,54,0.49,15.978,M,15.25,M,1,3335*40
$GNRMC,041957.000,A,2500.7913918,N,12132.4418233,E,0.00,20.94,270623,,,R,V*29
$GPHDT,316.057,T*33
$GNGGA,041957.200,2500.7913913,N,12132.4418228,E,4,54,0.49,15.968,M,15.25,M,1,3335*42
$GNRMC,041957.200,A,2500.7913913,N,12132.4418228,E,0.00,20.94,270623,,,R,V*2A
$GPHDT,316.117,T*36
$GNGGA,041957.400,2500.7913927,N,12132.4418238,E,4,54,0.49,15.980,M,15.25,M,1,3335*44
$GNRMC,041957.400,A,2500.7913927,N,12132.4418238,E,0.01,20.94,270623,,,R,V*2B
$GPHDT,316.094,T*3C
$GNGGA,041957.600,2500.7913914,N,12132.4418232,E,4,54,0.49,15.975,M,15.25,M,1,3335*46
$GNRMC,041957.600,A,2500.7913914,N,12132.4418232,E,0.00,20.94,270623,,,R,V*22
$GPHDT,316.153,T*36
$GNGGA,041957.800,2500.7913936,N,12132.4418241,E,4,55,0.49,15.967,M,15.25,M,0,3335*4F
$GNRMC,041957.800,A,2500.7913936,N,12132.4418241,E,0.00,20.94,270623,,,R,V*28
$GPHDT,315.906,T*3D
$GNGSA,A,3,19,195,196,199,17,06,20,09,194,11,12,04,0.93,0.49,0.79,1*02
$GNGSA,A,3,14,,,,,,,,,,,,0.93,0.49,0.79,1*0D
$GNGSA,A,3,68,83,67,82,69,,,,,,,,0.93,0.49,0.79,2*0A
$GNGSA,A,3,10,12,24,04,19,25,33,,,,,,0.93,0.49,0.79,3*05
$GNGSA,A,3,40,33,07,10,14,43,28,41,42,11,,,0.93,0.49,0.79,4*04
$GPGSV,4,1,15,19,72,067,43,195,68,049,39,196,68,120,40,199,60,167,36,1*5F
$GPGSV,4,2,15,50,60,167,40,17,57,109,45,06,49,003,30,20,40,244,40,1*67
$GPGSV,4,3,15,09,37,086,43,194,35,173,41,11,34,301,21,12,22,306,39,1*53
$GPGSV,4,4,15,04,18,057,20,05,15,229,16,14,12,172,13,1*52
$GPGSV,3,1,09,196,68,120,45,195,68,049,44,199,60,167,46,06,49,003,36,8*52
$GPGSV,3,2,09,09,37,086,42,194,35,173,40,11,34,301,29,04,18,057,21,8*59
$GPGSV,3,3,09,14,12,172,19,8*5E
$GLGSV,2,1,07,68,66,124,41,83,39,001,18,67,37,041,45,82,35,060,46,1*70
$GLGSV,2,2,07,69,27,184,42,73,19,271,11,80,11,217,,1*4A
$GAGSV,3,1,09,10,49,352,40,12,45,032,29,24,42,228,36,04,39,145,42,7*79
$GAGSV,3,2,09,19,32,071,36,25,29,294,17,33,10,075,23,09,08,189,15,7*73
$GAGSV,3,3,09,36,03,280,,7*46
$GAGSV,2,1,07,10,49,352,39,12,45,032,35,24,42,228,39,04,39,145,44,1*7A
$GAGSV,2,2,07,19,32,071,36,25,29,294,26,33,10,075,24,1*4A
$GBGSV,4,1,14,40,77,173,42,33,75,114,43,07,74,226,39,10,70,268,40,1*76
$GBGSV,4,2,14,08,56,285,14,14,55,056,43,43,50,078,47,28,47,337,45,1*74
$GBGSV,4,3,14,41,36,200,36,42,30,043,41,11,27,096,30,37,12,260,,1*7E
$GBGSV,4,4,14,34,10,109,,23,10,210,,1*7E
$GBGSV,2,1,06,40,77,173,44,33,75,114,46,43,50,078,43,28,47,337,45,4*76
$GBGSV,2,2,06,41,36,200,37,42,30,043,41,4*74
$GNGGA,041958.000,2500.7913909,N,12132.4418244,E,4,55,0.49,15.973,M,15.25,M,1,3335*45
$GNRMC,041958.000,A,2500.7913909,N,12132.4418244,E,0.00,20.94,270623,,,R,V*26
$GPHDT,316.096,T*3E
$GNGGA,041958.200,2500.7913927,N,12132.4418252,E,4,54,0.49,15.980,M,15.25,M,1,3335*41
$GNRMC,041958.200,A,2500.7913927,N,12132.4418252,E,0.00,20.94,270623,,,R,V*2F
$GPHDT,316.252,T*34
$GNGGA,041958.400,2500.7913912,N,12132.4418239,E,4,54,0.49,15.967,M,15.25,M,1,3335*45
$GNRMC,041958.400,A,2500.7913912,N,12132.4418239,E,0.00,20.94,270623,,,R,V*22
$GPHDT,315.939,T*31
$GNGGA,041958.600,2500.7913934,N,12132.4418229,E,4,54,0.49,15.970,M,15.25,M,1,3335*44
$GNRMC,041958.600,A,2500.7913934,N,12132.4418229,E,0.00,20.94,270623,,,R,V*25
$GPHDT,316.208,T*3B
$GNGGA,041958.800,2500.7913938,N,12132.4418217,E,4,54,0.49,15.988,M,15.25,M,0,3335*4D
$GNRMC,041958.800,A,2500.7913938,N,12132.4418217,E,0.00,20.94,270623,,,R,V*2A
$GPHDT,316.173,T*34
$GNGSA,A,3,19,195,196,199,17,06,20,09,194,12,11,04,0.93,0.49,0.79,1*02
$GNGSA,A,3,14,,,,,,,,,,,,0.93,0.49,0.79,1*0D
$GNGSA,A,3,68,83,67,82,69,,,,,,,,0.93,0.49,0.79,2*0A
$GNGSA,A,3,10,12,24,04,19,25,33,,,,,,0.93,0.49,0.79,3*05
$GNGSA,A,3,40,33,07,10,14,43,28,41,42,11,,,0.93,0.49,0.79,4*04
$GPGSV,4,1,15,19,72,067,43,195,68,049,39,196,68,120,40,199,60,167,35,1*5C
$GPGSV,4,2,15,50,60,167,38,17,57,109,45,06,49,003,29,20,40,244,40,1*60
$GPGSV,4,3,15,09,37,086,43,194,35,173,40,11,34,301,20,12,22,306,39,1*53
$GPGSV,4,4,15,04,18,057,18,05,15,229,16,14,12,172,,1*5B
$GPGSV,3,1,09,196,68,120,45,195,68,049,44,199,60,167,46,06,49,003,38,8*5C
$GPGSV,3,2,09,09,37,086,43,194,35,173,40,11,34,301,30,04,18,057,24,8*55
$GPGSV,3,3,09,14,12,172,19,8*5E
$GLGSV,2,1,07,68,66,124,41,83,39,001,18,67,37,041,45,82,35,060,46,1*70
$GLGSV,2,2,07,69,27,184,41,73,19,271,15,80,11,217,,1*4D
$GAGSV,3,1,09,10,49,352,40,12,45,032,29,24,42,227,36,04,39,145,42,7*76
$GAGSV,3,2,09,19,32,071,36,25,29,294,17,33,10,075,21,09,08,189,15,7*71
$GAGSV,3,3,09,36,03,280,,7*46
$GAGSV,2,1,07,10,49,352,39,12,45,032,36,24,42,227,40,04,39,145,44,1*78
$GAGSV,2,2,07,19,32,071,36,25,29,294,27,33,10,075,24,1*4B
$GBGSV,4,1,14,40,77,173,42,33,75,114,43,07,74,226,39,10,70,268,40,1*76
$GBGSV,4,2,14,08,56,285,17,14,55,056,43,43,50,078,47,28,47,337,45,1*77
$GBGSV,4,3,14,41,36,200,35,42,30,043,41,11,27,096,30,37,12,260,,1*7D
$GBGSV,4,4,14,34,10,109,,23,10,210,,1*7E
$GBGSV,2,1,06,40,77,173,44,33,75,114,47,43,50,078,43,28,47,337,45,4*77
$GBGSV,2,2,06,41,36,200,38,42,30,043,41,4*7B
$GNGGA,041959.000,2500.7913941,N,12132.4418240,E,4,54,0.49,15.990,M,15.25,M,1,3335*40
$GNRMC,041959.000,A,2500.7913941,N,12132.4418240,E,0.00,20.94,270623,,,R,V*2F
$GPHDT,315.989,T*3A
$GNGGA,041959.200,2500.7913926,N,12132.4418264,E,4,54,0.49,15.998,M,15.25,M,1,3335*4D
$GNRMC,041959.200,A,2500.7913926,N,12132.4418264,E,0.00,20.94,270623,,,R,V*2A
$GPHDT,315.901,T*3A
$GNGGA,041959.400,2500.7913929,N,12132.4418263,E,4,55,0.49,16.013,M,15.25,M,1,3335*4B
$GNRMC,041959.400,A,2500.7913929,N,12132.4418263,E,0.00,20.94,270623,,,R,V*24
$GPHDT,316.249,T*3E
$GNGGA,041959.600,2500.7913916,N,12132.4418292,E,4,54,0.49,16.000,M,15.25,M,1,3335*48
$GNRMC,041959.600,A,2500.7913916,N,12132.4418292,E,0.00,20.94,270623,,,R,V*24
$GPHDT,315.879,T*34
$GNGGA,041959.800,2500.7913929,N,12132.4418233,E,4,54,0.49,15.994,M,15.25,M,0,3335*47
$GNRMC,041959.800,A,2500.7913929,N,12132.4418233,E,0.00,20.94,270623,,,R,V*2D
$GPHDT,315.753,T*33
$GNGSA,A,3,19,195,196,199,17,06,20,09,194,12,11,04,0.93,0.49,0.79,1*02
$GNGSA,A,3,14,,,,,,,,,,,,0.93,0.49,0.79,1*0D
$GNGSA,A,3,68,83,67,82,69,,,,,,,,0.93,0.49,0.79,2*0A
$GNGSA,A,3,10,12,24,04,19,25,33,,,,,,0.93,0.49,0.79,3*05
$GNGSA,A,3,40,33,07,10,14,43,28,41,42,11,,,0.93,0.49,0.79,4*04
$GPGSV,4,1,15,19,72,067,43,195,68,049,39,196,68,120,40,50,60,167,37,1*6A
$GPGSV,4,2,15,199,60,167,35,17,57,109,45,06,49,003,25,20,40,244,40,1*55
$GPGSV,4,3,15,09,37,086,43,194,35,173,40,11,34,301,19,12,22,306,39,1*59
$GPGSV,4,4,15,04,18,057,18,05,15,229,15,14,12,172,,1*58
$GPGSV,3,1,09,196,68,120,45,195,68,049,44,199,60,167,46,06,49,003,38,8*5C
$GPGSV,3,2,09,09,37,086,43,194,35,173,40,11,34,301,30,04,18,057,24,8*55
$GPGSV,3,3,09,14,12,172,18,8*5F
$GLGSV,3,1,09,68,66,124,41,83,39,001,16,67,37,041,45,82,35,060,46,1*71
$GLGSV,3,2,09,69,27,184,41,73,19,271,16,80,11,217,,74,08,313,,1*7B
$GLGSV,3,3,09,84,04,308,,1*42
$GAGSV,3,1,09,10,49,352,40,12,45,032,29,24,42,227,37,04,39,145,42,7*77
$GAGSV,3,2,09,19,32,071,37,25,29,294,19,33,10,076,21,09,08,189,16,7*7E
$GAGSV,3,3,09,36,03,280,,7*46
$GAGSV,2,1,07,10,49,352,39,12,45,032,36,24,42,227,40,04,39,145,44,1*78
$GAGSV,2,2,07,19,32,071,36,25,29,294,26,33,10,076,24,1*49
$GBGSV,4,1,15,40,77,173,42,33,75,114,43,07,74,226,39,10,70,268,40,1*77
$GBGSV,4,2,15,08,56,285,17,14,55,056,43,43,50,078,47,13,48,271,,1*73
$GBGSV,4,3,15,28,47,337,45,41,36,200,37,42,30,043,41,11,27,096,30,1*72
$GBGSV,4,4,15,37,12,260,,34,10,109,,23,10,210,,1*4C
$GBGSV,2,1,06,40,77,173,44,33,75,114,47,43,50,078,43,28,47,337,45,4*77
$GBGSV,2,2,06,41,36,200,38,42,30,043,41,4*7B
$GNGGA,042000.000,2500.7913912,N,12132.4418243,E,4,54,0.49,16.004,M,15.25,M,1,3335*44
$GNRMC,042000.000,A,2500.7913912,N,12132.4418243,E,0.00,20.94,270623,,,R,V*2C
$GPHDT,315.990,T*32
$GNGGA,042000.200,2500.7913933,N,12132.4418273,E,4,54,0.49,16.003,M,15.25,M,1,3335*41
$GNRMC,042000.200,A,2500.7913933,N,12132.4418273,E,0.00,20.94,270623,,,R,V*2E
$GPHDT,315.778,T*3A
$GNGGA,042000.400,2500.7913932,N,12132.4418228,E,4,54,0.49,16.000,M,15.25,M,1,3335*4B
$GNRMC,042000.400,A,2500.7913932,N,12132.4418228,E,0.00,20.94,270623,,,R,V*27
$GPHDT,315.998,T*3A
$GNGGA,042000.600,2500.7913945,N,12132.4418240,E,4,54,0.49,15.982,M,15.25,M,0,3335*46
$GNRMC,042000.600,A,2500.7913945,N,12132.4418240,E,0.00,20.94,270623,,,R,V*2B
$GPHDT,315.314,T*34
$GNGGA,042000.800,2500.7913956,N,12132.4418215,E,4,55,0.49,15.976,M,15.25,M,0,3335*40
$GNRMC,042000.800,A,2500.7913956,N,12132.4418215,E,0.00,20.94,270623,,,R,V*27
$GPHDT,315.569,T*38
