$FW : RTK35X,V1.1X0314AS,Lib20210517,1*54
$Tool : LOCOSYS , GNSS Firebird , v1.0.0.19*39
$---------------------------------------------------*2D
,20,40,244,40,1*51
$GPGSV,4,3,15,09,37,086,41,194,35,173,41,11,34,302,17,12,22,306,35,1*5B
$GPGSV,4,4,15,04,18,057,19,05,15,229,15,14,12,172,19,1*51
$GPGSV,3,1,09,196,68,120,45,195,68,049,45,199,60,167,45,06,49,004,47,8*51
$GPGSV,3,2,09,09,37,086,41,194,35,173,42,11,34,302,23,04,18,057,27,8*57
$GPGSV,3,3,09,14,12,172,20,8*54
$GLGSV,2,1,06,68,66,123,39,83,39,001,31,67,36,040,45,82,35,060,45,1*71
$GLGSV,2,2,06,69,27,184,40,73,19,271,19,1*7D
$GAGSV,2,1,08,10,49,353,42,12,45,032,39,24,42,227,34,04,39,145,41,7*75
$GAGSV,2,2,08,19,32,071,35,25,29,294,19,33,10,076,23,36,03,281,,7*75
$GAGSV,2,1,07,10,49,353,44,12,45,032,42,24,42,227,38,04,39,145,46,1*7D
$GAGSV,2,2,07,19,32,071,38,25,29,294,30,33,10,076,24,1*40
$GBGSV,4,1,15,40,77,173,43,33,75,113,43,07,74,226,39,10,70,268,39,1*7F
$GBGSV,4,2,15,08,56,285,23,14,55,056,43,43,50,079,45,13,48,271,,1*77
$GBGSV,4,3,15,28,47,337,39,41,36,200,36,42,30,043,42,11,27,096,30,1*7B
$GBGSV,4,4,15,37,12,259,,23,10,210,,34,10,110,23,1*4F
$GBGSV,2,1,06,40,77,173,44,33,75,113,45,43,50,079,42,28,47,337,40,4*77
$GBGSV,2,2,06,41,36,200,39,42,30,043,40,4*7B
$GNGGA,042033.000,2500.7912414,N,12132.4423841,E,2,56,0.49,15.853,M,15.25,M,1,3335*43
$GNRMC,042033.000,A,2500.7912414,N,12132.4423841,E,0.00,20.94,270623,,,D,V*30
$GPHDT,,T*1B
$GNGGA,042033.200,2500.7912354,N,12132.4423841,E,2,56,0.49,15.866,M,15.25,M,1,3335*44
$GNRMC,042033.200,A,2500.7912354,N,12132.4423841,E,0.00,20.94,270623,,,D,V*31
$GPHDT,,T*1B
$GNGGA,042033.400,2500.7912294,N,12132.4423901,E,2,56,0.49,15.865,M,15.25,M,1,3335*49
$GNRMC,042033.400,A,2500.7912294,N,12132.4423901,E,0.00,20.94,270623,,,D,V*3F
$GPHDT,,T*1B
$GNGGA,042033.600,2500.7912234,N,12132.4423961,E,2,56,0.49,15.876,M,15.25,M,0,3335*44
$GNRMC,042033.600,A,2500.7912234,N,12132.4423961,E,0.00,20.94,270623,,,D,V*31
$GPHDT,,T*1B
$GNGGA,042033.800,2500.7912174,N,12132.4424021,E,2,56,0.49,15.874,M,15.25,M,0,3335*45
$GNRMC,042033.800,A,2500.7912174,N,12132.4424021,E,0.00,20.94,270623,,,D,V*32
$GPHDT,,T*1B
$GNGSA,A,3,19,195,196,199,17,06,20,09,194,12,14,11,0.92,0.49,0.78,1*03
$GNGSA,A,3,04,,,,,,,,,,,,0.92,0.49,0.78,1*0C
$GNGSA,A,3,68,83,67,82,69,,,,,,,,0.92,0.49,0.78,2*0A
$GNGSA,A,3,10,12,24,04,19,25,33,,,,,,0.92,0.49,0.78,3*05
$GNGSA,A,3,40,33,07,10,08,14,43,28,41,42,11,,0.92,0.49,0.78,4*0C
$GPGSV,4,1,15,19,72,068,41,195,68,049,41,196,68,120,39,50,60,167,40,1*66
$GPGSV,4,2,15,199,60,167,37,17,57,109,37,06,49,004,45,20,40,244,40,1*53
$GPGSV,4,3,15,09,37,086,41,194,35,173,41,11,34,302,22,12,22,306,33,1*5B
$GPGSV,4,4,15,04,18,057,17,05,15,229,15,14,12,172,18,1*5E
$GPGSV,3,1,09,196,68,120,45,195,68,049,45,199,60,167,45,06,49,004,46,8*50
$GPGSV,3,2,09,09,37,086,41,194,35,173,42,11,34,302,23,04,18,057,28,8*58
$GPGSV,3,3,09,14,12,172,21,8*55
$GLGSV,2,1,06,68,67,123,39,83,39,001,30,67,36,040,45,82,35,060,45,1*71
$GLGSV,2,2,06,69,28,184,40,73,19,271,19,1*72
$GAGSV,2,1,08,10,49,353,42,12,45,032,37,24,42,227,34,04,39,145,41,7*7B
$GAGSV,2,2,08,19,32,071,35,25,29,294,19,33,10,076,23,36,03,281,,7*75
$GAGSV,2,1,07,10,49,353,43,12,45,032,42,24,42,227,37,04,39,145,46,1*75
$GAGSV,2,2,07,19,32,071,37,25,29,294,30,33,10,076,24,1*4F
$GBGSV,4,1,15,40,77,173,43,33,75,113,43,07,74,226,39,10,70,268,39,1*7F
$GBGSV,4,2,15,08,56,285,23,14,55,056,43,43,50,079,44,13,48,271,,1*76
$GBGSV,4,3,15,28,47,337,39,41,36,200,36,42,30,043,42,11,27,096,31,1*7A
$GBGSV,4,4,15,37,12,259,,23,10,210,,34,10,110,21,1*4D
$GBGSV,2,1,06,40,77,173,44,33,75,113,45,43,50,079,42,28,47,337,40,4*77
$GBGSV,2,2,06,41,36,200,39,42,30,043,40,4*7B
$GNGGA,042034.000,2500.7912114,N,12132.4424021,E,2,56,0.49,15.879,M,15.25,M,1,3335*40
$GNRMC,042034.000,A,2500.7912114,N,12132.4424021,E,0.00,20.94,270623,,,D,V*3B
$GPHDT,,T*1B
$GNGGA,042034.200,2500.7912054,N,12132.4424081,E,2,57,0.49,15.888,M,15.25,M,1,3335*42
$GNRMC,042034.200,A,2500.7912054,N,12132.4424081,E,0.00,20.94,270623,,,D,V*36
$GPHDT,,T*1B
$GNGGA,042034.400,2500.7911994,N,12132.4424201,E,2,57,0.49,15.892,M,15.25,M,1,3335*43
$GNRMC,042034.400,A,2500.7911994,N,12132.4424201,E,0.00,20.94,270623,,,D,V*3C
$GPHDT,,T*1B
$GNGGA,042034.600,2500.7911994,N,12132.4424201,E,2,57,0.49,15.893,M,15.25,M,0,3335*41
$GNRMC,042034.600,A,2500.7911994,N,12132.4424201,E,0.00,20.94,270623,,,D,V*3E
$GPHDT,,T*1B
$GNGGA,042034.800,2500.7911934,N,12132.4424321,E,2,57,0.49,15.897,M,15.25,M,0,3335*42
$GNRMC,042034.800,A,2500.7911934,N,12132.4424321,E,0.00,20.94,270623,,,D,V*39
$GPHDT,,T*1B
$GNGSA,A,3,19,195,196,199,17,06,20,09,194,11,12,14,0.92,0.49,0.78,1*03
$GNGSA,A,3,04,,,,,,,,,,,,0.92,0.49,0.78,1*0C
$GNGSA,A,3,68,83,67,82,69,,,,,,,,0.92,0.49,0.78,2*0A
$GNGSA,A,3,10,12,24,04,19,25,33,,,,,,0.92,0.49,0.78,3*05
$GNGSA,A,3,40,33,07,10,08,14,43,28,41,42,11,,0.92,0.49,0.78,4*0C
$GPGSV,4,1,15,19,72,068,40,195,68,049,41,196,68,120,39,50,60,167,40,1*67
$GPGSV,4,2,15,199,60,167,37,17,57,109,39,06,49,004,45,20,40,244,40,1*5D
$GPGSV,4,3,15,09,37,086,41,194,35,173,41,11,34,302,24,12,22,306,33,1*5D
$GPGSV,4,4,15,04,18,057,17,05,15,229,15,14,12,172,18,1*5E
$GPGSV,3,1,09,196,68,120,45,195,68,049,46,199,60,167,45,06,49,004,46,8*53
$GPGSV,3,2,09,09,37,086,41,194,35,173,42,11,34,302,24,04,18,057,28,8*5F
$GPGSV,3,3,09,14,12,172,20,8*54
$GLGSV,2,1,07,68,67,123,39,83,39,001,30,67,36,040,45,82,35,060,45,1*70
$GLGSV,2,2,07,69,28,184,40,73,19,270,19,80,11,217,,1*4E
$GAGSV,2,1,08,10,49,353,42,12,45,032,38,24,42,227,34,04,39,145,41,7*74
$GAGSV,2,2,08,19,32,071,35,25,29,294,19,33,10,076,24,09,09,189,,7*7F
$GAGSV,2,1,07,10,49,353,43,12,45,032,42,24,42,227,37,04,39,145,46,1*75
$GAGSV,2,2,07,19,32,071,37,25,29,294,29,33,10,076,27,1*44
$GBGSV,4,1,15,40,77,173,43,33,75,113,43,07,74,226,39,10,70,268,39,1*7F
$GBGSV,4,2,15,08,56,285,22,14,55,056,43,43,50,079,44,13,48,271,,1*77
$GBGSV,4,3,15,28,47,337,39,41,36,200,36,42,30,043,42,11,27,096,31,1*7A
$GBGSV,4,4,15,37,12,259,,23,10,210,,34,10,110,21,1*4D
$GBGSV,2,1,06,40,77,173,44,33,75,113,45,43,50,079,42,28,47,337,41,4*76
$GBGSV,2,2,06,41,36,200,39,42,30,043,40,4*7B
$GNGGA,042035.000,2500.7911934,N,12132.4424381,E,2,57,0.49,15.914,M,15.25,M,1,3335*4A
$GNRMC,042035.000,A,2500.7911934,N,12132.4424381,E,0.00,20.94,270623,,,D,V*3A
$GPHDT,,T*1B
$GNGGA,042035.200,2500.7911874,N,12132.4424441,E,2,57,0.49,15.925,M,15.25,M,1,3335*44
$GNRMC,042035.200,A,2500.7911874,N,12132.4424441,E,0.00,20.94,270623,,,D,V*36
$GPHDT,,T*1B
$GNGGA,042035.400,2500.7911814,N,12132.4424501,E,2,57,0.49,15.925,M,15.25,M,1,3335*41
$GNRMC,042035.400,A,2500.7911814,N,12132.4424501,E,0.00,20.94,270623,,,D,V*33
$GPHDT,,T*1B
$GNGGA,042035.600,2500.7911814,N,12132.4424561,E,2,57,0.49,15.922,M,15.25,M,0,3335*43
$GNRMC,042035.600,A,2500.7911814,N,12132.4424561,E,0.00,20.94,270623,,,D,V*37
$GPHDT,,T*1B
$GNGGA,042035.800,2500.7911754,N,12132.4424681,E,2,56,0.49,15.911,M,15.25,M,0,3335*4A
$GNRMC,042035.800,A,2500.7911754,N,12132.4424681,E,0.00,20.94,270623,,,D,V*3F
$GPHDT,,T*1B
$GNGSA,A,3,19,195,196,199,17,06,20,09,194,11,12,14,0.92,0.49,0.78,1*03
$GNGSA,A,3,04,,,,,,,,,,,,0.92,0.49,0.78,1*0C
$GNGSA,A,3,68,83,67,82,69,,,,,,,,0.92,0.49,0.78,2*0A
$GNGSA,A,3,10,12,24,04,19,25,33,,,,,,0.92,0.49,0.78,3*05
$GNGSA,A,3,40,33,07,10,14,43,28,41,42,11,,,0.92,0.49,0.78,4*04
$GPGSV,4,1,15,19,72,068,40,195,68,049,41,196,68,120,37,50,60,167,39,1*67
$GPGSV,4,2,15,199,60,167,37,17,57,109,39,06,49,004,45,20,40,244,40,1*5D
$GPGSV,4,3,15,09,37,086,41,194,35,173,41,11,34,302,19,12,22,306,33,1*53
$GPGSV,4,4,15,04,18,057,21,05,15,229,16,14,12,172,18,1*58
$GPGSV,3,1,09,196,68,120,45,195,68,049,46,199,60,167,45,06,49,004,46,8*53
$GPGSV,3,2,09,09,37,086,41,194,35,173,41,11,34,302,24,04,18,057,28,8*5C
$GPGSV,3,3,09,14,12,172,20,8*54
$GLGSV,3,1,09,68,67,123,39,83,39,001,30,67,36,040,45,82,35,060,45,1*7F
$GLGSV,3,2,09,69,28,184,40,73,19,270,19,80,11,217,,74,08,313,,1*7B
$GLGSV,3,3,09,84,05,308,,1*43
$GAGSV,3,1,09,10,49,353,42,12,45,032,38,24,42,227,34,04,39,145,41,7*74
$GAGSV,3,2,09,19,32,071,35,25,29,294,19,33,10,076,25,09,09,189,,7*7E
$GAGSV,3,3,09,36,03,281,,7*47
$GAGSV,2,1,07,10,49,353,43,12,45,032,42,24,42,227,37,04,39,145,46,1*75
$GAGSV,2,2,07,19,32,071,37,25,29,294,29,33,10,076,25,1*46
$GBGSV,4,1,16,40,77,173,43,33,75,113,43,07,74,226,39,10,70,268,39,1*7C
$GBGSV,4,2,16,08,56,285,20,14,55,056,43,43,50,079,44,13,48,271,,1*76
$GBGSV,4,3,16,28,47,337,39,41,36,200,37,42,30,043,42,11,27,096,32,1*7B
$GBGSV,4,4,16,37,12,259,,23,10,210,,34,10,110,20,39,05,175,,1*73
$GBGSV,2,1,06,40,77,173,44,33,75,113,45,43,50,079,42,28,47,337,41,4*76
$GBGSV,2,2,06,41,36,200,39,42,30,043,40,4*7B
$GNGGA,042036.000,2500.7911694,N,12132.4424741,E,2,56,0.49,15.919,M,15.25,M,1,3335*48
$GNRMC,042036.000,A,2500.7911694,N,12132.4424741,E,0.00,20.94,270623,,,D,V*34
$GPHDT,,T*1B
$GNGGA,042036.200,2500.7911694,N,12132.4424801,E,2,56,0.49,15.934,M,15.25,M,1,3335*4E
$GNRMC,042036.200,A,2500.7911694,N,12132.4424801,E,0.00,20.94,270623,,,D,V*3D
$GPHDT,,T*1B
$GNGGA,042036.400,2500.7911634,N,12132.4424921,E,2,56,0.49,15.941,M,15.25,M,1,3335*43
$GNRMC,042036.400,A,2500.7911634,N,12132.4424921,E,0.00,20.94,270623,,,D,V*32
$GPHDT,,T*1B
$GNGGA,042036.600,2500.7911574,N,12132.4424981,E,2,56,0.49,15.935,M,15.25,M,0,3335*4E
$GNRMC,042036.600,A,2500.7911574,N,12132.4424981,E,0.00,20.94,270623,,,D,V*3D
$GPHDT,,T*1B
$GNGGA,042036.800,2500.7911574,N,12132.4425041,E,2,56,0.49,15.919,M,15.25,M,0,3335*4A
$GNRMC,042036.800,A,2500.7911574,N,12132.4425041,E,0.00,20.94,270623,,,D,V*37
$GPHDT,,T*1B
$GNGSA,A,3,19,195,196,199,17,06,20,09,194,12,14,11,0.92,0.49,0.78,1*03
$GNGSA,A,3,04,,,,,,,,,,,,0.92,0.49,0.78,1*0C
$GNGSA,A,3,68,83,67,82,69,,,,,,,,0.92,0.49,0.78,2*0A
$GNGSA,A,3,10,12,24,04,19,25,33,,,,,,0.92,0.49,0.78,3*05
$GNGSA,A,3,40,33,07,10,08,14,43,28,41,42,11,,0.92,0.49,0.78,4*0C
$GPGSV,4,1,15,19,72,068,39,195,68,049,41,196,68,120,37,199,60,167,37,1*53
$GPGSV,4,2,15,50,60,167,39,17,57,109,40,06,49,004,45,20,40,244,40,1*69
$GPGSV,4,3,15,09,37,086,41,194,35,173,41,11,34,302,17,12,22,306,34,1*5A
$GPGSV,4,4,15,04,18,057,21,05,15,229,16,14,12,172,18,1*58
$GPGSV,3,1,09,196,68,120,45,195,68,049,46,199,60,167,45,06,49,004,46,8*53
$GPGSV,3,2,09,09,37,086,41,194,35,173,41,11,34,302,26,04,18,057,30,8*57
$GPGSV,3,3,09,14,12,172,19,8*5E
$GLGSV,2,1,07,68,67,123,39,83,39,002,30,67,36,040,45,82,35,061,44,1*73
$GLGSV,2,2,07,69,28,184,41,73,19,270,18,80,11,217,,1*4E
$GAGSV,3,1,09,10,49,353,42,12,45,032,38,24,42,227,34,04,39,145,41,7*74
$GAGSV,3,2,09,19,32,071,35,25,29,294,21,33,10,076,24,09,09,189,,7*74
$GAGSV,3,3,09,36,03,281,,7*47
$GAGSV,2,1,07,10,49,353,43,12,45,032,42,24,42,227,37,04,39,145,46,1*75
$GAGSV,2,2,07,19,32,071,37,25,29,294,28,33,10,076,23,1*41
$GBGSV,4,1,15,40,77,173,43,33,75,113,43,07,74,226,40,10,70,268,40,1*7F
$GBGSV,4,2,15,08,56,285,19,14,55,056,43,43,50,079,44,13,48,271,,1*7F
$GBGSV,4,3,15,28,47,337,40,41,36,200,37,42,30,043,43,11,27,096,31,1*74
$GBGSV,4,4,15,37,12,259,,34,10,110,18,23,10,210,,1*47
$GBGSV,2,1,06,40,77,173,44,33,75,113,45,43,50,079,42,28,47,337,41,4*76
$GBGSV,2,2,06,41,36,200,39,42,30,043,40,4*7B
$GNGGA,042037.000,2500.7911574,N,12132.4425101,E,2,56,0.49,15.928,M,15.25,M,1,3335*45
$GNRMC,042037.000,A,2500.7911574,N,12132.4425101,E,0.00,20.94,270623,,,D,V*3B
$GPHDT,,T*1B
$GNGGA,042037.200,2500.7911574,N,12132.4425161,E,2,56,0.49,15.930,M,15.25,M,1,3335*48
$GNRMC,042037.200,A,2500.7911574,N,12132.4425161,E,0.00,20.94,270623,,,D,V*3F
$GPHDT,,T*1B
$GNGGA,042037.400,2500.7911514,N,12132.4425161,E,2,55,0.49,15.926,M,15.25,M,1,3335*4C
$GNRMC,042037.400,A,2500.7911514,N,12132.4425161,E,0.00,20.94,270623,,,D,V*3F
$GPHDT,,T*1B
$GNGGA,042037.600,2500.7911514,N,12132.4425281,E,2,56,0.49,15.922,M,15.25,M,0,3335*45
$GNRMC,042037.600,A,2500.7911514,N,12132.4425281,E,0.00,20.94,270623,,,D,V*30
$GPHDT,,T*1B
$GNGGA,042037.800,2500.7911514,N,12132.4425341,E,2,55,0.49,15.920,M,15.25,M,0,3335*47
$GNRMC,042037.800,A,2500.7911514,N,12132.4425341,E,0.00,20.94,270623,,,D,V*33
$GPHDT,,T*1B
$GNGSA,A,3,19,195,196,199,17,06,20,09,194,12,14,11,0.92,0.49,0.78,1*03
$GNGSA,A,3,04,,,,,,,,,,,,0.92,0.49,0.78,1*0C
$GNGSA,A,3,68,83,67,82,69,,,,,,,,0.92,0.49,0.78,2*0A
$GNGSA,A,3,10,12,24,04,19,25,33,,,,,,0.92,0.49,0.78,3*05
$GNGSA,A,3,40,33,07,10,14,43,28,41,42,11,,,0.92,0.49,0.78,4*04
$GPGSV,4,1,15,19,72,068,39,195,68,049,41,196,68,120,37,199,60,167,37,1*53
$GPGSV,4,2,15,50,60,167,39,17,57,109,41,06,49,004,45,20,40,244,40,1*68
$GPGSV,4,3,15,09,37,086,40,194,35,173,41,11,34,302,15,12,22,306,34,1*59
$GPGSV,4,4,15,04,18,057,17,05,15,229,16,14,12,172,18,1*5D
$GPGSV,3,1,09,196,68,120,46,195,68,049,46,199,60,167,45,06,49,004,46,8*50
$GPGSV,3,2,09,09,37,086,41,194,35,173,41,11,34,302,26,04,18,057,28,8*5E
$GPGSV,3,3,09,14,12,172,19,8*5E
$GLGSV,2,1,07,68,67,123,39,83,39,002,30,67,36,040,44,82,35,061,44,1*72
$GLGSV,2,2,07,69,28,184,41,73,19,270,17,80,11,217,,1*41
$GAGSV,3,1,09,10,49,353,42,12,45,032,38,24,42,227,34,04,39,145,40,7*75
$GAGSV,3,2,09,19,32,071,35,25,29,294,21,33,10,076,24,09,09,189,,7*74
$GAGSV,3,3,09,36,03,281,,7*47
$GAGSV,2,1,07,10,49,353,43,12,45,032,42,24,42,227,37,04,39,145,46,1*75
$GAGSV,2,2,07,19,32,071,37,25,29,294,28,33,10,076,23,1*41
$GBGSV,4,1,15,40,77,173,43,33,75,113,43,07,74,226,40,10,70,268,40,1*7F
$GBGSV,4,2,15,08,56,285,19,14,55,056,43,43,50,079,44,13,48,271,,1*7F
$GBGSV,4,3,15,28,47,337,40,41,36,200,37,42,30,043,43,11,27,096,32,1*77
$GBGSV,4,4,15,37,12,259,,34,10,110,18,23,10,210,,1*47
$GBGSV,2,1,06,40,77,173,44,33,75,113,45,43,50,079,42,28,47,337,41,4*76
$GBGSV,2,2,06,41,36,200,39,42,30,043,40,4*7B
$GNGGA,042038.000,2500.7911514,N,12132.4425341,E,2,55,0.49,15.922,M,15.25,M,1,3335*43
$GNRMC,042038.000,A,2500.7911514,N,12132.4425341,E,0.00,20.94,270623,,,D,V*34
$GPHDT,,T*1B
$GNGGA,042038.200,2500.7911454,N,12132.4425401,E,2,55,0.49,15.919,M,15.25,M,1,3335*4F
$GNRMC,042038.200,A,2500.7911454,N,12132.4425401,E,0.00,20.94,270623,,,D,V*30
$GPHDT,,T*1B
$GNGGA,042038.400,2500.7911454,N,12132.4425401,E,2,55,0.49,15.918,M,15.25,M,1,3335*48
$GNRMC,042038.400,A,2500.7911454,N,12132.4425401,E,0.00,20.94,270623,,,D,V*36
$GPHDT,,T*1B
$GNGGA,042038.600,2500.7911394,N,12132.4425461,E,2,56,0.49,15.915,M,15.25,M,1,3335*49
$GNRMC,042038.600,A,2500.7911394,N,12132.4425461,E,0.00,20.94,270623,,,D,V*39
$GPHDT,,T*1B
$GNGGA,042038.800,2500.7911394,N,12132.4425521,E,2,55,0.49,15.909,M,15.25,M,0,3335*4D
$GNRMC,042038.800,A,2500.7911394,N,12132.4425521,E,0.00,20.94,270623,,,D,V*32
$GPHDT,,T*1B
$GNGSA,A,3,19,195,196,199,17,06,20,09,194,12,14,11,0.92,0.49,0.78,1*03
$GNGSA,A,3,04,,,,,,,,,,,,0.92,0.49,0.78,1*0C
$GNGSA,A,3,68,83,67,82,69,,,,,,,,0.92,0.49,0.78,2*0A
$GNGSA,A,3,10,12,24,04,19,25,33,,,,,,0.92,0.49,0.78,3*05
$GNGSA,A,3,40,33,07,10,08,14,43,28,41,42,11,,0.92,0.49,0.78,4*0C
$GPGSV,4,1,15,19,72,068,38,195,68,049,42,196,68,120,37,199,60,167,37,1*51
$GPGSV,4,2,15,50,60,167,39,17,57,109,42,06,49,004,45,20,40,244,40,1*6B
$GPGSV,4,3,15,09,37,086,40,194,35,173,41,11,34,302,16,12,22,306,34,1*5A
$GPGSV,4,4,15,04,18,057,14,05,15,229,16,14,12,172,18,1*5E
$GPGSV,3,1,09,196,68,120,46,195,68,049,46,199,60,167,45,06,49,004,45,8*53
$GPGSV,3,2,09,09,37,086,41,194,35,173,41,11,34,302,27,04,18,057,29,8*5E
$GPGSV,3,3,09,14,12,172,19,8*5E
$GLGSV,2,1,07,68,67,123,39,83,39,002,30,67,36,040,44,82,35,061,44,1*72
$GLGSV,2,2,07,69,28,184,41,73,19,270,17,80,11,217,,1*41
$GAGSV,3,1,09,10,49,353,42,12,45,032,38,24,42,227,33,04,39,145,40,7*72
$GAGSV,3,2,09,19,32,071,35,25,29,294,21,33,10,076,24,09,09,189,,7*74
$GAGSV,3,3,09,36,03,281,,7*47
$GAGSV,2,1,07,10,49,353,43,12,45,032,42,24,42,227,37,04,39,145,46,1*75
$GAGSV,2,2,07,19,32,071,37,25,29,294,27,33,10,076,23,1*4E
$GBGSV,4,1,15,40,77,173,43,33,75,113,43,07,74,226,40,10,70,268,40,1*7F
$GBGSV,4,2,15,08,56,285,19,14,55,056,43,43,50,079,44,13,48,271,,1*7F
$GBGSV,4,3,15,28,47,337,40,41,36,200,37,42,30,043,43,11,27,096,31,1*74
$GBGSV,4,4,15,37,12,259,,34,10,110,18,23,10,210,,1*47
$GBGSV,2,1,06,40,77,173,44,33,75,113,45,43,50,079,42,28,47,337,41,4*76
$GBGSV,2,2,06,41,36,200,39,42,30,043,40,4*7B
$GNGGA,042039.000,2500.7911394,N,12132.4425521,E,2,56,0.49,15.913,M,15.25,M,1,3335*4D
$GNRMC,042039.000,A,2500.7911394,N,12132.4425521,E,0.00,20.94,270623,,,D,V*3B
$GPHDT,,T*1B
$GNGGA,042039.200,2500.7911394,N,12132.4425521,E,2,55,0.49,15.917,M,15.25,M,1,3335*48
$GNRMC,042039.200,A,2500.7911394,N,12132.4425521,E,0.00,20.94,270623,,,D,V*39
$GPHDT,,T*1B
$GNGGA,042039.400,2500.7911394,N,12132.4425581,E,2,55,0.49,15.908,M,15.25,M,1,3335*4A
$GNRMC,042039.400,A,2500.7911394,N,12132.4425581,E,0.00,20.94,270623,,,D,V*35
$GPHDT,,T*1B
$GNGGA,042039.600,2500.7911394,N,12132.4425581,E,2,55,0.49,15.893,M,15.25,M,1,3335*4B
$GNRMC,042039.600,A,2500.7911394,N,12132.4425581,E,0.00,20.94,270623,,,D,V*37
$GPHDT,,T*1B
$GNGGA,042039.800,2500.7911394,N,12132.4425641,E,2,55,0.49,15.891,M,15.25,M,0,3335*49
$GNRMC,042039.800,A,2500.7911394,N,12132.4425641,E,0.00,20.94,270623,,,D,V*36
$GPHDT,,T*1B
$GNGSA,A,3,19,195,196,199,17,06,20,09,194,12,14,11,0.92,0.49,0.78,1*03
$GNGSA,A,3,04,,,,,,,,,,,,0.92,0.49,0.78,1*0C
$GNGSA,A,3,68,83,67,82,69,,,,,,,,0.92,0.49,0.78,2*0A
$GNGSA,A,3,10,12,24,04,19,25,33,,,,,,0.92,0.49,0.78,3*05
$GNGSA,A,3,40,33,07,10,08,14,43,28,41,42,11,,0.92,0.49,0.78,4*0C
$GPGSV,4,1,15,19,72,068,38,195,68,049,42,196,68,120,37,50,60,167,39,1*6B
$GPGSV,4,2,15,199,60,167,37,17,57,109,42,06,49,004,45,20,40,244,40,1*51
$GPGSV,4,3,15,09,37,086,40,194,35,173,41,11,34,302,15,12,22,306,35,1*58
$GPGSV,4,4,15,04,18,057,14,05,15,229,16,14,12,172,18,1*5E
$GPGSV,3,1,09,196,68,120,46,195,68,049,46,199,60,167,45,06,49,004,45,8*53
$GPGSV,3,2,09,09,37,086,41,194,35,173,41,11,34,302,27,04,18,057,29,8*5E
$GPGSV,3,3,09,14,12,172,19,8*5E
$GLGSV,2,1,06,68,67,123,39,83,39,002,30,67,36,040,44,82,35,061,44,1*73
$GLGSV,2,2,06,69,28,184,41,73,19,270,18,1*73
$GAGSV,3,1,09,10,49,353,42,12,45,032,38,24,42,227,33,04,39,145,40,7*72
$GAGSV,3,2,09,19,32,071,35,25,29,294,22,33,10,076,24,09,09,189,,7*77
$GAGSV,3,3,09,36,03,281,,7*47
$GAGSV,2,1,07,10,49,353,43,12,45,032,42,24,42,227,37,04,39,145,46,1*75
$GAGSV,2,2,07,19,32,071,37,25,29,294,27,33,10,076,23,1*4E
$GBGSV,4,1,15,40,77,173,43,33,75,113,43,07,74,226,40,10,70,268,40,1*7F
$GBGSV,4,2,15,08,56,286,19,14,55,056,43,43,50,079,44,13,48,271,,1*7C
$GBGSV,4,3,15,28,47,337,40,41,36,200,37,42,30,043,43,11,27,096,31,1*74
$GBGSV,4,4,15,37,12,259,,23,10,210,,34,10,110,18,1*47
$GBGSV,2,1,06,40,77,173,44,33,75,113,45,43,50,079,42,28,47,337,41,4*76
$GBGSV,2,2,06,41,36,200,39,42,30,043,40,4*7B
$GNGGA,042040.000,2500.7911394,N,12132.4425641,E,2,56,0.49,15.890,M,15.25,M,1,3335*4C
$GNRMC,042040.000,A,2500.7911394,N,12132.4425641,E,0.00,20.94,270623,,,D,V*30
$GPHDT,,T*1B
$GNGGA,042040.200,2500.7911394,N,12132.4425641,E,2,56,0.49,15.884,M,15.25,M,1,3335*4B
$GNRMC,042040.200,A,2500.7911394,N,12132.4425641,E,0.00,20.94,270623,,,D,V*32
$GPHDT,,T*1B
$GNGGA,042040.400,2500.7911394,N,12132.4425701,E,2,56,0.49,15.876,M,15.25,M,1,3335*45
$GNRMC,042040.400,A,2500.7911394,N,12132.4425701,E,0.00,20.94,270623,,,D,V*31
$GPHDT,,T*1B
$GNGGA,042040.600,2500.7911394,N,12132.4425761,E,2,56,0.49,15.854,M,15.25,M,1,3335*41
$GNRMC,042040.600,A,2500.7911394,N,12132.4425761,E,0.00,20.94,270623,,,D,V*35
$GPHDT,,T*1B
$GNGGA,042040.800,2500.7911454,N,12132.4425761,E,2,56,0.49,15.838,M,15.25,M,0,3335*4F
$GNRMC,042040.800,A,2500.7911454,N,12132.4425761,E,0.00,20.94,270623,,,D,V*30
$GPHDT,,T*1B
$GNGSA,A,3,19,195,196,199,17,06,20,09,194,12,14,11,0.92,0.49,0.78,1*03
$GNGSA,A,3,04,,,,,,,,,,,,0.92,0.49,0.78,1*0C
$GNGSA,A,3,68,83,67,82,69,,,,,,,,0.92,0.49,0.78,2*0A
$GNGSA,A,3,10,12,24,04,19,25,33,,,,,,0.92,0.49,0.78,3*05
$GNGSA,A,3,40,33,07,10,14,43,28,41,42,11,,,0.92,0.49,0.78,4*04
$GPGSV,4,1,15,19,72,068,38,195,68,049,42,196,68,120,38,50,60,167,39,1*64
$GPGSV,4,2,15,199,60,167,37,17,57,109,42,06,49,004,45,20,40,244,40,1*51
$GPGSV,4,3,15,09,37,086,40,194,35,173,41,11,34,302,17,12,22,306,35,1*5A
$GPGSV,4,4,15,04,18,057,15,05,15,229,16,14,12,172,18,1*5F
$GPGSV,3,1,09,196,68,120,46,195,68,049,46,199,60,167,45,06,49,004,45,8*53
$GPGSV,3,2,09,09,37,086,41,194,35,173,41,11,34,302,28,04,18,057,29,8*51
$GPGSV,3,3,09,14,12,172,20,8*54
$GLGSV,2,1,07,68,67,123,39,83,39,002,30,67,36,040,44,82,35,061,44,1*72
$GLGSV,2,2,07,69,28,184,40,73,19,270,18,80,11,217,,1*4F
$GAGSV,2,1,08,10,49,353,42,12,45,032,38,24,42,227,34,04,39,145,40,7*75
$GAGSV,2,2,08,19,32,071,35,25,29,294,21,33,10,076,24,09,09,189,,7*74
$GAGSV,2,1,07,10,49,353,43,12,45,032,42,24,42,227,36,04,39,145,46,1*74
$GAGSV,2,2,07,19,32,071,37,25,29,294,26,33,10,076,22,1*4E
$GBGSV,4,1,15,40,77,173,43,33,75,113,43,07,74,226,40,10,70,268,40,1*7F
$GBGSV,4,2,15,08,56,286,20,14,54,056,43,43,50,079,44,13,48,271,,1*77
$GBGSV,4,3,15,28,47,337,41,41,36,200,37,42,30,043,43,11,27,096,30,1*74
$GBGSV,4,4,15,37,12,259,,23,10,210,,34,10,110,19,1*46
$GBGSV,2,1,06,40,77,173,44,33,75,113,45,43,50,079,42,28,47,337,41,4*76
$GBGSV,2,2,06,41,36,200,39,42,30,043,40,4*7B
$GNGGA,042041.000,2500.7911454,N,12132.4425761,E,2,55,0.49,15.832,M,15.25,M,1,3335*4E
$GNRMC,042041.000,A,2500.7911454,N,12132.4425761,E,0.00,20.94,270623,,,D,V*39
$GPHDT,,T*1B
$GNGGA,042041.200,2500.7911454,N,12132.4425761,E,2,55,0.49,15.828,M,15.25,M,1,3335*47
$GNRMC,042041.200,A,2500.7911454,N,12132.4425761,E,0.00,20.94,270623,,,D,V*3B
$GPHDT,,T*1B
$GNGGA,042041.400,2500.7911514,N,12132.4425821,E,2,55,0.49,15.826,M,15.25,M,1,3335*41
$GNRMC,042041.400,A,2500.7911514,N,12132.4425821,E,0.00,20.94,270623,,,D,V*33
$GPHDT,,T*1B
$GNGGA,042041.600,2500.7911574,N,12132.4425761,E,2,56,0.49,15.821,M,15.25,M,0,3335*4B
$GNRMC,042041.600,A,2500.7911574,N,12132.4425761,E,0.01,20.94,270623,,,D,V*3D
$GPHDT,,T*1B
$GNGGA,042041.800,2500.7911574,N,12132.4425821,E,2,55,0.49,15.802,M,15.25,M,0,3335*4C
$GNRMC,042041.800,A,2500.7911574,N,12132.4425821,E,0.00,20.94,270623,,,D,V*39
$GPHDT,,T*1B
$GNGSA,A,3,19,195,196,199,17,06,20,09,194,11,12,14,0.92,0.49,0.78,1*03
$GNGSA,A,3,04,,,,,,,,,,,,0.92,0.49,0.78,1*0C
$GNGSA,A,3,68,83,67,82,69,,,,,,,,0.92,0.49,0.78,2*0A
$GNGSA,A,3,10,12,24,04,19,25,33,,,,,,0.92,0.49,0.78,3*05
$GNGSA,A,3,40,33,07,10,14,43,28,41,42,11,,,0.92,0.49,0.78,4*04
$GPGSV,4,1,15,19,72,068,38,195,68,049,42,196,68,120,38,50,60,167,39,1*64
$GPGSV,4,2,15,199,60,167,37,17,57,109,43,06,49,004,45,20,40,244,40,1*50
$GPGSV,4,3,15,09,37,086,40,194,35,173,41,11,34,302,19,12,22,306,32,1*53
$GPGSV,4,4,15,04,18,057,16,05,15,229,16,14,12,172,19,1*5D
$GPGSV,3,1,09,196,68,120,46,195,68,049,46,199,60,167,45,06,49,004,45,8*53
$GPGSV,3,2,09,09,37,086,41,194,35,173,41,11,34,302,27,04,18,057,29,8*5E
$GPGSV,3,3,09,14,12,172,20,8*54
$GLGSV,2,1,07,68,67,123,40,83,39,002,30,67,36,040,44,82,35,061,44,1*7C
$GLGSV,2,2,07,69,28,184,40,73,19,270,20,80,11,217,,1*44
$GAGSV,2,1,08,10,49,353,42,12,45,032,38,24,42,227,35,04,39,145,40,7*74
$GAGSV,2,2,08,19,32,071,35,25,29,294,21,33,10,076,24,09,09,189,,7*74
$GAGSV,2,1,07,10,49,353,43,12,45,032,42,24,42,227,37,04,39,145,46,1*75
$GAGSV,2,2,07,19,32,071,37,25,29,294,26,33,10,076,22,1*4E
$GBGSV,4,1,15,40,77,173,43,33,75,113,43,07,74,226,40,10,70,268,40,1*7F
$GBGSV,4,2,15,08,56,286,19,14,54,056,43,43,50,079,44,13,48,271,,1*7D
$GBGSV,4,3,15,28,47,337,40,41,36,200,37,42,30,043,42,11,27,096,30,1*74
$GBGSV,4,4,15,37,12,259,,23,10,210,,34,10,110,19,1*46
$GBGSV,2,1,06,40,77,173,44,33,75,113,45,43,50,079,42,28,47,337,41,4*76
$GBGSV,2,2,06,41,36,200,39,42,30,043,40,4*7B
$GNGGA,042042.000,2500.7911574,N,12132.4425761,E,2,56,0.49,15.792,M,15.25,M,1,3335*48
$GNRMC,042042.000,A,2500.7911574,N,12132.4425761,E,0.00,20.94,270623,,,D,V*39
$GPHDT,,T*1B
$GNGGA,042042.200,2500.7911574,N,12132.4425821,E,2,55,0.49,15.787,M,15.25,M,1,3335*46
$GNRMC,042042.200,A,2500.7911574,N,12132.4425821,E,0.00,20.94,270623,,,D,V*30
$GPHDT,,T*1B
$GNGGA,042042.400,2500.7911574,N,12132.4425821,E,2,55,0.49,15.777,M,15.25,M,1,3335*4F
$GNRMC,042042.400,A,2500.7911574,N,12132.4425821,E,0.00,20.94,270623,,,D,V*36
$GPHDT,,T*1B
$GNGGA,042042.600,2500.7911634,N,12132.4425881,E,2,56,0.49,15.767,M,15.25,M,0,3335*43
$GNRMC,042042.600,A,2500.7911634,N,12132.4425881,E,0.00,20.94,270623,,,D,V*39
$GPHDT,,T*1B
$GNGGA,042042.800,2500.7911634,N,12132.4425941,E,2,56,0.49,15.755,M,15.25,M,0,3335*41
$GNRMC,042042.800,A,2500.7911634,N,12132.4425941,E,0.00,20.94,270623,,,D,V*3A
$GPHDT,,T*1B
$GNGSA,A,3,19,195,196,199,17,06,20,09,194,11,12,14,0.92,0.49,0.78,1*03
$GNGSA,A,3,04,,,,,,,,,,,,0.92,0.49,0.78,1*0C
$GNGSA,A,3,68,83,67,82,69,,,,,,,,0.92,0.49,0.78,2*0A
$GNGSA,A,3,10,12,24,04,19,25,33,,,,,,0.92,0.49,0.78,3*05
$GNGSA,A,3,40,33,07,10,14,43,28,41,42,11,,,0.92,0.49,0.78,4*04
$GPGSV,4,1,15,19,72,068,38,195,68,049,42,196,68,120,38,50,60,167,39,1*64
$GPGSV,4,2,15,199,60,167,36,17,57,109,43,06,49,004,45,20,40,244,40,1*51
$GPGSV,4,3,15,09,37,086,40,194,35,173,42,11,34,302,27,12,22,306,36,1*59
$GPGSV,4,4,15,04,18,057,17,05,15,229,16,14,12,172,18,1*5D
$GPGSV,3,1,09,196,68,120,46,195,68,049,46,199,60,167,45,06,49,004,45,8*53
$GPGSV,3,2,09,09,37,086,42,194,35,173,41,11,34,302,30,04,18,057,29,8*5B
$GPGSV,3,3,09,14,12,172,20,8*54
$GLGSV,2,1,07,68,67,123,40,83,39,002,30,67,36,040,44,82,35,061,43,1*7B
$GLGSV,2,2,07,69,28,184,38,73,19,270,20,80,11,217,,1*4B
$GAGSV,2,1,08,10,49,353,42,12,45,032,38,24,42,227,35,04,39,145,40,7*74
$GAGSV,2,2,08,19,32,071,35,25,29,294,21,33,10,076,24,09,09,189,,7*74
$GAGSV,2,1,07,10,49,353,43,12,45,032,42,24,42,227,37,04,39,145,46,1*75
$GAGSV,2,2,07,19,32,071,37,25,29,294,26,33,10,076,22,1*4E
$GBGSV,4,1,15,40,77,173,43,33,75,113,43,07,74,226,40,10,70,268,40,1*7F
$GBGSV,4,2,15,08,56,286,18,14,54,056,43,43,50,079,44,13,48,271,,1*7C
$GBGSV,4,3,15,28,47,337,40,41,36,200,37,42,30,043,41,11,27,096,29,1*7F
$GBGSV,4,4,15,37,12,259,,23,10,210,,34,10,110,19,1*46
$GBGSV,2,1,06,40,77,173,44,33,75,113,45,43,50,079,42,28,47,337,41,4*76
$GBGSV,2,2,06,41,36,200,39,42,30,043,40,4*7B
$GNGGA,042043.000,2500.7911634,N,12132.4425941,E,2,56,0.49,15.746,M,15.25,M,1,3335*4B
$GNRMC,042043.000,A,2500.7911634,N,12132.4425941,E,0.00,20.94,270623,,,D,V*33
$GPHDT,,T*1B
$GNGGA,042043.200,2500.7911634,N,12132.4425941,E,2,56,0.49,15.740,M,15.25,M,1,3335*4F
$GNRMC,042043.200,A,2500.7911634,N,12132.4425941,E,0.00,20.94,270623,,,D,V*31
$GPHDT,,T*1B
$GNGGA,042043.400,2500.7911634,N,12132.4426001,E,2,56,0.49,15.722,M,15.25,M,1,3335*43
$GNRMC,042043.400,A,2500.7911634,N,12132.4426001,E,0.00,20.94,270623,,,D,V*39
$GPHDT,,T*1B
$GNGGA,042043.600,2500.7911634,N,12132.4426061,E,2,56,0.49,15.717,M,15.25,M,0,3335*40
$GNRMC,042043.600,A,2500.7911634,N,12132.4426061,E,0.00,20.94,270623,,,D,V*3D
$GPHDT,,T*1B
$GNGGA,042043.800,2500.7911634,N,12132.4426061,E,2,56,0.49,15.703,M,15.25,M,0,3335*4B
$GNRMC,042043.800,A,2500.7911634,N,12132.4426061,E,0.00,20.94,270623,,,D,V*33
$GPHDT,,T*1B
$GNGSA,A,3,19,195,196,199,17,06,20,09,194,11,12,14,0.92,0.49,0.78,1*03
$GNGSA,A,3,04,,,,,,,,,,,,0.92,0.49,0.78,1*0C
$GNGSA,A,3,68,83,67,82,69,,,,,,,,0.92,0.49,0.78,2*0A
$GNGSA,A,3,10,12,24,04,19,25,33,,,,,,0.92,0.49,0.78,3*05
$GNGSA,A,3,40,33,07,10,14,43,28,41,42,11,,,0.92,0.49,0.78,4*04
$GPGSV,4,1,15,19,72,068,38,195,68,049,41,196,68,120,38,50,60,167,39,1*67
$GPGSV,4,2,15,199,60,167,36,17,57,109,43,06,49,004,45,20,40,244,40,1*51
$GPGSV,4,3,15,09,37,086,40,194,35,173,42,11,34,302,27,12,22,306,38,1*57
$GPGSV,4,4,15,04,18,057,18,05,15,229,15,14,12,172,17,1*5E
$GPGSV,3,1,09,196,68,120,46,195,68,049,46,199,60,167,45,06,49,004,45,8*53
$GPGSV,3,2,09,09,37,086,42,194,35,173,41,11,34,302,32,04,18,057,29,8*59
$GPGSV,3,3,09,14,12,172,20,8*54
$GLGSV,2,1,07,68,67,123,40,83,39,002,31,67,36,040,44,82,35,061,43,1*7A
$GLGSV,2,2,07,69,28,184,38,73,19,270,19,80,11,217,,1*41
$GAGSV,2,1,08,10,49,353,42,12,45,032,38,24,42,227,34,04,39,145,40,7*75
$GAGSV,2,2,08,19,32,071,34,25,29,294,21,33,10,076,22,09,09,189,,7*73
$GAGSV,2,1,07,10,49,353,43,12,45,032,42,24,42,227,37,04,39,145,46,1*75
$GAGSV,2,2,07,19,32,071,37,25,29,294,27,33,10,076,23,1*4E
$GBGSV,4,1,15,40,77,173,43,33,75,113,44,07,74,226,40,10,70,268,40,1*78
$GBGSV,4,2,15,08,56,286,16,14,54,056,43,43,50,079,44,13,48,271,,1*72
$GBGSV,4,3,15,28,47,337,41,41,36,200,38,42,30,043,40,11,27,096,24,1*7D
$GBGSV,4,4,15,37,12,259,,23,10,210,,34,10,110,20,1*4C
$GBGSV,2,1,06,40,77,173,44,33,75,113,45,43,50,079,42,28,47,337,41,4*76
$GBGSV,2,2,06,41,36,200,40,42,30,043,40,4*75
$GNGGA,042044.000,2500.7911694,N,12132.4426061,E,2,56,0.49,15.674,M,15.25,M,1,3335*4E
$GNRMC,042044.000,A,2500.7911694,N,12132.4426061,E,0.00,20.94,270623,,,D,V*36
$GPHDT,,T*1B
$GNGGA,042044.200,2500.7911694,N,12132.4426061,E,2,56,0.49,15.668,M,15.25,M,1,3335*41
$GNRMC,042044.200,A,2500.7911694,N,12132.4426061,E,0.00,20.94,270623,,,D,V*34
