$FW : RTK35X,V1.1X0314AS,Lib20210517,1*54
$Tool : LOCOSYS , GNSS Firebird , v1.0.0.19*39
$---------------------------------------------------*2D
$GPHDT,,T*1B
$GNGGA,042058.600,2500.7911214,N,12132.4422101,E,2,57,0.49,15.461,M,15.25,M,0,3335*4C
$GNRMC,042058.600,A,2500.7911214,N,12132.4422101,E,0.00,20.94,270623,,,D,V*32
$GPHDT,,T*1B
$GNGGA,042058.800,2500.7911214,N,12132.4422161,E,2,57,0.49,15.455,M,15.25,M,0,3335*43
$GNRMC,042058.800,A,2500.7911214,N,12132.4422161,E,0.00,20.94,270623,,,D,V*3A
$GPHDT,,T*1B
$GNGSA,A,3,19,196,195,199,17,06,20,09,194,11,12,04,0.89,0.49,0.75,1*05
$GNGSA,A,3,14,,,,,,,,,,,,0.89,0.49,0.75,1*0A
$GNGSA,A,3,68,83,67,82,69,,,,,,,,0.89,0.49,0.75,2*0D
$GNGSA,A,3,10,12,24,04,19,25,33,,,,,,0.89,0.49,0.75,3*02
$GNGSA,A,3,40,33,07,10,14,43,28,41,42,34,,,0.89,0.49,0.75,4*04
$GPGSV,4,1,15,19,72,069,41,196,69,120,39,195,68,049,40,50,60,167,38,1*68
$GPGSV,4,2,15,199,60,167,36,17,57,110,39,06,49,004,44,20,40,245,42,1*56
$GPGSV,4,3,15,09,37,086,40,194,35,173,38,11,34,302,33,12,22,306,37,1*50
$GPGSV,4,4,15,04,18,057,28,05,15,229,,14,11,172,12,1*5F
$GPGSV,3,1,09,196,69,120,45,195,68,049,44,199,60,167,46,06,49,004,47,8*52
$GPGSV,3,2,09,09,37,086,41,194,35,173,41,11,34,302,33,04,18,057,28,8*5A
$GPGSV,3,3,09,14,11,172,18,8*5C
$GLGSV,2,1,06,68,67,123,42,83,39,002,31,67,36,040,44,82,35,061,42,1*78
$GLGSV,2,2,06,69,28,184,36,73,19,270,16,1*7D
$GAGSV,2,1,08,10,49,353,42,12,45,032,37,24,42,227,31,04,39,145,40,7*7F
$GAGSV,2,2,08,19,32,071,32,25,29,294,18,33,10,076,22,36,03,281,,7*72
$GAGSV,2,1,07,10,49,353,45,12,45,032,41,24,42,227,36,04,39,145,46,1*71
$GAGSV,2,2,07,19,32,071,37,25,29,294,23,33,10,076,19,1*43
$GBGSV,4,1,15,40,77,174,41,33,75,112,43,07,74,226,42,10,70,268,38,1*76
$GBGSV,4,2,15,08,56,286,17,14,54,056,44,43,50,079,44,13,48,271,,1*74
$GBGSV,4,3,15,28,47,337,47,41,36,200,37,42,29,043,41,11,27,096,19,1*73
$GBGSV,4,4,15,37,12,259,,23,10,210,,34,10,110,18,1*47
$GBGSV,2,1,07,40,77,174,44,33,75,112,46,43,50,079,42,28,47,337,45,4*76
$GBGSV,2,2,07,41,36,200,37,42,29,043,37,34,10,110,20,4*48
$GNGGA,042059.000,2500.7911214,N,12132.4422221,E,2,57,0.49,15.443,M,15.25,M,1,3335*4B
$GNRMC,042059.000,A,2500.7911214,N,12132.4422221,E,0.00,20.94,270623,,,D,V*34
$GPHDT,,T*1B
$GNGGA,042059.200,2500.7911214,N,12132.4422281,E,2,57,0.49,15.436,M,15.25,M,1,3335*41
$GNRMC,042059.200,A,2500.7911214,N,12132.4422281,E,0.00,20.94,270623,,,D,V*3C
$GPHDT,,T*1B
$GNGGA,042059.400,2500.7911214,N,12132.4422341,E,2,57,0.49,15.420,M,15.25,M,1,3335*4D
$GNRMC,042059.400,A,2500.7911214,N,12132.4422341,E,0.00,20.94,270623,,,D,V*37
$GPHDT,,T*1B
$GNGGA,042059.600,2500.7911214,N,12132.4422401,E,2,57,0.49,15.414,M,15.25,M,1,3335*4B
$GNRMC,042059.600,A,2500.7911214,N,12132.4422401,E,0.00,20.94,270623,,,D,V*36
$GPHDT,,T*1B
$GNGGA,042059.800,2500.7911214,N,12132.4422521,E,2,57,0.49,15.390,M,15.25,M,1,3335*4D
$GNRMC,042059.800,A,2500.7911214,N,12132.4422521,E,0.00,20.94,270623,,,D,V*3B
$GPHDT,,T*1B
$GNGSA,A,3,19,196,195,199,17,06,20,09,194,11,12,04,0.89,0.49,0.75,1*05
$GNGSA,A,3,14,,,,,,,,,,,,0.89,0.49,0.75,1*0A
$GNGSA,A,3,68,83,67,82,69,,,,,,,,0.89,0.49,0.75,2*0D
$GNGSA,A,3,10,12,24,04,19,25,33,,,,,,0.89,0.49,0.75,3*02
$GNGSA,A,3,40,33,07,10,14,43,28,41,42,34,,,0.89,0.49,0.75,4*04
$GPGSV,4,1,15,19,72,069,41,196,69,120,39,195,68,049,40,50,60,167,38,1*68
$GPGSV,4,2,15,199,60,167,36,17,57,110,39,06,49,004,44,20,40,245,42,1*56
$GPGSV,4,3,15,09,37,086,39,194,35,173,38,11,34,302,33,12,22,306,37,1*5E
$GPGSV,4,4,15,04,18,057,28,05,15,229,,14,11,172,14,1*59
$GPGSV,3,1,09,196,69,120,45,195,68,049,44,199,60,167,46,06,49,004,47,8*52
$GPGSV,3,2,09,09,37,086,42,194,35,173,41,11,34,302,33,04,18,057,29,8*58
$GPGSV,3,3,09,14,11,172,17,8*53
$GLGSV,2,1,07,68,67,123,42,83,39,002,31,67,36,040,43,82,35,061,42,1*7E
$GLGSV,2,2,07,69,28,184,37,73,19,270,14,80,11,217,,1*43
$GAGSV,2,1,08,10,49,353,42,12,45,032,37,24,42,227,32,04,39,145,40,7*7C
$GAGSV,2,2,08,19,32,071,33,25,29,294,18,33,10,076,22,09,09,189,,7*7E
$GAGSV,2,1,07,10,49,353,45,12,45,032,41,24,42,227,36,04,39,145,46,1*71
$GAGSV,2,2,07,19,32,071,37,25,29,294,23,33,10,076,19,1*43
$GBGSV,4,1,15,40,77,174,41,33,75,112,43,07,74,226,42,10,70,268,37,1*79
$GBGSV,4,2,15,08,56,286,16,14,54,056,44,43,50,079,44,13,48,271,,1*75
$GBGSV,4,3,15,28,47,337,47,41,36,200,37,42,29,043,41,11,27,096,21,1*78
$GBGSV,4,4,15,37,12,259,,34,10,110,18,06,02,185,,1*4C
$GBGSV,2,1,07,40,77,174,44,33,75,112,46,43,50,079,42,28,47,337,45,4*76
$GBGSV,2,2,07,41,36,200,39,42,29,043,37,34,10,110,20,4*46
$GNGGA,042100.000,2500.7911154,N,12132.4422641,E,2,57,0.49,15.379,M,15.25,M,1,3335*4D
$GNRMC,042100.000,A,2500.7911154,N,12132.4422641,E,0.00,20.94,270623,,,D,V*3C
$GPHDT,,T*1B
$GNGGA,042100.200,2500.7911154,N,12132.4422701,E,2,57,0.49,15.368,M,15.25,M,1,3335*4A
$GNRMC,042100.200,A,2500.7911154,N,12132.4422701,E,0.00,20.94,270623,,,D,V*3B
$GPHDT,,T*1B
$GNGGA,042100.400,2500.7911154,N,12132.4422821,E,2,57,0.49,15.354,M,15.25,M,1,3335*4E
$GNRMC,042100.400,A,2500.7911154,N,12132.4422821,E,0.00,20.94,270623,,,D,V*30
$GPHDT,,T*1B
$GNGGA,042100.600,2500.7911154,N,12132.4422881,E,2,57,0.49,15.339,M,15.25,M,1,3335*4D
$GNRMC,042100.600,A,2500.7911154,N,12132.4422881,E,0.00,20.94,270623,,,D,V*38
$GPHDT,,T*1B
$GNGGA,042100.800,2500.7911154,N,12132.4423061,E,2,57,0.49,15.327,M,15.25,M,0,3335*4A
$GNRMC,042100.800,A,2500.7911154,N,12132.4423061,E,0.00,20.94,270623,,,D,V*31
$GPHDT,,T*1B
$GNGSA,A,3,19,196,195,199,17,06,20,09,194,11,12,04,0.89,0.49,0.75,1*05
$GNGSA,A,3,14,,,,,,,,,,,,0.89,0.49,0.75,1*0A
$GNGSA,A,3,68,83,67,82,69,,,,,,,,0.89,0.49,0.75,2*0D
$GNGSA,A,3,10,12,24,04,19,25,33,,,,,,0.89,0.49,0.75,3*02
$GNGSA,A,3,40,33,07,10,14,43,28,41,42,34,,,0.89,0.49,0.75,4*04
$GPGSV,4,1,15,19,72,069,41,196,69,120,39,195,68,049,40,199,60,167,36,1*52
$GPGSV,4,2,15,50,60,167,38,17,57,110,36,06,49,004,44,20,40,245,42,1*63
$GPGSV,4,3,15,09,37,086,39,194,35,173,38,11,34,302,33,12,22,306,37,1*5E
$GPGSV,4,4,15,04,18,057,25,05,15,229,,14,11,172,14,1*54
$GPGSV,3,1,09,196,69,120,45,195,68,049,44,199,60,167,46,06,49,004,47,8*52
$GPGSV,3,2,09,09,37,086,42,194,35,173,41,11,34,302,33,04,18,057,28,8*59
$GPGSV,3,3,09,14,11,172,17,8*53
$GLGSV,2,1,08,68,67,123,42,83,39,002,31,67,36,040,43,82,35,061,42,1*71
$GLGSV,2,2,08,69,28,184,37,73,19,270,14,80,11,217,,74,08,313,,1*76
$GAGSV,2,1,08,10,49,353,42,12,45,032,37,24,42,227,32,04,39,145,40,7*7C
$GAGSV,2,2,08,19,32,071,33,25,29,294,20,33,10,076,24,09,09,189,,7*73
$GAGSV,2,1,07,10,49,353,45,12,45,032,41,24,42,227,36,04,39,145,46,1*71
$GAGSV,2,2,07,19,32,071,37,25,29,294,23,33,10,076,18,1*42
$GBGSV,4,1,15,40,77,174,41,33,75,112,43,07,74,226,42,10,70,268,37,1*79
$GBGSV,4,2,15,08,56,286,15,14,54,056,44,43,50,079,44,13,48,271,,1*76
$GBGSV,4,3,15,28,47,337,47,41,36,200,36,42,29,043,41,11,27,096,21,1*79
$GBGSV,4,4,15,37,12,259,,34,10,110,18,23,10,210,,1*47
$GBGSV,2,1,07,40,77,174,44,33,75,112,46,43,50,079,42,28,47,337,45,4*76
$GBGSV,2,2,07,41,36,200,39,42,29,043,37,34,10,110,20,4*46
$GNGGA,042101.000,2500.7911154,N,12132.4423181,E,2,57,0.49,15.327,M,15.25,M,1,3335*4D
$GNRMC,042101.000,A,2500.7911154,N,12132.4423181,E,0.00,20.94,270623,,,D,V*37
$GPHDT,,T*1B
$GNGGA,042101.200,2500.7911154,N,12132.4423301,E,2,57,0.49,15.328,M,15.25,M,1,3335*4A
$GNRMC,042101.200,A,2500.7911154,N,12132.4423301,E,0.00,20.94,270623,,,D,V*3F
$GPHDT,,T*1B
$GNGGA,042101.400,2500.7911154,N,12132.4423421,E,2,56,0.49,15.326,M,15.25,M,1,3335*46
$GNRMC,042101.400,A,2500.7911154,N,12132.4423421,E,0.00,20.94,270623,,,D,V*3C
$GPHDT,,T*1B
$GNGGA,042101.600,2500.7911154,N,12132.4423481,E,2,56,0.49,15.311,M,15.25,M,0,3335*4B
$GNRMC,042101.600,A,2500.7911154,N,12132.4423481,E,0.00,20.94,270623,,,D,V*34
$GPHDT,,T*1B
$GNGGA,042101.800,2500.7911154,N,12132.4423601,E,2,56,0.49,15.303,M,15.25,M,0,3335*4C
$GNRMC,042101.800,A,2500.7911154,N,12132.4423601,E,0.00,20.94,270623,,,D,V*30
$GPHDT,,T*1B
$GNGSA,A,3,19,196,195,199,17,06,20,09,194,11,12,04,0.88,0.48,0.74,1*04
$GNGSA,A,3,14,,,,,,,,,,,,0.88,0.48,0.74,1*0B
$GNGSA,A,3,68,83,67,82,69,,,,,,,,0.88,0.48,0.74,2*0C
$GNGSA,A,3,10,12,24,04,19,25,33,,,,,,0.88,0.48,0.74,3*03
$GNGSA,A,3,40,33,07,10,14,43,28,41,42,11,34,,0.88,0.48,0.74,4*05
$GPGSV,4,1,15,19,72,069,41,196,69,120,39,195,68,049,40,50,60,167,38,1*68
$GPGSV,4,2,15,199,60,167,36,17,57,110,36,06,49,004,44,20,40,245,42,1*59
$GPGSV,4,3,15,09,37,086,39,194,35,173,39,11,34,302,32,12,22,306,37,1*5E
$GPGSV,4,4,15,04,18,057,23,05,15,229,,14,11,172,15,1*53
$GPGSV,3,1,09,196,69,120,45,195,68,049,44,199,60,167,46,06,49,004,47,8*52
$GPGSV,3,2,09,09,37,086,42,194,35,173,41,11,34,302,33,04,18,057,27,8*56
$GPGSV,3,3,09,14,11,172,17,8*53
$GLGSV,3,1,09,68,67,123,42,83,39,002,31,67,36,040,42,82,35,061,42,1*70
$GLGSV,3,2,09,69,28,184,38,73,19,270,15,80,11,217,,74,08,313,,1*78
$GLGSV,3,3,09,84,05,308,,1*43
$GAGSV,3,1,09,10,49,353,42,12,45,032,37,24,42,227,32,04,39,145,40,7*7C
$GAGSV,3,2,09,19,32,070,32,25,29,294,22,33,10,076,24,09,09,189,,7*71
$GAGSV,3,3,09,36,03,281,,7*47
$GAGSV,2,1,07,10,49,353,45,12,45,032,41,24,42,227,36,04,39,145,46,1*71
$GAGSV,2,2,07,19,32,070,37,25,29,294,24,33,10,076,18,1*44
$GBGSV,4,1,15,40,77,174,41,33,75,112,43,07,74,226,42,10,70,268,38,1*76
$GBGSV,4,2,15,08,56,286,11,14,54,056,44,43,50,079,44,13,48,271,,1*72
$GBGSV,4,3,15,28,47,337,47,41,36,200,36,42,29,043,41,11,27,096,23,1*7B
$GBGSV,4,4,15,37,12,259,,34,10,110,18,23,10,210,,1*47
$GBGSV,2,1,07,40,77,174,44,33,75,112,46,43,50,079,42,28,47,337,45,4*76
$GBGSV,2,2,07,41,36,200,39,42,29,043,37,34,10,110,21,4*47
$GNGGA,042102.000,2500.7911154,N,12132.4423721,E,2,57,0.48,15.299,M,15.25,M,1,3335*47
$GNRMC,042102.000,A,2500.7911154,N,12132.4423721,E,0.00,20.94,270623,,,D,V*38
$GPHDT,,T*1B
$GNGGA,042102.200,2500.7911154,N,12132.4423841,E,2,57,0.48,15.295,M,15.25,M,1,3335*40
$GNRMC,042102.200,A,2500.7911154,N,12132.4423841,E,0.00,20.94,270623,,,D,V*33
$GPHDT,,T*1B
$GNGGA,042102.400,2500.7911154,N,12132.4423961,E,2,57,0.48,15.291,M,15.25,M,1,3335*41
$GNRMC,042102.400,A,2500.7911154,N,12132.4423961,E,0.00,20.94,270623,,,D,V*36
$GPHDT,,T*1B
$GNGGA,042102.600,2500.7911154,N,12132.4424081,E,2,57,0.48,15.286,M,15.25,M,0,3335*44
$GNRMC,042102.600,A,2500.7911154,N,12132.4424081,E,0.00,20.94,270623,,,D,V*34
$GPHDT,,T*1B
$GNGGA,042102.800,2500.7911154,N,12132.4424201,E,2,57,0.48,15.275,M,15.25,M,0,3335*4C
$GNRMC,042102.800,A,2500.7911154,N,12132.4424201,E,0.00,20.94,270623,,,D,V*30
$GPHDT,,T*1B
$GNGSA,A,3,19,196,195,199,17,06,20,09,194,11,12,04,0.88,0.48,0.74,1*04
$GNGSA,A,3,14,,,,,,,,,,,,0.88,0.48,0.74,1*0B
$GNGSA,A,3,68,83,67,82,69,,,,,,,,0.88,0.48,0.74,2*0C
$GNGSA,A,3,10,12,24,04,19,25,33,,,,,,0.88,0.48,0.74,3*03
$GNGSA,A,3,40,33,07,10,14,43,28,41,42,11,34,,0.88,0.48,0.74,4*05
$GPGSV,4,1,15,19,72,069,41,196,69,120,39,195,68,049,40,199,60,167,36,1*52
$GPGSV,4,2,15,50,60,167,38,17,57,110,36,06,49,004,44,20,40,245,39,1*6F
$GPGSV,4,3,15,09,37,086,39,194,35,173,39,11,34,302,33,12,22,306,37,1*5F
$GPGSV,4,4,15,04,18,057,19,05,15,229,,14,11,172,13,1*5C
$GPGSV,3,1,09,196,69,120,45,195,68,049,44,199,60,167,46,06,49,004,47,8*52
$GPGSV,3,2,09,09,37,086,42,194,35,173,41,11,34,302,33,04,18,057,28,8*59
$GPGSV,3,3,09,14,11,172,17,8*53
$GLGSV,2,1,07,68,67,123,42,83,39,002,31,67,36,040,42,82,35,061,42,1*7F
$GLGSV,2,2,07,69,28,184,38,73,19,270,15,80,11,217,,1*4D
$GAGSV,3,1,09,10,49,353,42,12,45,032,37,24,41,227,31,04,39,145,40,7*7C
$GAGSV,3,2,09,19,32,070,32,25,29,294,20,33,10,076,24,09,09,189,,7*73
$GAGSV,3,3,09,36,03,281,,7*47
$GAGSV,2,1,07,10,49,353,45,12,45,032,41,24,41,227,36,04,39,145,46,1*72
$GAGSV,2,2,07,19,32,070,37,25,29,294,24,33,10,076,17,1*4B
$GBGSV,4,1,15,40,77,174,42,33,75,112,43,07,74,226,42,10,70,268,38,1*75
$GBGSV,4,2,15,08,56,286,15,14,54,056,44,43,50,079,44,13,48,271,,1*76
$GBGSV,4,3,15,28,47,337,47,41,36,200,35,42,29,043,41,11,27,096,24,1*7F
$GBGSV,4,4,15,37,12,259,,34,10,110,18,23,10,210,,1*47
$GBGSV,2,1,07,40,77,174,44,33,75,112,46,43,50,079,42,28,47,337,45,4*76
$GBGSV,2,2,07,41,36,200,39,42,29,043,37,34,10,110,21,4*47
$GNGGA,042103.000,2500.7911154,N,12132.4424321,E,2,57,0.48,15.281,M,15.25,M,1,3335*4C
$GNRMC,042103.000,A,2500.7911154,N,12132.4424321,E,0.00,20.94,270623,,,D,V*3A
$GPHDT,,T*1B
$GNGGA,042103.200,2500.7911094,N,12132.4424441,E,2,57,0.48,15.277,M,15.25,M,1,3335*4B
$GNRMC,042103.200,A,2500.7911094,N,12132.4424441,E,0.00,20.94,270623,,,D,V*34
$GPHDT,,T*1B
$GNGGA,042103.400,2500.7911094,N,12132.4424561,E,2,57,0.48,15.265,M,15.25,M,1,3335*4D
$GNRMC,042103.400,A,2500.7911094,N,12132.4424561,E,0.00,20.94,270623,,,D,V*31
$GPHDT,,T*1B
$GNGGA,042103.600,2500.7911094,N,12132.4424621,E,2,57,0.48,15.258,M,15.25,M,0,3335*47
$GNRMC,042103.600,A,2500.7911094,N,12132.4424621,E,0.00,20.94,270623,,,D,V*34
$GPHDT,,T*1B
$GNGGA,042103.800,2500.7911094,N,12132.4424741,E,2,56,0.49,15.250,M,15.25,M,0,3335*46
$GNRMC,042103.800,A,2500.7911094,N,12132.4424741,E,0.00,20.94,270623,,,D,V*3D
$GPHDT,,T*1B
$GNGSA,A,3,19,196,195,199,17,06,20,09,194,11,12,04,0.89,0.49,0.75,1*05
$GNGSA,A,3,14,,,,,,,,,,,,0.89,0.49,0.75,1*0A
$GNGSA,A,3,68,83,67,82,69,,,,,,,,0.89,0.49,0.75,2*0D
$GNGSA,A,3,10,12,24,04,19,25,33,,,,,,0.89,0.49,0.75,3*02
$GNGSA,A,3,40,33,07,10,14,43,28,41,42,34,,,0.89,0.49,0.75,4*04
$GPGSV,4,1,15,19,72,069,41,196,69,120,38,195,68,049,40,199,60,167,36,1*53
$GPGSV,4,2,15,50,60,167,39,17,57,110,37,06,49,004,44,20,40,245,39,1*6F
$GPGSV,4,3,15,09,37,086,41,194,35,173,39,11,34,302,33,12,22,306,37,1*50
$GPGSV,4,4,15,04,18,057,25,05,15,229,,14,11,172,14,1*54
$GPGSV,3,1,09,196,69,120,45,195,68,049,44,199,60,167,46,06,49,004,48,8*5D
$GPGSV,3,2,09,09,37,086,42,194,35,173,41,11,34,302,34,04,18,057,29,8*5F
$GPGSV,3,3,09,14,11,172,17,8*53
$GLGSV,2,1,07,68,67,123,42,83,39,002,31,67,36,040,42,82,35,061,42,1*7F
$GLGSV,2,2,07,69,28,184,38,73,19,270,15,80,11,217,,1*4D
$GAGSV,3,1,09,10,49,353,42,12,45,032,37,24,41,227,33,04,39,145,40,7*7E
$GAGSV,3,2,09,19,32,070,33,25,29,294,21,33,10,076,25,09,09,189,,7*72
$GAGSV,3,3,09,36,03,281,,7*47
$GAGSV,2,1,07,10,49,353,45,12,45,032,41,24,41,227,37,04,39,145,46,1*73
$GAGSV,2,2,07,19,32,070,38,25,29,294,24,33,10,076,16,1*45
$GBGSV,4,1,15,40,77,174,42,33,75,112,43,07,74,226,42,10,70,268,38,1*75
$GBGSV,4,2,15,08,56,286,14,14,54,056,44,43,50,079,44,13,48,271,,1*77
$GBGSV,4,3,15,28,47,337,47,41,36,200,35,42,29,043,41,11,27,096,23,1*78
$GBGSV,4,4,15,37,12,259,,34,10,110,18,23,10,210,,1*47
$GBGSV,2,1,07,40,77,174,44,33,75,112,46,43,50,079,42,28,47,337,45,4*76
$GBGSV,2,2,07,41,36,200,39,42,29,043,37,34,10,110,21,4*47
$GNGGA,042104.000,2500.7911034,N,12132.4424801,E,2,57,0.49,15.247,M,15.25,M,1,3335*4E
$GNRMC,042104.000,A,2500.7911034,N,12132.4424801,E,0.00,20.94,270623,,,D,V*33
$GPHDT,,T*1B
$GNGGA,042104.200,2500.7911034,N,12132.4424921,E,2,56,0.49,15.234,M,15.25,M,1,3335*4A
$GNRMC,042104.200,A,2500.7911034,N,12132.4424921,E,0.00,20.94,270623,,,D,V*32
$GPHDT,,T*1B
$GNGGA,042104.400,2500.7910974,N,12132.4424981,E,2,56,0.49,15.234,M,15.25,M,1,3335*4A
$GNRMC,042104.400,A,2500.7910974,N,12132.4424981,E,0.00,20.94,270623,,,D,V*32
$GPHDT,,T*1B
$GNGGA,042104.600,2500.7910914,N,12132.4425041,E,2,55,0.49,15.232,M,15.25,M,1,3335*4F
$GNRMC,042104.600,A,2500.7910914,N,12132.4425041,E,0.00,20.94,270623,,,D,V*32
$GPHDT,,T*1B
$GNGGA,042104.800,2500.7910914,N,12132.4425161,E,2,56,0.49,15.218,M,15.25,M,0,3335*48
$GNRMC,042104.800,A,2500.7910914,N,12132.4425161,E,0.00,20.94,270623,,,D,V*3F
$GPHDT,,T*1B
$GNGSA,A,3,19,196,195,199,17,06,20,09,194,11,12,04,0.89,0.49,0.75,1*05
$GNGSA,A,3,14,,,,,,,,,,,,0.89,0.49,0.75,1*0A
$GNGSA,A,3,68,83,67,82,69,,,,,,,,0.89,0.49,0.75,2*0D
$GNGSA,A,3,10,12,24,04,19,25,33,,,,,,0.89,0.49,0.75,3*02
$GNGSA,A,3,40,33,07,10,14,43,28,41,42,34,,,0.89,0.49,0.75,4*04
$GPGSV,4,1,15,19,72,069,42,196,69,120,38,195,68,049,40,199,60,167,36,1*50
$GPGSV,4,2,15,50,60,167,39,17,57,110,38,06,49,004,44,20,40,245,39,1*60
$GPGSV,4,3,15,09,37,086,41,194,35,173,40,11,34,302,32,12,22,306,37,1*5F
$GPGSV,4,4,15,04,18,057,24,05,15,229,,14,11,172,12,1*53
$GPGSV,3,1,09,196,69,120,45,195,68,049,44,199,60,167,46,06,49,004,48,8*5D
$GPGSV,3,2,09,09,37,086,42,194,35,173,41,11,34,302,34,04,18,057,29,8*5F
$GPGSV,3,3,09,14,11,172,16,8*52
$GLGSV,2,1,07,68,67,123,42,83,39,002,31,67,36,040,42,82,35,061,42,1*7F
$GLGSV,2,2,07,69,28,184,38,73,19,270,15,80,11,217,,1*4D
$GAGSV,3,1,09,10,49,353,42,12,45,032,37,24,41,227,34,04,39,145,40,7*79
$GAGSV,3,2,09,19,32,070,33,25,29,294,21,33,10,076,25,09,09,189,,7*72
$GAGSV,3,3,09,36,03,281,,7*47
$GAGSV,2,1,06,10,49,353,45,12,45,032,41,24,41,227,37,04,39,145,46,1*72
$GAGSV,2,2,06,19,32,070,38,25,29,294,23,1*74
$GBGSV,4,1,15,40,77,174,42,33,75,112,43,07,74,226,42,10,70,268,38,1*75
$GBGSV,4,2,15,08,56,286,15,14,54,056,44,43,50,079,44,13,48,271,,1*76
$GBGSV,4,3,15,28,47,337,47,41,36,200,36,42,29,043,41,11,27,096,19,1*72
$GBGSV,4,4,15,37,12,259,,34,10,110,18,23,10,210,,1*47
$GBGSV,2,1,07,40,77,174,44,33,75,112,46,43,50,079,42,28,47,337,45,4*76
$GBGSV,2,2,07,41,36,200,39,42,29,043,37,34,10,110,18,4*4D
$GNGGA,042105.000,2500.7910854,N,12132.4425221,E,2,55,0.49,15.215,M,15.25,M,1,3335*4C
$GNRMC,042105.000,A,2500.7910854,N,12132.4425221,E,0.00,20.94,270623,,,D,V*34
$GPHDT,,T*1B
$GNGGA,042105.200,2500.7910854,N,12132.4425281,E,2,55,0.49,15.207,M,15.25,M,1,3335*47
$GNRMC,042105.200,A,2500.7910854,N,12132.4425281,E,0.00,20.94,270623,,,D,V*3C
$GPHDT,,T*1B
$GNGGA,042105.400,2500.7910854,N,12132.4425341,E,2,55,0.49,15.187,M,15.25,M,1,3335*47
$GNRMC,042105.400,A,2500.7910854,N,12132.4425341,E,0.00,20.94,270623,,,D,V*37
$GPHDT,,T*1B
$GNGGA,042105.600,2500.7910854,N,12132.4425461,E,2,55,0.49,15.183,M,15.25,M,0,3335*45
$GNRMC,042105.600,A,2500.7910854,N,12132.4425461,E,0.00,20.94,270623,,,D,V*30
$GPHDT,,T*1B
$GNGGA,042105.800,2500.7910854,N,12132.4425521,E,2,55,0.49,15.178,M,15.25,M,0,3335*4A
$GNRMC,042105.800,A,2500.7910854,N,12132.4425521,E,0.00,20.94,270623,,,D,V*3B
$GPHDT,,T*1B
$GNGSA,A,3,19,196,195,199,17,06,20,09,194,11,12,04,0.89,0.49,0.75,1*05
$GNGSA,A,3,14,,,,,,,,,,,,0.89,0.49,0.75,1*0A
$GNGSA,A,3,68,83,67,82,69,,,,,,,,0.89,0.49,0.75,2*0D
$GNGSA,A,3,10,12,24,04,19,25,33,,,,,,0.89,0.49,0.75,3*02
$GNGSA,A,3,40,33,07,10,14,43,28,41,42,34,,,0.89,0.49,0.75,4*04
$GPGSV,4,1,15,19,72,069,42,196,69,120,38,195,68,049,40,199,60,167,36,1*50
$GPGSV,4,2,15,50,60,167,39,17,57,110,38,06,49,004,44,20,40,245,39,1*60
$GPGSV,4,3,15,09,37,086,41,194,35,173,40,11,34,302,33,12,22,306,37,1*5E
$GPGSV,4,4,15,04,18,057,22,05,15,229,,14,11,172,13,1*54
$GPGSV,3,1,09,196,69,120,45,195,68,049,44,199,60,167,46,06,49,004,48,8*5D
$GPGSV,3,2,09,09,37,086,42,194,35,173,41,11,34,302,34,04,18,057,29,8*5F
$GPGSV,3,3,09,14,11,172,15,8*51
$GLGSV,2,1,07,68,67,123,41,83,39,002,31,67,36,040,42,82,35,061,42,1*7C
$GLGSV,2,2,07,69,28,184,39,73,19,270,15,80,11,217,,1*4C
$GAGSV,3,1,09,10,49,353,42,12,45,032,38,24,41,227,34,04,39,145,40,7*76
$GAGSV,3,2,09,19,32,070,33,25,29,294,21,33,10,076,25,09,09,189,,7*72
$GAGSV,3,3,09,36,03,281,,7*47
$GAGSV,2,1,06,10,49,353,44,12,45,032,41,24,41,227,37,04,39,145,46,1*73
$GAGSV,2,2,06,19,32,070,38,25,29,294,23,1*74
$GBGSV,4,1,15,40,77,174,42,33,75,112,43,07,74,226,42,10,70,268,38,1*75
$GBGSV,4,2,15,08,56,286,17,14,54,056,44,43,50,079,44,13,48,271,,1*74
$GBGSV,4,3,15,28,47,337,47,41,36,200,36,42,29,043,41,11,27,096,21,1*79
$GBGSV,4,4,15,37,12,259,,34,10,110,18,23,10,210,,1*47
$GBGSV,2,1,07,40,77,174,44,33,75,112,46,43,50,079,42,28,47,337,45,4*76
$GBGSV,2,2,07,41,36,200,38,42,29,043,37,34,10,110,18,4*4C
$GNGGA,042106.000,2500.7910854,N,12132.4425641,E,2,55,0.49,15.169,M,15.25,M,1,3335*45
$GNRMC,042106.000,A,2500.7910854,N,12132.4425641,E,0.00,20.94,270623,,,D,V*35
$GPHDT,,T*1B
$GNGGA,042106.200,2500.7910794,N,12132.4425701,E,2,55,0.49,15.158,M,15.25,M,1,3335*43
$GNRMC,042106.200,A,2500.7910794,N,12132.4425701,E,0.00,20.94,270623,,,D,V*31
$GPHDT,,T*1B
$GNGGA,042106.400,2500.7910794,N,12132.4425821,E,2,55,0.49,15.141,M,15.25,M,1,3335*40
$GNRMC,042106.400,A,2500.7910794,N,12132.4425821,E,0.00,20.94,270623,,,D,V*3A
$GPHDT,,T*1B
$GNGGA,042106.600,2500.7910794,N,12132.4425881,E,2,55,0.49,15.129,M,15.25,M,0,3335*47
$GNRMC,042106.600,A,2500.7910794,N,12132.4425881,E,0.00,20.94,270623,,,D,V*32
$GPHDT,,T*1B
$GNGGA,042106.800,2500.7910734,N,12132.4425941,E,2,55,0.49,15.115,M,15.25,M,0,3335*41
$GNRMC,042106.800,A,2500.7910734,N,12132.4425941,E,0.00,20.94,270623,,,D,V*3B
$GPHDT,,T*1B
$GNGSA,A,3,19,196,195,199,17,06,20,09,194,11,12,04,0.89,0.49,0.75,1*05
$GNGSA,A,3,14,,,,,,,,,,,,0.89,0.49,0.75,1*0A
$GNGSA,A,3,68,83,67,82,69,,,,,,,,0.89,0.49,0.75,2*0D
$GNGSA,A,3,10,12,24,04,19,25,33,,,,,,0.89,0.49,0.75,3*02
$GNGSA,A,3,40,33,07,10,14,43,28,41,42,34,,,0.89,0.49,0.75,4*04
$GPGSV,4,1,15,19,72,069,42,196,69,120,38,195,68,049,40,50,60,167,39,1*6B
$GPGSV,4,2,15,199,60,167,36,17,57,110,38,06,49,004,44,20,40,245,39,1*5B
$GPGSV,4,3,15,09,37,086,41,194,35,173,40,11,34,302,33,12,22,306,37,1*5E
$GPGSV,4,4,15,04,18,057,21,05,15,229,,14,11,172,11,1*55
$GPGSV,3,1,09,196,69,120,45,195,68,049,44,199,60,167,46,06,49,004,48,8*5D
$GPGSV,3,2,09,09,37,086,42,194,35,173,41,11,34,302,34,04,18,057,30,8*57
$GPGSV,3,3,09,14,11,172,17,8*53
$GLGSV,2,1,07,68,67,122,41,83,39,002,32,67,36,040,42,82,35,061,42,1*7E
$GLGSV,2,2,07,69,28,184,39,73,19,270,18,80,11,217,,1*41
$GAGSV,2,1,08,10,49,353,42,12,45,032,38,24,41,227,34,04,39,145,40,7*76
$GAGSV,2,2,08,19,32,070,33,25,29,294,22,33,10,076,25,09,09,189,,7*71
$GAGSV,2,1,06,10,49,353,44,12,45,032,41,24,41,227,38,04,39,145,46,1*7C
$GAGSV,2,2,06,19,32,070,38,25,29,294,22,1*75
$GBGSV,4,1,15,40,77,174,42,33,75,112,43,07,74,226,42,10,70,268,38,1*75
$GBGSV,4,2,15,08,56,286,18,14,54,056,44,43,50,079,44,13,48,271,,1*7B
$GBGSV,4,3,15,28,47,337,47,41,36,200,36,42,29,043,41,11,27,096,21,1*79
$GBGSV,4,4,15,37,12,259,,23,10,210,,34,10,110,18,1*47
$GBGSV,2,1,07,40,77,174,44,33,75,112,46,43,50,079,42,28,47,337,45,4*76
$GBGSV,2,2,07,41,36,200,38,42,29,043,37,34,10,110,18,4*4C
$GNGGA,042107.000,2500.7910674,N,12132.4426061,E,2,55,0.49,15.106,M,15.25,M,1,3335*46
$GNRMC,042107.000,A,2500.7910674,N,12132.4426061,E,0.00,20.94,270623,,,D,V*3F
$GPHDT,,T*1B
$GNGGA,042107.200,2500.7910674,N,12132.4426121,E,2,55,0.49,15.097,M,15.25,M,1,3335*48
$GNRMC,042107.200,A,2500.7910674,N,12132.4426121,E,0.00,20.94,270623,,,D,V*38
$GPHDT,225.335,T*35
$GNGGA,042107.400,2500.7910674,N,12132.4426241,E,2,55,0.49,15.088,M,15.25,M,1,3335*45
$GNRMC,042107.400,A,2500.7910674,N,12132.4426241,E,0.00,20.94,270623,,,D,V*3B
$GPHDT,225.287,T*3D
$GNGGA,042107.600,2500.7910614,N,12132.4426301,E,2,55,0.49,15.076,M,15.25,M,0,3335*44
$GNRMC,042107.600,A,2500.7910614,N,12132.4426301,E,0.00,20.94,270623,,,D,V*3A
$GPHDT,225.141,T*34
$GNGGA,042107.800,2500.7910674,N,12132.4426361,E,2,55,0.49,15.075,M,15.25,M,0,3335*49
$GNRMC,042107.800,A,2500.7910674,N,12132.4426361,E,0.00,20.94,270623,,,D,V*34
$GPHDT,224.987,T*37
$GNGSA,A,3,19,196,195,199,17,06,20,09,194,11,12,04,0.89,0.49,0.75,1*05
$GNGSA,A,3,14,,,,,,,,,,,,0.89,0.49,0.75,1*0A
$GNGSA,A,3,68,83,67,82,69,,,,,,,,0.89,0.49,0.75,2*0D
$GNGSA,A,3,10,12,24,04,19,25,33,,,,,,0.89,0.49,0.75,3*02
$GNGSA,A,3,40,33,07,10,14,43,28,41,42,34,,,0.89,0.49,0.75,4*04
$GPGSV,4,1,15,19,72,069,42,196,69,120,38,195,68,049,40,199,60,167,36,1*50
$GPGSV,4,2,15,50,60,167,39,17,57,110,38,06,49,004,44,20,40,245,39,1*60
$GPGSV,4,3,15,09,37,086,41,194,35,173,40,11,34,302,33,12,22,306,37,1*5E
$GPGSV,4,4,15,04,18,057,21,05,15,229,,14,11,172,,1*55
$GPGSV,3,1,09,196,69,120,45,195,68,049,44,199,60,167,46,06,49,004,48,8*5D
$GPGSV,3,2,09,09,37,086,42,194,35,173,41,11,34,302,34,04,18,057,30,8*57
$GPGSV,3,3,09,14,11,172,17,8*53
$GLGSV,2,1,08,68,67,122,41,83,39,002,32,67,36,040,42,82,35,061,42,1*71
$GLGSV,2,2,08,69,28,184,39,73,18,270,18,80,11,217,,74,08,313,,1*75
$GAGSV,2,1,08,10,49,353,42,12,45,032,38,24,41,227,35,04,39,145,41,7*76
$GAGSV,2,2,08,19,32,070,33,25,29,294,22,33,10,076,25,09,09,189,,7*71
$GAGSV,2,1,06,10,49,353,44,12,45,032,41,24,41,227,38,04,39,145,46,1*7C
$GAGSV,2,2,06,19,32,070,38,25,29,294,23,1*74
$GBGSV,4,1,15,40,77,174,42,33,75,112,43,07,74,226,42,10,70,268,38,1*75
$GBGSV,4,2,15,08,56,286,17,14,54,056,44,43,50,079,44,13,48,271,,1*74
$GBGSV,4,3,15,28,47,337,47,41,36,200,36,42,29,043,41,11,27,096,22,1*7A
$GBGSV,4,4,15,37,12,259,,34,10,110,18,23,10,210,,1*47
$GBGSV,2,1,07,40,77,174,44,33,75,112,46,43,50,079,42,28,47,337,45,4*76
$GBGSV,2,2,07,41,36,200,38,42,29,043,37,34,10,110,18,4*4C
$GNGGA,042108.000,2500.7910614,N,12132.4426421,E,2,55,0.49,15.071,M,15.25,M,1,3335*4E
$GNRMC,042108.000,A,2500.7910614,N,12132.4426421,E,0.00,20.94,270623,,,D,V*36
$GPHDT,224.945,T*39
$GNGGA,042108.200,2500.7910614,N,12132.4426481,E,2,55,0.49,15.060,M,15.25,M,1,3335*46
$GNRMC,042108.200,A,2500.7910614,N,12132.4426481,E,0.00,20.94,270623,,,D,V*3E
$GPHDT,224.826,T*3D
$GNGGA,042108.400,2500.7910674,N,12132.4426541,E,2,55,0.49,15.053,M,15.25,M,1,3335*4B
$GNRMC,042108.400,A,2500.7910674,N,12132.4426541,E,0.00,20.94,270623,,,D,V*33
$GPHDT,224.961,T*3F
$GNGGA,042108.600,2500.7910614,N,12132.4426541,E,2,55,0.49,15.033,M,15.25,M,0,3335*48
$GNRMC,042108.600,A,2500.7910614,N,12132.4426541,E,0.00,20.94,270623,,,D,V*37
$GPHDT,224.989,T*39
$GNGGA,042108.800,2500.7910614,N,12132.4426541,E,2,56,0.48,15.019,M,15.25,M,0,3335*4C
$GNRMC,042108.800,A,2500.7910614,N,12132.4426541,E,0.00,20.94,270623,,,D,V*39
$GPHDT,224.919,T*30
$GNGSA,A,3,19,196,195,199,17,06,20,09,194,11,12,04,0.88,0.48,0.74,1*04
$GNGSA,A,3,14,,,,,,,,,,,,0.88,0.48,0.74,1*0B
$GNGSA,A,3,68,83,67,82,69,,,,,,,,0.88,0.48,0.74,2*0C
$GNGSA,A,3,10,12,24,04,19,25,33,,,,,,0.88,0.48,0.74,3*03
$GNGSA,A,3,40,33,07,10,14,43,28,41,42,11,34,,0.88,0.48,0.74,4*05
$GPGSV,4,1,15,19,72,069,42,196,69,120,38,195,68,049,40,50,60,167,39,1*6B
$GPGSV,4,2,15,199,60,167,36,17,57,110,37,06,49,004,44,20,40,245,39,1*54
$GPGSV,4,3,15,09,37,086,41,194,35,173,40,11,34,302,33,12,22,306,35,1*5C
$GPGSV,4,4,15,04,18,057,19,05,15,229,,14,11,172,,1*5E
$GPGSV,3,1,09,196,69,120,45,195,68,049,44,199,60,167,46,06,49,004,48,8*5D
$GPGSV,3,2,09,09,37,086,42,194,35,173,41,11,34,302,34,04,18,057,30,8*57
$GPGSV,3,3,09,14,11,172,15,8*51
$GLGSV,2,1,07,68,67,122,40,83,39,002,31,67,36,040,41,82,35,061,42,1*7F
$GLGSV,2,2,07,69,28,184,39,73,18,270,18,80,11,217,,1*40
$GAGSV,2,1,08,10,49,353,42,12,45,032,38,24,41,227,34,04,39,145,41,7*77
$GAGSV,2,2,08,19,32,070,32,25,29,294,22,33,10,076,24,09,09,189,,7*71
$GAGSV,2,1,06,10,49,353,44,12,45,032,41,24,41,227,38,04,39,145,46,1*7C
$GAGSV,2,2,06,19,32,070,38,25,29,294,23,1*74
$GBGSV,4,1,15,40,77,174,42,33,75,112,43,07,74,226,42,10,70,268,38,1*75
$GBGSV,4,2,15,08,56,286,17,14,54,056,44,43,50,079,44,13,48,271,,1*74
$GBGSV,4,3,15,28,47,337,47,41,36,200,36,42,29,043,41,11,27,096,24,1*7C
$GBGSV,4,4,15,37,12,259,,23,10,210,,34,10,110,20,1*4C
$GBGSV,2,1,07,40,77,174,44,33,75,112,46,43,50,079,42,28,47,337,45,4*76
$GBGSV,2,2,07,41,36,200,38,42,29,043,37,34,10,110,17,4*43
$GNGGA,042109.000,2500.7910614,N,12132.4426541,E,2,56,0.48,15.013,M,15.25,M,1,3335*4E
$GNRMC,042109.000,A,2500.7910614,N,12132.4426541,E,0.00,20.94,270623,,,D,V*30
$GPHDT,225.271,T*34
$GNGGA,042109.200,2500.7910554,N,12132.4426601,E,2,56,0.48,15.009,M,15.25,M,1,3335*47
$GNRMC,042109.200,A,2500.7910554,N,12132.4426601,E,0.00,20.94,270623,,,D,V*32
$GPHDT,225.053,T*36
$GNGGA,042109.400,2500.7910554,N,12132.4426601,E,2,56,0.48,14.999,M,15.25,M,1,3335*40
$GNRMC,042109.400,A,2500.7910554,N,12132.4426601,E,0.00,20.94,270623,,,D,V*34
$GPHDT,224.863,T*3C
