$FW : RTK35X,V1.1X0314AS,Lib20210517,1*54
$Tool : LOCOSYS , GNSS Firebird , v1.0.0.19*39
$---------------------------------------------------*2D
$GPHDT,,T*1B
$GNGSA,A,3,19,195,196,199,17,06,20,09,194,11,12,04,0.88,0.47,0.74,1*0B
$GNGSA,A,3,14,,,,,,,,,,,,0.88,0.47,0.74,1*04
$GNGSA,A,3,68,83,67,82,69,,,,,,,,0.88,0.47,0.74,2*03
$GNGSA,A,3,10,12,24,04,19,25,33,,,,,,0.88,0.47,0.74,3*0C
$GNGSA,A,3,40,07,33,10,08,14,43,28,41,42,11,34,0.88,0.47,0.74,4*02
$GPGSV,4,1,15,19,72,063,44,195,68,048,40,196,68,121,41,50,60,167,40,1*66
$GPGSV,4,2,15,199,60,167,37,17,58,107,38,06,49,002,42,20,39,243,36,1*54
$GPGSV,4,3,15,09,37,088,28,194,35,173,42,11,33,300,22,12,21,307,39,1*54
$GPGSV,4,4,15,04,19,058,29,05,14,228,,14,13,173,20,1*52
$GPGSV,2,1,07,196,68,121,44,195,68,048,45,199,60,167,46,06,49,002,47,8*5A
$GPGSV,2,2,07,194,35,173,40,11,33,300,29,14,13,173,22,8*6B
$GLGSV,2,1,07,68,65,126,41,83,39,000,27,67,37,041,44,82,36,059,40,1*72
$GLGSV,2,2,07,69,26,184,41,73,19,272,14,80,12,218,,1*42
$GAGSV,3,1,09,10,49,351,42,12,45,031,37,24,42,228,39,04,38,146,45,7*7E
$GAGSV,3,2,09,19,32,072,29,25,29,295,24,33,10,075,21,09,08,189,,7*79
$GAGSV,3,3,09,36,03,280,,7*46
$GAGSV,2,1,07,10,49,351,45,12,45,031,41,24,42,228,40,04,38,146,43,1*79
$GAGSV,2,2,07,19,32,072,28,25,29,295,27,33,10,075,18,1*49
$GBGSV,4,1,15,40,78,172,40,07,75,227,40,33,74,118,43,10,71,270,39,1*7E
$GBGSV,4,2,15,08,56,284,26,14,55,058,42,43,50,077,40,13,48,270,,1*76
$GBGSV,4,3,15,28,46,336,47,41,35,199,39,42,30,044,44,11,27,095,35,1*7A
$GBGSV,4,4,15,37,12,260,,23,11,211,,34,11,109,30,1*4E
$GBGSV,2,1,06,40,78,172,45,33,74,118,45,43,50,077,41,28,46,336,43,4*7C
$GBGSV,2,2,06,41,35,199,40,42,30,044,39,4*7C
$GNGGA,041756.000,2500.7913869,N,12132.4418210,E,4,57,0.47,15.967,M,15.25,M,1,3335*4A
$GNRMC,041756.000,A,2500.7913869,N,12132.4418210,E,0.00,20.94,270623,,,R,V*20
$GPHDT,,T*1B
$GNGGA,041756.200,2500.7913870,N,12132.4418208,E,4,57,0.47,15.957,M,15.25,M,1,3335*4A
$GNRMC,041756.200,A,2500.7913870,N,12132.4418208,E,0.00,20.94,270623,,,R,V*23
$GPHDT,,T*1B
$GNGGA,041756.400,2500.7913866,N,12132.4418230,E,4,57,0.47,15.962,M,15.25,M,1,3335*46
$GNRMC,041756.400,A,2500.7913866,N,12132.4418230,E,0.00,20.94,270623,,,R,V*29
$GPHDT,,T*1B
$GNGGA,041756.600,2500.7913858,N,12132.4418298,E,4,57,0.47,15.938,M,15.25,M,0,3335*45
$GNRMC,041756.600,A,2500.7913858,N,12132.4418298,E,0.00,20.94,270623,,,R,V*24
$GPHDT,,T*1B
$GNGGA,041756.800,2500.7913858,N,12132.4418291,E,4,57,0.47,15.941,M,15.25,M,0,3335*4C
$GNRMC,041756.800,A,2500.7913858,N,12132.4418291,E,0.00,20.94,270623,,,R,V*23
$GPHDT,,T*1B
$GNGSA,A,3,19,196,195,199,17,06,20,09,194,11,12,04,0.88,0.47,0.74,1*0B
$GNGSA,A,3,14,,,,,,,,,,,,0.88,0.47,0.74,1*04
$GNGSA,A,3,68,83,67,82,69,,,,,,,,0.88,0.47,0.74,2*03
$GNGSA,A,3,10,12,24,04,19,25,33,,,,,,0.88,0.47,0.74,3*0C
$GNGSA,A,3,40,07,33,10,08,14,43,28,41,42,11,34,0.88,0.47,0.74,4*02
$GPGSV,4,1,15,19,72,063,44,196,68,121,41,195,68,048,40,50,60,167,40,1*66
$GPGSV,4,2,15,199,60,167,37,17,58,107,38,06,49,002,42,20,39,243,36,1*54
$GPGSV,4,3,15,09,37,088,28,194,35,173,42,11,33,300,24,12,21,307,39,1*52
$GPGSV,4,4,15,04,19,058,27,05,14,228,,14,13,173,18,1*57
$GPGSV,2,1,07,196,68,121,44,195,68,048,45,199,60,167,46,06,49,002,47,8*5A
$GPGSV,2,2,07,194,35,173,40,11,33,300,29,14,13,173,22,8*6B
$GLGSV,2,1,07,68,65,126,41,83,39,000,27,67,37,041,44,82,36,059,39,1*7C
$GLGSV,2,2,07,69,26,184,41,73,19,272,14,80,12,218,,1*42
$GAGSV,2,1,08,10,49,351,42,12,45,031,37,24,42,228,39,04,38,146,45,7*7E
$GAGSV,2,2,08,19,32,072,29,25,29,295,24,33,10,075,21,36,03,280,,7*74
$GAGSV,2,1,07,10,49,351,45,12,45,031,41,24,42,228,40,04,38,146,43,1*79
$GAGSV,2,2,07,19,32,072,28,25,29,295,27,33,10,075,18,1*49
$GBGSV,4,1,15,40,78,172,40,07,75,227,41,33,74,118,43,10,71,270,38,1*7E
$GBGSV,4,2,15,08,56,284,25,14,55,058,42,43,50,077,40,13,48,270,,1*75
$GBGSV,4,3,15,28,46,336,47,41,35,199,39,42,30,044,43,11,27,095,35,1*7D
$GBGSV,4,4,15,37,12,260,,34,11,109,28,23,11,211,,1*47
$GBGSV,2,1,06,40,78,172,45,33,74,118,45,43,50,077,41,28,46,336,43,4*7C
$GBGSV,2,2,06,41,35,199,40,42,30,044,39,4*7C
$GNGGA,041757.000,2500.7913850,N,12132.4418293,E,4,57,0.47,15.942,M,15.25,M,1,3335*4D
$GNRMC,041757.000,A,2500.7913850,N,12132.4418293,E,0.00,20.94,270623,,,R,V*20
$GPHDT,,T*1B
$GNGGA,041757.200,2500.7913847,N,12132.4418295,E,4,59,0.47,15.949,M,15.25,M,1,3335*4A
$GNRMC,041757.200,A,2500.7913847,N,12132.4418295,E,0.00,20.94,270623,,,R,V*22
$GPHDT,,T*1B
$GNGGA,041757.400,2500.7913855,N,12132.4418296,E,4,58,0.47,15.951,M,15.25,M,1,3335*44
$GNRMC,041757.400,A,2500.7913855,N,12132.4418296,E,0.00,20.94,270623,,,R,V*24
$GPHDT,,T*1B
$GNGGA,041757.600,2500.7913880,N,12132.4418322,E,4,59,0.47,15.928,M,15.25,M,0,3335*4E
$GNRMC,041757.600,A,2500.7913880,N,12132.4418322,E,0.00,20.94,270623,,,R,V*20
$GPHDT,,T*1B
$GNGGA,041757.800,2500.7913869,N,12132.4418313,E,4,59,0.47,15.936,M,15.25,M,0,3335*4A
$GNRMC,041757.800,A,2500.7913869,N,12132.4418313,E,0.00,20.94,270623,,,R,V*2B
$GPHDT,,T*1B
$GNGSA,A,3,19,196,195,199,17,06,20,09,194,11,12,04,0.88,0.47,0.74,1*0B
$GNGSA,A,3,14,,,,,,,,,,,,0.88,0.47,0.74,1*04
$GNGSA,A,3,68,83,67,82,69,,,,,,,,0.88,0.47,0.74,2*03
$GNGSA,A,3,10,12,24,04,19,25,33,,,,,,0.88,0.47,0.74,3*0C
$GNGSA,A,3,40,07,33,10,08,14,43,28,41,42,11,34,0.88,0.47,0.74,4*02
$GPGSV,4,1,15,19,72,063,44,196,68,121,40,195,68,048,41,50,60,167,40,1*66
$GPGSV,4,2,15,199,60,167,37,17,58,107,37,06,49,002,42,20,39,243,37,1*5A
$GPGSV,4,3,15,09,37,088,33,194,35,173,42,11,33,300,23,12,21,307,39,1*5F
$GPGSV,4,4,15,04,19,058,24,05,14,228,,14,13,173,18,1*54
$GPGSV,3,1,09,196,68,121,44,195,68,048,45,199,60,167,47,06,49,002,47,8*54
$GPGSV,3,2,09,09,37,088,35,194,35,173,41,11,33,300,30,04,19,058,28,8*5F
$GPGSV,3,3,09,14,13,173,23,8*57
$GLGSV,2,1,08,68,65,126,40,83,39,000,28,67,37,041,45,82,36,059,33,1*76
$GLGSV,2,2,08,69,26,184,41,73,19,272,12,80,12,218,,74,08,314,,1*76
$GAGSV,2,1,07,10,49,351,42,12,45,031,37,24,42,228,39,04,38,146,45,7*71
$GAGSV,2,2,07,19,32,072,32,25,29,295,25,33,10,075,21,7*4C
$GAGSV,2,1,07,10,49,351,45,12,45,031,41,24,42,228,40,04,38,146,45,1*7F
$GAGSV,2,2,07,19,32,072,30,25,29,295,28,33,10,075,18,1*4F
$GBGSV,4,1,15,40,78,172,40,07,75,227,40,33,74,118,43,10,71,269,39,1*76
$GBGSV,4,2,15,08,56,285,25,14,55,058,42,43,50,077,41,13,48,270,,1*75
$GBGSV,4,3,15,28,46,336,47,41,35,199,38,42,30,044,43,11,27,095,34,1*7D
$GBGSV,4,4,15,37,12,260,,34,11,109,28,23,11,211,,1*47
$GBGSV,2,1,06,40,78,172,45,33,74,118,47,43,50,077,42,28,46,336,44,4*7A
$GBGSV,2,2,06,41,35,199,40,42,30,044,41,4*73
$GNGGA,041758.000,2500.7913877,N,12132.4418316,E,4,59,0.47,15.927,M,15.25,M,1,3335*46
$GNRMC,041758.000,A,2500.7913877,N,12132.4418316,E,0.00,20.94,270623,,,R,V*26
$GPHDT,,T*1B
$GNGGA,041758.200,2500.7913863,N,12132.4418284,E,4,59,0.47,15.952,M,15.25,M,1,3335*49
$GNRMC,041758.200,A,2500.7913863,N,12132.4418284,E,0.00,20.94,270623,,,R,V*2B
$GPHDT,,T*1B
$GNGGA,041758.400,2500.7913875,N,12132.4418276,E,4,59,0.47,15.959,M,15.25,M,1,3335*4E
$GNRMC,041758.400,A,2500.7913875,N,12132.4418276,E,0.00,20.94,270623,,,R,V*27
$GPHDT,,T*1B
$GNGGA,041758.600,2500.7913860,N,12132.4418260,E,4,58,0.47,15.962,M,15.25,M,0,3335*47
$GNRMC,041758.600,A,2500.7913860,N,12132.4418260,E,0.00,20.94,270623,,,R,V*26
$GPHDT,,T*1B
$GNGGA,041758.800,2500.7913870,N,12132.4418250,E,4,59,0.47,15.975,M,15.25,M,0,3335*4C
$GNRMC,041758.800,A,2500.7913870,N,12132.4418250,E,0.00,20.94,270623,,,R,V*2A
$GPHDT,,T*1B
$GNGSA,A,3,19,195,196,199,17,06,20,09,194,11,12,04,0.88,0.47,0.74,1*0B
$GNGSA,A,3,14,,,,,,,,,,,,0.88,0.47,0.74,1*04
$GNGSA,A,3,68,83,67,82,69,,,,,,,,0.88,0.47,0.74,2*03
$GNGSA,A,3,10,12,24,04,19,25,33,,,,,,0.88,0.47,0.74,3*0C
$GNGSA,A,3,40,07,33,10,08,14,43,28,41,42,11,34,0.88,0.47,0.74,4*02
$GPGSV,4,1,15,19,72,063,44,195,68,048,41,196,68,121,40,50,60,167,40,1*66
$GPGSV,4,2,15,199,60,167,37,17,58,107,37,06,49,002,42,20,39,243,37,1*5A
$GPGSV,4,3,15,09,37,088,35,194,35,173,42,11,33,300,24,12,21,307,39,1*5E
$GPGSV,4,4,15,04,19,058,29,05,14,228,,14,13,173,18,1*59
$GPGSV,3,1,09,196,68,121,44,195,68,048,45,199,60,167,47,06,49,002,47,8*54
$GPGSV,3,2,09,09,37,088,33,194,35,173,40,11,33,300,28,04,19,058,26,8*5F
$GPGSV,3,3,09,14,13,173,23,8*57
$GLGSV,2,1,08,68,65,126,40,83,39,000,28,67,37,041,45,82,36,059,31,1*74
$GLGSV,2,2,08,69,26,184,41,73,19,272,12,80,12,218,,74,08,314,,1*76
$GAGSV,2,1,08,10,49,351,42,12,45,031,37,24,42,228,39,04,38,146,45,7*7E
$GAGSV,2,2,08,19,32,072,32,25,29,295,23,33,10,075,22,09,08,189,,7*77
$GAGSV,2,1,07,10,49,351,45,12,45,031,41,24,42,228,40,04,38,146,45,1*7F
$GAGSV,2,2,07,19,32,072,31,25,29,295,26,33,10,075,17,1*4F
$GBGSV,4,1,15,40,78,172,40,07,75,227,40,33,74,118,43,10,71,269,39,1*76
$GBGSV,4,2,15,08,56,285,24,14,55,057,42,43,50,077,41,28,46,336,47,1*7D
$GBGSV,4,3,15,41,35,199,38,42,30,044,43,11,27,095,34,37,12,260,,1*73
$GBGSV,4,4,15,23,11,211,,34,11,109,26,27,07,306,,1*4D
$GBGSV,2,1,06,40,78,172,45,33,74,118,47,43,50,077,42,28,46,336,44,4*7A
$GBGSV,2,2,06,41,35,199,39,42,30,044,41,4*7D
$GNGGA,041759.000,2500.7913858,N,12132.4418272,E,4,59,0.47,15.951,M,15.25,M,1,3335*48
$GNRMC,041759.000,A,2500.7913858,N,12132.4418272,E,0.00,20.94,270623,,,R,V*29
$GPHDT,,T*1B
$GNGGA,041759.200,2500.7913857,N,12132.4418281,E,4,59,0.47,15.957,M,15.25,M,1,3335*4F
$GNRMC,041759.200,A,2500.7913857,N,12132.4418281,E,0.00,20.94,270623,,,R,V*28
$GPHDT,,T*1B
$GNGGA,041759.400,2500.7913852,N,12132.4418255,E,4,59,0.47,15.962,M,15.25,M,1,3335*43
$GNRMC,041759.400,A,2500.7913852,N,12132.4418255,E,0.00,20.94,270623,,,R,V*22
$GPHDT,,T*1B
$GNGGA,041759.600,2500.7913867,N,12132.4418266,E,4,59,0.47,15.944,M,15.25,M,0,3335*42
$GNRMC,041759.600,A,2500.7913867,N,12132.4418266,E,0.00,20.94,270623,,,R,V*26
$GPHDT,,T*1B
$GNGGA,041759.800,2500.7913870,N,12132.4418321,E,4,59,0.47,15.951,M,15.25,M,0,3335*4C
$GNRMC,041759.800,A,2500.7913870,N,12132.4418321,E,0.00,20.94,270623,,,R,V*2C
$GPHDT,,T*1B
$GNGSA,A,3,19,195,196,199,17,06,20,09,194,11,12,04,0.88,0.47,0.74,1*0B
$GNGSA,A,3,14,,,,,,,,,,,,0.88,0.47,0.74,1*04
$GNGSA,A,3,68,83,67,82,69,,,,,,,,0.88,0.47,0.74,2*03
$GNGSA,A,3,10,12,24,04,19,25,33,,,,,,0.88,0.47,0.74,3*0C
$GNGSA,A,3,40,07,33,10,08,14,43,28,41,42,11,34,0.88,0.47,0.74,4*02
$GPGSV,4,1,15,19,72,063,44,195,68,048,41,196,68,121,40,50,60,167,40,1*66
$GPGSV,4,2,15,199,60,167,37,17,58,107,37,06,49,002,42,20,39,243,37,1*5A
$GPGSV,4,3,15,09,37,088,35,194,35,173,41,11,33,300,25,12,21,307,39,1*5C
$GPGSV,4,4,15,04,19,058,27,05,14,228,,14,13,173,18,1*57
$GPGSV,3,1,09,196,68,121,43,195,68,048,45,199,60,167,47,06,49,002,46,8*52
$GPGSV,3,2,09,09,37,088,32,194,35,173,40,11,33,300,28,04,19,058,25,8*5D
$GPGSV,3,3,09,14,13,173,22,8*56
$GLGSV,2,1,08,68,65,126,40,83,39,000,27,67,37,041,45,82,36,059,28,1*73
$GLGSV,2,2,08,69,26,184,41,73,19,272,15,80,12,218,,84,04,307,,1*70
$GAGSV,3,1,09,10,49,351,42,12,45,031,37,24,42,228,39,04,38,146,45,7*7E
$GAGSV,3,2,09,19,32,072,33,25,29,295,23,33,10,075,22,09,08,189,,7*76
$GAGSV,3,3,09,36,03,280,,7*46
$GAGSV,2,1,07,10,49,351,45,12,45,031,41,24,42,228,40,04,38,146,45,1*7F
$GAGSV,2,2,07,19,32,072,31,25,29,295,26,33,10,075,15,1*4D
$GBGSV,4,1,15,40,78,172,40,07,75,227,39,33,74,118,42,10,71,269,39,1*79
$GBGSV,4,2,15,08,56,285,24,14,55,057,42,43,50,077,41,13,48,270,,1*7B
$GBGSV,4,3,15,28,46,336,47,41,35,199,38,42,30,044,43,11,27,095,34,1*7D
$GBGSV,4,4,15,37,12,260,,34,11,109,26,23,11,211,,1*49
$GBGSV,2,1,06,40,78,172,45,33,74,118,47,43,50,077,42,28,46,336,44,4*7A
$GBGSV,2,2,06,41,35,199,38,42,30,044,41,4*7C
$GNGGA,041800.000,2500.7913868,N,12132.4418283,E,4,59,0.47,15.952,M,15.25,M,1,3335*45
$GNRMC,041800.000,A,2500.7913868,N,12132.4418283,E,0.00,20.94,270623,,,R,V*27
$GPHDT,,T*1B
$GNGGA,041800.200,2500.7913853,N,12132.4418284,E,4,59,0.47,15.950,M,15.25,M,1,3335*4A
$GNRMC,041800.200,A,2500.7913853,N,12132.4418284,E,0.00,20.94,270623,,,R,V*2A
$GPHDT,,T*1B
$GNGGA,041800.400,2500.7913855,N,12132.4418281,E,4,59,0.47,15.961,M,15.25,M,1,3335*4D
$GNRMC,041800.400,A,2500.7913855,N,12132.4418281,E,0.00,20.94,270623,,,R,V*2F
$GPHDT,,T*1B
$GNGGA,041800.600,2500.7913875,N,12132.4418326,E,4,59,0.47,15.947,M,15.25,M,1,3335*45
$GNRMC,041800.600,A,2500.7913875,N,12132.4418326,E,0.00,20.94,270623,,,R,V*23
$GPHDT,,T*1B
$GNGGA,041800.800,2500.7913888,N,12132.4418357,E,4,59,0.47,15.930,M,15.25,M,0,3335*4E
$GNRMC,041800.800,A,2500.7913888,N,12132.4418357,E,0.00,20.94,270623,,,R,V*29
$GPHDT,,T*1B
$GNGSA,A,3,19,195,196,199,17,06,20,09,194,11,12,04,0.88,0.47,0.74,1*0B
$GNGSA,A,3,14,,,,,,,,,,,,0.88,0.47,0.74,1*04
$GNGSA,A,3,68,83,67,82,69,,,,,,,,0.88,0.47,0.74,2*03
$GNGSA,A,3,10,12,24,04,19,25,33,,,,,,0.88,0.47,0.74,3*0C
$GNGSA,A,3,40,07,33,10,08,14,43,28,41,42,11,34,0.88,0.47,0.74,4*02
$GPGSV,4,1,15,19,72,063,44,195,68,048,41,196,68,121,40,50,60,167,40,1*66
$GPGSV,4,2,15,199,60,167,37,17,58,107,37,06,49,002,42,20,39,243,37,1*5A
$GPGSV,4,3,15,09,37,088,36,194,35,173,41,11,33,300,25,12,21,307,39,1*5F
$GPGSV,4,4,15,04,19,058,27,05,14,228,,14,13,173,18,1*57
$GPGSV,3,1,09,196,68,121,43,195,68,048,45,199,60,167,47,06,49,002,46,8*52
$GPGSV,3,2,09,09,37,088,34,194,35,173,40,11,33,300,29,04,19,058,27,8*58
$GPGSV,3,3,09,14,13,173,22,8*56
$GLGSV,2,1,07,68,65,126,40,83,39,000,27,67,37,041,45,82,36,059,29,1*7D
$GLGSV,2,2,07,69,26,184,41,73,19,272,16,80,12,218,,1*40
$GAGSV,3,1,09,10,49,351,42,12,45,031,38,24,42,228,39,04,38,146,45,7*71
$GAGSV,3,2,09,19,32,072,33,25,29,295,23,33,10,075,21,09,08,189,,7*75
$GAGSV,3,3,09,36,03,280,,7*46
$GAGSV,2,1,07,10,49,351,45,12,45,031,41,24,42,228,40,04,38,146,45,1*7F
$GAGSV,2,2,07,19,32,072,32,25,29,295,26,33,10,075,18,1*43
$GBGSV,4,1,15,40,78,172,40,07,75,227,39,33,74,118,42,10,71,269,39,1*79
$GBGSV,4,2,15,08,56,285,23,14,55,057,42,43,50,077,41,13,48,270,,1*7C
$GBGSV,4,3,15,28,46,336,47,41,35,199,38,42,30,044,43,11,27,095,34,1*7D
$GBGSV,4,4,15,37,12,260,,23,11,211,,34,11,109,25,1*4A
$GBGSV,2,1,06,40,78,172,46,33,74,118,47,43,50,077,42,28,46,336,44,4*79
$GBGSV,2,2,06,41,35,199,38,42,30,044,41,4*7C
$GNGGA,041801.000,2500.7913888,N,12132.4418315,E,4,59,0.47,15.929,M,15.25,M,1,3335*48
$GNRMC,041801.000,A,2500.7913888,N,12132.4418315,E,0.00,20.94,270623,,,R,V*26
$GPHDT,,T*1B
$GNGGA,041801.200,2500.7913869,N,12132.4418352,E,4,58,0.47,15.928,M,15.25,M,1,3335*46
$GNRMC,041801.200,A,2500.7913869,N,12132.4418352,E,0.00,20.94,270623,,,R,V*28
$GPHDT,,T*1B
$GNGGA,041801.400,2500.7913861,N,12132.4418338,E,4,59,0.47,15.930,M,15.25,M,1,3335*4C
$GNRMC,041801.400,A,2500.7913861,N,12132.4418338,E,0.00,20.94,270623,,,R,V*2A
$GPHDT,,T*1B
$GNGGA,041801.600,2500.7913886,N,12132.4418340,E,4,58,0.47,15.922,M,15.25,M,0,3335*4B
$GNRMC,041801.600,A,2500.7913886,N,12132.4418340,E,0.00,20.94,270623,,,R,V*2E
$GPHDT,,T*1B
$GNGGA,041801.800,2500.7913869,N,12132.4418325,E,4,59,0.47,15.937,M,15.25,M,0,3335*42
$GNRMC,041801.800,A,2500.7913869,N,12132.4418325,E,0.00,20.94,270623,,,R,V*22
$GPHDT,,T*1B
$GNGSA,A,3,19,195,196,199,17,06,20,09,194,11,12,04,0.88,0.47,0.74,1*0B
$GNGSA,A,3,14,,,,,,,,,,,,0.88,0.47,0.74,1*04
$GNGSA,A,3,68,83,67,82,69,,,,,,,,0.88,0.47,0.74,2*03
$GNGSA,A,3,10,12,24,04,19,25,33,,,,,,0.88,0.47,0.74,3*0C
$GNGSA,A,3,40,07,33,10,08,14,43,28,41,42,11,34,0.88,0.47,0.74,4*02
$GPGSV,4,1,15,19,72,063,44,195,68,048,41,196,68,121,40,50,60,167,40,1*66
$GPGSV,4,2,15,199,60,167,37,17,58,107,36,06,49,002,43,20,39,243,37,1*5A
$GPGSV,4,3,15,09,37,088,36,194,35,173,41,11,33,300,25,12,21,307,39,1*5F
$GPGSV,4,4,15,04,19,058,25,05,14,228,,14,13,173,17,1*5A
$GPGSV,3,1,09,196,68,121,43,195,68,048,45,199,60,167,47,06,49,002,46,8*52
$GPGSV,3,2,09,09,37,088,34,194,35,173,40,11,33,300,29,04,19,058,25,8*5A
$GPGSV,3,3,09,14,13,173,22,8*56
$GLGSV,2,1,07,68,65,126,40,83,39,000,26,67,37,041,45,82,36,059,32,1*76
$GLGSV,2,2,07,69,26,184,41,73,19,272,15,80,12,218,,1*43
$GAGSV,3,1,09,10,49,351,42,12,45,031,38,24,42,228,39,04,38,146,45,7*71
$GAGSV,3,2,09,19,32,072,34,25,29,295,23,33,10,075,19,09,08,189,,7*79
$GAGSV,3,3,09,36,03,280,,7*46
$GAGSV,2,1,07,10,49,351,45,12,45,031,41,24,42,228,40,04,38,146,45,1*7F
$GAGSV,2,2,07,19,32,072,31,25,29,295,27,33,10,075,18,1*41
$GBGSV,4,1,15,40,78,172,40,07,75,227,39,33,74,118,42,10,71,269,39,1*79
$GBGSV,4,2,15,08,56,285,24,14,55,057,42,43,50,077,41,13,48,270,,1*7B
$GBGSV,4,3,15,28,46,336,47,41,35,199,38,42,30,044,42,11,27,095,33,1*7B
$GBGSV,4,4,15,37,12,260,,23,11,211,,34,11,109,24,1*4B
$GBGSV,2,1,06,40,78,172,46,33,74,118,47,43,50,077,42,28,46,336,44,4*79
$GBGSV,2,2,06,41,35,199,38,42,30,044,41,4*7C
$GNGGA,041802.000,2500.7913878,N,12132.4418330,E,4,59,0.47,15.926,M,15.25,M,1,3335*4C
$GNRMC,041802.000,A,2500.7913878,N,12132.4418330,E,0.00,20.94,270623,,,R,V*2D
$GPHDT,,T*1B
$GNGGA,041802.200,2500.7913889,N,12132.4418342,E,4,59,0.47,15.927,M,15.25,M,1,3335*44
$GNRMC,041802.200,A,2500.7913889,N,12132.4418342,E,0.00,20.94,270623,,,R,V*24
$GPHDT,,T*1B
$GNGGA,041802.400,2500.7913897,N,12132.4418331,E,4,59,0.47,15.930,M,15.25,M,1,3335*4F
$GNRMC,041802.400,A,2500.7913897,N,12132.4418331,E,0.00,20.94,270623,,,R,V*29
$GPHDT,,T*1B
$GNGGA,041802.600,2500.7913880,N,12132.4418318,E,4,59,0.47,15.947,M,15.25,M,0,3335*41
$GNRMC,041802.600,A,2500.7913880,N,12132.4418318,E,0.00,20.94,270623,,,R,V*26
$GPHDT,,T*1B
$GNGGA,041802.800,2500.7913865,N,12132.4418337,E,4,58,0.47,15.953,M,15.25,M,0,3335*4D
$GNRMC,041802.800,A,2500.7913865,N,12132.4418337,E,0.00,20.94,270623,,,R,V*2E
$GPHDT,,T*1B
$GNGSA,A,3,19,195,196,199,17,06,20,09,194,11,12,04,0.88,0.47,0.74,1*0B
$GNGSA,A,3,14,,,,,,,,,,,,0.88,0.47,0.74,1*04
$GNGSA,A,3,68,83,67,82,69,,,,,,,,0.88,0.47,0.74,2*03
$GNGSA,A,3,10,12,24,04,19,25,33,,,,,,0.88,0.47,0.74,3*0C
$GNGSA,A,3,40,07,33,10,08,14,43,28,41,42,11,34,0.88,0.47,0.74,4*02
$GPGSV,4,1,15,19,72,063,44,195,68,048,41,196,68,121,40,50,60,167,40,1*66
$GPGSV,4,2,15,199,60,167,37,17,58,107,35,06,49,002,43,20,39,243,36,1*58
$GPGSV,4,3,15,09,37,088,37,194,35,173,42,11,33,300,24,12,21,307,39,1*5C
$GPGSV,4,4,15,04,19,058,27,05,14,228,,14,13,173,17,1*58
$GPGSV,3,1,09,196,68,121,43,195,68,048,45,199,60,167,47,06,49,002,46,8*52
$GPGSV,3,2,09,09,37,088,34,194,35,173,41,11,33,300,29,04,19,058,26,8*58
$GPGSV,3,3,09,14,13,173,23,8*57
$GLGSV,2,1,07,68,65,126,40,83,39,000,26,67,37,041,45,82,36,059,32,1*76
$GLGSV,2,2,07,69,26,184,41,73,19,272,16,80,12,218,,1*40
$GAGSV,3,1,09,10,49,351,42,12,45,031,38,24,42,228,39,04,38,146,45,7*71
$GAGSV,3,2,09,19,32,072,34,25,29,295,22,33,10,075,19,09,08,189,,7*78
$GAGSV,3,3,09,36,03,280,,7*46
$GAGSV,2,1,07,10,49,351,45,12,45,031,41,24,42,228,40,04,38,146,45,1*7F
$GAGSV,2,2,07,19,32,072,31,25,29,295,27,33,10,075,18,1*41
$GBGSV,4,1,15,40,78,172,40,07,75,227,39,33,74,117,42,10,71,269,39,1*76
$GBGSV,4,2,15,08,56,285,24,14,55,057,42,43,50,077,41,13,48,270,,1*7B
$GBGSV,4,3,15,28,46,336,47,41,35,199,37,42,30,044,42,11,27,095,34,1*73
$GBGSV,4,4,15,37,12,260,,23,11,211,,34,11,109,23,1*4C
$GBGSV,2,1,06,40,78,172,46,33,74,117,47,43,50,077,42,28,46,336,44,4*76
$GBGSV,2,2,06,41,35,199,38,42,30,044,41,4*7C
$GNGGA,041803.000,2500.7913888,N,12132.4418337,E,4,59,0.47,15.940,M,15.25,M,1,3335*45
$GNRMC,041803.000,A,2500.7913888,N,12132.4418337,E,0.00,20.94,270623,,,R,V*24
$GPHDT,,T*1B
$GNGGA,041803.200,2500.7913867,N,12132.4418335,E,4,59,0.47,15.946,M,15.25,M,1,3335*42
$GNRMC,041803.200,A,2500.7913867,N,12132.4418335,E,0.00,20.94,270623,,,R,V*25
$GPHDT,,T*1B
$GNGGA,041803.400,2500.7913896,N,12132.4418361,E,4,59,0.47,15.944,M,15.25,M,1,3335*49
$GNRMC,041803.400,A,2500.7913896,N,12132.4418361,E,0.00,20.94,270623,,,R,V*2C
$GPHDT,,T*1B
$GNGGA,041803.600,2500.7913873,N,12132.4418358,E,4,59,0.47,15.956,M,15.25,M,0,3335*48
$GNRMC,041803.600,A,2500.7913873,N,12132.4418358,E,0.00,20.94,270623,,,R,V*2F
$GPHDT,,T*1B
$GNGGA,041803.800,2500.7913894,N,12132.4418353,E,4,59,0.47,15.950,M,15.25,M,0,3335*42
$GNRMC,041803.800,A,2500.7913894,N,12132.4418353,E,0.00,20.94,270623,,,R,V*23
$GPHDT,,T*1B
$GNGSA,A,3,19,195,196,199,17,06,20,09,194,11,12,04,0.88,0.47,0.74,1*0B
$GNGSA,A,3,14,,,,,,,,,,,,0.88,0.47,0.74,1*04
$GNGSA,A,3,68,83,67,82,69,,,,,,,,0.88,0.47,0.74,2*03
$GNGSA,A,3,10,12,24,04,19,25,33,,,,,,0.88,0.47,0.74,3*0C
$GNGSA,A,3,40,07,33,10,08,14,43,28,41,42,11,34,0.88,0.47,0.74,4*02
$GPGSV,4,1,15,19,72,063,44,195,68,048,41,196,68,121,40,50,60,167,40,1*66
$GPGSV,4,2,15,199,60,167,37,17,58,107,35,06,49,002,43,20,39,243,36,1*58
$GPGSV,4,3,15,09,37,088,37,194,35,173,42,11,33,300,26,12,21,307,39,1*5E
$GPGSV,4,4,15,04,19,058,29,05,14,228,,14,13,173,17,1*56
$GPGSV,3,1,09,196,68,121,43,195,68,048,45,199,60,167,47,06,49,002,46,8*52
$GPGSV,3,2,09,09,37,088,35,194,35,173,40,11,33,300,30,04,19,058,26,8*50
$GPGSV,3,3,09,14,13,173,22,8*56
$GLGSV,2,1,06,68,65,126,40,83,39,000,26,67,37,041,45,82,36,059,32,1*77
$GLGSV,2,2,06,69,26,184,41,73,19,272,15,1*72
$GAGSV,2,1,08,10,49,351,42,12,45,031,38,24,42,228,39,04,38,146,45,7*71
$GAGSV,2,2,08,19,32,072,34,25,29,295,20,33,10,075,19,36,03,280,,7*77
$GAGSV,2,1,07,10,49,351,45,12,45,031,41,24,42,228,40,04,38,146,45,1*7F
$GAGSV,2,2,07,19,32,072,31,25,29,295,27,33,10,075,18,1*41
$GBGSV,4,1,15,40,78,172,41,07,75,227,39,33,74,117,42,10,71,269,39,1*77
$GBGSV,4,2,15,08,56,285,26,14,55,057,42,43,50,077,41,13,48,270,,1*79
$GBGSV,4,3,15,28,46,336,47,41,35,200,37,42,30,044,42,11,27,095,33,1*77
$GBGSV,4,4,15,37,12,260,,23,11,211,,34,11,109,23,1*4C
$GBGSV,2,1,06,40,78,172,46,33,74,117,47,43,50,077,42,28,46,336,44,4*76
$GBGSV,2,2,06,41,35,200,38,42,30,044,41,4*7F
$GNGGA,041804.000,2500.7913884,N,12132.4418359,E,4,59,0.47,15.942,M,15.25,M,1,3335*44
$GNRMC,041804.000,A,2500.7913884,N,12132.4418359,E,0.00,20.94,270623,,,R,V*27
$GPHDT,,T*1B
$GNGGA,041804.200,2500.7913891,N,12132.4418350,E,4,59,0.47,15.954,M,15.25,M,1,3335*4C
$GNRMC,041804.200,A,2500.7913891,N,12132.4418350,E,0.00,20.94,270623,,,R,V*28
$GPHDT,,T*1B
$GNGGA,041804.400,2500.7913885,N,12132.4418355,E,4,59,0.47,15.951,M,15.25,M,1,3335*4F
$GNRMC,041804.400,A,2500.7913885,N,12132.4418355,E,0.00,20.94,270623,,,R,V*2E
$GPHDT,,T*1B
$GNGGA,041804.600,2500.7913867,N,12132.4418370,E,4,58,0.47,15.939,M,15.25,M,0,3335*48
$GNRMC,041804.600,A,2500.7913867,N,12132.4418370,E,0.00,20.94,270623,,,R,V*27
$GPHDT,,T*1B
$GNGGA,041804.800,2500.7913896,N,12132.4418351,E,4,59,0.47,15.944,M,15.25,M,0,3335*40
$GNRMC,041804.800,A,2500.7913896,N,12132.4418351,E,0.00,20.94,270623,,,R,V*24
$GPHDT,,T*1B
$GNGSA,A,3,19,195,196,199,17,06,20,09,194,11,12,04,0.88,0.47,0.74,1*0B
$GNGSA,A,3,14,,,,,,,,,,,,0.88,0.47,0.74,1*04
$GNGSA,A,3,68,83,67,82,69,,,,,,,,0.88,0.47,0.74,2*03
$GNGSA,A,3,10,12,24,04,19,25,33,,,,,,0.88,0.47,0.74,3*0C
$GNGSA,A,3,40,07,33,10,08,14,43,28,41,42,11,34,0.88,0.47,0.74,4*02
$GPGSV,4,1,15,19,72,063,43,195,68,048,41,196,68,121,40,50,60,167,40,1*61
$GPGSV,4,2,15,199,60,167,37,17,58,107,34,06,49,002,43,20,39,243,36,1*59
$GPGSV,4,3,15,09,37,088,36,194,35,173,43,11,33,300,26,12,21,307,39,1*5E
$GPGSV,4,4,15,04,19,058,29,05,14,228,,14,13,173,16,1*57
$GPGSV,3,1,09,196,68,121,43,195,68,048,45,199,60,167,47,06,49,002,46,8*52
$GPGSV,3,2,09,09,37,088,35,194,35,173,39,11,33,300,30,04,19,058,25,8*5D
$GPGSV,3,3,09,14,13,173,21,8*55
$GLGSV,3,1,09,68,65,126,40,83,39,000,27,67,37,041,45,82,36,059,31,1*7B
$GLGSV,3,2,09,69,26,184,41,73,19,272,15,80,12,218,,74,08,314,,1*71
$GLGSV,3,3,09,84,04,307,,1*4D
$GAGSV,2,1,08,10,49,351,42,12,45,031,38,24,42,228,38,04,38,146,45,7*70
$GAGSV,2,2,08,19,32,072,34,25,29,295,19,33,10,075,19,09,08,189,,7*70
$GAGSV,2,1,07,10,49,351,45,12,45,031,41,24,42,228,40,04,38,146,45,1*7F
$GAGSV,2,2,07,19,32,072,31,25,29,295,27,33,10,075,16,1*4F
$GBGSV,4,1,15,40,78,172,41,07,75,227,39,33,74,117,42,10,71,269,39,1*77
$GBGSV,4,2,15,08,56,285,25,14,55,057,42,43,50,077,42,13,48,270,,1*79
$GBGSV,4,3,15,28,46,336,47,41,35,200,37,42,30,043,42,11,27,095,32,1*71
$GBGSV,4,4,15,37,12,260,,34,11,109,23,23,11,211,,1*4C
$GBGSV,2,1,06,40,78,172,46,33,74,117,47,43,50,077,43,28,46,336,44,4*77
$GBGSV,2,2,06,41,35,200,38,42,30,043,41,4*78
$GNGGA,041805.000,2500.7913896,N,12132.4418366,E,4,59,0.47,15.943,M,15.25,M,1,3335*4B
$GNRMC,041805.000,A,2500.7913896,N,12132.4418366,E,0.00,20.94,270623,,,R,V*29
$GPHDT,,T*1B
$GNGGA,041805.200,2500.7913881,N,12132.4418338,E,4,59,0.47,15.955,M,15.25,M,1,3335*43
$GNRMC,041805.200,A,2500.7913881,N,12132.4418338,E,0.00,20.94,270623,,,R,V*26
$GPHDT,,T*1B
$GNGGA,041805.400,2500.7913877,N,12132.4418331,E,4,59,0.47,15.951,M,15.25,M,1,3335*41
$GNRMC,041805.400,A,2500.7913877,N,12132.4418331,E,0.00,20.94,270623,,,R,V*20
$GPHDT,,T*1B
$GNGGA,041805.600,2500.7913884,N,12132.4418341,E,4,59,0.47,15.955,M,15.25,M,1,3335*4C
$GNRMC,041805.600,A,2500.7913884,N,12132.4418341,E,0.00,20.94,270623,,,R,V*29
$GPHDT,,T*1B
$GNGGA,041805.800,2500.7913882,N,12132.4418321,E,4,59,0.47,15.930,M,15.25,M,0,3335*40
$GNRMC,041805.800,A,2500.7913882,N,12132.4418321,E,0.00,20.94,270623,,,R,V*27
$GPHDT,,T*1B
$GNGSA,A,3,19,195,196,199,17,06,20,09,194,11,12,04,0.88,0.47,0.74,1*0B
$GNGSA,A,3,14,,,,,,,,,,,,0.88,0.47,0.74,1*04
$GNGSA,A,3,68,83,67,82,69,,,,,,,,0.88,0.47,0.74,2*03
$GNGSA,A,3,10,12,24,04,19,25,33,,,,,,0.88,0.47,0.74,3*0C
$GNGSA,A,3,40,07,33,10,08,14,43,28,41,42,11,34,0.88,0.47,0.74,4*02
$GPGSV,4,1,15,19,72,063,43,195,68,048,41,196,68,121,40,50,60,167,40,1*61
$GPGSV,4,2,15,199,60,167,37,17,58,107,34,06,49,002,43,20,39,243,37,1*58
$GPGSV,4,3,15,09,37,088,36,194,35,173,43,11,33,300,29,12,21,307,39,1*51
$GPGSV,4,4,15,04,19,058,29,05,14,228,,14,13,173,15,1*54
$GPGSV,3,1,09,196,68,121,43,195,68,048,46,199,60,167,47,06,49,002,46,8*51
$GPGSV,3,2,09,09,37,088,36,194,35,173,38,11,33,300,31,04,19,058,24,8*5F
$GPGSV,3,3,09,14,13,173,20,8*54
$GLGSV,2,1,07,68,65,126,40,83,39,000,27,67,37,041,45,82,36,059,31,1*74
$GLGSV,2,2,07,69,26,184,41,73,19,272,15,80,12,218,,1*43
$GAGSV,3,1,09,10,49,351,42,12,45,031,38,24,42,228,38,04,38,146,45,7*70
$GAGSV,3,2,09,19,32,072,34,25,29,295,19,33,10,075,18,09,08,189,,7*71
$GAGSV,3,3,09,36,03,280,,7*46
$GAGSV,2,1,07,10,49,351,45,12,45,031,41,24,42,228,40,04,38,146,44,1*7E
$GAGSV,2,2,07,19,32,072,31,25,29,295,27,33,10,075,16,1*4F
$GBGSV,4,1,15,40,78,172,41,07,75,227,39,33,74,117,42,10,71,269,39,1*77
$GBGSV,4,2,15,08,56,285,25,14,55,057,42,43,50,077,43,13,48,270,,1*78
$GBGSV,4,3,15,28,46,336,47,41,35,200,38,42,30,043,42,11,27,095,32,1*7E
$GBGSV,4,4,15,37,12,260,,23,11,211,,34,11,109,22,1*4D
$GBGSV,2,1,06,40,78,172,46,33,74,117,46,43,50,077,43,28,46,336,44,4*76
$GBGSV,2,2,06,41,35,200,39,42,30,043,41,4*79
$GNGGA,041806.000,2500.7913879,N,12132.4418342,E,4,59,0.47,15.937,M,15.25,M,1,3335*4C
$GNRMC,041806.000,A,2500.7913879,N,12132.4418342,E,0.00,20.94,270623,,,R,V*2D
$GPHDT,,T*1B
$GNGGA,041806.200,2500.7913880,N,12132.4418321,E,4,59,0.47,15.944,M,15.25,M,1,3335*49
$GNRMC,041806.200,A,2500.7913880,N,12132.4418321,E,0.00,20.94,270623,,,R,V*2C
$GPHDT,,T*1B
$GNGGA,041806.400,2500.7913878,N,12132.4418350,E,4,59,0.47,15.943,M,15.25,M,1,3335*49
$GNRMC,041806.400,A,2500.7913878,N,12132.4418350,E,0.00,20.94,270623,,,R,V*2B
$GPHDT,,T*1B
$GNGGA,041806.600,2500.7913856,N,12132.4418331,E,4,59,0.47,15.947,M,15.25,M,0,3335*45
$GNRMC,041806.600,A,2500.7913856,N,12132.4418331,E,0.00,20.94,270623,,,R,V*22
$GPHDT,,T*1B
$GNGGA,041806.800,2500.7913848,N,12132.4418314,E,4,59,0.47,15.952,M,15.25,M,0,3335*47
$GNRMC,041806.800,A,2500.7913848,N,12132.4418314,E,0.00,20.94,270623,,,R,V*24
$GPHDT,,T*1B
