$FW : RTK35X,V1.1X0314AS,Lib20210517,1*54
$Tool : LOCOSYS , GNSS Firebird , v1.0.0.19*39
$---------------------------------------------------*2D
$GPHDT,179.658,T*31
$GNGGA,042133.400,2500.7913879,N,12132.4418302,E,4,60,0.49,16.013,M,15.25,M,1,3335*48
$GNRMC,042133.400,A,2500.7913879,N,12132.4418302,E,0.00,20.94,270623,,,R,V*21
$GPHDT,179.323,T*38
$GNGGA,042133.600,2500.7913903,N,12132.4418300,E,4,60,0.49,16.014,M,15.25,M,1,3335*43
$GNRMC,042133.600,A,2500.7913903,N,12132.4418300,E,0.00,20.94,270623,,,R,V*2D
$GPHDT,179.488,T*3E
$GNGGA,042133.800,2500.7913894,N,12132.4418297,E,4,60,0.49,16.010,M,15.25,M,0,3335*48
$GNRMC,042133.800,A,2500.7913894,N,12132.4418297,E,0.00,20.94,270623,,,R,V*23
$GPHDT,179.486,T*30
$GNGSA,A,3,19,196,195,199,17,06,20,09,194,11,12,04,0.93,0.49,0.79,1*02
$GNGSA,A,3,68,83,67,82,69,,,,,,,,0.93,0.49,0.79,2*0A
$GNGSA,A,3,10,12,24,04,11,19,25,33,,,,,0.93,0.49,0.79,3*05
$GNGSA,A,3,40,33,07,10,08,14,43,28,41,42,11,34,0.93,0.49,0.79,4*0B
$GPGSV,4,1,15,19,72,070,41,196,69,120,38,195,68,049,40,50,60,167,39,1*60
$GPGSV,4,2,15,199,60,167,36,17,57,110,44,06,49,004,43,20,41,245,36,1*59
$GPGSV,4,3,15,09,37,085,40,194,35,173,37,11,34,302,33,12,22,306,37,1*5C
$GPGSV,4,4,15,04,18,057,31,05,15,230,,14,11,172,,1*5C
$GPGSV,2,1,08,196,69,120,46,195,68,049,44,199,60,167,46,06,49,004,47,8*51
$GPGSV,2,2,08,09,37,085,42,194,35,173,39,11,34,302,35,04,18,057,36,8*5C
$GLGSV,2,1,07,68,67,122,41,83,40,002,30,67,36,040,42,82,35,061,42,1*72
$GLGSV,2,2,07,69,28,184,40,73,18,270,17,80,11,217,,1*41
$GAGSV,3,1,09,10,49,353,42,12,45,032,36,24,41,227,21,04,40,145,42,7*70
$GAGSV,3,2,09,11,39,315,39,19,32,070,34,25,29,294,19,33,10,076,17,7*78
$GAGSV,3,3,09,09,09,189,,7*4A
$GAGSV,2,1,08,10,49,353,43,12,45,032,41,24,41,227,21,04,40,145,43,1*76
$GAGSV,2,2,08,11,39,315,39,19,32,070,38,25,29,294,23,33,10,076,20,1*7F
$GBGSV,4,1,13,40,77,174,43,33,75,111,44,07,74,226,40,10,70,267,39,1*7A
$GBGSV,4,2,13,08,56,286,23,14,54,055,43,43,50,080,45,28,47,337,44,1*72
$GBGSV,4,3,13,41,37,200,37,42,29,043,40,11,27,097,31,23,10,210,,1*70
$GBGSV,4,4,13,34,10,110,17,1*44
$GBGSV,2,1,07,40,77,174,46,33,75,111,47,43,50,080,43,28,47,337,42,4*76
$GBGSV,2,2,07,41,37,200,36,42,29,043,41,34,10,110,17,4*4D
$GNGGA,042134.000,2500.7913900,N,12132.4418302,E,4,60,0.49,16.001,M,15.25,M,1,3335*47
$GNRMC,042134.000,A,2500.7913900,N,12132.4418302,E,0.00,20.94,270623,,,R,V*2D
$GPHDT,179.600,T*3C
$GNGGA,042134.200,2500.7913891,N,12132.4418289,E,4,60,0.49,16.001,M,15.25,M,1,3335*4E
$GNRMC,042134.200,A,2500.7913891,N,12132.4418289,E,0.00,20.94,270623,,,R,V*24
$GPHDT,179.398,T*38
$GNGGA,042134.400,2500.7913886,N,12132.4418310,E,4,60,0.49,16.017,M,15.25,M,1,3335*48
$GNRMC,042134.400,A,2500.7913886,N,12132.4418310,E,0.00,20.94,270623,,,R,V*25
$GPHDT,179.699,T*3C
$GNGGA,042134.600,2500.7913912,N,12132.4418293,E,4,60,0.49,16.012,M,15.25,M,0,3335*48
$GNRMC,042134.600,A,2500.7913912,N,12132.4418293,E,0.00,20.94,270623,,,R,V*21
$GPHDT,179.614,T*39
$GNGGA,042134.800,2500.7913883,N,12132.4418273,E,4,60,0.49,16.015,M,15.25,M,0,3335*46
$GNRMC,042134.800,A,2500.7913883,N,12132.4418273,E,0.00,20.94,270623,,,R,V*28
$GPHDT,179.345,T*38
$GNGSA,A,3,19,196,195,199,17,06,20,09,194,11,12,04,0.93,0.49,0.79,1*02
$GNGSA,A,3,68,83,67,82,69,,,,,,,,0.93,0.49,0.79,2*0A
$GNGSA,A,3,10,12,24,04,11,19,25,33,,,,,0.93,0.49,0.79,3*05
$GNGSA,A,3,40,33,07,10,08,14,43,28,41,42,11,34,0.93,0.49,0.79,4*0B
$GPGSV,4,1,15,19,72,070,41,196,69,120,38,195,68,049,40,50,60,167,39,1*60
$GPGSV,4,2,15,199,60,167,36,17,57,110,44,06,49,004,43,20,41,245,36,1*59
$GPGSV,4,3,15,09,37,085,40,194,35,173,38,11,34,302,32,12,22,306,37,1*52
$GPGSV,4,4,15,04,18,057,31,05,15,230,,14,11,172,,1*5C
$GPGSV,2,1,08,196,69,120,46,195,68,049,44,199,60,167,46,06,49,004,47,8*51
$GPGSV,2,2,08,09,37,085,42,194,35,173,39,11,34,302,35,04,18,057,36,8*5C
$GLGSV,2,1,07,68,67,122,41,83,40,002,30,67,36,040,42,82,35,061,42,1*72
$GLGSV,2,2,07,69,28,184,40,73,18,270,17,80,11,217,,1*41
$GAGSV,3,1,09,10,49,353,42,12,45,032,36,24,41,227,22,04,40,145,42,7*73
$GAGSV,3,2,09,11,39,315,39,19,32,070,34,25,29,294,19,33,10,076,17,7*78
$GAGSV,3,3,09,09,09,189,,7*4A
$GAGSV,2,1,08,10,49,353,43,12,45,032,41,24,41,227,21,04,40,145,43,1*76
$GAGSV,2,2,08,11,39,315,39,19,32,070,38,25,29,294,24,33,10,076,20,1*78
$GBGSV,4,1,13,40,77,174,43,33,75,111,44,07,74,226,40,10,70,267,39,1*7A
$GBGSV,4,2,13,08,56,286,23,14,54,055,43,43,50,080,45,28,47,337,44,1*72
$GBGSV,4,3,13,41,37,200,37,42,29,043,41,11,27,097,30,23,10,210,,1*70
$GBGSV,4,4,13,34,10,110,17,1*44
$GBGSV,2,1,07,40,77,174,46,33,75,111,47,43,50,080,43,28,47,337,42,4*76
$GBGSV,2,2,07,41,37,200,37,42,29,043,41,34,10,110,17,4*4C
$GNGGA,042135.000,2500.7913876,N,12132.4418289,E,4,60,0.49,16.023,M,15.25,M,1,3335*44
$GNRMC,042135.000,A,2500.7913876,N,12132.4418289,E,0.00,20.94,270623,,,R,V*2E
$GPHDT,179.413,T*3C
$GNGGA,042135.200,2500.7913911,N,12132.4418284,E,4,60,0.49,16.010,M,15.25,M,1,3335*4B
$GNRMC,042135.200,A,2500.7913911,N,12132.4418284,E,0.00,20.94,270623,,,R,V*21
$GPHDT,179.231,T*3A
$GNGGA,042135.400,2500.7913915,N,12132.4418278,E,4,60,0.49,16.003,M,15.25,M,1,3335*48
$GNRMC,042135.400,A,2500.7913915,N,12132.4418278,E,0.00,20.94,270623,,,R,V*20
$GPHDT,179.233,T*38
$GNGGA,042135.600,2500.7913869,N,12132.4418277,E,4,60,0.49,16.012,M,15.25,M,0,3335*4E
$GNRMC,042135.600,A,2500.7913869,N,12132.4418277,E,0.00,20.94,270623,,,R,V*27
$GPHDT,179.334,T*3E
$GNGGA,042135.800,2500.7913895,N,12132.4418286,E,4,60,0.49,16.004,M,15.25,M,0,3335*4A
$GNRMC,042135.800,A,2500.7913895,N,12132.4418286,E,0.00,20.94,270623,,,R,V*24
$GPHDT,179.523,T*3E
$GNGSA,A,3,19,196,195,199,17,06,20,09,194,11,12,04,0.93,0.49,0.79,1*02
$GNGSA,A,3,68,83,67,82,69,,,,,,,,0.93,0.49,0.79,2*0A
$GNGSA,A,3,10,12,24,04,11,19,25,33,,,,,0.93,0.49,0.79,3*05
$GNGSA,A,3,40,33,07,10,08,14,43,28,41,42,11,34,0.93,0.49,0.79,4*0B
$GPGSV,4,1,15,19,72,070,41,196,69,120,38,195,68,049,40,50,60,167,39,1*60
$GPGSV,4,2,15,199,60,167,36,17,57,110,44,06,49,004,44,20,41,245,36,1*5E
$GPGSV,4,3,15,09,37,085,40,194,35,173,39,11,34,302,32,12,22,306,37,1*53
$GPGSV,4,4,15,04,18,057,31,05,15,230,,14,11,172,,1*5C
$GPGSV,2,1,08,196,69,120,46,195,68,049,44,199,60,167,46,06,49,004,47,8*51
$GPGSV,2,2,08,09,37,085,42,194,35,173,39,11,34,302,35,04,18,057,36,8*5C
$GLGSV,2,1,08,68,67,122,41,83,40,002,29,67,36,040,42,82,35,061,42,1*75
$GLGSV,2,2,08,69,28,184,40,73,18,270,15,80,11,217,,74,08,313,,1*76
$GAGSV,3,1,09,10,49,353,42,12,45,032,36,24,41,227,20,04,40,145,42,7*71
$GAGSV,3,2,09,11,39,315,39,19,32,070,34,25,29,294,19,33,10,076,18,7*77
$GAGSV,3,3,09,09,09,189,,7*4A
$GAGSV,2,1,08,10,49,353,44,12,45,032,41,24,41,227,23,04,40,145,43,1*73
$GAGSV,2,2,08,11,39,315,39,19,32,070,38,25,29,294,24,33,10,076,21,1*79
$GBGSV,4,1,13,40,77,174,43,33,75,111,43,07,74,226,40,10,70,267,39,1*7D
$GBGSV,4,2,13,08,56,286,24,14,54,055,43,43,50,080,46,28,47,337,44,1*76
$GBGSV,4,3,13,41,37,200,37,42,29,043,41,11,27,097,30,34,10,110,18,1*7C
$GBGSV,4,4,13,23,10,210,,1*47
$GBGSV,2,1,07,40,77,174,46,33,75,111,47,43,50,080,43,28,47,337,42,4*76
$GBGSV,2,2,07,41,37,200,37,42,29,043,41,34,10,110,15,4*4E
$GNGGA,042136.000,2500.7913916,N,12132.4418298,E,4,60,0.49,16.000,M,15.25,M,1,3335*41
$GNRMC,042136.000,A,2500.7913916,N,12132.4418298,E,0.00,20.94,270623,,,R,V*2A
$GPHDT,179.819,T*3A
$GNGGA,042136.200,2500.7913878,N,12132.4418301,E,4,60,0.49,16.005,M,15.25,M,1,3335*4E
$GNRMC,042136.200,A,2500.7913878,N,12132.4418301,E,0.00,20.94,270623,,,R,V*20
$GPHDT,179.848,T*3E
$GNGGA,042136.400,2500.7913910,N,12132.4418289,E,4,60,0.49,16.011,M,15.25,M,1,3335*43
$GNRMC,042136.400,A,2500.7913910,N,12132.4418289,E,0.00,20.94,270623,,,R,V*28
$GPHDT,179.494,T*33
$GNGGA,042136.600,2500.7913885,N,12132.4418284,E,4,60,0.49,16.014,M,15.25,M,1,3335*44
$GNRMC,042136.600,A,2500.7913885,N,12132.4418284,E,0.00,20.94,270623,,,R,V*2A
$GPHDT,179.510,T*3E
$GNGGA,042136.800,2500.7913913,N,12132.4418312,E,4,60,0.49,16.004,M,15.25,M,0,3335*4A
$GNRMC,042136.800,A,2500.7913913,N,12132.4418312,E,0.00,20.94,270623,,,R,V*24
$GPHDT,179.834,T*35
$GNGSA,A,3,19,196,195,199,17,06,20,09,194,11,12,04,0.93,0.49,0.79,1*02
$GNGSA,A,3,68,83,67,82,69,,,,,,,,0.93,0.49,0.79,2*0A
$GNGSA,A,3,10,12,24,04,11,19,25,33,,,,,0.93,0.49,0.79,3*05
$GNGSA,A,3,40,33,07,10,08,14,43,28,41,42,11,34,0.93,0.49,0.79,4*0B
$GPGSV,4,1,15,19,72,070,41,196,69,120,38,195,68,049,40,50,60,167,38,1*61
$GPGSV,4,2,15,199,60,167,36,17,57,110,44,06,49,004,44,20,41,245,36,1*5E
$GPGSV,4,3,15,09,37,085,40,194,35,173,39,11,34,302,32,12,22,306,37,1*53
$GPGSV,4,4,15,04,18,057,30,05,15,230,,14,11,172,,1*5D
$GPGSV,2,1,08,196,69,120,46,195,68,049,45,199,60,167,46,06,49,004,47,8*50
$GPGSV,2,2,08,09,37,085,42,194,35,173,40,11,34,302,35,04,18,057,35,8*51
$GLGSV,3,1,09,68,67,122,41,83,40,002,29,67,36,040,41,82,35,061,42,1*76
$GLGSV,3,2,09,69,28,184,41,73,18,270,13,80,11,217,,74,08,313,,1*71
$GLGSV,3,3,09,84,05,308,,1*43
$GAGSV,3,1,10,10,49,353,42,12,45,032,36,24,41,227,22,04,40,145,42,7*7B
$GAGSV,3,2,10,11,39,315,39,19,32,070,34,25,29,294,19,33,10,076,18,7*7F
$GAGSV,3,3,10,09,09,189,,36,03,281,,7*7F
$GAGSV,2,1,08,10,49,353,44,12,45,032,41,24,41,227,21,04,40,145,43,1*71
$GAGSV,2,2,08,11,39,315,39,19,32,070,38,25,29,294,23,33,10,076,19,1*75
$GBGSV,4,1,13,40,77,174,43,33,75,111,43,07,74,226,40,10,70,267,39,1*7D
$GBGSV,4,2,13,08,56,286,24,14,54,055,43,43,50,080,46,28,47,337,44,1*76
$GBGSV,4,3,13,41,37,200,37,42,29,043,41,11,27,097,30,34,10,110,19,1*7D
$GBGSV,4,4,13,23,10,210,,1*47
$GBGSV,2,1,07,40,77,174,46,33,75,111,47,43,50,080,43,28,47,337,43,4*77
$GBGSV,2,2,07,41,37,200,37,42,29,043,41,34,10,110,14,4*4F
$GNGGA,042137.000,2500.7913905,N,12132.4418304,E,4,60,0.49,16.004,M,15.25,M,1,3335*42
$GNRMC,042137.000,A,2500.7913905,N,12132.4418304,E,0.00,20.94,270623,,,R,V*2D
$GPHDT,179.567,T*3E
$GNGGA,042137.200,2500.7913908,N,12132.4418294,E,4,60,0.49,16.006,M,15.25,M,1,3335*47
$GNRMC,042137.200,A,2500.7913908,N,12132.4418294,E,0.00,20.94,270623,,,R,V*2A
$GPHDT,179.255,T*38
$GNGGA,042137.400,2500.7913902,N,12132.4418307,E,4,60,0.49,16.005,M,15.25,M,1,3335*43
$GNRMC,042137.400,A,2500.7913902,N,12132.4418307,E,0.00,20.94,270623,,,R,V*2D
$GPHDT,179.593,T*35
$GNGGA,042137.600,2500.7913891,N,12132.4418283,E,4,60,0.49,16.017,M,15.25,M,0,3335*45
$GNRMC,042137.600,A,2500.7913891,N,12132.4418283,E,0.00,20.94,270623,,,R,V*29
$GPHDT,179.340,T*3D
$GNGGA,042137.800,2500.7913927,N,12132.4418299,E,4,60,0.49,16.012,M,15.25,M,0,3335*49
$GNRMC,042137.800,A,2500.7913927,N,12132.4418299,E,0.00,20.94,270623,,,R,V*20
$GPHDT,179.521,T*3C
$GNGSA,A,3,19,196,195,199,17,06,20,09,194,11,12,04,0.93,0.49,0.79,1*02
$GNGSA,A,3,68,83,67,82,69,,,,,,,,0.93,0.49,0.79,2*0A
$GNGSA,A,3,10,12,24,04,11,19,25,33,,,,,0.93,0.49,0.79,3*05
$GNGSA,A,3,40,33,07,10,08,14,43,28,41,42,11,34,0.93,0.49,0.79,4*0B
$GPGSV,4,1,15,19,72,070,41,196,69,120,38,195,68,049,40,50,60,167,38,1*61
$GPGSV,4,2,15,199,60,167,36,17,57,110,44,06,49,004,44,20,41,245,34,1*5C
$GPGSV,4,3,15,09,37,085,41,194,35,173,39,11,34,302,32,12,22,306,37,1*52
$GPGSV,4,4,15,04,18,057,28,05,15,230,,14,11,172,,1*54
$GPGSV,2,1,08,196,69,120,46,195,68,049,45,199,60,167,46,06,49,004,47,8*50
$GPGSV,2,2,08,09,37,085,42,194,35,173,40,11,34,302,35,04,18,057,35,8*51
$GLGSV,2,1,08,68,67,122,41,83,40,002,29,67,36,040,41,82,35,061,42,1*76
$GLGSV,2,2,08,69,28,184,41,73,18,270,14,80,11,217,,74,08,313,,1*76
$GAGSV,3,1,10,10,49,353,42,12,45,032,36,24,41,227,22,04,40,145,42,7*7B
$GAGSV,3,2,10,11,39,315,39,19,32,070,34,25,29,294,19,33,10,076,18,7*7F
$GAGSV,3,3,10,09,09,189,,36,03,281,,7*7F
$GAGSV,2,1,08,10,49,353,44,12,45,032,40,24,41,227,20,04,40,145,43,1*71
$GAGSV,2,2,08,11,39,315,39,19,32,070,38,25,29,294,23,33,10,076,20,1*7F
$GBGSV,4,1,13,40,77,174,43,33,75,111,43,07,74,226,40,10,70,267,39,1*7D
$GBGSV,4,2,13,08,56,286,23,14,54,055,43,43,50,080,46,28,47,337,44,1*71
$GBGSV,4,3,13,41,37,200,37,42,29,043,41,11,27,097,30,34,10,110,19,1*7D
$GBGSV,4,4,13,23,10,210,,1*47
$GBGSV,2,1,07,40,77,174,46,33,75,111,47,43,50,080,43,28,47,337,43,4*77
$GBGSV,2,2,07,41,37,200,37,42,29,043,41,34,10,110,14,4*4F
$GNGGA,042138.000,2500.7913900,N,12132.4418286,E,4,60,0.49,16.010,M,15.25,M,1,3335*46
$GNRMC,042138.000,A,2500.7913900,N,12132.4418286,E,0.00,20.94,270623,,,R,V*2C
$GPHDT,179.445,T*3F
$GNGGA,042138.200,2500.7913923,N,12132.4418287,E,4,60,0.49,16.015,M,15.25,M,1,3335*41
$GNRMC,042138.200,A,2500.7913923,N,12132.4418287,E,0.00,20.94,270623,,,R,V*2E
$GPHDT,178.982,T*38
$GNGGA,042138.400,2500.7913950,N,12132.4418285,E,4,60,0.49,16.010,M,15.25,M,1,3335*44
$GNRMC,042138.400,A,2500.7913950,N,12132.4418285,E,0.00,20.94,270623,,,R,V*2E
$GPHDT,179.210,T*39
$GNGGA,042138.600,2500.7913927,N,12132.4418295,E,4,60,0.49,16.003,M,15.25,M,0,3335*44
$GNRMC,042138.600,A,2500.7913927,N,12132.4418295,E,0.00,20.94,270623,,,R,V*2D
$GPHDT,179.219,T*30
$GNGGA,042138.800,2500.7913919,N,12132.4418300,E,4,60,0.49,16.013,M,15.25,M,0,3335*4B
$GNRMC,042138.800,A,2500.7913919,N,12132.4418300,E,0.00,20.94,270623,,,R,V*23
$GPHDT,179.624,T*3A
$GNGSA,A,3,19,196,195,199,17,06,20,09,194,11,12,04,0.93,0.49,0.79,1*02
$GNGSA,A,3,68,83,67,82,69,,,,,,,,0.93,0.49,0.79,2*0A
$GNGSA,A,3,10,12,24,04,11,19,25,33,,,,,0.93,0.49,0.79,3*05
$GNGSA,A,3,40,33,07,10,08,14,43,28,41,42,11,34,0.93,0.49,0.79,4*0B
$GPGSV,4,1,14,19,72,070,41,196,69,120,38,195,68,049,40,50,60,167,38,1*60
$GPGSV,4,2,14,199,60,167,36,17,57,110,44,06,49,004,44,20,41,245,34,1*5D
$GPGSV,4,3,14,09,37,085,41,194,35,173,39,11,34,302,32,12,22,306,37,1*53
$GPGSV,4,4,14,04,18,057,28,14,11,172,,1*65
$GPGSV,2,1,08,196,69,120,46,195,68,049,45,199,60,167,46,06,49,004,47,8*50
$GPGSV,2,2,08,09,37,085,42,194,35,173,40,11,34,302,35,04,18,057,35,8*51
$GLGSV,2,1,08,68,67,121,41,83,40,002,29,67,36,040,41,82,35,061,42,1*75
$GLGSV,2,2,08,69,28,184,41,73,18,270,16,74,08,313,,84,05,308,,1*7A
$GAGSV,3,1,09,10,49,353,42,12,45,032,35,24,41,227,22,04,40,145,42,7*70
$GAGSV,3,2,09,11,39,315,39,19,32,070,34,25,29,294,19,33,10,076,19,7*76
$GAGSV,3,3,09,36,03,281,,7*47
$GAGSV,2,1,08,10,49,353,44,12,45,032,40,24,41,227,20,04,40,145,43,1*71
$GAGSV,2,2,08,11,39,315,39,19,32,070,38,25,29,294,23,33,10,076,20,1*7F
$GBGSV,4,1,13,40,77,174,43,33,75,111,43,07,74,226,40,10,70,267,39,1*7D
$GBGSV,4,2,13,08,56,286,23,14,54,055,43,43,50,080,46,28,47,337,44,1*71
$GBGSV,4,3,13,41,37,200,37,42,29,043,42,11,27,097,30,34,10,110,21,1*75
$GBGSV,4,4,13,23,10,210,,1*47
$GBGSV,2,1,07,40,77,174,46,33,75,111,47,43,50,080,43,28,47,337,43,4*77
$GBGSV,2,2,07,41,37,200,37,42,29,043,41,34,10,110,14,4*4F
$GNGGA,042139.000,2500.7913902,N,12132.4418266,E,4,60,0.49,16.023,M,15.25,M,1,3335*4B
$GNRMC,042139.000,A,2500.7913902,N,12132.4418266,E,0.00,20.94,270623,,,R,V*21
$GPHDT,179.587,T*30
$GNGGA,042139.200,2500.7913892,N,12132.4418276,E,4,60,0.49,16.020,M,15.25,M,1,3335*43
$GNRMC,042139.200,A,2500.7913892,N,12132.4418276,E,0.00,20.94,270623,,,R,V*2A
$GPHDT,179.550,T*3A
$GNGGA,042139.400,2500.7913873,N,12132.4418268,E,4,60,0.49,16.026,M,15.25,M,1,3335*43
$GNRMC,042139.400,A,2500.7913873,N,12132.4418268,E,0.00,20.94,270623,,,R,V*2C
$GPHDT,179.392,T*32
$GNGGA,042139.600,2500.7913937,N,12132.4418299,E,4,60,0.49,16.001,M,15.25,M,0,3335*4A
$GNRMC,042139.600,A,2500.7913937,N,12132.4418299,E,0.00,20.94,270623,,,R,V*21
$GPHDT,179.654,T*3D
$GNGGA,042139.800,2500.7913881,N,12132.4418298,E,4,60,0.49,16.010,M,15.25,M,0,3335*49
$GNRMC,042139.800,A,2500.7913881,N,12132.4418298,E,0.00,20.94,270623,,,R,V*22
$GPHDT,179.653,T*3A
$GNGSA,A,3,19,196,195,199,17,06,20,09,194,11,12,04,0.93,0.49,0.79,1*02
$GNGSA,A,3,68,83,67,82,69,,,,,,,,0.93,0.49,0.79,2*0A
$GNGSA,A,3,10,12,24,04,11,19,25,33,,,,,0.93,0.49,0.79,3*05
$GNGSA,A,3,40,33,07,10,08,14,43,28,41,42,11,34,0.93,0.49,0.79,4*0B
$GPGSV,4,1,15,19,72,070,41,196,69,120,39,195,68,049,40,50,60,167,38,1*60
$GPGSV,4,2,15,199,60,167,35,17,57,110,44,06,49,004,44,20,41,245,35,1*5E
$GPGSV,4,3,15,09,37,085,41,194,35,173,39,11,34,302,32,12,22,306,37,1*52
$GPGSV,4,4,15,04,18,057,25,05,15,230,,14,11,172,,1*59
$GPGSV,2,1,08,196,69,120,46,195,68,049,45,199,60,167,46,06,49,004,47,8*50
$GPGSV,2,2,08,09,37,085,42,194,35,173,40,11,34,302,35,04,18,057,35,8*51
$GLGSV,2,1,07,68,67,121,41,83,40,002,29,67,36,040,42,82,35,061,42,1*79
$GLGSV,2,2,07,69,28,184,41,73,18,270,17,80,11,217,,1*40
$GAGSV,3,1,09,10,49,353,42,12,45,032,35,24,41,227,22,04,40,145,42,7*70
$GAGSV,3,2,09,11,39,315,39,19,32,070,34,25,29,294,19,33,10,076,20,7*7C
$GAGSV,3,3,09,36,03,281,,7*47
$GAGSV,2,1,08,10,49,353,44,12,45,032,40,24,41,227,20,04,40,145,43,1*71
$GAGSV,2,2,08,11,39,315,39,19,32,070,38,25,29,294,22,33,10,076,19,1*74
$GBGSV,3,1,12,40,77,174,43,33,75,111,43,07,74,226,40,10,70,267,39,1*7B
$GBGSV,3,2,12,08,56,286,23,14,54,055,43,43,50,080,46,28,47,337,44,1*77
$GBGSV,3,3,12,41,37,200,37,42,29,043,42,11,27,097,30,34,10,110,20,1*72
$GBGSV,2,1,07,40,77,174,46,33,75,111,47,43,50,080,43,28,47,337,42,4*76
$GBGSV,2,2,07,41,37,200,36,42,29,043,41,34,10,110,13,4*49
$GNGGA,042140.000,2500.7913900,N,12132.4418292,E,4,60,0.49,16.019,M,15.25,M,1,3335*45
$GNRMC,042140.000,A,2500.7913900,N,12132.4418292,E,0.00,20.94,270623,,,R,V*26
$GPHDT,179.676,T*3D
$GNGGA,042140.200,2500.7913911,N,12132.4418307,E,4,59,0.49,16.007,M,15.25,M,1,3335*4F
$GNRMC,042140.200,A,2500.7913911,N,12132.4418307,E,0.00,20.94,270623,,,R,V*29
$GPHDT,179.407,T*39
$GNGGA,042140.400,2500.7913906,N,12132.4418297,E,4,59,0.49,16.014,M,15.25,M,1,3335*45
$GNRMC,042140.400,A,2500.7913906,N,12132.4418297,E,0.00,20.94,270623,,,R,V*21
$GPHDT,179.438,T*35
$GNGGA,042140.600,2500.7913928,N,12132.4418272,E,4,60,0.49,15.992,M,15.25,M,0,3335*4F
$GNRMC,042140.600,A,2500.7913928,N,12132.4418272,E,0.00,20.94,270623,,,R,V*24
$GPHDT,179.490,T*37
$GNGGA,042140.800,2500.7913914,N,12132.4418273,E,4,60,0.49,16.020,M,15.25,M,0,3335*4C
$GNRMC,042140.800,A,2500.7913914,N,12132.4418273,E,0.00,20.94,270623,,,R,V*24
$GPHDT,179.377,T*39
$GNGSA,A,3,19,196,195,199,17,06,20,09,194,11,12,04,0.93,0.49,0.79,1*02
$GNGSA,A,3,68,83,67,82,69,,,,,,,,0.93,0.49,0.79,2*0A
$GNGSA,A,3,10,12,24,04,11,19,25,33,,,,,0.93,0.49,0.79,3*05
$GNGSA,A,3,40,33,07,10,08,14,43,28,41,42,11,34,0.93,0.49,0.79,4*0B
$GPGSV,4,1,15,19,72,070,41,196,69,120,39,195,68,049,40,199,60,167,35,1*59
$GPGSV,4,2,15,50,60,167,37,17,57,110,44,06,49,004,45,20,41,245,35,1*69
$GPGSV,4,3,15,09,37,085,41,194,35,173,38,11,34,302,32,12,22,306,37,1*53
$GPGSV,4,4,15,04,18,057,29,05,15,230,,14,11,172,,1*55
$GPGSV,2,1,08,196,69,120,46,195,68,049,44,199,60,167,46,06,49,004,47,8*51
$GPGSV,2,2,08,09,37,085,42,194,35,173,40,11,34,302,35,04,18,057,35,8*51
$GLGSV,2,1,07,68,67,121,41,83,40,002,29,67,36,040,42,82,35,061,42,1*79
$GLGSV,2,2,07,69,28,184,42,73,18,270,17,80,11,217,,1*43
$GAGSV,3,1,10,10,49,353,42,12,45,032,36,24,41,227,23,04,40,145,42,7*7A
$GAGSV,3,2,10,11,39,315,39,19,32,070,34,25,29,294,19,33,10,076,20,7*74
$GAGSV,3,3,10,09,09,189,,36,03,281,,7*7F
$GAGSV,2,1,08,10,49,353,44,12,45,032,40,24,41,227,20,04,40,145,43,1*71
$GAGSV,2,2,08,11,39,315,39,19,32,070,38,25,29,294,21,33,10,076,18,1*76
$GBGSV,4,1,13,40,77,174,43,33,75,111,43,07,74,226,40,10,70,267,39,1*7D
$GBGSV,4,2,13,08,56,286,23,14,54,055,43,43,50,080,46,28,47,337,44,1*71
$GBGSV,4,3,13,41,37,200,37,42,29,043,42,11,27,097,30,34,10,110,20,1*74
$GBGSV,4,4,13,23,10,210,,1*47
$GBGSV,2,1,07,40,77,174,46,33,75,111,47,43,50,080,43,28,47,337,42,4*76
$GBGSV,2,2,07,41,37,200,36,42,29,043,41,34,10,110,13,4*49
$GNGGA,042141.000,2500.7913931,N,12132.4418294,E,4,60,0.49,16.004,M,15.25,M,1,3335*4C
$GNRMC,042141.000,A,2500.7913931,N,12132.4418294,E,0.00,20.94,270623,,,R,V*23
$GPHDT,179.644,T*3C
$GNGGA,042141.200,2500.7913925,N,12132.4418285,E,4,60,0.49,16.018,M,15.25,M,1,3335*46
$GNRMC,042141.200,A,2500.7913925,N,12132.4418285,E,0.00,20.94,270623,,,R,V*24
$GPHDT,179.488,T*3E
$GNGGA,042141.400,2500.7913919,N,12132.4418277,E,4,60,0.49,15.999,M,15.25,M,1,3335*41
$GNRMC,042141.400,A,2500.7913919,N,12132.4418277,E,0.00,20.94,270623,,,R,V*20
$GPHDT,179.350,T*3C
$GNGGA,042141.600,2500.7913901,N,12132.4418299,E,4,60,0.49,15.997,M,15.25,M,0,3335*45
$GNRMC,042141.600,A,2500.7913901,N,12132.4418299,E,0.00,20.94,270623,,,R,V*2B
$GPHDT,179.656,T*3F
$GNGGA,042141.800,2500.7913898,N,12132.4418316,E,4,59,0.49,16.004,M,15.25,M,0,3335*46
$GNRMC,042141.800,A,2500.7913898,N,12132.4418316,E,0.00,20.94,270623,,,R,V*22
$GPHDT,179.622,T*3C
$GNGSA,A,3,19,196,195,199,17,06,20,09,194,11,12,04,0.93,0.49,0.79,1*02
$GNGSA,A,3,68,83,67,82,69,,,,,,,,0.93,0.49,0.79,2*0A
$GNGSA,A,3,10,12,24,04,11,19,25,33,,,,,0.93,0.49,0.79,3*05
$GNGSA,A,3,40,33,07,10,08,14,43,28,41,42,11,34,0.93,0.49,0.79,4*0B
$GPGSV,4,1,15,19,72,070,41,196,69,120,39,195,68,049,40,199,60,167,35,1*59
$GPGSV,4,2,15,50,60,167,37,17,57,110,44,06,49,004,45,20,41,245,35,1*69
$GPGSV,4,3,15,09,37,085,41,194,35,173,38,11,34,302,33,12,22,306,37,1*52
$GPGSV,4,4,15,04,18,057,29,05,15,230,,14,11,172,,1*55
$GPGSV,2,1,08,196,69,120,46,195,68,049,44,199,60,167,45,06,49,004,47,8*52
$GPGSV,2,2,08,09,37,085,42,194,35,173,40,11,34,302,35,04,18,057,35,8*51
$GLGSV,2,1,07,68,67,121,42,83,40,002,29,67,36,040,42,82,35,061,42,1*7A
$GLGSV,2,2,07,69,28,184,42,73,18,270,17,80,11,217,,1*43
$GAGSV,3,1,10,10,49,353,42,12,45,032,36,24,41,227,23,04,40,145,42,7*7A
$GAGSV,3,2,10,11,39,315,39,19,32,070,34,25,29,294,19,33,10,076,20,7*74
$GAGSV,3,3,10,09,09,189,,36,03,281,,7*7F
$GAGSV,2,1,08,10,49,353,44,12,45,032,41,24,41,227,20,04,40,145,43,1*70
$GAGSV,2,2,08,11,39,315,39,19,32,070,38,25,29,294,22,33,10,076,18,1*75
$GBGSV,4,1,13,40,77,174,43,33,75,111,43,07,74,226,40,10,70,267,39,1*7D
$GBGSV,4,2,13,08,56,286,23,14,54,055,43,43,50,080,46,28,47,337,44,1*71
$GBGSV,4,3,13,41,37,200,37,42,29,043,42,11,27,097,30,34,10,110,20,1*74
$GBGSV,4,4,13,23,10,210,,1*47
$GBGSV,2,1,06,40,77,174,46,33,75,111,47,43,50,080,43,28,47,337,42,4*77
$GBGSV,2,2,06,41,37,200,36,42,29,043,41,4*7C
$GNGGA,042142.000,2500.7913886,N,12132.4418294,E,4,59,0.49,16.006,M,15.25,M,1,3335*4A
$GNRMC,042142.000,A,2500.7913886,N,12132.4418294,E,0.00,20.94,270623,,,R,V*2D
$GPHDT,179.270,T*3F
$GNGGA,042142.200,2500.7913899,N,12132.4418304,E,4,59,0.49,15.997,M,15.25,M,1,3335*4C
$GNRMC,042142.200,A,2500.7913899,N,12132.4418304,E,0.00,20.94,270623,,,R,V*29
$GPHDT,179.504,T*3B
$GNGGA,042142.400,2500.7913933,N,12132.4418294,E,4,59,0.49,15.986,M,15.25,M,1,3335*43
$GNRMC,042142.400,A,2500.7913933,N,12132.4418294,E,0.00,20.94,270623,,,R,V*26
$GPHDT,179.437,T*3A
$GNGGA,042142.600,2500.7913898,N,12132.4418280,E,4,59,0.49,16.007,M,15.25,M,0,3335*46
$GNRMC,042142.600,A,2500.7913898,N,12132.4418280,E,0.00,20.94,270623,,,R,V*21
$GPHDT,179.658,T*31
$GNGGA,042142.800,2500.7913887,N,12132.4418290,E,4,59,0.49,16.004,M,15.25,M,0,3335*44
$GNRMC,042142.800,A,2500.7913887,N,12132.4418290,E,0.00,20.94,270623,,,R,V*20
$GPHDT,179.568,T*31
$GNGSA,A,3,19,196,195,199,17,06,20,09,194,11,12,04,0.93,0.49,0.79,1*02
$GNGSA,A,3,68,83,67,82,69,,,,,,,,0.93,0.49,0.79,2*0A
$GNGSA,A,3,10,12,24,04,11,19,25,33,,,,,0.93,0.49,0.79,3*05
$GNGSA,A,3,40,33,07,10,08,14,43,28,41,42,11,34,0.93,0.49,0.79,4*0B
$GPGSV,4,1,15,19,72,070,41,196,69,120,39,195,68,049,40,199,60,167,36,1*5A
$GPGSV,4,2,15,50,60,167,38,17,57,110,44,06,49,004,45,20,41,245,35,1*66
$GPGSV,4,3,15,09,37,085,41,194,35,173,38,11,34,302,33,12,22,306,37,1*52
$GPGSV,4,4,15,04,18,057,28,05,15,230,,14,11,172,,1*54
$GPGSV,2,1,08,196,69,120,46,195,68,049,44,199,60,167,45,06,49,004,46,8*53
$GPGSV,2,2,08,09,37,085,42,194,35,173,40,11,34,302,35,04,18,057,35,8*51
$GLGSV,2,1,07,68,67,121,42,83,40,002,28,67,36,040,42,82,35,061,42,1*7B
$GLGSV,2,2,07,69,28,184,42,73,18,270,17,80,11,217,,1*43
$GAGSV,3,1,10,10,49,353,42,12,45,032,37,24,41,227,20,04,40,145,42,7*78
$GAGSV,3,2,10,11,39,315,39,19,32,070,35,25,29,294,19,33,10,076,20,7*75
$GAGSV,3,3,10,09,09,189,,36,03,281,,7*7F
$GAGSV,2,1,08,10,49,353,44,12,45,032,41,24,41,227,20,04,40,145,43,1*70
$GAGSV,2,2,08,11,39,315,39,19,32,070,38,25,29,294,22,33,10,076,17,1*7A
$GBGSV,4,1,13,40,77,174,43,33,75,111,43,07,74,226,41,10,70,267,39,1*7C
$GBGSV,4,2,13,08,56,286,23,14,54,055,43,43,50,080,46,28,47,337,44,1*71
$GBGSV,4,3,13,41,37,200,37,42,29,043,42,11,27,097,30,34,10,110,20,1*74
$GBGSV,4,4,13,23,10,210,,1*47
$GBGSV,2,1,06,40,77,174,46,33,75,111,47,43,50,080,43,28,47,337,42,4*77
$GBGSV,2,2,06,41,37,200,36,42,29,043,41,4*7C
$GNGGA,042143.000,2500.7913940,N,12132.4418269,E,4,59,0.49,15.984,M,15.25,M,1,3335*42
$GNRMC,042143.000,A,2500.7913940,N,12132.4418269,E,0.00,20.94,270623,,,R,V*25
$GPHDT,179.610,T*3D
$GNGGA,042143.200,2500.7913911,N,12132.4418272,E,4,59,0.49,16.000,M,15.25,M,1,3335*48
$GNRMC,042143.200,A,2500.7913911,N,12132.4418272,E,0.00,20.94,270623,,,R,V*29
$GPHDT,179.528,T*35
$GNGGA,042143.400,2500.7913912,N,12132.4418301,E,4,59,0.49,16.012,M,15.25,M,1,3335*4B
$GNRMC,042143.400,A,2500.7913912,N,12132.4418301,E,0.00,20.94,270623,,,R,V*29
$GPHDT,179.889,T*33
$GNGGA,042143.600,2500.7913959,N,12132.4418300,E,4,59,0.49,16.024,M,15.25,M,1,3335*42
$GNRMC,042143.600,A,2500.7913959,N,12132.4418300,E,0.00,20.94,270623,,,R,V*25
$GPHDT,179.810,T*33
$GNGGA,042143.800,2500.7913921,N,12132.4418288,E,4,59,0.49,16.005,M,15.25,M,0,3335*40
$GNRMC,042143.800,A,2500.7913921,N,12132.4418288,E,0.00,20.94,270623,,,R,V*25
$GPHDT,179.866,T*32
$GNGSA,A,3,19,196,195,199,17,06,20,09,194,11,12,04,0.93,0.49,0.79,1*02
$GNGSA,A,3,68,83,67,82,69,,,,,,,,0.93,0.49,0.79,2*0A
$GNGSA,A,3,10,12,24,04,11,19,25,33,,,,,0.93,0.49,0.79,3*05
$GNGSA,A,3,40,33,07,10,08,14,43,28,41,42,11,34,0.93,0.49,0.79,4*0B
$GPGSV,4,1,15,19,72,070,41,196,69,120,39,195,68,049,40,50,60,167,38,1*60
$GPGSV,4,2,15,199,60,167,36,17,57,110,43,06,49,004,45,20,41,245,36,1*58
$GPGSV,4,3,15,09,37,085,42,194,35,173,40,11,34,302,32,12,22,306,37,1*5F
$GPGSV,4,4,15,04,18,057,30,05,15,230,,14,11,172,,1*5D
$GPGSV,2,1,08,196,69,120,46,195,68,049,44,199,60,167,45,06,49,004,46,8*53
$GPGSV,2,2,08,09,37,085,42,194,35,173,40,11,34,302,35,04,18,057,35,8*51
$GLGSV,2,1,06,68,67,121,42,83,40,002,28,67,36,040,41,82,35,061,41,1*7A
$GLGSV,2,2,06,69,28,184,40,73,18,270,17,1*7C
$GAGSV,3,1,10,10,49,353,42,12,45,032,37,24,41,227,19,04,40,145,42,7*72
$GAGSV,3,2,10,11,39,315,39,19,32,070,35,25,29,294,19,33,10,076,21,7*74
$GAGSV,3,3,10,09,09,189,,36,03,281,,7*7F
$GAGSV,2,1,08,10,49,353,44,12,45,032,41,24,41,227,22,04,40,145,43,1*72
$GAGSV,2,2,08,11,39,315,39,19,32,070,38,25,29,294,22,33,10,076,17,1*7A
$GBGSV,4,1,13,40,77,174,43,33,75,111,43,07,74,226,41,10,70,267,39,1*7C
$GBGSV,4,2,13,08,56,286,23,14,54,055,43,43,50,080,47,28,47,337,44,1*70
$GBGSV,4,3,13,41,37,200,37,42,29,043,42,11,27,097,28,23,10,210,,1*7A
$GBGSV,4,4,13,34,10,110,20,1*40
$GBGSV,2,1,06,40,77,174,46,33,75,111,47,43,50,080,43,28,47,337,42,4*77
$GBGSV,2,2,06,41,37,200,36,42,29,043,40,4*7D
$GNGGA,042144.000,2500.7913928,N,12132.4418257,E,4,59,0.49,15.997,M,15.25,M,1,3335*44
$GNRMC,042144.000,A,2500.7913928,N,12132.4418257,E,0.00,20.94,270623,,,R,V*21
$GPHDT,179.163,T*3E
$GNGGA,042144.200,2500.7913922,N,12132.4418288,E,4,59,0.49,16.002,M,15.25,M,1,3335*48
$GNRMC,042144.200,A,2500.7913922,N,12132.4418288,E,0.00,20.94,270623,,,R,V*2B
