$FW : RTK35X,V1.1X0314AS,Lib20210517,1*54
$Tool : LOCOSYS , GNSS Firebird , v1.0.0.19*39
$---------------------------------------------------*2D
$GPHDT,276.037,T*32
$GNACCURACY,3.1*14
$GNGGA,113029.900,2500.8150903,N,12132.4678271,E,2,64,0.42,18.678,M,15.25,M,2,3335*48
$GNRMC,113029.900,A,2500.8150903,N,12132.4678271,E,0.02,35.89,260623,,,D,V*33
$GPHDT,,T*1B
$GNACCURACY,3.1*14
$GNGGA,113030.000,2500.8150783,N,12132.4678211,E,2,64,0.42,18.678,M,15.25,M,3,3335*48
$GNRMC,113030.000,A,2500.8150783,N,12132.4678211,E,0.02,35.89,260623,,,D,V*32
$GPHDT,275.703,T*31
$GNACCURACY,3.1*14
$GNGGA,113030.100,2500.8150603,N,12132.4678031,E,2,64,0.42,18.678,M,15.25,M,3,3335*40
$GNRMC,113030.100,A,2500.8150603,N,12132.4678031,E,0.03,35.89,260623,,,D,V*3B
$GPHDT,,T*1B
$GNGSA,A,3,196,24,199,18,23,15,195,194,12,10,05,32,0.67,0.42,0.52,1*03
$GNGSA,A,3,80,73,85,86,71,69,79,,,,,,0.67,0.42,0.52,2*0A
$GNGSA,A,3,13,08,07,26,30,02,15,,,,,,0.67,0.42,0.52,3*0F
$GNGSA,A,3,38,08,39,13,16,06,46,09,19,20,36,35,0.67,0.42,0.52,4*0C
$GNGSA,A,3,29,22,37,,,,,,,,,,0.67,0.42,0.52,4*0B
$GPGSV,4,1,15,196,75,066,25,24,72,041,33,199,60,167,33,18,58,243,44,1*6E
$GPGSV,4,2,15,23,52,339,30,41,38,242,40,15,36,049,32,195,33,180,27,1*58
$GPGSV,4,3,15,194,31,138,34,12,21,140,33,10,19,319,33,05,18,120,24,1*5A
$GPGSV,4,4,15,25,10,175,22,32,10,271,19,13,07,058,26,1*55
$GPGSV,3,1,09,196,75,066,38,24,72,041,41,199,60,167,42,18,58,243,45,8*63
$GPGSV,3,2,09,23,52,339,38,195,33,180,19,194,31,138,27,10,19,319,24,8*68
$GPGSV,3,3,09,32,10,271,20,8*52
$GLGSV,2,1,08,80,48,073,24,70,41,013,,73,40,158,35,85,34,244,36,1*72
$GLGSV,2,2,08,86,27,300,41,71,22,316,42,69,12,076,13,79,10,031,26,1*7F
$GAGSV,3,1,09,13,55,230,40,08,46,027,28,07,44,305,44,26,33,305,40,7*7D
$GAGSV,3,2,09,30,27,142,23,02,26,084,21,15,21,174,21,03,10,065,,7*75
$GAGSV,3,3,09,25,02,042,,7*49
$GAGSV,2,1,05,13,55,230,36,07,44,305,42,26,33,305,41,30,27,142,21,1*77
$GAGSV,2,2,05,15,21,174,20,1*47
$GBGSV,4,1,15,38,83,119,40,08,80,003,37,39,71,285,44,13,69,332,42,1*77
$GBGSV,4,2,15,16,66,260,43,06,65,256,40,46,60,108,45,09,50,240,33,1*76
$GBGSV,4,3,15,19,50,347,33,20,42,065,21,36,37,184,32,37,22,046,24,1*71
$GBGSV,4,4,15,35,21,267,32,29,18,211,25,22,12,302,38,1*4B
$GBGSV,3,1,10,38,83,119,44,39,71,285,45,46,60,108,48,19,50,347,36,4*72
$GBGSV,3,2,10,20,42,065,26,36,37,184,32,37,22,046,24,35,21,267,27,4*7E
$GBGSV,3,3,10,29,18,211,23,22,12,302,34,4*76
$GNACCURACY,3.1*14
$PAIRSAT,1,35,1,0,200,2,0,200,3,0,200,4,0,200,5,0,201,6,0,200,7,0,200,8,0,200,9,0,200,10,0,221,11,0,200,12,0,201,13,0,201,14,0,200,15,0,201,16,0,200,17,0,200,18,0,221,19,0,200,20,0,200,21,0,200,23,0,221,24,0,221,25,0,200,26,0,200,27,0,200,28,0,200,29,0,200,30,0,200,31,0,200,32,0,221,194,0,621,195,0,621,196,0,620,199,0,621*68
$PAIRSAT,2,23,65,0,200,67,0,200,68,0,200,69,0,201,70,0,201,71,0,201,72,0,200,73,0,201,74,0,200,75,0,200,76,0,200,77,0,200,78,0,200,79,0,201,80,0,201,81,0,200,82,0,200,83,0,200,84,0,200,85,0,201,86,0,201,87,0,200,88,0,200*53
$PAIRSAT,3,23,2,0,1221,3,0,1221,4,0,1200,5,0,200,7,0,1221,8,0,1221,9,0,1200,10,0,1200,11,0,1200,12,0,1200,13,0,1221,15,0,1221,19,0,1200,21,0,1200,24,0,1200,25,0,1200,26,0,1221,27,0,1200,30,0,1221,31,0,1200,33,0,1200,34,0,1200,36,0,1200*6A
$PAIRSAT,4,50,1,0,200,2,0,200,3,0,200,4,0,200,5,0,200,6,0,201,7,0,200,8,0,201,9,0,201,10,0,200,11,0,200,12,0,200,13,0,201,14,0,200,15,0,200,16,0,201,19,0,621,20,0,621,21,0,600,22,0,621,23,0,600,24,0,600,25,0,600,26,0,600,27,0,600,28,0,600,29,0,621,30,0,600,31,0,200,32,0,600,33,0,600,34,0,600,35,0,621,36,0,621,37,0,621,38,0,621,39,0,621,40,0,600,41,0,600,42,0,600,43,0,600,44,0,600,45,0,600,46,0,621,56,0,200,57,0,200,58,0,200,59,0,600,60,0,600,61,0,600*41
$PAIRDGP,10,5,10,12,13,15,18,23,24,25,32*4D
$GNGGA,113030.200,2500.8150483,N,12132.4677971,E,2,64,0.42,18.674,M,15.25,M,3,3335*47
$GNRMC,113030.200,A,2500.8150483,N,12132.4677971,E,0.02,35.89,260623,,,D,V*31
$GPHDT,275.601,T*32
$GNACCURACY,3.1*14
$GNGGA,113030.300,2500.8150363,N,12132.4677851,E,2,64,0.42,18.676,M,15.25,M,3,3335*4E
$GNRMC,113030.300,A,2500.8150363,N,12132.4677851,E,0.02,35.89,260623,,,D,V*3A
$GPHDT,,T*1B
$GNACCURACY,3.1*14
$GNGGA,113030.400,2500.8150183,N,12132.4677731,E,2,65,0.42,18.679,M,15.25,M,3,3335*42
$GNRMC,113030.400,A,2500.8150183,N,12132.4677731,E,0.03,35.89,260623,,,D,V*39
$GPHDT,275.777,T*32
$GNACCURACY,3.1*14
$GNGGA,113030.500,2500.8150003,N,12132.4677671,E,2,64,0.42,18.680,M,15.25,M,3,3335*48
$GNRMC,113030.500,A,2500.8150003,N,12132.4677671,E,0.03,35.89,260623,,,D,V*34
$GPHDT,,T*1B
$GNACCURACY,3.1*14
$GNGGA,113030.600,2500.8149883,N,12132.4677551,E,2,64,0.42,18.682,M,15.25,M,3,3335*40
$GNRMC,113030.600,A,2500.8149883,N,12132.4677551,E,0.03,35.89,260623,,,D,V*3E
$GPHDT,276.324,T*33
$GNACCURACY,3.1*14
$GNGGA,113030.700,2500.8149763,N,12132.4677431,E,2,65,0.42,18.683,M,15.25,M,3,3335*47
$GNRMC,113030.700,A,2500.8149763,N,12132.4677431,E,0.02,35.89,260623,,,D,V*38
$GPHDT,,T*1B
$GNACCURACY,3.1*14
$GNGGA,113030.800,2500.8149643,N,12132.4677371,E,2,65,0.42,18.685,M,15.25,M,2,3335*4F
$GNRMC,113030.800,A,2500.8149643,N,12132.4677371,E,0.02,35.89,260623,,,D,V*37
$GPHDT,276.091,T*3E
$GNACCURACY,3.1*14
$GNGGA,113030.900,2500.8149523,N,12132.4677251,E,2,65,0.42,18.687,M,15.25,M,2,3335*4A
$GNRMC,113030.900,A,2500.8149523,N,12132.4677251,E,0.02,35.89,260623,,,D,V*30
$GPHDT,,T*1B
$GNACCURACY,3.1*14
$GNGGA,113031.000,2500.8149343,N,12132.4677131,E,2,65,0.42,18.689,M,15.25,M,3,3335*48
$GNRMC,113031.000,A,2500.8149343,N,12132.4677131,E,0.02,35.89,260623,,,D,V*3D
$GPHDT,276.490,T*3B
$GNACCURACY,3.1*14
$GNGGA,113031.100,2500.8149223,N,12132.4677071,E,2,65,0.42,18.688,M,15.25,M,1,3335*48
$GNRMC,113031.100,A,2500.8149223,N,12132.4677071,E,0.02,35.89,260623,,,D,V*3E
$GPHDT,,T*1B
$GNGSA,A,3,196,24,199,18,23,15,195,194,12,10,05,32,0.67,0.42,0.52,1*03
$GNGSA,A,3,80,73,85,86,71,69,79,,,,,,0.67,0.42,0.52,2*0A
$GNGSA,A,3,13,08,07,26,30,02,15,,,,,,0.67,0.42,0.52,3*0F
$GNGSA,A,3,38,08,39,13,16,06,46,09,19,20,36,35,0.67,0.42,0.52,4*0C
$GNGSA,A,3,29,22,37,,,,,,,,,,0.67,0.42,0.52,4*0B
$GPGSV,4,1,15,196,75,066,23,24,72,040,33,199,60,167,32,18,58,243,45,1*69
$GPGSV,4,2,15,23,52,340,32,41,38,242,41,15,36,049,33,195,33,180,28,1*5B
$GPGSV,4,3,15,194,31,138,34,12,21,140,33,10,19,319,32,05,18,120,24,1*5B
$GPGSV,4,4,15,25,10,175,22,32,10,271,25,13,07,058,28,1*54
$GPGSV,3,1,09,196,75,066,36,24,72,040,40,199,60,167,42,18,58,243,45,8*6D
$GPGSV,3,2,09,23,52,340,39,195,33,180,21,194,31,138,28,10,19,319,25,8*62
$GPGSV,3,3,09,32,10,271,17,8*56
$GLGSV,2,1,08,80,48,073,23,70,41,013,,73,40,158,36,85,34,244,36,1*76
$GLGSV,2,2,08,86,27,300,41,71,22,316,42,69,12,076,13,79,10,031,26,1*7F
$GAGSV,3,1,09,13,55,230,41,08,46,027,28,07,44,305,44,26,33,305,40,7*7C
$GAGSV,3,2,09,30,27,142,24,02,26,084,19,15,21,174,21,03,10,065,,7*79
$GAGSV,3,3,09,25,02,042,,7*49
$GAGSV,2,1,06,13,55,230,39,07,44,305,42,26,33,305,39,30,27,142,20,1*75
$GAGSV,2,2,06,02,26,084,20,15,21,174,19,1*76
$GBGSV,4,1,15,38,83,119,41,08,80,003,37,39,71,285,44,13,69,332,42,1*76
$GBGSV,4,2,15,16,66,260,43,06,65,256,40,46,60,108,45,09,50,240,36,1*73
$GBGSV,4,3,15,19,50,347,35,20,42,065,21,36,37,184,31,37,22,046,25,1*75
$GBGSV,4,4,15,35,21,267,32,29,18,211,29,22,12,302,38,1*47
$GBGSV,3,1,10,38,83,119,44,39,71,285,45,46,60,108,48,19,50,347,37,4*73
$GBGSV,3,2,10,20,42,065,27,36,37,184,31,37,22,046,24,35,21,267,31,4*7B
$GBGSV,3,3,10,29,18,211,29,22,12,302,32,4*7A
$GNACCURACY,3.1*14
$PAIRSAT,1,35,1,0,200,2,0,200,3,0,200,4,0,200,5,0,201,6,0,200,7,0,200,8,0,200,9,0,200,10,0,221,11,0,200,12,0,201,13,0,201,14,0,200,15,0,201,16,0,200,17,0,200,18,0,221,19,0,200,20,0,200,21,0,200,23,0,221,24,0,221,25,0,200,26,0,200,27,0,200,28,0,200,29,0,200,30,0,200,31,0,200,32,0,221,194,0,621,195,0,621,196,0,620,199,0,621*68
$PAIRSAT,2,23,65,0,200,67,0,200,68,0,200,69,0,201,70,0,201,71,0,201,72,0,200,73,0,201,74,0,200,75,0,200,76,0,200,77,0,200,78,0,200,79,0,201,80,0,201,81,0,200,82,0,200,83,0,200,84,0,200,85,0,201,86,0,201,87,0,200,88,0,200*53
$PAIRSAT,3,23,2,0,1221,3,0,1221,4,0,1200,5,0,200,7,0,1221,8,0,1221,9,0,1200,10,0,1200,11,0,1200,12,0,1200,13,0,1221,15,0,1221,19,0,1200,21,0,1200,24,0,1200,25,0,1200,26,0,1221,27,0,1200,30,0,1221,31,0,1200,33,0,1200,34,0,1200,36,0,1200*6A
$PAIRSAT,4,50,1,0,200,2,0,200,3,0,200,4,0,200,5,0,200,6,0,201,7,0,200,8,0,201,9,0,201,10,0,200,11,0,200,12,0,200,13,0,201,14,0,200,15,0,200,16,0,201,19,0,621,20,0,621,21,0,600,22,0,621,23,0,600,24,0,600,25,0,600,26,0,600,27,0,600,28,0,600,29,0,621,30,0,600,31,0,200,32,0,600,33,0,600,34,0,600,35,0,621,36,0,621,37,0,621,38,0,621,39,0,621,40,0,600,41,0,600,42,0,600,43,0,600,44,0,600,45,0,600,46,0,621,56,0,200,57,0,200,58,0,200,59,0,600,60,0,600,61,0,600*41
$PAIRDGP,10,5,10,12,13,15,18,23,24,25,32*4D
$GNGGA,113031.200,2500.8149103,N,12132.4676951,E,2,65,0.42,18.688,M,15.25,M,1,3335*40
$GNRMC,113031.200,A,2500.8149103,N,12132.4676951,E,0.01,35.89,260623,,,D,V*35
$GPHDT,274.750,T*36
$GNACCURACY,3.1*14
$GNGGA,113031.300,2500.8148983,N,12132.4676891,E,2,65,0.42,18.689,M,15.25,M,1,3335*4C
$GNRMC,113031.300,A,2500.8148983,N,12132.4676891,E,0.02,35.89,260623,,,D,V*3B
$GPHDT,,T*1B
$GNACCURACY,3.1*14
$GNGGA,113031.400,2500.8148923,N,12132.4676831,E,2,65,0.42,18.687,M,15.25,M,1,3335*45
$GNRMC,113031.400,A,2500.8148923,N,12132.4676831,E,0.01,35.89,260623,,,D,V*3F
$GPHDT,275.054,T*34
$GNACCURACY,3.1*14
$GNGGA,113031.500,2500.8148863,N,12132.4676711,E,2,65,0.42,18.686,M,15.25,M,0,3335*4C
$GNRMC,113031.500,A,2500.8148863,N,12132.4676711,E,0.01,35.89,260623,,,D,V*36
$GPHDT,,T*1B
$GNACCURACY,3.1*14
$GNGGA,113031.600,2500.8148803,N,12132.4676651,E,2,65,0.42,18.687,M,15.25,M,0,3335*4D
$GNRMC,113031.600,A,2500.8148803,N,12132.4676651,E,0.01,35.89,260623,,,D,V*36
$GPHDT,275.837,T*39
$GNACCURACY,3.1*14
$GNGGA,113031.700,2500.8148683,N,12132.4676531,E,2,65,0.42,18.684,M,15.25,M,0,3335*4C
$GNRMC,113031.700,A,2500.8148683,N,12132.4676531,E,0.01,35.89,260623,,,D,V*34
$GPHDT,,T*1B
$GNACCURACY,3.1*14
$GNGGA,113031.800,2500.8148563,N,12132.4676471,E,2,65,0.42,18.682,M,15.25,M,0,3335*4D
$GNRMC,113031.800,A,2500.8148563,N,12132.4676471,E,0.00,35.89,260623,,,D,V*32
$GPHDT,275.793,T*38
$GNACCURACY,3.1*14
$GNGGA,113031.900,2500.8148563,N,12132.4676351,E,2,65,0.42,18.678,M,15.25,M,0,3335*4C
$GNRMC,113031.900,A,2500.8148563,N,12132.4676351,E,0.01,35.89,260623,,,D,V*37
$GPHDT,,T*1B
$GNACCURACY,3.1*14
$GNGGA,113032.000,2500.8148503,N,12132.4676291,E,2,65,0.42,18.677,M,15.25,M,1,3335*43
$GNRMC,113032.000,A,2500.8148503,N,12132.4676291,E,0.01,35.89,260623,,,D,V*36
$GPHDT,275.239,T*3D
$GNACCURACY,3.1*14
$GNGGA,113032.100,2500.8148443,N,12132.4676231,E,2,64,0.42,18.676,M,15.25,M,1,3335*4D
$GNRMC,113032.100,A,2500.8148443,N,12132.4676231,E,0.01,35.89,260623,,,D,V*38
$GPHDT,,T*1B
$GNGSA,A,3,196,24,199,18,23,15,195,194,12,10,05,32,0.67,0.42,0.52,1*03
$GNGSA,A,3,80,73,85,86,71,69,79,,,,,,0.67,0.42,0.52,2*0A
$GNGSA,A,3,13,08,07,26,30,02,15,,,,,,0.67,0.42,0.52,3*0F
$GNGSA,A,3,38,08,39,13,16,06,46,09,19,20,36,35,0.67,0.42,0.52,4*0C
$GNGSA,A,3,29,22,37,,,,,,,,,,0.67,0.42,0.52,4*0B
$GPGSV,4,1,15,196,75,066,20,24,72,040,33,199,60,167,31,18,58,243,45,1*69
$GPGSV,4,2,15,23,52,340,29,41,38,242,45,15,36,049,33,195,33,180,28,1*55
$GPGSV,4,3,15,194,31,138,34,12,21,140,32,10,19,319,34,05,18,120,24,1*5C
$GPGSV,4,4,15,25,10,175,23,32,10,271,20,13,07,058,28,1*50
$GPGSV,2,1,08,196,75,066,37,24,72,040,40,199,60,167,40,18,58,243,45,8*6E
$GPGSV,2,2,08,23,52,340,39,194,31,138,32,10,19,319,27,32,10,271,17,8*5E
$GLGSV,2,1,08,80,48,073,21,70,41,013,,73,40,158,36,85,34,244,37,1*75
$GLGSV,2,2,08,86,27,300,41,71,22,316,41,69,12,076,15,79,10,031,23,1*7F
$GAGSV,3,1,09,13,55,230,41,08,46,027,27,07,44,305,44,26,33,305,41,7*72
$GAGSV,3,2,09,30,27,142,24,02,26,084,19,15,21,174,21,03,10,065,,7*79
$GAGSV,3,3,09,25,02,042,,7*49
$GAGSV,2,1,06,13,55,230,42,07,44,305,42,26,33,305,39,30,27,142,19,1*73
$GAGSV,2,2,06,02,26,084,19,15,21,174,18,1*7D
$GBGSV,4,1,16,38,83,119,41,08,80,003,37,39,71,285,44,13,69,332,42,1*75
$GBGSV,4,2,16,16,66,260,42,06,65,256,40,46,60,108,45,09,50,240,39,1*7E
$GBGSV,4,3,16,19,50,347,35,20,42,065,25,36,37,184,35,37,22,046,,1*71
$GBGSV,4,4,16,35,21,267,33,29,18,211,34,22,12,302,38,32,01,101,,1*79
$GBGSV,3,1,10,38,83,119,44,39,71,285,45,46,60,108,48,19,50,347,37,4*73
$GBGSV,3,2,10,20,42,065,26,36,37,184,29,37,22,046,25,35,21,267,28,4*7A
$GBGSV,3,3,10,29,18,211,33,22,12,302,34,4*77
$GNACCURACY,3.1*14
$PAIRSAT,1,35,1,0,200,2,0,200,3,0,200,4,0,200,5,0,201,6,0,200,7,0,200,8,0,200,9,0,200,10,0,221,11,0,200,12,0,201,13,0,201,14,0,200,15,0,201,16,0,200,17,0,200,18,0,221,19,0,200,20,0,200,21,0,200,23,0,221,24,0,221,25,0,200,26,0,200,27,0,200,28,0,200,29,0,200,30,0,200,31,0,200,32,0,221,194,0,621,195,0,621,196,0,620,199,0,621*68
$PAIRSAT,2,23,65,0,200,67,0,200,68,0,200,69,0,201,70,0,201,71,0,201,72,0,200,73,0,201,74,0,200,75,0,200,76,0,200,77,0,200,78,0,200,79,0,201,80,0,201,81,0,200,82,0,200,83,0,200,84,0,200,85,0,201,86,0,201,87,0,200,88,0,200*53
$PAIRSAT,3,23,2,0,1221,3,0,1221,4,0,1200,5,0,200,7,0,1221,8,0,1221,9,0,1200,10,0,1200,11,0,1200,12,0,1200,13,0,1221,15,0,1221,19,0,1200,21,0,1200,24,0,1200,25,0,1200,26,0,1221,27,0,1200,30,0,1221,31,0,1200,33,0,1200,34,0,1200,36,0,1200*6A
$PAIRSAT,4,50,1,0,200,2,0,200,3,0,200,4,0,200,5,0,200,6,0,201,7,0,200,8,0,201,9,0,201,10,0,200,11,0,200,12,0,200,13,0,201,14,0,200,15,0,200,16,0,201,19,0,621,20,0,621,21,0,600,22,0,621,23,0,600,24,0,600,25,0,600,26,0,600,27,0,600,28,0,600,29,0,621,30,0,600,31,0,200,32,0,600,33,0,600,34,0,600,35,0,621,36,0,621,37,0,621,38,0,621,39,0,621,40,0,600,41,0,600,42,0,600,43,0,600,44,0,600,45,0,600,46,0,621,56,0,200,57,0,200,58,0,200,59,0,600,60,0,600,61,0,600*41
$PAIRDGP,10,5,10,12,13,15,18,23,24,25,32*4D
$GNGGA,113032.200,2500.8148443,N,12132.4676111,E,2,64,0.42,18.677,M,15.25,M,1,3335*4E
$GNRMC,113032.200,A,2500.8148443,N,12132.4676111,E,0.01,35.89,260623,,,D,V*3A
$GPHDT,275.706,T*34
$GNACCURACY,3.1*14
$GNGGA,113032.300,2500.8148383,N,12132.4676051,E,2,63,0.42,18.677,M,15.25,M,1,3335*46
$GNRMC,113032.300,A,2500.8148383,N,12132.4676051,E,0.01,35.89,260623,,,D,V*35
$GPHDT,,T*1B
$GNACCURACY,3.1*14
$GNGGA,113032.400,2500.8148263,N,12132.4675931,E,2,63,0.42,18.676,M,15.25,M,1,3335*43
$GNRMC,113032.400,A,2500.8148263,N,12132.4675931,E,0.01,35.89,260623,,,D,V*31
$GPHDT,275.398,T*37
$GNACCURACY,3.1*14
$GNGGA,113032.500,2500.8148263,N,12132.4675871,E,2,63,0.42,18.675,M,15.25,M,1,3335*44
$GNRMC,113032.500,A,2500.8148263,N,12132.4675871,E,0.01,35.89,260623,,,D,V*35
$GPHDT,,T*1B
$GNACCURACY,3.1*14
$GNGGA,113032.600,2500.8148143,N,12132.4675811,E,2,63,0.42,18.673,M,15.25,M,1,3335*46
$GNRMC,113032.600,A,2500.8148143,N,12132.4675811,E,0.02,35.89,260623,,,D,V*32
$GPHDT,274.920,T*3F
$GNACCURACY,3.1*14
$GNGGA,113032.700,2500.8148083,N,12132.4675751,E,2,63,0.42,18.673,M,15.25,M,1,3335*41
$GNRMC,113032.700,A,2500.8148083,N,12132.4675751,E,0.02,35.89,260623,,,D,V*35
$GPHDT,,T*1B
$GNACCURACY,3.1*14
$GNGGA,113032.800,2500.8148023,N,12132.4675691,E,2,64,0.42,18.673,M,15.25,M,1,3335*4E
$GNRMC,113032.800,A,2500.8148023,N,12132.4675691,E,0.03,35.89,260623,,,D,V*3C
$GPHDT,275.196,T*3B
$GNACCURACY,3.1*14
$GNGGA,113032.900,2500.8147963,N,12132.4675631,E,2,64,0.42,18.672,M,15.25,M,1,3335*46
$GNRMC,113032.900,A,2500.8147963,N,12132.4675631,E,0.02,35.89,260623,,,D,V*34
$GPHDT,,T*1B
$GNACCURACY,3.1*14
$GNGGA,113033.000,2500.8147963,N,12132.4675571,E,2,64,0.42,18.672,M,15.25,M,2,3335*4A
$GNRMC,113033.000,A,2500.8147963,N,12132.4675571,E,0.02,35.89,260623,,,D,V*3B
$GPHDT,274.668,T*3C
$GNACCURACY,3.1*14
$GNGGA,113033.100,2500.8147963,N,12132.4675451,E,2,64,0.42,18.672,M,15.25,M,2,3335*48
$GNRMC,113033.100,A,2500.8147963,N,12132.4675451,E,0.02,35.89,260623,,,D,V*39
$GPHDT,,T*1B
$GNGSA,A,3,196,24,199,18,23,15,195,194,12,10,05,32,0.67,0.42,0.52,1*03
$GNGSA,A,3,80,73,85,86,71,69,79,,,,,,0.67,0.42,0.52,2*0A
$GNGSA,A,3,13,08,07,26,30,02,15,,,,,,0.67,0.42,0.52,3*0F
$GNGSA,A,3,38,08,39,13,16,06,46,09,19,20,36,35,0.67,0.42,0.52,4*0C
$GNGSA,A,3,29,22,37,,,,,,,,,,0.67,0.42,0.52,4*0B
$GPGSV,4,1,15,196,75,066,20,24,72,040,33,199,60,167,31,18,58,243,45,1*69
$GPGSV,4,2,15,23,52,340,32,41,38,242,45,15,36,049,33,195,33,180,28,1*5F
$GPGSV,4,3,15,194,31,138,34,12,21,140,31,10,19,319,32,05,18,120,23,1*5E
$GPGSV,4,4,15,25,10,175,23,32,10,271,25,13,07,058,27,1*5A
$GPGSV,2,1,08,196,75,066,35,24,72,040,40,199,60,167,41,18,58,243,46,8*6E
$GPGSV,2,2,08,23,52,340,38,194,31,138,30,10,19,319,24,32,10,271,16,8*5F
$GLGSV,2,1,08,80,48,073,19,70,41,013,,73,40,158,36,85,34,244,37,1*7E
$GLGSV,2,2,08,86,27,300,42,71,22,316,41,69,12,076,16,79,10,031,21,1*7D
$GAGSV,3,1,09,13,55,230,42,08,46,027,28,07,44,305,44,26,33,305,40,7*7F
$GAGSV,3,2,09,30,27,142,24,02,26,084,18,15,21,174,22,03,10,065,,7*7B
$GAGSV,3,3,09,25,02,042,,7*49
$GAGSV,2,1,06,13,55,230,42,07,44,305,42,26,33,305,39,30,27,142,19,1*73
$GAGSV,2,2,06,02,26,084,19,15,21,174,18,1*7D
$GBGSV,4,1,15,38,83,119,41,08,80,003,37,39,71,285,44,13,69,332,42,1*76
$GBGSV,4,2,15,16,66,260,42,06,65,256,40,46,60,108,45,09,50,240,40,1*73
$GBGSV,4,3,15,19,50,347,35,20,42,065,24,36,37,184,35,37,22,046,,1*73
$GBGSV,4,4,15,35,21,267,33,29,18,211,36,22,12,302,39,1*49
$GBGSV,3,1,10,38,83,119,44,39,71,285,45,46,60,108,47,19,50,347,37,4*7C
$GBGSV,3,2,10,20,42,065,24,36,37,184,29,37,22,046,25,35,21,267,28,4*78
$GBGSV,3,3,10,29,18,211,34,22,12,302,34,4*70
$GNACCURACY,3.1*14
$PAIRSAT,1,35,1,0,200,2,0,200,3,0,200,4,0,200,5,0,201,6,0,200,7,0,200,8,0,200,9,0,200,10,0,221,11,0,200,12,0,201,13,0,201,14,0,200,15,0,201,16,0,200,17,0,200,18,0,221,19,0,200,20,0,200,21,0,200,23,0,221,24,0,221,25,0,200,26,0,200,27,0,200,28,0,200,29,0,200,30,0,200,31,0,200,32,0,221,194,0,621,195,0,621,196,0,620,199,0,621*68
$PAIRSAT,2,23,65,0,200,67,0,200,68,0,200,69,0,201,70,0,201,71,0,201,72,0,200,73,0,201,74,0,200,75,0,200,76,0,200,77,0,200,78,0,200,79,0,201,80,0,201,81,0,200,82,0,200,83,0,200,84,0,200,85,0,201,86,0,201,87,0,200,88,0,200*53
$PAIRSAT,3,23,2,0,1221,3,0,1221,4,0,1200,5,0,200,7,0,1221,8,0,1221,9,0,1200,10,0,1200,11,0,1200,12,0,1200,13,0,1221,15,0,1221,19,0,1200,21,0,1200,24,0,1200,25,0,1200,26,0,1221,27,0,1200,30,0,1221,31,0,1200,33,0,1200,34,0,1200,36,0,1200*6A
$PAIRSAT,4,50,1,0,200,2,0,200,3,0,200,4,0,200,5,0,200,6,0,201,7,0,200,8,0,201,9,0,201,10,0,200,11,0,200,12,0,200,13,0,201,14,0,200,15,0,200,16,0,201,19,0,621,20,0,621,21,0,600,22,0,621,23,0,600,24,0,600,25,0,600,26,0,600,27,0,600,28,0,600,29,0,621,30,0,600,31,0,200,32,0,600,33,0,600,34,0,600,35,0,621,36,0,621,37,0,621,38,0,621,39,0,621,40,0,600,41,0,600,42,0,600,43,0,600,44,0,600,45,0,600,46,0,621,56,0,200,57,0,200,58,0,200,59,0,600,60,0,600,61,0,600*41
$PAIRDGP,10,5,10,12,13,15,18,23,24,25,32*4D
$GNGGA,113033.200,2500.8147903,N,12132.4675331,E,2,64,0.42,18.675,M,15.25,M,2,3335*4B
$GNRMC,113033.200,A,2500.8147903,N,12132.4675331,E,0.02,35.89,260623,,,D,V*3D
$GPHDT,274.954,T*3C
$GNACCURACY,3.1*14
$GNGGA,113033.300,2500.8147903,N,12132.4675211,E,2,65,0.42,18.681,M,15.25,M,2,3335*43
$GNRMC,113033.300,A,2500.8147903,N,12132.4675211,E,0.02,35.89,260623,,,D,V*3F
$GPHDT,,T*1B
$GNACCURACY,3.1*14
$GNGGA,113033.400,2500.8147903,N,12132.4675151,E,2,65,0.42,18.681,M,15.25,M,2,3335*43
$GNRMC,113033.400,A,2500.8147903,N,12132.4675151,E,0.02,35.89,260623,,,D,V*3F
$GPHDT,274.887,T*33
$GNACCURACY,3.1*14
$GNGGA,113033.500,2500.8147903,N,12132.4675031,E,2,65,0.42,18.687,M,15.25,M,2,3335*43
$GNRMC,113033.500,A,2500.8147903,N,12132.4675031,E,0.02,35.89,260623,,,D,V*39
$GPHDT,,T*1B
$GNACCURACY,3.1*14
$GNGGA,113033.600,2500.8147843,N,12132.4674971,E,2,65,0.42,18.689,M,15.25,M,2,3335*47
$GNRMC,113033.600,A,2500.8147843,N,12132.4674971,E,0.02,35.89,260623,,,D,V*33
$GPHDT,275.082,T*3F
$GNACCURACY,3.1*14
$GNGGA,113033.700,2500.8147843,N,12132.4674911,E,2,65,0.42,18.690,M,15.25,M,2,3335*48
$GNRMC,113033.700,A,2500.8147843,N,12132.4674911,E,0.02,35.89,260623,,,D,V*34
$GPHDT,,T*1B
$GNACCURACY,3.1*14
$GNGGA,113033.800,2500.8147783,N,12132.4674851,E,2,65,0.42,18.691,M,15.25,M,2,3335*40
$GNRMC,113033.800,A,2500.8147783,N,12132.4674851,E,0.01,35.89,260623,,,D,V*3E
$GPHDT,274.961,T*3A
$GNACCURACY,3.1*14
$GNGGA,113033.900,2500.8147723,N,12132.4674791,E,2,65,0.42,18.694,M,15.25,M,2,3335*4D
$GNRMC,113033.900,A,2500.8147723,N,12132.4674791,E,0.01,35.89,260623,,,D,V*36
$GPHDT,,T*1B
$GNACCURACY,3.1*14
$GNGGA,113034.000,2500.8147783,N,12132.4674731,E,2,65,0.42,18.698,M,15.25,M,3,3335*4E
$GNRMC,113034.000,A,2500.8147783,N,12132.4674731,E,0.00,35.89,260623,,,D,V*39
$GPHDT,274.821,T*3F
$GNACCURACY,3.1*14
$GNGGA,113034.100,2500.8147783,N,12132.4674671,E,2,65,0.42,18.697,M,15.25,M,3,3335*45
$GNRMC,113034.100,A,2500.8147783,N,12132.4674671,E,0.02,35.89,260623,,,D,V*3F
$GPHDT,,T*1B
$GNGSA,A,3,196,24,199,18,23,15,195,194,12,10,05,32,0.67,0.42,0.52,1*03
$GNGSA,A,3,80,73,85,86,71,69,79,,,,,,0.67,0.42,0.52,2*0A
$GNGSA,A,3,13,08,07,26,30,02,15,,,,,,0.67,0.42,0.52,3*0F
$GNGSA,A,3,38,08,39,13,16,06,46,09,19,20,36,35,0.67,0.42,0.52,4*0C
$GNGSA,A,3,29,22,37,,,,,,,,,,0.67,0.42,0.52,4*0B
$GPGSV,4,1,15,196,75,066,22,24,72,040,33,199,60,167,32,18,58,243,45,1*68
$GPGSV,4,2,15,23,52,340,31,41,38,242,45,15,36,049,32,195,33,180,28,1*5D
$GPGSV,4,3,15,194,31,138,35,12,21,140,32,10,19,319,32,05,18,120,24,1*5B
$GPGSV,4,4,15,25,10,175,,32,10,271,27,13,07,058,28,1*56
$GPGSV,3,1,09,196,75,066,35,24,72,040,40,199,60,167,43,18,58,243,46,8*6C
$GPGSV,3,2,09,23,52,340,38,195,33,180,22,194,31,138,30,10,19,319,23,8*6F
$GPGSV,3,3,09,32,10,271,17,8*56
$GLGSV,2,1,08,80,48,073,17,70,41,013,,73,40,158,36,85,34,244,34,1*73
$GLGSV,2,2,08,86,27,300,42,71,22,316,41,69,12,076,17,79,10,031,21,1*7C
$GAGSV,3,1,09,13,55,230,42,08,46,027,28,07,44,305,44,26,33,305,40,7*7F
$GAGSV,3,2,09,30,27,142,22,02,26,084,17,15,21,174,23,03,10,065,,7*73
$GAGSV,3,3,09,25,02,042,,7*49
$GAGSV,2,1,06,13,55,230,42,07,44,305,42,26,33,305,39,30,27,142,20,1*79
$GAGSV,2,2,06,02,26,084,20,15,21,174,18,1*77
$GBGSV,4,1,15,38,83,119,42,08,80,003,37,39,71,285,44,13,69,332,42,1*75
$GBGSV,4,2,15,16,66,260,42,06,65,256,40,46,60,108,45,09,50,240,40,1*73
$GBGSV,4,3,15,19,50,347,35,20,42,065,23,36,37,184,35,37,22,046,,1*74
$GBGSV,4,4,15,35,21,267,32,29,18,211,37,22,12,302,39,1*49
$GBGSV,3,1,09,38,83,119,44,39,71,285,45,46,60,108,48,19,50,347,37,4*7B
$GBGSV,3,2,09,20,42,065,23,37,22,046,25,35,21,267,27,29,18,211,34,4*78
$GBGSV,3,3,09,22,12,302,34,4*4F
$GNACCURACY,3.1*14
$PAIRSAT,1,35,1,0,200,2,0,200,3,0,200,4,0,200,5,0,201,6,0,200,7,0,200,8,0,200,9,0,200,10,0,221,11,0,200,12,0,201,13,0,201,14,0,200,15,0,201,16,0,200,17,0,200,18,0,221,19,0,200,20,0,200,21,0,200,23,0,221,24,0,221,25,0,200,26,0,200,27,0,200,28,0,200,29,0,200,30,0,200,31,0,200,32,0,221,194,0,621,195,0,621,196,0,620,199,0,621*68
$PAIRSAT,2,23,65,0,200,67,0,200,68,0,200,69,0,201,70,0,201,71,0,201,72,0,200,73,0,201,74,0,200,75,0,200,76,0,200,77,0,200,78,0,200,79,0,201,80,0,201,81,0,200,82,0,200,83,0,200,84,0,200,85,0,201,86,0,201,87,0,200,88,0,200*53
$PAIRSAT,3,23,2,0,1221,3,0,1221,4,0,1200,5,0,200,7,0,1221,8,0,1221,9,0,1200,10,0,1200,11,0,1200,12,0,1200,13,0,1221,15,0,1221,19,0,1200,21,0,1200,24,0,1200,25,0,1200,26,0,1221,27,0,1200,30,0,1221,31,0,1200,33,0,1200,34,0,1200,36,0,1200*6A
$PAIRSAT,4,50,1,0,200,2,0,200,3,0,200,4,0,200,5,0,200,6,0,201,7,0,200,8,0,201,9,0,201,10,0,200,11,0,200,12,0,200,13,0,201,14,0,200,15,0,200,16,0,201,19,0,621,20,0,621,21,0,600,22,0,621,23,0,600,24,0,600,25,0,600,26,0,600,27,0,600,28,0,600,29,0,621,30,0,600,31,0,200,32,0,600,33,0,600,34,0,600,35,0,621,36,0,621,37,0,621,38,0,621,39,0,621,40,0,600,41,0,600,42,0,600,43,0,600,44,0,600,45,0,600,46,0,621,56,0,200,57,0,200,58,0,200,59,0,600,60,0,600,61,0,600*41
$PAIRDGP,10,5,10,12,13,15,18,23,24,25,32*4D
$GNGGA,113034.200,2500.8147843,N,12132.4674611,E,2,64,0.42,18.698,M,15.25,M,3,3335*4D
$GNRMC,113034.200,A,2500.8147843,N,12132.4674611,E,0.02,35.89,260623,,,D,V*39
$GPHDT,275.134,T*33
$GNACCURACY,2.9*1D
$GNGGA,113034.300,2500.8147843,N,12132.4674551,E,2,64,0.42,18.696,M,15.25,M,3,3335*45
$GNRMC,113034.300,A,2500.8147843,N,12132.4674551,E,0.03,35.89,260623,,,D,V*3E
$GPHDT,,T*1B
$GNACCURACY,2.9*1D
$GNGGA,113034.400,2500.8147843,N,12132.4674491,E,2,65,0.42,18.697,M,15.25,M,3,3335*4F
$GNRMC,113034.400,A,2500.8147843,N,12132.4674491,E,0.03,35.89,260623,,,D,V*34
$GPHDT,275.363,T*33
$GNACCURACY,2.9*1D
$GNGGA,113034.500,2500.8147843,N,12132.4674431,E,2,64,0.42,18.695,M,15.25,M,3,3335*47
$GNRMC,113034.500,A,2500.8147843,N,12132.4674431,E,0.06,35.89,260623,,,D,V*3A
$GPHDT,,T*1B
$GNACCURACY,2.9*1D
$GNGGA,113034.600,2500.8147843,N,12132.4674371,E,2,64,0.42,18.693,M,15.25,M,3,3335*41
$GNRMC,113034.600,A,2500.8147843,N,12132.4674371,E,0.03,35.89,260623,,,D,V*3F
$GPHDT,275.475,T*33
$GNACCURACY,2.9*1D
$GNGGA,113034.700,2500.8147843,N,12132.4674251,E,2,64,0.42,18.691,M,15.25,M,3,3335*41
$GNRMC,113034.700,A,2500.8147843,N,12132.4674251,E,0.03,35.89,260623,,,D,V*3D
$GPHDT,,T*1B
$GNACCURACY,2.9*1D
$GNGGA,113034.800,2500.8147843,N,12132.4674131,E,2,64,0.42,18.689,M,15.25,M,3,3335*42
$GNRMC,113034.800,A,2500.8147843,N,12132.4674131,E,0.01,35.89,260623,,,D,V*35
$GPHDT,276.113,T*35
$GNACCURACY,2.9*1D
$GNGGA,113034.900,2500.8147843,N,12132.4674071,E,2,64,0.42,18.686,M,15.25,M,3,3335*49
$GNRMC,113034.900,A,2500.8147843,N,12132.4674071,E,0.01,35.89,260623,,,D,V*31
$GPHDT,,T*1B
$GNACCURACY,3.0*15
$GNGGA,113035.000,2500.8147783,N,12132.4674011,E,2,64,0.42,18.685,M,15.25,M,4,3335*40
$GNRMC,113035.000,A,2500.8147783,N,12132.4674011,E,0.01,35.89,260623,,,D,V*3C
$GPHDT,276.145,T*36
$GNACCURACY,3.0*15
$GNGGA,113035.100,2500.8147663,N,12132.4673951,E,2,64,0.42,18.685,M,15.25,M,4,3335*44
$GNRMC,113035.100,A,2500.8147663,N,12132.4673951,E,0.01,35.89,260623,,,D,V*38
$GPHDT,,T*1B
$GNGSA,A,3,196,24,199,18,23,15,195,194,12,10,05,32,0.67,0.42,0.52,1*03
$GNGSA,A,3,80,73,85,86,71,69,79,,,,,,0.67,0.42,0.52,2*0A
$GNGSA,A,3,13,08,07,26,30,02,15,,,,,,0.67,0.42,0.52,3*0F
$GNGSA,A,3,38,08,39,13,16,06,46,09,19,20,36,35,0.67,0.42,0.52,4*0C
$GNGSA,A,3,29,22,37,,,,,,,,,,0.67,0.42,0.52,4*0B
$GPGSV,4,1,15,196,75,066,18,24,72,040,34,199,60,167,31,18,58,243,46,1*66
$GPGSV,4,2,15,23,52,340,31,41,38,242,45,15,36,049,33,195,33,180,29,1*5D
$GPGSV,4,3,15,194,31,138,34,12,21,140,32,10,19,319,32,05,18,120,23,1*5D
$GPGSV,4,4,15,25,10,175,21,32,10,271,24,13,07,058,28,1*56
$GPGSV,3,1,09,196,75,066,36,24,72,040,40,199,60,167,43,18,58,243,46,8*6F
$GPGSV,3,2,09,23,52,340,38,195,33,180,22,194,31,138,31,10,19,319,22,8*6F
$GPGSV,3,3,09,32,10,271,15,8*54
$GLGSV,2,1,08,80,48,073,16,70,41,013,,73,40,158,36,85,34,244,34,1*72
$GLGSV,2,2,08,86,27,300,42,71,22,316,41,69,12,076,18,79,10,031,24,1*76
$GAGSV,3,1,09,13,55,230,39,08,46,027,28,07,44,305,44,26,33,305,40,7*73
$GAGSV,3,2,09,30,27,142,25,02,26,084,17,15,21,174,22,03,10,065,,7*75
$GAGSV,3,3,09,25,02,042,,7*49
$GAGSV,2,1,06,13,55,230,42,07,44,305,42,26,33,305,39,30,27,142,23,1*7A
$GAGSV,2,2,06,02,26,084,20,15,21,174,19,1*76
$GBGSV,4,1,15,38,83,119,42,08,80,003,37,39,71,285,44,13,69,332,42,1*75
$GBGSV,4,2,15,16,66,260,42,06,65,256,40,46,60,108,45,09,50,240,40,1*73
$GBGSV,4,3,15,19,50,347,35,20,42,065,24,36,37,184,34,37,22,046,,1*72
$GBGSV,4,4,15,35,21,267,33,29,18,211,35,22,12,302,39,1*4A
$GBGSV,3,1,09,38,83,119,44,39,71,285,45,46,60,108,47,19,50,347,37,4*74
$GBGSV,3,2,09,20,42,065,21,37,22,046,25,35,21,267,29,29,18,211,34,4*74
$GBGSV,3,3,09,22,12,302,33,4*48
$GNACCURACY,3.0*15
$PAIRSAT,1,35,1,0,200,2,0,200,3,0,200,4,0,200,5,0,201,6,0,200,7,0,200,8,0,200,9,0,200,10,0,221,11,0,200,12,0,201,13,0,201,14,0,200,15,0,201,16,0,200,17,0,200,18,0,221,19,0,200,20,0,200,21,0,200,23,0,221,24,0,221,25,0,200,26,0,200,27,0,200,28,0,200,29,0,200,30,0,200,31,0,200,32,0,221,194,0,621,195,0,621,196,0,620,199,0,621*68
$PAIRSAT,2,23,65,0,200,67,0,200,68,0,200,69,0,201,70,0,201,71,0,201,72,0,200,73,0,201,74,0,200,75,0,200,76,0,200,77,0,200,78,0,200,79,0,201,80,0,201,81,0,200,82,0,200,83,0,200,84,0,200,85,0,201,86,0,201,87,0,200,88,0,200*53
$PAIRSAT,3,23,2,0,1221,3,0,1221,4,0,1200,5,0,200,7,0,1221,8,0,1221,9,0,1200,10,0,1200,11,0,1200,12,0,1200,13,0,1221,15,0,1221,19,0,1200,21,0,1200,24,0,1200,25,0,1200,26,0,1221,27,0,1200,30,0,1221,31,0,1200,33,0,1200,34,0,1200,36,0,1200*6A
$PAIRSAT,4,50,1,0,200,2,0,200,3,0,200,4,0,200,5,0,200,6,0,201,7,0,200,8,0,201,9,0,201,10,0,200,11,0,200,12,0,200,13,0,201,14,0,200,15,0,200,16,0,201,19,0,621,20,0,621,21,0,600,22,0,621,23,0,600,24,0,600,25,0,600,26,0,600,27,0,600,28,0,600,29,0,621,30,0,600,31,0,200,32,0,600,33,0,600,34,0,600,35,0,621,36,0,621,37,0,621,38,0,621,39,0,621,40,0,600,41,0,600,42,0,600,43,0,600,44,0,600,45,0,600,46,0,621,56,0,200,57,0,200,58,0,200,59,0,600,60,0,600,61,0,600*41
$PAIRDGP,10,5,10,12,13,15,18,23,24,25,32*4D
$GNGGA,113035.200,2500.8147603,N,12132.4673891,E,2,64,0.42,18.683,M,15.25,M,4,3335*4A
$GNRMC,113035.200,A,2500.8147603,N,12132.4673891,E,0.01,35.89,260623,,,D,V*30
$GPHDT,276.272,T*31
$GNACCURACY,2.9*1D
$GNGGA,113035.300,2500.8147543,N,12132.4673831,E,2,65,0.42,18.685,M,15.25,M,4,3335*41
$GNRMC,113035.300,A,2500.8147543,N,12132.4673831,E,0.00,35.89,260623,,,D,V*3D
$GPHDT,,T*1B
$GNACCURACY,2.9*1D
$GNGGA,113035.400,2500.8147483,N,12132.4673771,E,2,65,0.42,18.688,M,15.25,M,4,3335*4D
$GNRMC,113035.400,A,2500.8147483,N,12132.4673771,E,0.00,35.89,260623,,,D,V*3C
$GPHDT,276.323,T*34
$GNACCURACY,3.0*15
$GNGGA,113035.500,2500.8147483,N,12132.4673711,E,2,65,0.42,18.687,M,15.25,M,4,3335*45
$GNRMC,113035.500,A,2500.8147483,N,12132.4673711,E,0.01,35.89,260623,,,D,V*3A
$GPHDT,,T*1B
$GNACCURACY,3.0*15
$GNGGA,113035.600,2500.8147423,N,12132.4673651,E,2,65,0.42,18.683,M,15.25,M,4,3335*4D
$GNRMC,113035.600,A,2500.8147423,N,12132.4673651,E,0.01,35.89,260623,,,D,V*36
$GPHDT,275.445,T*30
$GNACCURACY,3.0*15
$GNGGA,113035.700,2500.8147303,N,12132.4673591,E,2,65,0.42,18.676,M,15.25,M,4,3335*4C
$GNRMC,113035.700,A,2500.8147303,N,12132.4673591,E,0.01,35.89,260623,,,D,V*3D
$GPHDT,,T*1B
$GNACCURACY,3.0*15
$GNGGA,113035.800,2500.8147303,N,12132.4673531,E,2,65,0.42,18.669,M,15.25,M,4,3335*47
$GNRMC,113035.800,A,2500.8147303,N,12132.4673531,E,0.01,35.89,260623,,,D,V*38
$GPHDT,276.024,T*30
$GNACCURACY,3.0*15
$GNGGA,113035.900,2500.8147183,N,12132.4673471,E,2,65,0.42,18.658,M,15.25,M,4,3335*4B
$GNRMC,113035.900,A,2500.8147183,N,12132.4673471,E,0.01,35.89,260623,,,D,V*36
$GPHDT,,T*1B
