$FW : RTK35X,V1.1X0314AS,Lib20210517,1*54
$Tool : LOCOSYS , GNSS Firebird , v1.0.0.19*39
$---------------------------------------------------*2D
E,4,61,0.42,16.000,M,15.25,M,5,3335*4B
$GNRMC,113102.800,A,2500.8147717,N,12132.4690622,E,0.00,35.89,260623,,,R,V*27
$GPHDT,187.516,T*39
$GNACCURACY,2.8*1C
$GNGGA,113102.900,2500.8147692,N,12132.4690610,E,4,60,0.42,15.989,M,15.25,M,5,3335*4D
$GNRMC,113102.900,A,2500.8147692,N,12132.4690610,E,0.02,35.89,260623,,,R,V*29
$GPHDT,,T*1B
$GNACCURACY,2.8*1C
$GNGGA,113103.000,2500.8147717,N,12132.4690630,E,4,60,0.42,16.016,M,15.25,M,6,3335*44
$GNRMC,113103.000,A,2500.8147717,N,12132.4690630,E,0.02,35.89,260623,,,R,V*2F
$GPHDT,187.384,T*34
$GNACCURACY,2.8*1C
$GNGGA,113103.100,2500.8147689,N,12132.4690607,E,4,60,0.42,15.992,M,15.25,M,5,3335*42
$GNRMC,113103.100,A,2500.8147689,N,12132.4690607,E,0.01,35.89,260623,,,R,V*2F
$GPHDT,,T*1B
$GNGSA,A,3,196,24,199,18,23,195,194,12,10,05,32,,0.66,0.42,0.51,1*05
$GNGSA,A,3,80,73,85,86,71,69,79,,,,,,0.66,0.42,0.51,2*08
$GNGSA,A,3,13,08,07,26,30,02,15,03,,,,,0.66,0.42,0.51,3*0E
$GNGSA,A,3,38,08,39,13,16,06,46,09,19,36,35,37,0.66,0.42,0.51,4*08
$GNGSA,A,3,22,20,29,,,,,,,,,,0.66,0.42,0.51,4*0F
$GPGSV,4,1,15,196,75,066,21,24,72,040,32,199,60,167,34,18,57,242,46,1*61
$GPGSV,4,2,15,23,52,340,36,41,38,242,45,15,36,049,,195,33,180,29,1*5A
$GPGSV,4,3,15,194,31,138,31,12,22,140,22,10,19,319,30,05,18,120,27,1*5C
$GPGSV,4,4,15,25,10,175,,32,10,271,28,13,07,058,23,1*52
$GPGSV,2,1,07,196,75,066,36,24,72,040,36,199,60,167,44,18,57,242,47,8*69
$GPGSV,2,2,07,23,52,340,38,194,31,138,25,10,19,319,35,8*67
$GLGSV,3,1,09,80,48,073,18,70,41,013,,73,40,158,37,85,34,244,36,1*7F
$GLGSV,3,2,09,86,27,299,43,71,23,316,40,69,12,076,15,79,10,031,31,1*7F
$GLGSV,3,3,09,84,06,189,,1*4B
$GAGSV,2,1,08,13,55,229,44,08,46,027,22,07,44,305,42,26,33,305,42,7*7F
$GAGSV,2,2,08,30,27,142,24,02,26,084,19,15,21,174,21,03,10,066,14,7*7F
$GAGSV,1,1,04,13,55,229,44,07,44,305,42,26,33,305,44,02,26,084,18,1*7C
$GBGSV,4,1,15,38,83,121,43,08,80,002,38,39,71,286,43,13,69,332,40,1*77
$GBGSV,4,2,15,16,66,260,43,06,65,256,41,46,60,108,44,09,50,240,40,1*72
$GBGSV,4,3,15,19,50,347,35,20,42,065,,36,37,184,32,35,21,267,33,1*72
$GBGSV,4,4,15,37,21,046,28,29,18,210,16,22,12,303,38,1*43
$GBGSV,3,1,10,38,83,121,45,39,71,286,46,46,60,108,43,19,50,347,36,4*73
$GBGSV,3,2,10,20,42,065,15,36,37,184,28,35,21,267,25,37,21,046,27,4*77
$GBGSV,3,3,10,29,18,210,31,22,12,303,36,4*77
$GNACCURACY,2.8*1C
$PAIRSAT,1,35,1,0,200,2,0,200,3,0,200,4,0,200,5,0,201,6,0,200,7,0,200,8,0,200,9,0,200,10,0,221,11,0,200,12,0,201,13,0,201,14,0,200,15,0,201,16,0,200,17,0,200,18,0,221,19,0,200,20,0,200,21,0,200,23,0,221,24,0,221,25,0,200,26,0,200,27,0,200,28,0,200,29,0,200,30,0,200,31,0,200,32,0,221,194,0,621,195,0,621,196,0,620,199,0,621*68
$PAIRSAT,2,23,65,0,200,67,0,200,68,0,200,69,0,201,70,0,201,71,0,201,72,0,200,73,0,201,74,0,200,75,0,200,76,0,200,77,0,200,78,0,200,79,0,201,80,0,201,81,0,200,82,0,200,83,0,200,84,0,200,85,0,201,86,0,201,87,0,200,88,0,200*53
$PAIRSAT,3,23,2,0,1221,3,0,1221,4,0,1200,5,0,200,7,0,1221,8,0,1221,9,0,1200,10,0,1200,11,0,1200,12,0,1200,13,0,1221,15,0,1221,19,0,1200,21,0,1200,24,0,1200,25,0,1200,26,0,1221,27,0,1200,30,0,1221,31,0,1200,33,0,1200,34,0,1200,36,0,1200*6A
$PAIRSAT,4,50,1,0,200,2,0,200,3,0,200,4,0,200,5,0,200,6,0,201,7,0,200,8,0,201,9,0,201,10,0,200,11,0,200,12,0,200,13,0,201,14,0,200,15,0,200,16,0,201,19,0,621,20,0,621,21,0,600,22,0,621,23,0,600,24,0,600,25,0,600,26,0,600,27,0,600,28,0,600,29,0,621,30,0,600,31,0,200,32,0,600,33,0,600,34,0,600,35,0,621,36,0,621,37,0,621,38,0,621,39,0,621,40,0,600,41,0,600,42,0,600,43,0,600,44,0,600,45,0,600,46,0,621,56,0,200,57,0,200,58,0,200,59,0,600,60,0,600,61,0,600*41
$PAIRDGP,10,5,10,12,13,15,18,23,24,25,32*4D
$GNGGA,113103.200,2500.8147737,N,12132.4690600,E,4,60,0.42,16.004,M,15.25,M,5,3335*47
$GNRMC,113103.200,A,2500.8147737,N,12132.4690600,E,0.01,35.89,260623,,,R,V*2F
$GPHDT,187.565,T*3D
$GNACCURACY,2.8*1C
$GNGGA,113103.300,2500.8147712,N,12132.4690594,E,4,60,0.42,16.006,M,15.25,M,5,3335*4D
$GNRMC,113103.300,A,2500.8147712,N,12132.4690594,E,0.02,35.89,260623,,,R,V*24
$GPHDT,,T*1B
$GNACCURACY,2.8*1C
$GNGGA,113103.400,2500.8147705,N,12132.4690617,E,4,60,0.42,16.011,M,15.25,M,5,3335*42
$GNRMC,113103.400,A,2500.8147705,N,12132.4690617,E,0.02,35.89,260623,,,R,V*2D
$GPHDT,187.475,T*3D
$GNACCURACY,2.8*1C
$GNGGA,113103.500,2500.8147707,N,12132.4690587,E,4,60,0.42,16.011,M,15.25,M,2,3335*4C
$GNRMC,113103.500,A,2500.8147707,N,12132.4690587,E,0.01,35.89,260623,,,R,V*27
$GPHDT,,T*1B
$GNACCURACY,2.8*1C
$GNGGA,113103.600,2500.8147785,N,12132.4690630,E,4,60,0.42,16.015,M,15.25,M,2,3335*4E
$GNRMC,113103.600,A,2500.8147785,N,12132.4690630,E,0.02,35.89,260623,,,R,V*22
$GPHDT,187.503,T*3D
$GNACCURACY,2.8*1C
$GNGGA,113103.700,2500.8147798,N,12132.4690616,E,4,60,0.42,16.010,M,15.25,M,2,3335*42
$GNRMC,113103.700,A,2500.8147798,N,12132.4690616,E,0.02,35.89,260623,,,R,V*2B
$GPHDT,,T*1B
$GNACCURACY,2.8*1C
$GNGGA,113103.800,2500.8147686,N,12132.4690640,E,4,59,0.42,16.010,M,15.25,M,0,3335*48
$GNRMC,113103.800,A,2500.8147686,N,12132.4690640,E,0.03,35.89,260623,,,R,V*28
$GPHDT,187.802,T*31
$GNACCURACY,2.8*1C
$GNGGA,113103.900,2500.8147757,N,12132.4690626,E,4,60,0.42,15.985,M,15.25,M,0,3335*48
$GNRMC,113103.900,A,2500.8147757,N,12132.4690626,E,0.03,35.89,260623,,,R,V*24
$GPHDT,,T*1B
$GNACCURACY,2.8*1C
$GNGGA,113104.000,2500.8147773,N,12132.4690636,E,4,60,0.42,15.994,M,15.25,M,1,3335*40
$GNRMC,113104.000,A,2500.8147773,N,12132.4690636,E,0.02,35.89,260623,,,R,V*2C
$GPHDT,187.850,T*36
$GNACCURACY,2.8*1C
$GNGGA,113104.100,2500.8147755,N,12132.4690660,E,4,60,0.42,15.975,M,15.25,M,1,3335*49
$GNRMC,113104.100,A,2500.8147755,N,12132.4690660,E,0.02,35.89,260623,,,R,V*2A
$GPHDT,,T*1B
$GNGSA,A,3,196,24,199,18,23,195,194,12,10,05,32,,0.67,0.42,0.52,1*07
$GNGSA,A,3,80,73,85,86,71,79,,,,,,,0.67,0.42,0.52,2*05
$GNGSA,A,3,13,08,07,26,30,02,15,03,,,,,0.67,0.42,0.52,3*0C
$GNGSA,A,3,38,08,39,13,16,06,46,19,09,36,35,37,0.67,0.42,0.52,4*0A
$GNGSA,A,3,22,20,29,,,,,,,,,,0.67,0.42,0.52,4*0D
$GPGSV,4,1,15,196,75,066,23,24,72,040,30,199,60,167,34,18,57,242,46,1*61
$GPGSV,4,2,15,23,52,340,36,41,38,242,45,15,36,049,,195,33,180,29,1*5A
$GPGSV,4,3,15,194,31,138,33,12,22,140,20,10,19,319,30,05,18,120,26,1*5D
$GPGSV,4,4,15,25,10,175,,32,10,271,30,13,07,058,23,1*5B
$GPGSV,2,1,08,196,75,066,37,24,72,040,36,199,60,167,44,18,57,242,47,8*67
$GPGSV,2,2,08,23,52,340,39,195,33,180,20,194,31,138,27,10,19,319,35,8*6D
$GLGSV,3,1,09,80,48,073,19,70,41,013,,73,40,158,36,85,34,244,36,1*7F
$GLGSV,3,2,09,86,27,299,43,71,23,316,40,69,12,076,14,79,10,031,30,1*7F
$GLGSV,3,3,09,84,06,189,,1*4B
$GAGSV,3,1,09,13,55,229,44,08,46,027,22,07,44,305,42,26,33,305,42,7*7F
$GAGSV,3,2,09,30,27,142,23,02,26,084,21,15,21,174,21,03,10,066,14,7*73
$GAGSV,3,3,09,27,02,187,,7*43
$GAGSV,1,1,03,13,55,229,44,07,44,305,43,26,33,305,44,1*49
$GBGSV,4,1,15,38,83,121,42,08,80,002,38,39,71,286,43,13,69,332,41,1*77
$GBGSV,4,2,15,16,66,260,43,06,65,256,41,46,60,108,45,19,50,347,35,1*76
$GBGSV,4,3,15,09,50,240,40,20,42,065,,36,37,184,33,35,21,267,32,1*77
$GBGSV,4,4,15,37,21,046,29,29,18,210,15,22,12,303,38,1*41
$GBGSV,3,1,10,38,83,121,44,39,71,286,46,46,60,108,47,19,50,347,36,4*76
$GBGSV,3,2,10,20,42,065,19,36,37,184,28,35,21,267,26,37,21,046,28,4*77
$GBGSV,3,3,10,29,18,210,31,22,12,303,37,4*76
$GNACCURACY,2.8*1C
$PAIRSAT,1,35,1,0,200,2,0,200,3,0,200,4,0,200,5,0,201,6,0,200,7,0,200,8,0,200,9,0,200,10,0,221,11,0,200,12,0,201,13,0,201,14,0,200,15,0,201,16,0,200,17,0,200,18,0,221,19,0,200,20,0,200,21,0,200,23,0,221,24,0,221,25,0,200,26,0,200,27,0,200,28,0,200,29,0,200,30,0,200,31,0,200,32,0,221,194,0,621,195,0,621,196,0,620,199,0,621*68
$PAIRSAT,2,23,65,0,200,67,0,200,68,0,200,69,0,201,70,0,201,71,0,201,72,0,200,73,0,201,74,0,200,75,0,200,76,0,200,77,0,200,78,0,200,79,0,201,80,0,201,81,0,200,82,0,200,83,0,200,84,0,200,85,0,201,86,0,201,87,0,200,88,0,200*53
$PAIRSAT,3,23,2,0,1221,3,0,1221,4,0,1200,5,0,200,7,0,1221,8,0,1221,9,0,1200,10,0,1200,11,0,1200,12,0,1200,13,0,1221,15,0,1221,19,0,1200,21,0,1200,24,0,1200,25,0,1200,26,0,1221,27,0,1200,30,0,1221,31,0,1200,33,0,1200,34,0,1200,36,0,1200*6A
$PAIRSAT,4,50,1,0,200,2,0,200,3,0,200,4,0,200,5,0,200,6,0,201,7,0,200,8,0,201,9,0,201,10,0,200,11,0,200,12,0,200,13,0,201,14,0,200,15,0,200,16,0,201,19,0,621,20,0,621,21,0,600,22,0,621,23,0,600,24,0,600,25,0,600,26,0,600,27,0,600,28,0,600,29,0,621,30,0,600,31,0,200,32,0,600,33,0,600,34,0,600,35,0,621,36,0,621,37,0,621,38,0,621,39,0,621,40,0,600,41,0,600,42,0,600,43,0,600,44,0,600,45,0,600,46,0,621,56,0,200,57,0,200,58,0,200,59,0,600,60,0,600,61,0,600*41
$PAIRDGP,10,5,10,12,13,15,18,23,24,25,32*4D
$GNGGA,113104.200,2500.8147762,N,12132.4690659,E,4,59,0.42,15.969,M,15.25,M,1,3335*43
$GNRMC,113104.200,A,2500.8147762,N,12132.4690659,E,0.02,35.89,260623,,,R,V*27
$GPHDT,187.585,T*33
$GNACCURACY,2.8*1C
$GNGGA,113104.300,2500.8147762,N,12132.4690655,E,4,59,0.42,15.984,M,15.25,M,1,3335*4D
$GNRMC,113104.300,A,2500.8147762,N,12132.4690655,E,0.03,35.89,260623,,,R,V*2B
$GPHDT,,T*1B
$GNACCURACY,2.8*1C
$GNGGA,113104.400,2500.8147753,N,12132.4690634,E,4,59,0.42,15.983,M,15.25,M,1,3335*48
$GNRMC,113104.400,A,2500.8147753,N,12132.4690634,E,0.03,35.89,260623,,,R,V*29
$GPHDT,187.775,T*3E
$GNACCURACY,2.8*1C
$GNGGA,113104.500,2500.8147787,N,12132.4690668,E,4,59,0.42,15.992,M,15.25,M,1,3335*49
$GNRMC,113104.500,A,2500.8147787,N,12132.4690668,E,0.03,35.89,260623,,,R,V*28
$GPHDT,,T*1B
$GNACCURACY,2.8*1C
$GNGGA,113104.600,2500.8147780,N,12132.4690619,E,4,59,0.42,16.002,M,15.25,M,0,3335*49
$GNRMC,113104.600,A,2500.8147780,N,12132.4690619,E,0.03,35.89,260623,,,R,V*2A
$GPHDT,188.073,T*30
$GNACCURACY,2.8*1C
$GNGGA,113104.700,2500.8147783,N,12132.4690610,E,4,59,0.42,15.992,M,15.25,M,0,3335*41
$GNRMC,113104.700,A,2500.8147783,N,12132.4690610,E,0.03,35.89,260623,,,R,V*21
$GPHDT,,T*1B
$GNACCURACY,2.8*1C
$GNGGA,113104.800,2500.8147765,N,12132.4690571,E,4,59,0.42,15.991,M,15.25,M,0,3335*41
$GNRMC,113104.800,A,2500.8147765,N,12132.4690571,E,0.02,35.89,260623,,,R,V*23
$GPHDT,187.321,T*3B
$GNACCURACY,2.8*1C
$GNGGA,113104.900,2500.8147807,N,12132.4690621,E,4,59,0.42,15.992,M,15.25,M,0,3335*4E
$GNRMC,113104.900,A,2500.8147807,N,12132.4690621,E,0.02,35.89,260623,,,R,V*2F
$GPHDT,,T*1B
$GNACCURACY,2.8*1C
$GNGGA,113105.000,2500.8147781,N,12132.4690629,E,4,59,0.42,15.991,M,15.25,M,1,3335*4D
$GNRMC,113105.000,A,2500.8147781,N,12132.4690629,E,0.01,35.89,260623,,,R,V*2D
$GPHDT,187.657,T*3F
$GNACCURACY,2.8*1C
$GNGGA,113105.100,2500.8147772,N,12132.4690573,E,4,59,0.42,15.990,M,15.25,M,1,3335*4D
$GNRMC,113105.100,A,2500.8147772,N,12132.4690573,E,0.01,35.89,260623,,,R,V*2C
$GPHDT,,T*1B
$GNGSA,A,3,196,24,199,18,23,195,194,12,10,05,32,,0.67,0.42,0.52,1*07
$GNGSA,A,3,80,73,85,86,71,79,,,,,,,0.67,0.42,0.52,2*05
$GNGSA,A,3,13,08,07,26,30,02,15,03,,,,,0.67,0.42,0.52,3*0C
$GNGSA,A,3,38,08,39,13,16,06,46,19,09,36,35,37,0.67,0.42,0.52,4*0A
$GNGSA,A,3,22,20,29,,,,,,,,,,0.67,0.42,0.52,4*0D
$GPGSV,4,1,15,196,75,066,20,24,72,040,30,199,60,167,34,18,57,242,46,1*62
$GPGSV,4,2,15,23,52,340,36,41,38,242,45,15,36,049,,195,33,180,30,1*52
$GPGSV,4,3,15,194,31,138,32,12,22,140,18,10,19,319,29,05,18,120,28,1*51
$GPGSV,4,4,15,25,10,175,,32,10,271,26,13,07,058,23,1*5C
$GPGSV,2,1,08,196,75,066,35,24,72,040,36,199,60,167,44,18,57,242,47,8*65
$GPGSV,2,2,08,23,52,340,39,195,33,180,23,194,31,138,26,10,19,319,34,8*6E
$GLGSV,3,1,09,80,48,073,19,70,41,013,,73,40,158,36,85,34,244,35,1*7C
$GLGSV,3,2,09,86,27,299,43,71,23,316,40,69,12,076,12,79,10,031,30,1*79
$GLGSV,3,3,09,84,06,189,,1*4B
$GAGSV,3,1,09,13,55,229,44,08,46,027,23,07,44,305,42,26,33,305,42,7*7E
$GAGSV,3,2,09,30,27,142,22,02,26,083,20,15,21,174,21,03,10,066,14,7*74
$GAGSV,3,3,09,27,02,187,,7*43
$GAGSV,1,1,03,13,55,229,44,07,44,305,43,26,33,305,44,1*49
$GBGSV,4,1,15,38,83,121,43,08,80,002,37,39,71,286,43,13,69,332,41,1*79
$GBGSV,4,2,15,16,66,260,43,06,65,256,41,46,60,108,45,19,50,347,35,1*76
$GBGSV,4,3,15,09,50,240,40,20,42,065,,36,37,184,32,35,21,267,34,1*70
$GBGSV,4,4,15,37,21,046,28,29,18,210,17,22,12,303,38,1*42
$GBGSV,3,1,10,38,83,121,43,39,71,286,46,46,60,108,47,19,50,347,36,4*71
$GBGSV,3,2,10,20,42,065,16,36,37,184,27,35,21,267,24,37,21,046,28,4*75
$GBGSV,3,3,10,29,18,210,31,22,12,303,37,4*76
$GNACCURACY,2.8*1C
$PAIRSAT,1,35,1,0,200,2,0,200,3,0,200,4,0,200,5,0,201,6,0,200,7,0,200,8,0,200,9,0,200,10,0,221,11,0,200,12,0,201,13,0,201,14,0,200,15,0,201,16,0,200,17,0,200,18,0,221,19,0,200,20,0,200,21,0,200,23,0,221,24,0,221,25,0,200,26,0,200,27,0,200,28,0,200,29,0,200,30,0,200,31,0,200,32,0,221,194,0,621,195,0,621,196,0,620,199,0,621*68
$PAIRSAT,2,23,65,0,200,67,0,200,68,0,200,69,0,201,70,0,201,71,0,201,72,0,200,73,0,201,74,0,200,75,0,200,76,0,200,77,0,200,78,0,200,79,0,201,80,0,201,81,0,200,82,0,200,83,0,200,84,0,200,85,0,201,86,0,201,87,0,200,88,0,200*53
$PAIRSAT,3,23,2,0,1221,3,0,1221,4,0,1200,5,0,200,7,0,1221,8,0,1221,9,0,1200,10,0,1200,11,0,1200,12,0,1200,13,0,1221,15,0,1221,19,0,1200,21,0,1200,24,0,1200,25,0,1200,26,0,1221,27,0,1200,30,0,1221,31,0,1200,33,0,1200,34,0,1200,36,0,1200*6A
$PAIRSAT,4,50,1,0,200,2,0,200,3,0,200,4,0,200,5,0,200,6,0,201,7,0,200,8,0,201,9,0,201,10,0,200,11,0,200,12,0,200,13,0,201,14,0,200,15,0,200,16,0,201,19,0,621,20,0,621,21,0,600,22,0,621,23,0,600,24,0,600,25,0,600,26,0,600,27,0,600,28,0,600,29,0,621,30,0,600,31,0,200,32,0,600,33,0,600,34,0,600,35,0,621,36,0,621,37,0,621,38,0,621,39,0,621,40,0,600,41,0,600,42,0,600,43,0,600,44,0,600,45,0,600,46,0,621,56,0,200,57,0,200,58,0,200,59,0,600,60,0,600,61,0,600*41
$PAIRDGP,10,5,10,12,13,15,18,23,24,25,32*4D
$GNGGA,113105.200,2500.8147789,N,12132.4690622,E,4,59,0.42,15.985,M,15.25,M,1,3335*49
$GNRMC,113105.200,A,2500.8147789,N,12132.4690622,E,0.01,35.89,260623,,,R,V*2C
$GPHDT,187.818,T*3A
$GNACCURACY,2.8*1C
$GNGGA,113105.300,2500.8147782,N,12132.4690619,E,4,59,0.42,15.997,M,15.25,M,1,3335*48
$GNRMC,113105.300,A,2500.8147782,N,12132.4690619,E,0.00,35.89,260623,,,R,V*2F
$GPHDT,,T*1B
$GNACCURACY,2.8*1C
$GNGGA,113105.400,2500.8147785,N,12132.4690623,E,4,59,0.42,15.987,M,15.25,M,1,3335*40
$GNRMC,113105.400,A,2500.8147785,N,12132.4690623,E,0.01,35.89,260623,,,R,V*27
$GPHDT,187.715,T*38
$GNACCURACY,2.8*1C
$GNGGA,113105.500,2500.8147770,N,12132.4690603,E,4,60,0.42,15.988,M,15.25,M,1,3335*4C
$GNRMC,113105.500,A,2500.8147770,N,12132.4690603,E,0.01,35.89,260623,,,R,V*2E
$GPHDT,,T*1B
$GNACCURACY,2.8*1C
$GNGGA,113105.600,2500.8147798,N,12132.4690602,E,4,60,0.42,15.991,M,15.25,M,1,3335*40
$GNRMC,113105.600,A,2500.8147798,N,12132.4690602,E,0.02,35.89,260623,,,R,V*29
$GPHDT,187.840,T*37
$GNACCURACY,2.8*1C
$GNGGA,113105.700,2500.8147782,N,12132.4690598,E,4,60,0.42,15.991,M,15.25,M,1,3335*4A
$GNRMC,113105.700,A,2500.8147782,N,12132.4690598,E,0.01,35.89,260623,,,R,V*20
$GPHDT,,T*1B
$GNACCURACY,2.8*1C
$GNGGA,113105.800,2500.8147765,N,12132.4690610,E,4,60,0.42,15.983,M,15.25,M,1,3335*4C
$GNRMC,113105.800,A,2500.8147765,N,12132.4690610,E,0.01,35.89,260623,,,R,V*25
$GPHDT,187.681,T*34
$GNACCURACY,2.8*1C
$GNGGA,113105.900,2500.8147783,N,12132.4690634,E,4,60,0.42,15.992,M,15.25,M,1,3335*43
$GNRMC,113105.900,A,2500.8147783,N,12132.4690634,E,0.01,35.89,260623,,,R,V*2A
$GPHDT,,T*1B
$GNACCURACY,2.8*1C
$GNGGA,113106.000,2500.8147770,N,12132.4690622,E,4,60,0.42,15.996,M,15.25,M,2,3335*45
$GNRMC,113106.000,A,2500.8147770,N,12132.4690622,E,0.00,35.89,260623,,,R,V*2A
$GPHDT,187.682,T*37
$GNACCURACY,2.8*1C
$GNGGA,113106.100,2500.8147798,N,12132.4690610,E,4,60,0.42,16.004,M,15.25,M,2,3335*42
$GNRMC,113106.100,A,2500.8147798,N,12132.4690610,E,0.00,35.89,260623,,,R,V*2C
$GPHDT,,T*1B
$GNGSA,A,3,196,24,199,18,23,15,195,194,12,10,05,32,0.67,0.42,0.52,1*03
$GNGSA,A,3,80,73,85,86,71,79,,,,,,,0.67,0.42,0.52,2*05
$GNGSA,A,3,13,08,07,26,30,02,15,03,,,,,0.67,0.42,0.52,3*0C
$GNGSA,A,3,38,08,39,13,16,06,46,19,09,36,35,37,0.67,0.42,0.52,4*0A
$GNGSA,A,3,22,20,29,,,,,,,,,,0.67,0.42,0.52,4*0D
$GPGSV,4,1,15,196,75,066,18,24,72,040,30,199,60,167,34,18,57,242,46,1*69
$GPGSV,4,2,15,23,52,340,36,41,38,242,45,15,36,049,27,195,33,180,31,1*56
$GPGSV,4,3,15,194,31,138,31,12,22,140,20,10,19,319,30,05,18,120,27,1*5E
$GPGSV,4,4,15,25,10,175,,32,10,271,26,13,07,058,23,1*5C
$GPGSV,2,1,08,196,75,066,35,24,72,040,36,199,60,167,44,18,57,242,47,8*65
$GPGSV,2,2,08,23,52,340,39,195,33,180,22,194,31,138,26,10,19,319,35,8*6E
$GLGSV,3,1,09,80,48,073,19,70,41,013,,73,40,158,36,85,34,244,35,1*7C
$GLGSV,3,2,09,86,27,299,43,71,23,316,40,69,12,076,13,79,10,031,30,1*78
$GLGSV,3,3,09,84,06,189,,1*4B
$GAGSV,3,1,09,13,55,229,44,08,46,027,21,07,44,305,42,26,33,305,42,7*7C
$GAGSV,3,2,09,30,27,142,23,02,26,083,21,15,21,174,21,03,10,066,14,7*74
$GAGSV,3,3,09,27,02,187,,7*43
$GAGSV,1,1,04,13,55,229,44,08,46,027,20,07,44,305,43,26,33,305,44,1*73
$GBGSV,4,1,15,38,83,121,43,08,80,002,37,39,71,286,43,13,69,332,41,1*79
$GBGSV,4,2,15,16,66,260,43,06,65,256,41,46,60,108,45,19,50,347,34,1*77
$GBGSV,4,3,15,09,50,240,40,20,42,065,,36,37,184,32,35,21,267,34,1*70
$GBGSV,4,4,15,37,21,046,28,29,18,210,20,22,12,303,38,1*46
$GBGSV,3,1,10,38,83,121,44,39,71,286,46,46,60,108,47,19,50,347,36,4*76
$GBGSV,3,2,10,20,42,065,13,36,37,184,28,35,21,267,26,37,21,046,28,4*7D
$GBGSV,3,3,10,29,18,210,31,22,12,303,37,4*76
$GNACCURACY,2.8*1C
$PAIRSAT,1,35,1,0,200,2,0,200,3,0,200,4,0,200,5,0,201,6,0,200,7,0,200,8,0,200,9,0,200,10,0,221,11,0,200,12,0,201,13,0,201,14,0,200,15,0,201,16,0,200,17,0,200,18,0,221,19,0,200,20,0,200,21,0,200,23,0,221,24,0,221,25,0,200,26,0,200,27,0,200,28,0,200,29,0,200,30,0,200,31,0,200,32,0,221,194,0,621,195,0,621,196,0,620,199,0,621*68
$PAIRSAT,2,23,65,0,200,67,0,200,68,0,200,69,0,201,70,0,201,71,0,201,72,0,200,73,0,201,74,0,200,75,0,200,76,0,200,77,0,200,78,0,200,79,0,201,80,0,201,81,0,200,82,0,200,83,0,200,84,0,200,85,0,201,86,0,201,87,0,200,88,0,200*53
$PAIRSAT,3,23,2,0,1221,3,0,1221,4,0,1200,5,0,200,7,0,1221,8,0,1221,9,0,1200,10,0,1200,11,0,1200,12,0,1200,13,0,1221,15,0,1221,19,0,1200,21,0,1200,24,0,1200,25,0,1200,26,0,1221,27,0,1200,30,0,1221,31,0,1200,33,0,1200,34,0,1200,36,0,1200*6A
$PAIRSAT,4,50,1,0,200,2,0,200,3,0,200,4,0,200,5,0,200,6,0,201,7,0,200,8,0,201,9,0,201,10,0,200,11,0,200,12,0,200,13,0,201,14,0,200,15,0,200,16,0,201,19,0,621,20,0,621,21,0,600,22,0,621,23,0,600,24,0,600,25,0,600,26,0,600,27,0,600,28,0,600,29,0,621,30,0,600,31,0,200,32,0,600,33,0,600,34,0,600,35,0,621,36,0,621,37,0,621,38,0,621,39,0,621,40,0,600,41,0,600,42,0,600,43,0,600,44,0,600,45,0,600,46,0,621,56,0,200,57,0,200,58,0,200,59,0,600,60,0,600,61,0,600*41
$PAIRDGP,10,5,10,12,13,15,18,23,24,25,32*4D
$GNGGA,113106.200,2500.8147788,N,12132.4690648,E,4,61,0.42,15.988,M,15.25,M,2,3335*42
$GNRMC,113106.200,A,2500.8147788,N,12132.4690648,E,0.01,35.89,260623,,,R,V*22
$GPHDT,188.320,T*35
$GNACCURACY,2.8*1C
$GNGGA,113106.300,2500.8147772,N,12132.4690595,E,4,62,0.42,15.986,M,15.25,M,2,3335*48
$GNRMC,113106.300,A,2500.8147772,N,12132.4690595,E,0.01,35.89,260623,,,R,V*25
$GPHDT,,T*1B
$GNACCURACY,2.8*1C
$GNGGA,113106.400,2500.8147775,N,12132.4690620,E,4,62,0.42,15.997,M,15.25,M,2,3335*45
$GNRMC,113106.400,A,2500.8147775,N,12132.4690620,E,0.01,35.89,260623,,,R,V*28
$GPHDT,188.190,T*3C
$GNACCURACY,2.8*1C
$GNGGA,113106.500,2500.8147765,N,12132.4690622,E,4,62,0.42,15.989,M,15.25,M,2,3335*48
$GNRMC,113106.500,A,2500.8147765,N,12132.4690622,E,0.00,35.89,260623,,,R,V*2B
$GPHDT,,T*1B
$GNACCURACY,2.8*1C
$GNGGA,113106.600,2500.8147774,N,12132.4690599,E,4,62,0.42,15.996,M,15.25,M,2,3335*46
$GNRMC,113106.600,A,2500.8147774,N,12132.4690599,E,0.01,35.89,260623,,,R,V*2A
$GPHDT,187.633,T*3D
$GNACCURACY,2.7*13
$GNGGA,113106.700,2500.8147765,N,12132.4690646,E,4,62,0.42,15.984,M,15.25,M,2,3335*45
$GNRMC,113106.700,A,2500.8147765,N,12132.4690646,E,0.00,35.89,260623,,,R,V*2B
$GPHDT,,T*1B
$GNACCURACY,2.7*13
$GNGGA,113106.800,2500.8147804,N,12132.4690590,E,4,62,0.42,15.995,M,15.25,M,2,3335*4A
$GNRMC,113106.800,A,2500.8147804,N,12132.4690590,E,0.00,35.89,260623,,,R,V*24
$GPHDT,187.260,T*3F
$GNACCURACY,2.7*13
$GNGGA,113106.900,2500.8147776,N,12132.4690573,E,4,62,0.42,15.991,M,15.25,M,2,3335*48
$GNRMC,113106.900,A,2500.8147776,N,12132.4690573,E,0.00,35.89,260623,,,R,V*22
$GPHDT,,T*1B
$GNACCURACY,2.7*13
$GNGGA,113107.000,2500.8147773,N,12132.4690568,E,4,62,0.42,15.992,M,15.25,M,3,3335*4D
$GNRMC,113107.000,A,2500.8147773,N,12132.4690568,E,0.00,35.89,260623,,,R,V*25
$GPHDT,186.894,T*3F
$GNACCURACY,2.7*13
$GNGGA,113107.100,2500.8147779,N,12132.4690582,E,4,62,0.42,16.002,M,15.25,M,3,3335*41
$GNRMC,113107.100,A,2500.8147779,N,12132.4690582,E,0.00,35.89,260623,,,R,V*2A
$GPHDT,,T*1B
$GNGSA,A,3,196,24,199,18,23,15,195,194,12,10,05,32,0.67,0.42,0.52,1*03
$GNGSA,A,3,80,73,85,86,71,79,,,,,,,0.67,0.42,0.52,2*05
$GNGSA,A,3,13,08,07,26,30,02,15,03,,,,,0.67,0.42,0.52,3*0C
$GNGSA,A,3,38,08,39,13,16,06,46,09,19,36,35,37,0.67,0.42,0.52,4*0A
$GNGSA,A,3,22,20,29,,,,,,,,,,0.67,0.42,0.52,4*0D
$GPGSV,4,1,15,196,75,066,21,24,72,040,31,199,60,167,34,18,57,242,46,1*62
$GPGSV,4,2,15,23,52,340,36,41,38,242,45,15,36,049,27,195,33,180,29,1*5F
$GPGSV,4,3,15,194,31,138,31,12,22,140,24,10,19,319,30,05,18,120,25,1*58
$GPGSV,4,4,15,25,10,175,,32,10,271,26,13,07,058,23,1*5C
$GPGSV,2,1,08,196,75,066,36,24,72,040,36,199,60,167,44,18,57,242,47,8*66
$GPGSV,2,2,08,23,52,340,39,195,33,180,22,194,31,138,26,10,19,319,35,8*6E
$GLGSV,2,1,08,80,48,073,19,70,41,013,,73,40,158,36,85,34,244,36,1*7F
$GLGSV,2,2,08,86,27,299,43,71,23,316,39,69,12,076,09,79,10,031,31,1*7C
$GAGSV,3,1,09,13,55,229,44,08,46,027,20,07,44,305,42,26,33,305,42,7*7D
$GAGSV,3,2,09,30,27,142,24,02,26,083,20,15,21,174,21,03,10,066,14,7*72
$GAGSV,3,3,09,27,02,187,,7*43
$GAGSV,2,1,05,13,55,229,44,08,46,027,17,07,44,305,43,26,33,305,44,1*75
$GAGSV,2,2,05,02,26,083,19,1*45
$GBGSV,4,1,15,38,83,121,42,08,80,002,37,39,71,286,43,13,69,332,41,1*78
$GBGSV,4,2,15,16,66,260,43,06,65,256,41,46,60,108,45,09,50,240,40,1*73
$GBGSV,4,3,15,19,50,347,34,20,42,065,,36,37,184,32,35,21,267,35,1*75
$GBGSV,4,4,15,37,21,046,28,29,18,210,17,22,12,303,38,1*42
$GBGSV,3,1,10,38,83,121,44,39,71,286,46,46,60,108,47,19,50,347,36,4*76
$GBGSV,3,2,10,20,42,065,16,36,37,184,28,35,21,267,26,37,21,046,28,4*78
$GBGSV,3,3,10,29,18,210,31,22,12,303,37,4*76
$GNACCURACY,2.7*13
$PAIRSAT,1,35,1,0,200,2,0,200,3,0,200,4,0,200,5,0,201,6,0,200,7,0,200,8,0,200,9,0,200,10,0,221,11,0,200,12,0,201,13,0,201,14,0,200,15,0,201,16,0,200,17,0,200,18,0,221,19,0,200,20,0,200,21,0,200,23,0,221,24,0,221,25,0,200,26,0,200,27,0,200,28,0,200,29,0,200,30,0,200,31,0,200,32,0,221,194,0,621,195,0,621,196,0,620,199,0,621*68
$PAIRSAT,2,23,65,0,200,67,0,200,68,0,200,69,0,201,70,0,201,71,0,201,72,0,200,73,0,201,74,0,200,75,0,200,76,0,200,77,0,200,78,0,200,79,0,201,80,0,201,81,0,200,82,0,200,83,0,200,84,0,200,85,0,201,86,0,201,87,0,200,88,0,200*53
$PAIRSAT,3,23,2,0,1221,3,0,1221,4,0,1200,5,0,200,7,0,1221,8,0,1221,9,0,1200,10,0,1200,11,0,1200,12,0,1200,13,0,1221,15,0,1221,19,0,1200,21,0,1200,24,0,1200,25,0,1200,26,0,1221,27,0,1200,30,0,1221,31,0,1200,33,0,1200,34,0,1200,36,0,1200*6A
$PAIRSAT,4,50,1,0,200,2,0,200,3,0,200,4,0,200,5,0,200,6,0,201,7,0,200,8,0,201,9,0,201,10,0,200,11,0,200,12,0,200,13,0,201,14,0,200,15,0,200,16,0,201,19,0,621,20,0,621,21,0,600,22,0,621,23,0,600,24,0,600,25,0,600,26,0,600,27,0,600,28,0,600,29,0,621,30,0,600,31,0,200,32,0,600,33,0,600,34,0,600,35,0,621,36,0,621,37,0,621,38,0,621,39,0,621,40,0,600,41,0,600,42,0,600,43,0,600,44,0,600,45,0,600,46,0,621,56,0,200,57,0,200,58,0,200,59,0,600,60,0,600,61,0,600*41
$PAIRDGP,10,5,10,12,13,15,18,23,24,25,32*4D
$GNGGA,113107.200,2500.8147776,N,12132.4690592,E,4,62,0.42,15.994,M,15.25,M,3,3335*49
$GNRMC,113107.200,A,2500.8147776,N,12132.4690592,E,0.01,35.89,260623,,,R,V*26
$GPHDT,187.395,T*34
$GNACCURACY,2.7*13
$GNGGA,113107.300,2500.8147775,N,12132.4690593,E,4,62,0.42,15.990,M,15.25,M,3,3335*4E
$GNRMC,113107.300,A,2500.8147775,N,12132.4690593,E,0.01,35.89,260623,,,R,V*25
$GPHDT,,T*1B
$GNACCURACY,2.7*13
$GNGGA,113107.400,2500.8147778,N,12132.4690582,E,4,62,0.42,15.998,M,15.25,M,3,3335*4C
$GNRMC,113107.400,A,2500.8147778,N,12132.4690582,E,0.01,35.89,260623,,,R,V*2F
$GPHDT,187.440,T*3B
$GNACCURACY,2.7*13
$GNGGA,113107.500,2500.8147764,N,12132.4690591,E,4,62,0.42,15.988,M,15.25,M,3,3335*43
$GNRMC,113107.500,A,2500.8147764,N,12132.4690591,E,0.01,35.89,260623,,,R,V*21
$GPHDT,,T*1B
$GNACCURACY,2.7*13
$GNGGA,113107.600,2500.8147786,N,12132.4690584,E,4,61,0.42,15.989,M,15.25,M,3,3335*4A
$GNRMC,113107.600,A,2500.8147786,N,12132.4690584,E,0.01,35.89,260623,,,R,V*2A
$GPHDT,187.197,T*34
$GNACCURACY,2.7*13
$GNGGA,113107.700,2500.8147777,N,12132.4690591,E,4,61,0.42,15.996,M,15.25,M,3,3335*4F
$GNRMC,113107.700,A,2500.8147777,N,12132.4690591,E,0.01,35.89,260623,,,R,V*21
$GPHDT,,T*1B
$GNACCURACY,2.7*13
$GNGGA,113107.800,2500.8147776,N,12132.4690602,E,4,61,0.42,15.993,M,15.25,M,3,3335*4D
$GNRMC,113107.800,A,2500.8147776,N,12132.4690602,E,0.01,35.89,260623,,,R,V*26
$GPHDT,187.610,T*3C
$GNACCURACY,2.7*13
$GNGGA,113107.900,2500.8147750,N,12132.4690618,E,4,61,0.42,15.991,M,15.25,M,3,3335*41
$GNRMC,113107.900,A,2500.8147750,N,12132.4690618,E,0.01,35.89,260623,,,R,V*28
$GPHDT,,T*1B
$GNACCURACY,2.7*13
$GNGGA,113108.000,2500.8147764,N,12132.4690591,E,4,61,0.42,15.996,M,15.25,M,4,3335*42
$GNRMC,113108.000,A,2500.8147764,N,12132.4690591,E,0.01,35.89,260623,,,R,V*2B
$GPHDT,187.261,T*3E
$GNACCURACY,2.8*1C
$GNGGA,113108.100,2500.8147742,N,12132.4690638,E,4,61,0.42,15.976,M,15.25,M,4,3335*49
$GNRMC,113108.100,A,2500.8147742,N,12132.4690638,E,0.01,35.89,260623,,,R,V*2E
$GPHDT,,T*1B
$GNGSA,A,3,196,24,199,18,23,15,195,194,12,10,32,,0.68,0.42,0.53,1*08
$GNGSA,A,3,80,73,85,86,71,79,,,,,,,0.68,0.42,0.53,2*0B
$GNGSA,A,3,13,08,07,26,30,02,15,03,,,,,0.68,0.42,0.53,3*02
$GNGSA,A,3,38,08,39,13,16,06,46,09,19,36,35,37,0.68,0.42,0.53,4*04
$GNGSA,A,3,22,20,29,,,,,,,,,,0.68,0.42,0.53,4*03
$GPGSV,4,1,15,196,75,066,21,24,72,040,31,199,60,167,34,18,57,242,46,1*62
$GPGSV,4,2,15,23,52,340,36,41,38,242,45,15,36,049,28,195,33,180,29,1*50
$GPGSV,4,3,15,194,31,138,30,12,22,140,25,10,19,319,30,05,18,120,25,1*58
$GPGSV,4,4,15,25,10,175,,32,10,271,26,13,07,058,23,1*5C
$GPGSV,2,1,08,196,75,066,36,24,72,040,36,199,60,167,44,18,57,242,47,8*66
$GPGSV,2,2,08,23,52,340,39,195,33,180,20,194,31,138,24,10,19,319,35,8*6E
$GLGSV,2,1,08,80,48,073,18,70,41,013,,73,40,158,35,85,34,244,36,1*7D
$GLGSV,2,2,08,86,27,299,42,71,23,316,39,69,12,076,15,79,10,031,29,1*79
$GAGSV,3,1,09,13,55,229,44,08,46,027,20,07,44,305,42,26,33,305,42,7*7D
$GAGSV,3,2,09,30,27,142,23,02,26,083,20,15,21,174,21,03,10,066,13,7*72
$GAGSV,3,3,09,27,02,187,,7*43
$GAGSV,2,1,05,13,55,229,44,08,46,027,17,07,44,305,43,26,33,305,44,1*75
$GAGSV,2,2,05,02,26,083,18,1*44
$GBGSV,4,1,15,38,83,121,43,08,80,002,37,39,71,286,43,13,69,332,41,1*79
$GBGSV,4,2,15,16,66,260,43,06,65,256,41,46,60,108,45,09,50,240,40,1*73
$GBGSV,4,3,15,19,50,347,34,20,42,065,,36,37,184,32,35,21,267,34,1*74
$GBGSV,4,4,15,37,21,046,28,29,18,210,14,22,12,303,39,1*40
$GBGSV,3,1,10,38,83,121,44,39,71,286,46,46,60,108,46,19,50,347,36,4*77
$GBGSV,3,2,10,20,42,065,15,36,37,184,27,35,21,267,25,37,21,046,28,4*77
$GBGSV,3,3,10,29,18,210,31,22,12,303,36,4*77
$GNACCURACY,2.8*1C
$PAIRSAT,1,35,1,0,200,2,0,200,3,0,200,4,0,200,5,0,201,6,0,200,7,0,200,8,0,200,9,0,200,10,0,221,11,0,200,12,0,201,13,0,201,14,0,200,15,0,201,16,0,200,17,0,200,18,0,221,19,0,200,20,0,200,21,0,200,23,0,221,24,0,221,25,0,200,26,0,200,27,0,200,28,0,200,29,0,200,30,0,200,31,0,200,32,0,221,194,0,621,195,0,621,196,0,620,199,0,621*68
$PAIRSAT,2,23,65,0,200,67,0,200,68,0,200,69,0,201,70,0,201,71,0,201,72,0,200,73,0,201,74,0,200,75,0,200,76,0,200,77,0,200,78,0,200,79,0,201,80,0,201,81,0,200,82,0,200,83,0,200,84,0,200,85,0,201,86,0,201,87,0,200,88,0,200*53
$PAIRSAT,3,23,2,0,1221,3,0,1221,4,0,1200,5,0,200,7,0,1221,8,0,1221,9,0,1200,10,0,1200,11,0,1200,12,0,1200,13,0,1221,15,0,1221,19,0,1200,21,0,1200,24,0,1200,25,0,1200,26,0,1221,27,0,1200,30,0,1221,31,0,1200,33,0,1200,34,0,1200,36,0,1200*6A
$PAIRSAT,4,50,1,0,200,2,0,200,3,0,200,4,0,200,5,0,200,6,0,201,7,0,200,8,0,201,9,0,201,10,0,200,11,0,200,12,0,200,13,0,201,14,0,200,15,0,200,16,0,201,19,0,621,20,0,621,21,0,600,22,0,621,23,0,600,24,0,600,25,0,600,26,0,600,27,0,600,28,0,600,29,0,621,30,0,600,31,0,200,32,0,600,33,0,600,34,0,600,35,0,621,36,0,621,37,0,621,38,0,621,39,0,621,40,0,600,41,0,600,42,0,600,43,0,600,44,0,600,45,0,600,46,0,621,56,0,200,57,0,200,58,0,200,59,0,600,60,0,600,61,0,600*41
$PAIRDGP,10,5,10,12,13,15,18,23,24,25,32*4D
$GNGGA,113108.200,2500.8147775,N,12132.4690624,E,4,60,0.42,16.004,M,15.25,M,1,3335*48
$GNRMC,113108.200,A,2500.8147775,N,12132.4690624,E,0.01,35.89,260623,,,R,V*24
$GPHDT,187.350,T*3D
$GNACCURACY,2.8*1C
$GNGGA,113108.300,2500.8147755,N,12132.4690655,E,4,59,0.44,15.999,M,15.25,M,1,3335*4F
$GNRMC,113108.300,A,2500.8147755,N,12132.4690655,E,0.02,35.89,260623,,,R,V*22
$GPHDT,,T*1B
$GNACCURACY,2.7*13
$GNGGA,113108.400,2500.8147769,N,12132.4690663,E,4,60,0.43,16.005,M,15.25,M,1,3335*40
$GNRMC,113108.400,A,2500.8147769,N,12132.4690663,E,0.02,35.89,260623,,,R,V*2F
$GPHDT,187.905,T*37
$GNACCURACY,2.7*13
$GNGGA,113108.500,2500.8147783,N,12132.4690654,E,4,60,0.43,16.012,M,15.25,M,1,3335*47
$GNRMC,113108.500,A,2500.8147783,N,12132.4690654,E,0.02,35.89,260623,,,R,V*2E
$GPHDT,,T*1B
$GNACCURACY,2.7*13
$GNGGA,113108.600,2500.8147766,N,12132.4690634,E,4,60,0.43,16.013,M,15.25,M,1,3335*48
$GNRMC,113108.600,A,2500.8147766,N,12132.4690634,E,0.02,35.89,260623,,,R,V*20
$GPHDT,187.701,T*3D
$GNACCURACY,2.7*13
$GNGGA,113108.700,2500.8147790,N,12132.4690667,E,4,60,0.43,16.010,M,15.25,M,1,3335*45
$GNRMC,113108.700,A,2500.8147790,N,12132.4690667,E,0.01,35.89,260623,,,R,V*2D
$GPHDT,,T*1B
$GNACCURACY,2.7*13
$GNGGA,113108.800,2500.8147771,N,12132.4690669,E,4,60,0.43,16.002,M,15.25,M,1,3335*48
$GNRMC,113108.800,A,2500.8147771,N,12132.4690669,E,0.01,35.89,260623,,,R,V*23
$GPHDT,187.801,T*32
$GNACCURACY,2.7*13
$GNGGA,113108.900,2500.8147777,N,12132.4690609,E,4,59,0.44,16.008,M,15.25,M,1,3335*4E
$GNRMC,113108.900,A,2500.8147777,N,12132.4690609,E,0.02,35.89,260623,,,R,V*21
$GPHDT,,T*1B
$GNACCURACY,2.7*13
$GNGGA,113109.000,2500.8147786,N,12132.4690654,E,4,59,0.44,16.012,M,15.25,M,2,3335*48
$GNRMC,113109.000,A,2500.8147786,N,12132.4690654,E,0.01,35.89,260623,,,R,V*2C
$GPHDT,187.747,T*3F
$GNACCURACY,2.7*13
$GNGGA,113109.100,2500.8147820,N,12132.4690652,E,4