$FW : RTK35X,V1.1X0314AS,Lib20210517,1*54
$Tool : LOCOSYS , GNSS Firebird , v1.0.0.19*39
$---------------------------------------------------*2D
V,3,3,09,22,13,303,25,4*4F
$GNACCURACY,2.6*12
$PAIRSAT,1,35,1,0,200,2,0,200,3,0,200,4,0,200,5,0,201,6,0,200,7,0,200,8,0,200,9,0,200,10,0,221,11,0,200,12,0,201,13,0,201,14,0,200,15,0,201,16,0,200,17,0,200,18,0,221,19,0,200,20,0,200,21,0,200,23,0,221,24,0,221,25,0,200,26,0,200,27,0,200,28,0,200,29,0,200,30,0,200,31,0,200,32,0,221,194,0,621,195,0,621,196,0,620,199,0,621*68
$PAIRSAT,2,23,65,0,200,67,0,200,68,0,200,69,0,201,70,0,201,71,0,201,72,0,200,73,0,201,74,0,200,75,0,200,76,0,200,77,0,200,78,0,200,79,0,201,80,0,201,81,0,200,82,0,200,83,0,200,84,0,200,85,0,201,86,0,201,87,0,200,88,0,200*53
$PAIRSAT,3,23,2,0,1221,3,0,1221,4,0,1200,5,0,200,7,0,1221,8,0,1221,9,0,1200,10,0,1200,11,0,1200,12,0,1200,13,0,1221,15,0,1221,19,0,1200,21,0,1200,24,0,1200,25,0,1200,26,0,1221,27,0,1200,30,0,1221,31,0,1200,33,0,1200,34,0,1200,36,0,1200*6A
$PAIRSAT,4,50,1,0,200,2,0,200,3,0,200,4,0,200,5,0,200,6,0,201,7,0,200,8,0,201,9,0,201,10,0,200,11,0,200,12,0,200,13,0,201,14,0,200,15,0,200,16,0,201,19,0,621,20,0,621,21,0,600,22,0,621,23,0,600,24,0,600,25,0,600,26,0,600,27,0,600,28,0,600,29,0,621,30,0,600,31,0,200,32,0,600,33,0,600,34,0,600,35,0,621,36,0,621,37,0,621,38,0,621,39,0,621,40,0,600,41,0,600,42,0,600,43,0,600,44,0,600,45,0,600,46,0,621,56,0,200,57,0,200,58,0,200,59,0,600,60,0,600,61,0,600*41
$PAIRDGP,10,5,10,12,13,15,18,23,24,25,32*4D
$GNGGA,113147.200,2500.8146105,N,12132.4705528,E,2,61,0.45,17.077,M,15.25,M,17,3335*73
$GNRMC,113147.200,A,2500.8146105,N,12132.4705528,E,0.01,35.89,260623,,,D,V*3B
$GPHDT,,T*1B
$GNACCURACY,2.6*12
$GNGGA,113147.300,2500.8146045,N,12132.4705648,E,2,61,0.45,17.071,M,15.25,M,17,3335*74
$GNRMC,113147.300,A,2500.8146045,N,12132.4705648,E,0.00,35.89,260623,,,D,V*3B
$GPHDT,,T*1B
$GNACCURACY,2.6*12
$GNGGA,113147.400,2500.8145985,N,12132.4705768,E,2,61,0.45,17.066,M,15.25,M,17,3335*70
$GNRMC,113147.400,A,2500.8145985,N,12132.4705768,E,0.01,35.89,260623,,,D,V*38
$GPHDT,,T*1B
$GNACCURACY,2.6*12
$GNGGA,113147.500,2500.8145925,N,12132.4705888,E,2,61,0.45,17.061,M,15.25,M,17,3335*7D
$GNRMC,113147.500,A,2500.8145925,N,12132.4705888,E,0.01,35.89,260623,,,D,V*32
$GPHDT,,T*1B
$GNACCURACY,2.6*12
$GNGGA,113147.600,2500.8145925,N,12132.4706008,E,2,61,0.45,17.057,M,15.25,M,17,3335*78
$GNRMC,113147.600,A,2500.8145925,N,12132.4706008,E,0.00,35.89,260623,,,D,V*33
$GPHDT,,T*1B
$GNACCURACY,2.6*12
$GNGGA,113147.700,2500.8145925,N,12132.4706128,E,2,61,0.45,17.054,M,15.25,M,0,3335*4F
$GNRMC,113147.700,A,2500.8145925,N,12132.4706128,E,0.01,35.89,260623,,,D,V*30
$GPHDT,,T*1B
$GNACCURACY,2.6*12
$GNGGA,113147.800,2500.8145865,N,12132.4706188,E,2,61,0.45,17.052,M,15.25,M,0,3335*49
$GNRMC,113147.800,A,2500.8145865,N,12132.4706188,E,0.01,35.89,260623,,,D,V*30
$GPHDT,,T*1B
$GNACCURACY,2.6*12
$GNGGA,113147.900,2500.8145865,N,12132.4706248,E,2,61,0.45,17.046,M,15.25,M,0,3335*42
$GNRMC,113147.900,A,2500.8145865,N,12132.4706248,E,0.00,35.89,260623,,,D,V*3F
$GPHDT,,T*1B
$GNACCURACY,2.6*12
$GNGGA,113148.000,2500.8145805,N,12132.4706428,E,2,61,0.45,17.053,M,15.25,M,1,3335*47
$GNRMC,113148.000,A,2500.8145805,N,12132.4706428,E,0.00,35.89,260623,,,D,V*3F
$GPHDT,,T*1B
$GNACCURACY,2.6*12
$GNGGA,113148.100,2500.8145745,N,12132.4706548,E,2,61,0.45,17.058,M,15.25,M,1,3335*41
$GNRMC,113148.100,A,2500.8145745,N,12132.4706548,E,0.01,35.89,260623,,,D,V*33
$GPHDT,,T*1B
$GNGSA,A,3,196,24,199,18,23,195,194,12,10,05,32,,0.71,0.45,0.54,1*01
$GNGSA,A,3,80,73,85,86,71,69,,,,,,,0.71,0.45,0.54,2*02
$GNGSA,A,3,13,08,07,26,30,02,15,,,,,,0.71,0.45,0.54,3*09
$GNGSA,A,3,38,08,39,13,16,06,46,09,19,36,35,29,0.71,0.45,0.54,4*03
$GNGSA,A,3,22,37,,,,,,,,,,,0.71,0.45,0.54,4*06
$GPGSV,4,1,15,196,75,066,21,24,71,040,31,199,60,167,34,18,57,242,44,1*63
$GPGSV,4,2,15,23,53,340,24,41,38,242,45,15,36,049,,195,33,180,33,1*53
$GPGSV,4,3,15,194,31,138,33,12,22,139,32,10,20,320,34,05,17,120,27,1*5A
$GPGSV,4,4,15,25,11,175,23,32,10,271,31,13,07,058,18,1*52
$GPGSV,3,1,09,196,75,066,37,24,71,040,31,199,60,167,45,18,57,242,47,8*62
$GPGSV,3,2,09,23,53,340,38,195,33,180,25,194,31,138,26,10,20,320,37,8*6B
$GPGSV,3,3,09,32,10,271,20,8*52
$GLGSV,2,1,08,80,48,072,31,70,41,014,,73,41,158,33,85,33,243,34,1*75
$GLGSV,2,2,08,86,27,299,41,71,23,317,36,69,12,076,16,79,09,031,34,1*73
$GAGSV,3,1,09,13,55,229,43,08,46,027,15,07,44,306,39,26,33,305,40,7*71
$GAGSV,3,2,09,30,27,142,24,02,26,083,21,15,21,174,23,03,09,066,20,7*7E
$GAGSV,3,3,09,25,02,041,,7*4A
$GAGSV,2,1,08,13,55,229,45,08,46,027,24,07,44,306,44,26,33,305,42,1*7B
$GAGSV,2,2,08,30,27,142,23,02,26,083,12,15,21,174,23,03,09,066,14,1*78
$GBGSV,4,1,15,38,83,122,43,08,80,002,37,39,71,286,39,13,69,332,39,1*78
$GBGSV,4,2,15,16,66,261,42,06,65,257,40,46,61,107,45,09,50,240,38,1*72
$GBGSV,4,3,15,19,50,348,28,20,42,066,25,36,37,184,35,37,21,046,,1*71
$GBGSV,4,4,15,35,20,266,39,29,17,210,24,22,13,303,44,1*44
$GBGSV,3,1,09,38,83,122,43,39,71,286,45,46,61,107,47,19,50,348,36,4*78
$GBGSV,3,2,09,36,37,184,28,37,21,046,23,35,20,266,26,29,17,210,30,4*76
$GBGSV,3,3,09,22,13,303,23,4*49
$GNACCURACY,2.6*12
$PAIRSAT,1,35,1,0,200,2,0,200,3,0,200,4,0,200,5,0,201,6,0,200,7,0,200,8,0,200,9,0,200,10,0,221,11,0,200,12,0,201,13,0,201,14,0,200,15,0,201,16,0,200,17,0,200,18,0,221,19,0,200,20,0,200,21,0,200,23,0,221,24,0,221,25,0,200,26,0,200,27,0,200,28,0,200,29,0,200,30,0,200,31,0,200,32,0,221,194,0,621,195,0,621,196,0,620,199,0,621*68
$PAIRSAT,2,23,65,0,200,67,0,200,68,0,200,69,0,201,70,0,201,71,0,201,72,0,200,73,0,201,74,0,200,75,0,200,76,0,200,77,0,200,78,0,200,79,0,201,80,0,201,81,0,200,82,0,200,83,0,200,84,0,200,85,0,201,86,0,201,87,0,200,88,0,200*53
$PAIRSAT,3,23,2,0,1221,3,0,1221,4,0,1200,5,0,200,7,0,1221,8,0,1221,9,0,1200,10,0,1200,11,0,1200,12,0,1200,13,0,1221,15,0,1221,19,0,1200,21,0,1200,24,0,1200,25,0,1200,26,0,1221,27,0,1200,30,0,1221,31,0,1200,33,0,1200,34,0,1200,36,0,1200*6A
$PAIRSAT,4,50,1,0,200,2,0,200,3,0,200,4,0,200,5,0,200,6,0,201,7,0,200,8,0,201,9,0,201,10,0,200,11,0,200,12,0,200,13,0,201,14,0,200,15,0,200,16,0,201,19,0,621,20,0,621,21,0,600,22,0,621,23,0,600,24,0,600,25,0,600,26,0,600,27,0,600,28,0,600,29,0,621,30,0,600,31,0,200,32,0,600,33,0,600,34,0,600,35,0,621,36,0,621,37,0,621,38,0,621,39,0,621,40,0,600,41,0,600,42,0,600,43,0,600,44,0,600,45,0,600,46,0,621,56,0,200,57,0,200,58,0,200,59,0,600,60,0,600,61,0,600*41
$PAIRDGP,10,5,10,12,13,15,18,23,24,25,32*4D
$GNGGA,113148.200,2500.8145685,N,12132.4706728,E,2,62,0.45,17.065,M,15.25,M,1,3335*46
$GNRMC,113148.200,A,2500.8145685,N,12132.4706728,E,0.02,35.89,260623,,,D,V*3A
$GPHDT,,T*1B
$GNACCURACY,2.6*12
$GNGGA,113148.300,2500.8145685,N,12132.4706848,E,2,62,0.45,17.069,M,15.25,M,1,3335*42
$GNRMC,113148.300,A,2500.8145685,N,12132.4706848,E,0.01,35.89,260623,,,D,V*31
$GPHDT,,T*1B
$GNACCURACY,2.6*12
$GNGGA,113148.400,2500.8145625,N,12132.4706968,E,2,63,0.45,17.078,M,15.25,M,1,3335*4D
$GNRMC,113148.400,A,2500.8145625,N,12132.4706968,E,0.02,35.89,260623,,,D,V*3C
$GPHDT,,T*1B
$GNACCURACY,2.6*12
$GNGGA,113148.500,2500.8145625,N,12132.4707088,E,2,64,0.45,17.086,M,15.25,M,1,3335*4C
$GNRMC,113148.500,A,2500.8145625,N,12132.4707088,E,0.02,35.89,260623,,,D,V*3B
$GPHDT,,T*1B
$GNACCURACY,2.6*12
$GNGGA,113148.600,2500.8145625,N,12132.4707208,E,2,63,0.45,17.094,M,15.25,M,1,3335*41
$GNRMC,113148.600,A,2500.8145625,N,12132.4707208,E,0.02,35.89,260623,,,D,V*32
$GPHDT,,T*1B
$GNACCURACY,2.6*12
$GNGGA,113148.700,2500.8145625,N,12132.4707328,E,2,64,0.45,17.099,M,15.25,M,1,3335*49
$GNRMC,113148.700,A,2500.8145625,N,12132.4707328,E,0.03,35.89,260623,,,D,V*31
$GPHDT,,T*1B
$GNACCURACY,2.6*12
$GNGGA,113148.800,2500.8145625,N,12132.4707388,E,2,64,0.45,17.109,M,15.25,M,1,3335*44
$GNRMC,113148.800,A,2500.8145625,N,12132.4707388,E,0.02,35.89,260623,,,D,V*35
$GPHDT,,T*1B
$GNACCURACY,2.6*12
$GNGGA,113148.900,2500.8145625,N,12132.4707508,E,2,63,0.45,17.118,M,15.25,M,1,3335*4C
$GNRMC,113148.900,A,2500.8145625,N,12132.4707508,E,0.02,35.89,260623,,,D,V*3A
$GPHDT,,T*1B
$GNACCURACY,2.6*12
$GNGGA,113149.000,2500.8145565,N,12132.4707688,E,2,64,0.45,17.123,M,15.25,M,2,3335*44
$GNRMC,113149.000,A,2500.8145565,N,12132.4707688,E,0.01,35.89,260623,,,D,V*3D
$GPHDT,,T*1B
$GNACCURACY,2.6*12
$GNGGA,113149.100,2500.8145565,N,12132.4707808,E,2,64,0.45,17.118,M,15.25,M,2,3335*4B
$GNRMC,113149.100,A,2500.8145565,N,12132.4707808,E,0.01,35.89,260623,,,D,V*3A
$GPHDT,,T*1B
$GNGSA,A,3,196,24,199,18,23,195,194,12,10,05,32,,0.70,0.45,0.54,1*00
$GNGSA,A,3,80,73,85,86,71,69,,,,,,,0.70,0.45,0.54,2*03
$GNGSA,A,3,13,08,07,26,30,02,15,,,,,,0.70,0.45,0.54,3*08
$GNGSA,A,3,38,08,39,13,16,06,46,09,19,20,36,37,0.70,0.45,0.54,4*09
$GNGSA,A,3,35,29,22,,,,,,,,,,0.70,0.45,0.54,4*0E
$GPGSV,4,1,15,196,75,066,22,24,71,040,32,199,60,167,34,18,57,242,44,1*63
$GPGSV,4,2,15,23,53,340,29,41,38,242,45,15,36,049,,195,33,180,32,1*5F
$GPGSV,4,3,15,194,31,138,33,12,22,139,31,10,20,320,33,05,17,120,27,1*5E
$GPGSV,4,4,15,25,11,175,23,32,10,271,28,13,07,058,18,1*5A
$GPGSV,3,1,09,196,75,066,36,24,71,040,32,199,60,167,45,18,57,242,47,8*60
$GPGSV,3,2,09,23,53,340,40,195,33,180,24,194,31,138,23,10,20,320,35,8*62
$GPGSV,3,3,09,32,10,271,20,8*52
$GLGSV,3,1,09,80,48,072,31,70,41,014,,73,41,158,33,85,33,243,34,1*75
$GLGSV,3,2,09,86,27,299,41,71,23,317,37,69,12,076,19,79,09,031,33,1*7A
$GLGSV,3,3,09,74,05,187,,1*49
$GAGSV,3,1,09,13,55,229,43,08,46,027,17,07,44,306,40,26,33,305,40,7*7D
$GAGSV,3,2,09,30,27,142,25,02,26,083,21,15,21,174,23,03,09,066,19,7*75
$GAGSV,3,3,09,25,02,041,,7*4A
$GAGSV,2,1,08,13,55,229,45,08,46,027,25,07,44,306,41,26,33,305,42,1*7F
$GAGSV,2,2,08,30,27,142,24,02,26,083,12,15,21,174,22,03,09,066,16,1*7C
$GBGSV,5,1,17,38,83,122,43,08,80,002,36,39,71,286,41,13,69,332,39,1*75
$GBGSV,5,2,17,16,66,261,42,06,65,257,41,46,61,107,45,09,50,240,38,1*70
$GBGSV,5,3,17,19,50,348,33,56,47,313,,20,42,066,27,31,37,211,,1*70
$GBGSV,5,4,17,36,37,184,35,37,21,046,25,35,20,266,39,29,17,210,25,1*7C
$GBGSV,5,5,17,22,13,303,44,1*42
$GBGSV,3,1,09,38,83,122,43,39,71,286,45,46,61,107,47,19,50,348,37,4*79
$GBGSV,3,2,09,36,37,184,28,37,21,046,25,35,20,266,24,29,17,210,30,4*72
$GBGSV,3,3,09,22,13,303,23,4*49
$GNACCURACY,2.6*12
$PAIRSAT,1,35,1,0,200,2,0,200,3,0,200,4,0,200,5,0,201,6,0,200,7,0,200,8,0,200,9,0,200,10,0,221,11,0,200,12,0,201,13,0,201,14,0,200,15,0,201,16,0,200,17,0,200,18,0,221,19,0,200,20,0,200,21,0,200,23,0,221,24,0,221,25,0,200,26,0,200,27,0,200,28,0,200,29,0,200,30,0,200,31,0,200,32,0,221,194,0,621,195,0,621,196,0,620,199,0,621*68
$PAIRSAT,2,23,65,0,200,67,0,200,68,0,200,69,0,201,70,0,201,71,0,201,72,0,200,73,0,201,74,0,200,75,0,200,76,0,200,77,0,200,78,0,200,79,0,201,80,0,201,81,0,200,82,0,200,83,0,200,84,0,200,85,0,201,86,0,201,87,0,200,88,0,200*53
$PAIRSAT,3,23,2,0,1221,3,0,1221,4,0,1200,5,0,200,7,0,1221,8,0,1221,9,0,1200,10,0,1200,11,0,1200,12,0,1200,13,0,1221,15,0,1221,19,0,1200,21,0,1200,24,0,1200,25,0,1200,26,0,1221,27,0,1200,30,0,1221,31,0,1200,33,0,1200,34,0,1200,36,0,1200*6A
$PAIRSAT,4,50,1,0,200,2,0,200,3,0,200,4,0,200,5,0,200,6,0,201,7,0,200,8,0,201,9,0,201,10,0,200,11,0,200,12,0,200,13,0,201,14,0,200,15,0,200,16,0,201,19,0,621,20,0,621,21,0,600,22,0,621,23,0,600,24,0,600,25,0,600,26,0,600,27,0,600,28,0,600,29,0,621,30,0,600,31,0,200,32,0,600,33,0,600,34,0,600,35,0,621,36,0,621,37,0,621,38,0,621,39,0,621,40,0,600,41,0,600,42,0,600,43,0,600,44,0,600,45,0,600,46,0,621,56,0,200,57,0,200,58,0,200,59,0,600,60,0,600,61,0,600*41
$PAIRDGP,10,5,10,12,13,15,18,23,24,25,32*4D
$GNGGA,113149.200,2500.8145565,N,12132.4707928,E,2,64,0.45,17.117,M,15.25,M,2,3335*44
$GNRMC,113149.200,A,2500.8145565,N,12132.4707928,E,0.01,35.89,260623,,,D,V*3A
$GPHDT,,T*1B
$GNACCURACY,2.6*12
$GNGGA,113149.300,2500.8145565,N,12132.4708048,E,2,64,0.45,17.114,M,15.25,M,2,3335*46
$GNRMC,113149.300,A,2500.8145565,N,12132.4708048,E,0.01,35.89,260623,,,D,V*3B
$GPHDT,,T*1B
$GNACCURACY,2.6*12
$GNGGA,113149.400,2500.8145565,N,12132.4708108,E,2,64,0.45,17.108,M,15.25,M,2,3335*49
$GNRMC,113149.400,A,2500.8145565,N,12132.4708108,E,0.01,35.89,260623,,,D,V*39
$GPHDT,,T*1B
$GNACCURACY,2.6*12
$GNGGA,113149.500,2500.8145565,N,12132.4708228,E,2,64,0.45,17.102,M,15.25,M,2,3335*43
$GNRMC,113149.500,A,2500.8145565,N,12132.4708228,E,0.01,35.89,260623,,,D,V*39
$GPHDT,,T*1B
$GNACCURACY,2.6*12
$GNGGA,113149.600,2500.8145505,N,12132.4708348,E,2,64,0.45,17.096,M,15.25,M,2,3335*4D
$GNRMC,113149.600,A,2500.8145505,N,12132.4708348,E,0.01,35.89,260623,,,D,V*3B
$GPHDT,,T*1B
$GNACCURACY,2.6*12
$GNGGA,113149.700,2500.8145505,N,12132.4708408,E,2,65,0.43,17.090,M,15.25,M,2,3335*4E
$GNRMC,113149.700,A,2500.8145505,N,12132.4708408,E,0.01,35.89,260623,,,D,V*39
$GPHDT,,T*1B
$GNACCURACY,2.6*12
$GNGGA,113149.800,2500.8145385,N,12132.4708528,E,2,65,0.43,17.097,M,15.25,M,2,3335*4B
$GNRMC,113149.800,A,2500.8145385,N,12132.4708528,E,0.03,35.89,260623,,,D,V*39
$GPHDT,,T*1B
$GNACCURACY,2.6*12
$GNGGA,113149.900,2500.8145445,N,12132.4708648,E,2,65,0.43,17.094,M,15.25,M,2,3335*47
$GNRMC,113149.900,A,2500.8145445,N,12132.4708648,E,0.02,35.89,260623,,,D,V*37
$GPHDT,,T*1B
$GNACCURACY,2.6*12
$GNGGA,113150.000,2500.8145445,N,12132.4708708,E,2,65,0.43,17.089,M,15.25,M,3,3335*4E
$GNRMC,113150.000,A,2500.8145445,N,12132.4708708,E,0.02,35.89,260623,,,D,V*33
$GPHDT,,T*1B
$GNACCURACY,2.6*12
$GNGGA,113150.100,2500.8145445,N,12132.4708828,E,2,64,0.43,17.086,M,15.25,M,3,3335*4C
$GNRMC,113150.100,A,2500.8145445,N,12132.4708828,E,0.02,35.89,260623,,,D,V*3F
$GPHDT,,T*1B
$GNGSA,A,3,196,24,199,18,23,195,194,12,10,05,32,,0.69,0.43,0.54,1*0E
$GNGSA,A,3,80,70,73,85,86,71,69,,,,,,0.69,0.43,0.54,2*0A
$GNGSA,A,3,13,08,07,26,30,02,15,,,,,,0.69,0.43,0.54,3*06
$GNGSA,A,3,38,08,39,13,16,06,46,09,19,20,36,35,0.69,0.43,0.54,4*05
$GNGSA,A,3,29,22,37,,,,,,,,,,0.69,0.43,0.54,4*02
$GPGSV,4,1,15,196,75,066,22,24,71,040,31,199,60,167,34,18,57,242,44,1*60
$GPGSV,4,2,15,23,53,340,29,41,38,242,45,15,36,049,,195,33,180,31,1*5C
$GPGSV,4,3,15,194,31,138,33,12,22,139,31,10,20,320,32,05,17,120,27,1*5F
$GPGSV,4,4,15,25,11,175,,32,10,271,30,13,07,058,18,1*52
$GPGSV,3,1,09,196,75,066,36,24,71,040,30,199,60,167,45,18,57,242,47,8*62
$GPGSV,3,2,09,23,53,340,40,195,33,180,25,194,31,138,22,10,20,320,35,8*62
$GPGSV,3,3,09,32,10,271,20,8*52
$GLGSV,3,1,10,80,48,072,31,70,41,014,17,73,41,158,33,85,33,243,34,1*7B
$GLGSV,3,2,10,86,27,299,41,71,23,317,36,69,12,076,20,79,09,031,33,1*79
$GLGSV,3,3,10,84,06,189,,74,05,187,,1*7B
$GAGSV,2,1,08,13,55,229,43,08,46,027,17,07,44,306,40,26,33,305,41,7*7C
$GAGSV,2,2,08,30,27,142,24,02,26,083,22,15,21,174,22,03,09,066,19,7*76
$GAGSV,2,1,07,13,55,229,45,08,46,027,25,07,44,306,41,26,33,305,42,1*70
$GAGSV,2,2,07,30,27,142,25,15,21,174,22,03,09,066,15,1*4F
$GBGSV,4,1,16,38,83,122,43,08,80,002,36,39,71,286,41,13,69,332,39,1*75
$GBGSV,4,2,16,16,66,261,42,06,65,257,41,46,61,107,45,09,50,240,38,1*70
$GBGSV,4,3,16,19,50,348,33,56,47,313,,20,42,066,27,36,37,184,35,1*7E
$GBGSV,4,4,16,37,21,046,25,35,20,266,39,29,17,210,26,22,13,303,44,1*77
$GBGSV,3,1,09,38,83,122,43,39,71,286,45,46,61,107,47,19,50,348,38,4*76
$GBGSV,3,2,09,36,37,184,28,37,21,046,24,35,20,266,24,29,17,210,30,4*73
$GBGSV,3,3,09,22,13,303,25,4*4F
$GNACCURACY,2.7*13
$PAIRSAT,1,35,1,0,200,2,0,200,3,0,200,4,0,200,5,0,201,6,0,200,7,0,200,8,0,200,9,0,200,10,0,221,11,0,200,12,0,201,13,0,201,14,0,200,15,0,201,16,0,200,17,0,200,18,0,221,19,0,200,20,0,200,21,0,200,23,0,221,24,0,221,25,0,200,26,0,200,27,0,200,28,0,200,29,0,200,30,0,200,31,0,200,32,0,221,194,0,621,195,0,621,196,0,620,199,0,621*68
$PAIRSAT,2,23,65,0,200,67,0,200,68,0,200,69,0,201,70,0,201,71,0,201,72,0,200,73,0,201,74,0,200,75,0,200,76,0,200,77,0,200,78,0,200,79,0,201,80,0,201,81,0,200,82,0,200,83,0,200,84,0,200,85,0,201,86,0,201,87,0,200,88,0,200*53
$PAIRSAT,3,23,2,0,1221,3,0,1221,4,0,1200,5,0,200,7,0,1221,8,0,1221,9,0,1200,10,0,1200,11,0,1200,12,0,1200,13,0,1221,15,0,1221,19,0,1200,21,0,1200,24,0,1200,25,0,1200,26,0,1221,27,0,1200,30,0,1221,31,0,1200,33,0,1200,34,0,1200,36,0,1200*6A
$PAIRSAT,4,50,1,0,200,2,0,200,3,0,200,4,0,200,5,0,200,6,0,201,7,0,200,8,0,201,9,0,201,10,0,200,11,0,200,12,0,200,13,0,201,14,0,200,15,0,200,16,0,201,19,0,621,20,0,621,21,0,600,22,0,621,23,0,600,24,0,600,25,0,600,26,0,600,27,0,600,28,0,600,29,0,621,30,0,600,31,0,200,32,0,600,33,0,600,34,0,600,35,0,621,36,0,621,37,0,621,38,0,621,39,0,621,40,0,600,41,0,600,42,0,600,43,0,600,44,0,600,45,0,600,46,0,621,56,0,200,57,0,200,58,0,200,59,0,600,60,0,600,61,0,600*41
$PAIRDGP,10,5,10,12,13,15,18,23,24,25,32*4D
$GNGGA,113150.200,2500.8145445,N,12132.4708888,E,2,63,0.43,17.084,M,15.25,M,3,3335*40
$GNRMC,113150.200,A,2500.8145445,N,12132.4708888,E,0.02,35.89,260623,,,D,V*36
$GPHDT,,T*1B
$GNACCURACY,2.7*13
$GNGGA,113150.300,2500.8145505,N,12132.4708948,E,2,63,0.43,17.082,M,15.25,M,3,3335*4F
$GNRMC,113150.300,A,2500.8145505,N,12132.4708948,E,0.01,35.89,260623,,,D,V*3C
$GPHDT,,T*1B
$GNACCURACY,2.7*13
$GNGGA,113150.400,2500.8145505,N,12132.4709068,E,2,64,0.43,17.078,M,15.25,M,3,3335*40
$GNRMC,113150.400,A,2500.8145505,N,12132.4709068,E,0.01,35.89,260623,,,D,V*31
$GPHDT,,T*1B
$GNACCURACY,2.7*13
$GNGGA,113150.500,2500.8145505,N,12132.4709128,E,2,64,0.43,17.076,M,15.25,M,3,3335*4A
$GNRMC,113150.500,A,2500.8145505,N,12132.4709128,E,0.01,35.89,260623,,,D,V*35
$GPHDT,,T*1B
$GNACCURACY,2.9*1D
$GNGGA,113150.600,2500.8145565,N,12132.4709128,E,2,64,0.43,17.082,M,15.25,M,3,3335*44
$GNRMC,113150.600,A,2500.8145565,N,12132.4709128,E,0.01,35.89,260623,,,D,V*30
$GPHDT,,T*1B
$GNACCURACY,2.9*1D
$GNGGA,113150.700,2500.8145625,N,12132.4709188,E,2,64,0.43,17.085,M,15.25,M,3,3335*4F
$GNRMC,113150.700,A,2500.8145625,N,12132.4709188,E,0.01,35.89,260623,,,D,V*3C
$GPHDT,,T*1B
$GNACCURACY,2.9*1D
$GNGGA,113150.800,2500.8145685,N,12132.4709248,E,2,64,0.43,17.088,M,15.25,M,3,3335*48
$GNRMC,113150.800,A,2500.8145685,N,12132.4709248,E,0.00,35.89,260623,,,D,V*37
$GPHDT,,T*1B
$GNACCURACY,2.8*1C
$GNGGA,113150.900,2500.8145745,N,12132.4709308,E,2,63,0.43,17.087,M,15.25,M,3,3335*49
$GNRMC,113150.900,A,2500.8145745,N,12132.4709308,E,0.01,35.89,260623,,,D,V*3F
$GPHDT,,T*1B
$GNACCURACY,2.8*1C
$GNGGA,113151.000,2500.8145745,N,12132.4709368,E,2,63,0.43,17.084,M,15.25,M,3,3335*44
$GNRMC,113151.000,A,2500.8145745,N,12132.4709368,E,0.00,35.89,260623,,,D,V*30
$GPHDT,,T*1B
$GNACCURACY,2.8*1C
$GNGGA,113151.100,2500.8145805,N,12132.4709428,E,2,62,0.45,17.084,M,15.25,M,3,3335*4A
$GNRMC,113151.100,A,2500.8145805,N,12132.4709428,E,0.01,35.89,260623,,,D,V*38
$GPHDT,,T*1B
$GNGSA,A,3,196,24,199,18,23,195,194,12,10,05,32,,0.70,0.45,0.54,1*00
$GNGSA,A,3,80,70,73,85,86,71,69,,,,,,0.70,0.45,0.54,2*04
$GNGSA,A,3,13,08,07,26,30,15,,,,,,,0.70,0.45,0.54,3*0A
$GNGSA,A,3,38,08,39,13,16,06,46,19,09,20,36,35,0.70,0.45,0.54,4*0B
$GNGSA,A,3,29,22,37,,,,,,,,,,0.70,0.45,0.54,4*0C
$GPGSV,4,1,15,196,75,066,23,24,71,040,31,199,60,167,34,18,57,242,44,1*61
$GPGSV,4,2,15,23,53,340,30,41,38,242,45,15,36,049,,195,33,180,32,1*57
$GPGSV,4,3,15,194,31,138,33,12,22,139,32,10,20,320,33,05,17,120,26,1*5C
$GPGSV,4,4,15,25,11,175,23,32,10,271,30,13,07,058,18,1*53
$GPGSV,3,1,09,196,75,066,36,24,71,040,32,199,60,167,45,18,57,242,47,8*60
$GPGSV,3,2,09,23,53,340,41,195,33,180,27,194,31,138,23,10,20,320,35,8*60
$GPGSV,3,3,09,32,10,271,23,8*51
$GLGSV,3,1,10,80,48,072,31,70,41,014,16,73,41,158,33,85,33,243,35,1*7B
$GLGSV,3,2,10,86,27,299,41,71,23,317,36,69,12,076,23,79,09,031,31,1*78
$GLGSV,3,3,10,84,06,189,,74,05,187,,1*7B
$GAGSV,3,1,09,13,55,229,43,08,46,027,17,07,44,306,40,26,33,305,41,7*7C
$GAGSV,3,2,09,30,27,142,24,02,26,083,22,15,21,174,20,03,09,066,19,7*74
$GAGSV,3,3,09,27,02,187,,7*43
$GAGSV,2,1,07,13,55,229,45,08,46,027,25,07,44,306,41,26,33,305,42,1*70
$GAGSV,2,2,07,30,27,142,25,15,21,174,24,03,09,066,15,1*49
$GBGSV,4,1,16,38,83,122,43,08,80,002,36,39,71,286,41,13,69,332,39,1*75
$GBGSV,4,2,16,16,66,261,42,06,65,257,41,46,61,107,45,19,50,348,33,1*73
$GBGSV,4,3,16,09,50,240,38,56,47,313,,20,42,066,29,36,37,184,35,1*73
$GBGSV,4,4,16,37,21,046,24,35,20,266,39,29,17,210,27,22,13,303,44,1*77
$GBGSV,3,1,09,38,83,122,43,39,71,286,45,46,61,107,47,19,50,348,39,4*77
$GBGSV,3,2,09,36,37,184,28,37,21,046,26,35,20,266,24,29,17,210,31,4*70
$GBGSV,3,3,09,22,13,303,28,4*42
$GNACCURACY,2.6*12
$PAIRSAT,1,35,1,0,200,2,0,200,3,0,200,4,0,200,5,0,201,6,0,200,7,0,200,8,0,200,9,0,200,10,0,221,11,0,200,12,0,201,13,0,201,14,0,200,15,0,201,16,0,200,17,0,200,18,0,221,19,0,200,20,0,200,21,0,200,23,0,221,24,0,221,25,0,200,26,0,200,27,0,200,28,0,200,29,0,200,30,0,200,31,0,200,32,0,221,194,0,621,195,0,621,196,0,620,199,0,621*68
$PAIRSAT,2,23,65,0,200,67,0,200,68,0,200,69,0,201,70,0,201,71,0,201,72,0,200,73,0,201,74,0,200,75,0,200,76,0,200,77,0,200,78,0,200,79,0,201,80,0,201,81,0,200,82,0,200,83,0,200,84,0,200,85,0,201,86,0,201,87,0,200,88,0,200*53
$PAIRSAT,3,23,2,0,1221,3,0,1221,4,0,1200,5,0,200,7,0,1221,8,0,1221,9,0,1200,10,0,1200,11,0,1200,12,0,1200,13,0,1221,15,0,1221,19,0,1200,21,0,1200,24,0,1200,25,0,1200,26,0,1221,27,0,1200,30,0,1221,31,0,1200,33,0,1200,34,0,1200,36,0,1200*6A
$PAIRSAT,4,50,1,0,200,2,0,200,3,0,200,4,0,200,5,0,200,6,0,201,7,0,200,8,0,201,9,0,201,10,0,200,11,0,200,12,0,200,13,0,201,14,0,200,15,0,200,16,0,201,19,0,621,20,0,621,21,0,600,22,0,621,23,0,600,24,0,600,25,0,600,26,0,600,27,0,600,28,0,600,29,0,621,30,0,600,31,0,200,32,0,600,33,0,600,34,0,600,35,0,621,36,0,621,37,0,621,38,0,621,39,0,621,40,0,600,41,0,600,42,0,600,43,0,600,44,0,600,45,0,600,46,0,621,56,0,200,57,0,200,58,0,200,59,0,600,60,0,600,61,0,600*41
$PAIRDGP,10,5,10,12,13,15,18,23,24,25,32*4D
$GNGGA,113151.200,2500.8145865,N,12132.4709488,E,2,62,0.45,17.086,M,15.25,M,2,3335*46
$GNRMC,113151.200,A,2500.8145865,N,12132.4709488,E,0.01,35.89,260623,,,D,V*37
$GPHDT,,T*1B
$GNACCURACY,2.6*12
$GNGGA,113151.300,2500.8145925,N,12132.4709548,E,2,63,0.45,17.088,M,15.25,M,1,3335*43
$GNRMC,113151.300,A,2500.8145925,N,12132.4709548,E,0.02,35.89,260623,,,D,V*3D
$GPHDT,,T*1B
$GNACCURACY,2.6*12
$GNGGA,113151.400,2500.8145985,N,12132.4709608,E,2,63,0.45,17.087,M,15.25,M,1,3335*46
$GNRMC,113151.400,A,2500.8145985,N,12132.4709608,E,0.02,35.89,260623,,,D,V*37
$GPHDT,,T*1B
$GNACCURACY,2.7*13
$GNGGA,113151.500,2500.8145985,N,12132.4709668,E,2,64,0.43,17.085,M,15.25,M,1,3335*42
$GNRMC,113151.500,A,2500.8145985,N,12132.4709668,E,0.02,35.89,260623,,,D,V*30
$GPHDT,,T*1B
$GNACCURACY,2.7*13
$GNGGA,113151.600,2500.8146045,N,12132.4709728,E,2,64,0.43,17.085,M,15.25,M,1,3335*42
$GNRMC,113151.600,A,2500.8146045,N,12132.4709728,E,0.01,35.89,260623,,,D,V*33
$GPHDT,,T*1B
$GNACCURACY,2.7*13
$GNGGA,113151.700,2500.8146105,N,12132.4709788,E,2,64,0.43,17.084,M,15.25,M,1,3335*4D
$GNRMC,113151.700,A,2500.8146105,N,12132.4709788,E,0.02,35.89,260623,,,D,V*3E
$GPHDT,,T*1B
$GNACCURACY,2.7*13
$GNGGA,113151.800,2500.8146165,N,12132.4709788,E,2,64,0.43,17.081,M,15.25,M,1,3335*41
$GNRMC,113151.800,A,2500.8146165,N,12132.4709788,E,0.02,35.89,260623,,,D,V*37
$GPHDT,,T*1B
$GNACCURACY,2.9*1D
$GNGGA,113151.900,2500.8146165,N,12132.4709848,E,2,64,0.43,17.079,M,15.25,M,1,3335*44
$GNRMC,113151.900,A,2500.8146165,N,12132.4709848,E,0.03,35.89,260623,,,D,V*34
$GPHDT,,T*1B
$GNACCURACY,2.9*1D
$GNGGA,113152.000,2500.8146165,N,12132.4709908,E,2,64,0.43,17.079,M,15.25,M,2,3335*48
$GNRMC,113152.000,A,2500.8146165,N,12132.4709908,E,0.02,35.89,260623,,,D,V*3A
$GPHDT,,T*1B
$GNACCURACY,2.9*1D
$GNGGA,113152.100,2500.8146165,N,12132.4709968,E,2,64,0.43,17.079,M,15.25,M,2,3335*4F
$GNRMC,113152.100,A,2500.8146165,N,12132.4709968,E,0.03,35.89,260623,,,D,V*3C
$GPHDT,,T*1B
$GNGSA,A,3,196,24,199,18,23,195,194,12,10,05,32,,0.69,0.43,0.54,1*0E
$GNGSA,A,3,80,70,73,85,86,71,69,,,,,,0.69,0.43,0.54,2*0A
$GNGSA,A,3,13,08,07,26,30,02,15,,,,,,0.69,0.43,0.54,3*06
$GNGSA,A,3,38,08,39,13,16,06,46,19,09,20,36,37,0.69,0.43,0.54,4*07
$GNGSA,A,3,35,29,22,,,,,,,,,,0.69,0.43,0.54,4*00
$GPGSV,4,1,15,196,75,066,23,24,71,040,30,199,60,167,34,18,57,242,44,1*60
$GPGSV,4,2,15,23,53,340,30,41,38,242,45,15,36,049,,195,33,180,31,1*54
$GPGSV,4,3,15,194,31,138,32,12,22,139,32,10,20,320,33,05,17,120,26,1*5D
$GPGSV,4,4,15,25,11,175,25,32,10,271,28,13,07,058,17,1*53
$GPGSV,3,1,09,196,75,066,36,24,71,040,31,199,60,167,45,18,57,242,47,8*63
$GPGSV,3,2,09,23,53,340,41,195,33,180,27,194,31,138,24,10,20,320,36,8*64
$GPGSV,3,3,09,32,10,271,21,8*53
$GLGSV,3,1,09,80,48,072,31,70,41,014,17,73,41,158,32,85,33,243,35,1*73
$GLGSV,3,2,09,86,27,299,41,71,23,317,37,69,12,076,23,79,09,031,33,1*73
$GLGSV,3,3,09,84,06,189,,1*4B
$GAGSV,3,1,09,13,55,229,43,08,46,027,17,07,44,306,40,26,33,305,41,7*7C
$GAGSV,3,2,09,30,27,142,27,02,26,083,23,15,21,174,20,03,09,066,19,7*76
$GAGSV,3,3,09,27,02,187,,7*43
$GAGSV,2,1,07,13,55,229,45,08,46,027,27,07,44,306,42,26,33,305,42,1*71
$GAGSV,2,2,07,30,27,142,27,15,21,174,24,03,09,066,16,1*48
$GBGSV,4,1,16,38,83,122,43,08,80,002,36,39,71,286,41,13,69,332,39,1*75
$GBGSV,4,2,16,16,66,261,42,06,65,257,41,46,61,107,45,19,50,348,34,1*74
$GBGSV,4,3,16,09,50,240,38,20,42,066,29,36,37,184,35,37,21,046,25,1*70
$GBGSV,4,4,16,35,20,266,39,29,17,210,27,22,13,303,44,07,05,192,,1*7C
$GBGSV,3,1,09,38,83,122,43,39,71,286,45,46,61,107,47,19,50,348,39,4*77
$GBGSV,3,2,09,36,37,184,29,37,21,046,25,35,20,266,24,29,17,210,31,4*72
$GBGSV,3,3,09,22,13,303,26,4*4C
$GNACCURACY,2.9*1D
$PAIRSAT,1,35,1,0,200,2,0,200,3,0,200,4,0,200,5,0,201,6,0,200,7,0,200,8,0,200,9,0,200,10,0,221,11,0,200,12,0,201,13,0,201,14,0,200,15,0,201,16,0,200,17,0,200,18,0,221,19,0,200,20,0,200,21,0,200,23,0,221,24,0,221,25,0,200,26,0,200,27,0,200,28,0,200,29,0,200,30,0,200,31,0,200,32,0,221,194,0,621,195,0,621,196,0,620,199,0,621*68
$PAIRSAT,2,23,65,0,200,67,0,200,68,0,200,69,0,201,70,0,201,71,0,201,72,0,200,73,0,201,74,0,200,75,0,200,76,0,200,77,0,200,78,0,200,79,0,201,80,0,201,81,0,200,82,0,200,83,0,200,84,0,200,85,0,201,86,0,201,87,0,200,88,0,200*53
$PAIRSAT,3,23,2,0,1221,3,0,1221,4,0,1200,5,0,200,7,0,1221,8,0,1221,9,0,1200,10,0,1200,11,0,1200,12,0,1200,13,0,1221,15,0,1221,19,0,1200,21,0,1200,24,0,1200,25,0,1200,26,0,1221,27,0,1200,30,0,1221,31,0,1200,33,0,1200,34,0,1200,36,0,1200*6A
$PAIRSAT,4,50,1,0,200,2,0,200,3,0,200,4,0,200,5,0,200,6,0,201,7,0,200,8,0,201,9,0,201,10,0,200,11,0,200,12,0,200,13,0,201,14,0,200,15,0,200,16,0,201,19,0,621,20,0,621,21,0,600,22,0,621,23,0,600,24,0,600,25,0,600,26,0,600,27,0,600,28,0,600,29,0,621,30,0,600,31,0,200,32,0,600,33,0,600,34,0,600,35,0,621,36,0,621,37,0,621,38,0,621,39,0,621,40,0,600,41,0,600,42,0,600,43,0,600,44,0,600,45,0,600,46,0,621,56,0,200,57,0,200,58,0,200,59,0,600,60,0,600,61,0,600*41
$PAIRDGP,10,5,10,12,13,15,18,23,24,25,32*4D
$GNGGA,113152.200,2500.8146165,N,12132.4710028,E,2,64,0.43,17.079,M,15.25,M,2,3335*49
$GNRMC,113152.200,A,2500.8146165,N,12132.4710028,E,0.02,35.89,260623,,,D,V*3B
$GPHDT,,T*1B
$GNACCURACY,2.9*1D
$GNGGA,113152.300,2500.8146165,N,12132.4710088,E,2,64,0.43,17.080,M,15.25,M,2,3335*44
$GNRMC,113152.300,A,2500.8146165,N,12132.4710088,E,0.03,35.89,260623,,,D,V*31
$GPHDT,,T*1B
$GNACCURACY,2.9*1D
$GNGGA,113152.400,2500.8146165,N,12132.4710148,E,2,64,0.43,17.081,M,15.25,M,2,3335*4F
$GNRMC,113152.400,A,2500.8146165,N,12132.4710148,E,0.03,35.89,260623,,,D,V*3B
$GPHDT,,T*1B
$GNACCURACY,2.9*1D
$GNGGA,113152.500,2500.8146165,N,12132.4710208,E,2,65,0.43,17.082,M,15.25,M,2,3335*4B
$GNRMC,113152.500,A,2500.8146165,N,12132.4710208,E,0.02,35.89,260623,,,D,V*3C
$GPHDT,,T*1B
$GNACCURACY,2.9*1D
$GNGGA,113152.600,2500.8146225,N,12132.4710268,E,2,64,0.43,17.085,M,15.25,M,2,3335*4F
$GNRMC,113152.600,A,2500.8146225,N,12132.4710268,E,0.03,35.89,260623,,,D,V*3F
$GPHDT,,T*1B
$GNACCURACY,2.9*1D
$GNGGA,113152.700,2500.8146225,N,12132.4710328,E,2,65,0.43,17.086,M,15.25,M,2,3335*49
$GNRMC,113152.700,A,2500.8146225,N,12132.4710328,E,0.03,35.89,260623,,,D,V*3B
$GPHDT,,T*1B
$GNACCURACY,2.9*1D
$GNGGA,113152.800,2500.8146225,N,12132.4710328,E,2,65,0.43,17.086,M,15.25,M,2,3335*46
$GNRMC,113152.800,A,2500.8146225,N,12132.4710328,E,0.02,35.89,260623,,,D,V*35
$GPHDT,,T*1B
$GNACCURACY,2.9*1D
$GNGGA,113152.900,2500.8146285,N,12132.4710448,E,2,65,0.43,17.086,M,15.25,M,2,3335*4C
$GNRMC,113152.900,A,2500.8146285,N,12132.4710448,E,0.03,35.89,260623,,,D,V*3E
$GPHDT,,T*1B
$GNACCURACY,2.7*13
$GNGGA,113153.000,2500.8146285,N,12132.4710448,E,2,63,0.43,17.087,M,15.25,M,3,3335*42
$GNRMC,113153.000,A,2500.8146285,N,12132.4710448,E,0.02,35.89,260623,,,D,V*37
$GPHDT,,T*1B
$GNACCURACY,2.7*13
$GNGGA,113153.100,2500.8146345,N,12132.4710508,E,2,64,0.43,17.086,M,15.25,M,3,3335*4D
$GNRMC,113153.100,A,2500.8146345,N,12132.4710508,E,0.02,35.89,260623,,,D,V*3E
$GPHDT,,T*1B
$GNGSA,A,3,196,24,199,18,23,15,195,194,12,10,05,32,0.69,0.43,0.54,1*0A
$GNGSA,A,3,80,70,73,85,86,71,69,,,,,,0.69,0.43,0.54,2*0A
$GNGSA,A,3,13,08,07,26,30,02,15,,,,,,0.69,0.43,0.54,3*06
$GNGSA,A,3,38,08,39,13,16,06,46,19,09,36,37,35,0.69,0.43,0.54,4*03
$GNGSA,A,3,29,22,,,,,,,,,,,0.69,0.43,0.54,4*06
$GPGSV,4,1,15,196,75,066,23,24,71,040,29,199,60,167,34,18,57,242,44,1*68
$GPGSV,4,2,15,23,53,340,30,41,38,242,45,15,36,049,26,195,33,180,31,1*50
$GPGSV,4,3,15,194,31,138,32,12,22,139,32,10,20,320,33,05,17,120,26,1*5D
$GPGSV,4,4,15,25,11,175,24,32,10,271,28,13,07,058,17,1*52
$GPGSV,3,1,09,196,75,066,36,24,71,040,30,199,60,167,44,18,57,242,47,8*63
$GPGSV,3,2,09,23,53,340,41,195,33,180,27,194,31,138,24,10,20,320,36,8*64
$GPGSV,3,3,09,32,10,271,21,8*53
$GLGSV,3,1,09,80,48,072,31,70,41,014,17,73,41,158,32,85,33,243,35,1*73
$GLGSV,3,2,09,86,27,299,41,71,23,317,37,69,12,076,24,79,09,031,33,1*74
$GLGSV,3,3,09,84,06,189,,1*4B
$GAGSV,3,1,09,13,55,229,43,08,46,027,14,07,44,306,40,26,33,305,41,7*7F
$GAGSV,3,2,09,30,27,142,25,02,26,083,24,15,21,174,20,03,09,066,19,7*73
$GAGSV,3,3,09,27,02,187,,7*43
$GAGSV,2,1,07,13,55,229,45,08,46,027,26,07,44,306,41,26,33,305,41,1*70
$GAGSV,2,2,07,30,27,142,27,15,21,174,24,03,09,066,15,1*4B
$GBGSV,4,1,16,38,83,122,42,08,80,002,36,39,71,286,41,13,69,332,39,1*74
$GBGSV,4,2,16,16,66,261,42,06,65,257,41,46,61,107,45,19,50,348,34,1*74
$GBGSV,4,3,16,09,50,240,38,20,42,066,,36,37,184,35,37,21,046,25,1*7B
$GBGSV,4,4,16,35,20,266,39,29,17,210,23,22,13,303,44,10,02,202,,1*73
$GBGSV,3,1,09,38,83,122,43,39,71,286,46,46,61,107,47,19,50,348,39,4*74
$GBGSV,3,2,09,36,37,184,29,37,21,046,25,35,20,266,25,29,17,210,28,4*7B
$GBGSV,3,3,09,22,13,303,29,4*43
$GNACCURACY,2.7*13
$PAIRSAT,1,35,1,0,200,2,0,200,3,0,200,4,0,200,5,0,201,6,0,200,7,0,200,8,0,200,9,0,200,10,0,221,11,0,200,12,0,201,13,0,201,14,0,200,15,0,201,16,0,200,17,0,200,18,0,221,19,0,200,20,0,200,21,0,200,23,0,221,24,0,221,25,0,200,26,0,200,27,0,200,28,0,200,29,0,200,30,0,200,31,0,200,32,0,221,194,0,621,195,0,621,196,0,620,199,0,621*68
$PAIRSAT,2,23,65,0,200,67,0,200,68,0,200,69,0,201,70,0,201,71,0,201,72,0,200,73,0,201,74,0,200,75,0,200,76,0,200,77,0,200,78,0,200,79,0,201,80,0,201,81,0,200,82,0,200,83,0,200,84,0,200,85,0,201,86,0,201,87,0,200,88,0,200*53
$PAIRSAT,3,23,2,0,1221,3,0,1221,4,0,1200,5,0,200,7,0,1221,8,0,1221,9,0,1200,10,0,1200,11,0,1200,12,0,1200,13,0,1221,15,0,1221,19,0,1200,21,0,1200,24,0,1200,25,0,1200,26,0,1221,27,0,1200,30,0,1221,31,0,1200,33,0,1200,34,0,1200,36,0,1200*6A
$PAIRSAT,4,50,1,0,200,2,0,200,3,0,200,4,0,200,5,0,200,6,0,201,7,0,200,8,0,201,9,0,201,10,0,200,11,0,200,12,0,200,13,0,201,14,0,200,15,0,200,16,0,201,19,0,621,20,0,621,21,0,600,22,0,621,23,0,600,24,0,600,25,0,600,26,0,600,27,0,600,28,0,600,29,0,621,30,0,600,31,0,200,32,0,600,33,0,600,34,0,600,35,0,621,36,0,621,37,0,621,38,0,621,39,0,621,40,0,600,41,0,600,42,0,600,43,0,600,44,0,600,45,0,600,46,0,621,56,0,200,57,0,200,58,0,200,59,0,600,60,0,600,61,0,600*41
$PAIRDGP,10,5,10,12,13,15,18,23,24,25,32*4D
$GNGGA,113153.200,2500.8146405,N,12132.4710568,E,2,64,0.43,17.088,M,15.25,M,3,3335*45
$GNRMC,113153.200,A,2500.8146405,N,12132.4710568,E,0.03,35.89,260623,,,D,V*39
$GPHDT,,T*1B
$GNACCURACY,2.6*12
$GNGGA,113153.300,2500.8146465,N,12132.4710628,E,2,65,0.42,17.090,M,15.25,M,3,3335*4C
$GNRMC,113153.300,A,2500.8146465,N,12132.4710628,E,0.04,35.89,260623,,,D,V*3E
$GPHDT,,T*1B
$GNACCURACY,2.6*12
$GNGGA,113153.400,2500.8146525,N,12132.4710688,E,2,64,0.42,17.091,M,15.25,M,3,3335*44
$GNRMC,113153.400,A,2500.8146525,N,12132.4710688,E,0.04,35.89,260623,,,D,V*36
$GPHDT,,T*1B
$GNACCURACY,2.6*12
$GNGGA,113153.500,2500.8146585,N,12132.4710688,E,2,65,0.42,17.091,M,15.25,M,3,3335*4E
$GNRMC,113153.500,A,2500.8146585,N,12132.4710688,E,0.03,35.89,260623,,,D,V*3A
$GPHDT,,T*1B
$GNACCURACY,2.6*12
$GNGGA,113153.600,2500.8146585,N,12132.4710808,E,2,64,0.43,17.090,M,15.25,M,3,3335*4A
$GNRMC,113153.600,A,2500.8146585,N,12132.4710808,E,0.04,35.89,260623,,,D,V*38
$GPHDT,,T*1B
$GNACCURACY,2.6*12
$GNGGA,113153.700,2500.8146585,N,12132.4710868,E,2,63,0.44,17.089,M,15.25,M,3,3335*45
$GNRMC,113153.700,A,2500.8146585,N,12132.4710868,E,0.04,35.89,260623,,,D,V*3F
$GPHDT,,T*1B
$GNACCURACY,2.6*12
$GNGGA,113153.800,2500.8146585,N,12132.4710928,E,2,63,0.44,17.088,M,15.25,M,3,3335*4E
$GNRMC,113153.800,A,2500.8146585,N,12132.4710928,E,0.03,35.89,260623,,,D,V*32
$GPHDT,,T*1B
$GNACCURACY,2.6*12
$GNGGA,113153.900,2500.8146645,N,12132.4710988,E,2,62,0.44,17.087,M,15.25,M,3,3335*44
$GNRMC,113153.900,A,2500.8146645,N,12132.4710988,E,0.04,35.89,260623,,,D,V*31
$GPHDT,,T*1B
$GNACCURACY,2.6*12
$GNGGA,113154.000,2500.8146645,N,12132.4711048,E,2,62,0.44,17.085,M,15.25,M,4,3335*4B
$GNRMC,113154.000,A,2500.8146645,N,12132.4711048,E,0.04,35.89,260623,,,D,V*3B
$GPHDT,,T*1B
$GNACCURACY,2.6*12
$GNGGA,113154.100,2500.8146645,N,12132.4711048,E,2,64,0.43,17.085,M,15.25,M,4,3335*4B
$GNRMC,113154.100,A,2500.8146645,N,12132.4711048,E,0.02,35.89,260623,,,D,V*3C
$GPHDT,,T*1B
$GNGSA,A,3,196,24,199,18,23,15,195,194,12,10,05,32,0.69,0.43,0.54,1*0A
$GNGSA,A,3,80,70,73,85,86,71,69,,,,,,0.69,0.43,0.54,2*0A
$GNGSA,A,3,13,08,07,26,30,02,15,,,,,,0.69,0.43,0.54,3*06
$GNGSA,A,3,38,08,39,13,16,06,46,09,19,36,37,35,0.69,0.43,0.54,4*03
$GNGSA,A,3,29,22,,,,,,,,,,,0.69,0.43,0.54,4*06
$GPGSV,4,1,15,196,75,066,24,24,71,040,29,199,60,167,34,18,57,242,44,1*6F
$GPGSV,4,2,15,23,53,340,29,41,38,242,45,15,36,049,25,195,33,180,32,1*58
$GPGSV,4,3,15,194,31,138,33,12,22,139,32,10,20,320,33,05,17,120,25,1*5F
$GPGSV,4,4,15,25,11,175,24,32,10,271,29,13,07,058,16,1*52
$GPGSV,3,1,09,196,75,066,36,24,71,040,32,199,60,167,44,18,57,242,47,8*61
$GPGSV,3,2,09,23,53,340,41,195,33,180,27,194,31,138,25,10,20,320,36,8*65
$GPGSV,3,3,09,32,10,271,23,8*51
$GLGSV,2,1,08,80,48,072,31,70,41,014,17,73,41,158,32,85,33,243,35,1*73
$GLGSV,2,2,08,86,27,299,41,71,23,317,37,69,12,076,25,79,09,031,34,1*72
$GAGSV,3,1,09,13,55,229,43,08,46,027,14,07,44,306,40,26,33,305,41,7*7F
$GAGSV,3,2,09,30,27,142,25,02,26,083,25,15,21,174,19,03,09,066,19,7*78
$GAGSV,3,3,09,27,02,187,,7*43
$GAGSV,2,1,07,13,55,229,46,08,46,027,28,07,44,306,41,26,33,305,42,1*7E
$GAGSV,2,2,07,30,27,142,27,15,21,174,24,03,09,066,14,1*4A
$GBGSV,4,1,16,38,83,122,42,08,80,002,36,39,71,286,41,13,69,332,39,1*74
$GBGSV,4,2,16,16,66,261,42,06,65,257,41,46,61,107,45,09,50,240,38,1*70
$GBGSV,4,3,16,19,50,348,34,20,42,066,,36,37,184,35,37,21,046,25,1*7F
$GBGSV,4,4,16,35,20,266,39,29,17,210,27,22,13,303,44,32,01,101,,1*74
$GBGSV,3,1,09,38,83,122,43,39,71,286,46,46,61,107,47,19,50,348,39,4*74
$GBGSV,3,2,09,36,37,184,29,37,21,046,25,35,20,266,25,29,17,210,31,4*73
$GBGSV,3,3,09,22,13,303,29,4*43
$GNACCURACY,2.6*12
$PAIRSAT,1,35,1,0,200,2,0,200,3,0,200,4,0,200,5,0,201,6,0,200,7,0,200,8,0,200,9,0,200,10,0,221,11,0,200,12,0,201,13,0,201,14,0,200,15,0,201,16,0,200,17,0,200,18,0,221,19,0,200,20,0,200,21,0,200,23,0,221,24,0,221,25,0,200,26,0,200,27,0,200,28,0,200,29,0,200,30,0,200,31,0,200,32,0,221,194,0,621,195,0,621,196,0,620,199,0,621*68
$PAIRSAT,2,23,65,0,200,67,0,200,68,0,200,69,0,201,70,0,201,71,0,201,72,0,200,73,0,201,74,0,200,75,0,200,76,0,200,77,0,200,78,0,200,79,0,201,80,0,201,81,0,200,82,0,200,83,0,200,84,0,200,85,0,201,86,0,201,87,0,200,88,0,200*53
$PAIRSAT,3,23,2,0,1221,3,0,1221,4,0,1200,5,0,200,7,0,1221,8,0,1221,9,0,1200,10,0,1200,11,0,1200,12,0,1200,13,0,1221,15,0,1221,19,0,1200,21,0,1200,24,0,1200,25,0,1200,26,0,1221,27,0,1200,30,0,1221,31,0,1200,33,0,1200,34,0,1200,36,0,1200*6A
$PAIRSAT,4,50,1,0,200,2,0,200,3,0,200,4,0,200,5,0,200,6,0,201,7,0,200,8,0,201,9,0,201,10,0,200,11,0,200,12,0,200,13,0,201,14,0,200,15,0,200,16,0,201,19,0,621,20,0,621,21,0,600,22,0,621,23,0,600,24,0,600,25,0,600,26,0,600,27,0,600,28,0,600,29,0,621,30,0,600,31,0,200,32,0,600,33,0,600,34,0,600,35,0,621,36,0,621,37,0,621,38,0,621,39,0,621,40,0,600,41,0,600,42,0,600,43,0,600,44,0,600,45,0,600,46,0,621,56,0,200,57,0,200,58,0,200,59,0,600,60,0,600,61,0,600*41
$PAIRDGP,10,5,10,12,13,15,18,23,24,25,32*4D
$GNGGA,113154.200,2500.8146645,N,12132.4711108,E,2,64,0.43,17.083,M,15.25,M,4,3335*4B
$GNRMC,113154.200,A,2500.8146645,N,12132.4711108,E,0.02,35.89,260623,,,D,V*3A
$GPHDT,,T*1B
$GNACCURACY,2.6*12
$GNGGA,113154.300,2500.8146645,N,12132.4711168,E,2,64,0.43,17.080,M,15.25,M,1,3335*4A
$GNRMC,113154.300,A,2500.8146645,N,12132.4711168,E,0.03,35.89,260623,,,D,V*3C
$GPHDT,,T*1B
$GNACCURACY,2.6*12
$GNGGA,113154.400,2500.8146645,N,12132.4711228,E,2,64,0.43,17.078,M,15.25,M,1,3335*4D
$GNRMC,113154.400,A,2500.8146645,N,12132.4711228,E,0.03,35.89,260623,,,D,V*3C
$GPHDT,,T*1B
$GNACCURACY,2.6*12
$GNGGA,113154.500,2500.8146645,N,12132.4711288,E,2,63,0.43,17.075,M,15.25,M,1,3335*4C
$GNRMC,113154.500,A,2500.8146645,N,12132.4711288,E,0.03,35.89,260623,,,D,V*37
$GPHDT,,T*1B
$GNACCURACY,2.6*12
$GNGGA,113154.600,2500.8146585,N,12132.4711408,E,2,63,0.43,17.076,M,15.25,M,1,3335*4D
$GNRMC,113154.600,A,2500.8146585,N,12132.4711408,E,0.03,35.89,260623,,,D,V*35
$GPHDT,,T*1B
$GNACCURACY,2.6*12
$GNGGA,113154.700,2500.8146585,N,12132.4711468,E,2,63,0.44,17.078,M,15.25,M,1,3335*43
$GNRMC,113154.700,A,2500.8146585,N,12132.4711468,E,0.03,35.89,260623,,,D,V*32
$GPHDT,,T*1B
$GNACCURACY,2.6*12
$GNGGA,113154.800,2500.8146585,N,12132.4711528,E,2,63,0.44,17.077,M,15.25,M,1,3335*46
$GNRMC,113154.800,A,2500.8146585,N,12132.4711528,E,0.02,35.89,260623,,,D,V*39
$GPHDT,,T*1B
$GNACCURACY,2.6*12
$GNGGA,113154.900,2500.8146645,N,12132.4711588,E,2,64,0.43,17.075,M,15.25,M,1,3335*40
$GNRMC,113154.900,A,2500.8146645,N,12132.4711588,E,0.03,35.89,260623,,,D,V*3C
$GPHDT,,T*1B
$GNACCURACY,2.6*12
$GNGGA,113155.000,2500.8146645,N,12132.4711648,E,2,64,0.43,17.075,M,15.25,M,2,3335*44
$GNRMC,113155.000,A,2500.8146645,N,12132.4711648,E,0.03,35.89,260623,,,D,V*3B
$GPHDT,,T*1B
$GNACCURACY,2.6*12
$GNGGA,113155.100,2500.8146645,N,12132.4711708,E,2,65,0.42,17.075,M,15.25,M,2,3335*40
$GNRMC,113155.100,A,2500.8146645,N,12132.4711708,E,0.03,35.89,260623,,,D,V*3F
$GPHDT,,T*1B
$GNGSA,A,3,196,24,199,18,23,15,195,194,12,10,05,32,0.69,0.42,0.54,1*0B
$GNGSA,A,3,80,70,73,85,86,71,69,,,,,,0.69,0.42,0.54,2*0B
$GNGSA,A,3,13,08,07,26,30,02,15,,,,,,0.69,0.42,0.54,3*07
$GNGSA,A,3,38,08,39,13,16,06,46,19,09,20,36,37,0.69,0.42,0.54,4*06
$GNGSA,A,3,35,29,22,,,,,,,,,,0.69,0.42,0.54,4*01
$GPGSV,4,1,15,196,75,066,24,24,71,040,29,199,60,167,34,18,57,242,44,1*6F
$GPGSV,4,2,15,23,53,340,29,41,38,242,45,15,36,049,25,195,33,180,31,1*5B
$GPGSV,4,3,15,194,31,138,33,12,22,139,32,10,20,320,33,05,17,120,25,1*5F
$GPGSV,4,4,15,25,11,175,24,32,10,271,29,13,07,058,14,1*50
$GPGSV,3,1,09,196,75,066,36,24,71,040,30,199,60,167,44,18,57,242,47,8*63
$GPGSV,3,2,09,23,53,340,41,195,33,180,25,194,31,138,25,10,20,320,36,8*67
$GPGSV,3,3,09,32,10,271,23,8*51
$GLGSV,3,1,09,80,48,072,31,70,41,014,17,73,41,158,32,85,33,243,35,1*73
$GLGSV,3,2,09,86,27,299,41,71,23,317,38,69,12,076,25,79,09,031,34,1*7D
$GLGSV,3,3,09,84,06,189,,1*4B
$GAGSV,3,1,09,13,54,229,43,08,46,027,17,07,44,306,40,26,33,305,41,7*7D
$GAGSV,3,2,09,30,27,142,26,02,26,083,25,15,21,174,20,03,09,066,19,7*71
$GAGSV,3,3,09,27,02,187,,7*43
$GAGSV,2,1,07,13,54,229,46,08,46,027,28,07,44,306,41,26,33,305,42,1*7F
$GAGSV,2,2,07,30,27,142,27,15,21,174,24,03,09,066,11,1*4F
$GBGSV,4,1,15,38,83,122,42,08,80,002,36,39,71,286,41,13,69,332,39,1*77
$GBGSV,4,2,15,16,66,261,42,06,65,257,41,46,61,107,45,19,50,348,34,1*77
$GBGSV,4,3,15,09,50,240,38,20,42,066,28,36,37,184,35,37,21,046,24,1*73
$GBGSV,4,4,15,35,20,266,39,29,17,210,27,22,13,303,44,1*47
$GBGSV,3,1,09,38,83,122,43,39,71,286,46,46,61,107,47,19,50,348,39,4*74
$GBGSV,3,2,09,36,37,184,29,37,21,046,24,35,20,266,25,29,17,210,30,4*73
$GBGSV,3,3,09,22,13,303,29,4*43
$GNACCURACY,2.7*13
$PAIRSAT,1,35,1,0,200,2,0,200,3,0,200,4,0,200,5,0,201,6,0,200,7,0,200,8,0,200,9,0,200,10,0,221,11,0,200,12,0,201,13,0,201,14,0,200,15,0,201,16,0,200,17,0,200,18,0,221,19,0,200,20,0,200,21,0,200,23,0,221,24,0,221,25,0,200,26,0,200,27,0,200,28,0,200,29,0,200,30,0,200,31,0,200,32,0,221,194,0,621,195,0,621,196,0,620,199,0,621*68
$PAIRSAT,2,23,65,0,200,67,0,200,68,0,200,69,0,201,70,0,201,71,0,201,72,0,200,73,0,201,74,0,200,75,0,200,76,0,200,77,0,200,78,0,200,79,0,201,80,0,201,81,0,200,82,0,200,83,0,200,84,0,200,85,0,201,86,0,201,87,0,200,88,0,200*53
$PAIRSAT,3,23,2,0,1221,3,0,1221,4,0,1200,5,0,200,7,0,1221,8,0,1221,9,0,1200,10,0,1200,11,0,1200,12,0,1200,13,0,1221,15,0,1221,19,0,1200,21,0,1200,24,0,1200,25,0,1200,26,0,1221,27,0,1200,30,0,1221,31,0,1200,33,0,1200,34,0,1200,36,0,1200*6A
$PAIRSAT,4,50,1,0,200,2,0,200,3,0,200,4,0,200,5,0,200,6,0,201,7,0,200,8,0,201,9,0,201,10,0,200,11,0,200,12,0,200,13,0,201,14,0,200,15,0,200,16,0,201,19,0,621,20,0,621,21,0,600,22,0,621,23,0,600,24,0,600,25,0,600,26,0,600,27,0,600,28,0,600,29,0,621,30,0,600,31,0,200,32,0,600,33,0,600,34,0,600,35,0,621,36,0,621,37,0,621,38,0,621,39,0,621,40,0,600,41,0,600,42,0,600,43,0,600,44,0,600,45,0,600,46,0,621,56,0,200,57,0,200,58,0,200,59,0,600,60,0,600,61,0,600*41
$PAIRDGP,10,5,10,12,13,15,18,23,24,25,32*4D
$GNGGA,113155.200,2500.8146645,N,12132.4711708,E,2,65,0.42,17.077,M,15.25,M,2,3335*41
$GNRMC,113155.200,A,2500.8146645,N,12132.4711708,E,0.02,35.89,260623,,,D,V*3D
$GPHDT,,T*1B
$GNACCURACY,2.7*13
$GNGGA,113155.300,2500.8146645,N,12132.4711768,E,2,65,0.42,17.076,M,15.25,M,2,3335*47
$GNRMC,113155.300,A,2500.8146645,N,12132.4711768,E,0.02,35.89,260623,,,D,V*3A
$GPHDT,,T*1B
$GNACCURACY,2.7*13
$GNGGA,113155.400,2500.8146585,N,12132.4711828,E,2,65,0.42,17.075,M,15.25,M,2,3335*47
$GNRMC,113155.400,A,2500.8146585,N,12132.4711828,E,0.01,35.89,260623,,,D,V*3A
$GPHDT,,T*1B
$GNACCURACY,2.7*13
$GNGGA,113155.500,2500.8146585,N,12132.4711828,E,2,65,0.42,17.073,M,15.25,M,2,3335*40
$GNRMC,113155.500,A,2500.8146585,N,12132.4711828,E,0.01,35.89,260623,,,D,V*3B
$GPHDT,,T*1B
