$FW : RTK35X,V1.1X0314AS,Lib20210517,1*54
$Tool : LOCOSYS , GNSS Firebird , v1.0.0.19*39
$---------------------------------------------------*2D
0.8155703,N,12132.4700411,E,2,62,0.41,17.275,M,15.25,M,14,3335*7C
$GNRMC,112948.300,A,2500.8155703,N,12132.4700411,E,0.02,35.89,260623,,,D,V*33
$GPHDT,,T*1B
$GNACCURACY,3.0*15
$GNGGA,112948.400,2500.8155643,N,12132.4700471,E,2,62,0.41,17.285,M,15.25,M,14,3335*77
$GNRMC,112948.400,A,2500.8155643,N,12132.4700471,E,0.02,35.89,260623,,,D,V*37
$GPHDT,,T*1B
$GNACCURACY,3.0*15
$GNGGA,112948.500,2500.8155583,N,12132.4700531,E,2,62,0.41,17.295,M,15.25,M,14,3335*7D
$GNRMC,112948.500,A,2500.8155583,N,12132.4700531,E,0.02,35.89,260623,,,D,V*3C
$GPHDT,,T*1B
$GNACCURACY,3.0*15
$GNGGA,112948.600,2500.8155463,N,12132.4700651,E,2,62,0.41,17.301,M,15.25,M,14,3335*78
$GNRMC,112948.600,A,2500.8155463,N,12132.4700651,E,0.01,35.89,260623,,,D,V*36
$GPHDT,,T*1B
$GNACCURACY,3.0*15
$GNGGA,112948.700,2500.8155403,N,12132.4700771,E,2,62,0.41,17.309,M,15.25,M,14,3335*74
$GNRMC,112948.700,A,2500.8155403,N,12132.4700771,E,0.01,35.89,260623,,,D,V*32
$GPHDT,,T*1B
$GNACCURACY,3.0*15
$GNGGA,112948.800,2500.8155343,N,12132.4700831,E,2,61,0.42,17.317,M,15.25,M,14,3335*7C
$GNRMC,112948.800,A,2500.8155343,N,12132.4700831,E,0.01,35.89,260623,,,D,V*35
$GPHDT,,T*1B
$GNACCURACY,3.0*15
$GNGGA,112948.900,2500.8155283,N,12132.4700951,E,2,60,0.42,17.328,M,15.25,M,14,3335*7A
$GNRMC,112948.900,A,2500.8155283,N,12132.4700951,E,0.02,35.89,260623,,,D,V*3D
$GPHDT,,T*1B
$GNACCURACY,3.0*15
$GNGGA,112949.000,2500.8155223,N,12132.4701011,E,2,60,0.42,17.339,M,15.25,M,15,3335*75
$GNRMC,112949.000,A,2500.8155223,N,12132.4701011,E,0.01,35.89,260623,,,D,V*30
$GPHDT,,T*1B
$GNACCURACY,3.0*15
$GNGGA,112949.100,2500.8155103,N,12132.4701071,E,2,60,0.42,17.350,M,15.25,M,15,3335*7C
$GNRMC,112949.100,A,2500.8155103,N,12132.4701071,E,0.01,35.89,260623,,,D,V*36
$GPHDT,,T*1B
$GNGSA,A,3,196,24,199,18,23,15,195,194,12,10,05,32,0.67,0.42,0.52,1*03
$GNGSA,A,3,80,73,85,86,71,79,,,,,,,0.67,0.42,0.52,2*05
$GNGSA,A,3,13,08,07,26,30,02,15,03,,,,,0.67,0.42,0.52,3*0C
$GNGSA,A,3,38,08,39,13,16,06,46,09,19,36,37,35,0.67,0.42,0.52,4*0A
$GNGSA,A,3,29,22,20,,,,,,,,,,0.67,0.42,0.52,4*0D
$GPGSV,4,1,15,196,75,066,26,24,72,041,35,199,60,167,31,18,58,243,39,1*63
$GPGSV,4,2,15,23,52,339,34,41,38,242,45,15,36,048,22,195,33,180,20,1*5E
$GPGSV,4,3,15,194,31,138,23,12,21,140,26,10,19,319,37,05,18,120,29,1*51
$GPGSV,4,4,15,25,10,175,17,32,10,270,32,13,07,058,30,1*5C
$GPGSV,2,1,08,196,75,066,35,24,72,041,40,199,60,167,44,18,58,243,41,8*6D
$GPGSV,2,2,08,23,52,339,35,194,31,138,34,10,19,319,35,32,10,270,22,8*5E
$GLGSV,2,1,08,80,48,074,19,70,41,012,13,73,40,158,22,85,34,244,38,1*70
$GLGSV,2,2,08,86,27,300,34,71,22,316,41,69,12,075,15,79,10,031,29,1*74
$GAGSV,3,1,09,13,55,230,42,08,46,027,31,07,44,305,40,26,33,305,20,7*75
$GAGSV,3,2,09,30,27,143,30,02,26,084,19,15,22,174,17,03,10,065,13,7*79
$GAGSV,3,3,09,25,02,042,,7*49
$GAGSV,1,1,04,13,55,230,44,07,44,305,39,26,33,305,31,02,26,084,27,1*76
$GBGSV,4,1,15,38,83,118,44,08,80,003,38,39,71,285,40,13,69,333,41,1*7B
$GBGSV,4,2,15,16,66,260,33,06,65,255,34,46,60,109,46,09,50,239,40,1*79
$GBGSV,4,3,15,19,49,346,29,20,42,064,16,36,36,184,22,37,22,047,21,1*72
$GBGSV,4,4,15,35,21,267,26,29,18,211,37,22,12,302,38,1*4D
$GBGSV,3,1,09,38,83,118,44,39,71,285,43,46,60,109,47,19,49,346,37,4*7B
$GBGSV,3,2,09,20,42,064,23,36,36,184,35,37,22,047,26,29,18,211,30,4*77
$GBGSV,3,3,09,22,12,302,35,4*4E
$GNACCURACY,3.0*15
$PAIRSAT,1,35,1,0,200,2,0,200,3,0,200,4,0,200,5,0,201,6,0,200,7,0,200,8,0,200,9,0,200,10,0,221,11,0,200,12,0,201,13,0,201,14,0,200,15,0,201,16,0,200,17,0,200,18,0,221,19,0,200,20,0,200,21,0,200,23,0,221,24,0,221,25,0,200,26,0,200,27,0,200,28,0,200,29,0,200,30,0,200,31,0,200,32,0,221,194,0,621,195,0,621,196,0,620,199,0,621*68
$PAIRSAT,2,23,65,0,200,67,0,200,68,0,200,69,0,201,70,0,201,71,0,201,72,0,200,73,0,201,74,0,200,75,0,200,76,0,200,77,0,200,78,0,200,79,0,201,80,0,201,81,0,200,82,0,200,83,0,200,84,0,200,85,0,201,86,0,201,87,0,200,88,0,200*53
$PAIRSAT,3,23,2,0,1221,3,0,1221,4,0,1200,5,0,200,7,0,1221,8,0,1221,9,0,1200,10,0,1200,11,0,1200,12,0,1200,13,0,1221,15,0,1221,19,0,1200,21,0,1200,24,0,1200,25,0,1200,26,0,1221,27,0,1200,30,0,1221,31,0,1200,33,0,1200,34,0,1200,36,0,1200*6A
$PAIRSAT,4,50,1,0,200,2,0,200,3,0,200,4,0,200,5,0,200,6,0,201,7,0,200,8,0,201,9,0,201,10,0,200,11,0,200,12,0,200,13,0,201,14,0,200,15,0,200,16,0,201,19,0,621,20,0,621,21,0,600,22,0,621,23,0,600,24,0,600,25,0,600,26,0,600,27,0,600,28,0,600,29,0,621,30,0,600,31,0,200,32,0,600,33,0,600,34,0,600,35,0,621,36,0,621,37,0,621,38,0,621,39,0,621,40,0,600,41,0,600,42,0,600,43,0,600,44,0,600,45,0,600,46,0,621,56,0,200,57,0,200,58,0,200,59,0,600,60,0,600,61,0,600*41
$PAIRDGP,10,5,10,12,13,15,18,23,24,25,32*4D
$GNGGA,112949.200,2500.8154983,N,12132.4701011,E,2,61,0.42,17.353,M,15.25,M,15,3335*7A
$GNRMC,112949.200,A,2500.8154983,N,12132.4701011,E,0.01,35.89,260623,,,D,V*32
$GPHDT,,T*1B
$GNACCURACY,3.0*15
$GNGGA,112949.300,2500.8154863,N,12132.4700951,E,2,62,0.42,17.355,M,15.25,M,15,3335*7D
$GNRMC,112949.300,A,2500.8154863,N,12132.4700951,E,0.01,35.89,260623,,,D,V*30
$GPHDT,,T*1B
$GNACCURACY,3.1*14
$GNGGA,112949.400,2500.8154803,N,12132.4700951,E,2,62,0.42,17.359,M,15.25,M,15,3335*70
$GNRMC,112949.400,A,2500.8154803,N,12132.4700951,E,0.02,35.89,260623,,,D,V*32
$GPHDT,,T*1B
$GNACCURACY,3.1*14
$GNGGA,112949.500,2500.8154683,N,12132.4700891,E,2,62,0.42,17.361,M,15.25,M,15,3335*71
$GNRMC,112949.500,A,2500.8154683,N,12132.4700891,E,0.02,35.89,260623,,,D,V*38
$GPHDT,,T*1B
$GNACCURACY,3.1*14
$GNGGA,112949.600,2500.8154563,N,12132.4700891,E,2,61,0.42,17.361,M,15.25,M,15,3335*7C
$GNRMC,112949.600,A,2500.8154563,N,12132.4700891,E,0.02,35.89,260623,,,D,V*36
$GPHDT,,T*1B
$GNACCURACY,3.1*14
$GNGGA,112949.700,2500.8154443,N,12132.4700831,E,2,61,0.42,17.364,M,15.25,M,15,3335*71
$GNRMC,112949.700,A,2500.8154443,N,12132.4700831,E,0.03,35.89,260623,,,D,V*3F
$GPHDT,,T*1B
$GNACCURACY,3.1*14
$GNGGA,112949.800,2500.8154323,N,12132.4700771,E,2,61,0.42,17.367,M,15.25,M,15,3335*77
$GNRMC,112949.800,A,2500.8154323,N,12132.4700771,E,0.02,35.89,260623,,,D,V*3B
$GPHDT,,T*1B
$GNACCURACY,3.1*14
$GNGGA,112949.900,2500.8154203,N,12132.4700771,E,2,62,0.42,17.366,M,15.25,M,15,3335*77
$GNRMC,112949.900,A,2500.8154203,N,12132.4700771,E,0.02,35.89,260623,,,D,V*39
$GPHDT,,T*1B
$GNACCURACY,3.1*14
$GNGGA,112950.000,2500.8154083,N,12132.4700711,E,2,63,0.42,17.366,M,15.25,M,16,3335*78
$GNRMC,112950.000,A,2500.8154083,N,12132.4700711,E,0.02,35.89,260623,,,D,V*34
$GPHDT,,T*1B
$GNACCURACY,3.1*14
$GNGGA,112950.100,2500.8153963,N,12132.4700711,E,2,63,0.42,17.367,M,15.25,M,16,3335*78
$GNRMC,112950.100,A,2500.8153963,N,12132.4700711,E,0.02,35.89,260623,,,D,V*35
$GPHDT,,T*1B
$GNGSA,A,3,196,24,199,18,23,15,195,194,12,10,05,32,0.67,0.42,0.52,1*03
$GNGSA,A,3,80,73,85,86,71,79,,,,,,,0.67,0.42,0.52,2*05
$GNGSA,A,3,13,08,07,26,30,02,15,03,,,,,0.67,0.42,0.52,3*0C
$GNGSA,A,3,38,08,39,13,16,06,46,09,19,36,37,35,0.67,0.42,0.52,4*0A
$GNGSA,A,3,29,22,20,,,,,,,,,,0.67,0.42,0.52,4*0D
$GPGSV,4,1,15,196,75,066,25,24,72,041,35,199,60,167,31,18,58,243,39,1*60
$GPGSV,4,2,15,23,52,339,35,41,38,242,45,15,36,048,20,195,33,180,21,1*5C
$GPGSV,4,3,15,194,31,138,24,12,21,140,28,10,19,319,37,05,18,120,29,1*58
$GPGSV,4,4,15,25,10,175,17,32,10,270,33,13,07,058,31,1*5C
$GPGSV,3,1,09,196,75,066,35,24,72,041,40,199,60,167,43,18,58,243,41,8*6A
$GPGSV,3,2,09,23,52,339,36,195,33,180,20,194,31,138,34,10,19,319,34,8*6F
$GPGSV,3,3,09,32,10,270,22,8*51
$GLGSV,2,1,08,80,48,074,18,70,41,012,15,73,40,158,21,85,34,244,38,1*74
$GLGSV,2,2,08,86,27,300,33,71,22,316,41,69,12,075,15,79,10,031,28,1*72
$GAGSV,3,1,09,13,55,230,42,08,46,027,30,07,44,305,40,26,33,305,17,7*70
$GAGSV,3,2,09,30,27,143,29,02,26,084,19,15,22,174,16,03,10,065,14,7*77
$GAGSV,3,3,09,25,02,042,,7*49
$GAGSV,2,1,05,13,55,230,44,07,44,305,39,26,33,305,32,30,27,143,17,1*7E
$GAGSV,2,2,05,02,26,084,27,1*4F
$GBGSV,4,1,15,38,83,118,44,08,80,003,37,39,71,285,40,13,69,333,41,1*74
$GBGSV,4,2,15,16,66,260,33,06,65,255,34,46,60,109,46,09,50,239,40,1*79
$GBGSV,4,3,15,19,49,346,30,20,42,064,14,36,36,184,19,37,22,047,19,1*7B
$GBGSV,4,4,15,35,21,267,27,29,18,211,37,22,12,302,38,1*4C
$GBGSV,3,1,10,38,83,118,44,39,71,285,43,46,60,109,47,19,49,346,37,4*73
$GBGSV,3,2,10,20,42,064,23,36,36,184,36,37,22,047,27,35,21,267,20,4*7A
$GBGSV,3,3,10,29,18,211,31,22,12,302,35,4*74
$GNACCURACY,3.1*14
$PAIRSAT,1,35,1,0,200,2,0,200,3,0,200,4,0,200,5,0,201,6,0,200,7,0,200,8,0,200,9,0,200,10,0,221,11,0,200,12,0,201,13,0,201,14,0,200,15,0,201,16,0,200,17,0,200,18,0,221,19,0,200,20,0,200,21,0,200,23,0,221,24,0,221,25,0,200,26,0,200,27,0,200,28,0,200,29,0,200,30,0,200,31,0,200,32,0,221,194,0,621,195,0,621,196,0,620,199,0,621*68
$PAIRSAT,2,23,65,0,200,67,0,200,68,0,200,69,0,201,70,0,201,71,0,201,72,0,200,73,0,201,74,0,200,75,0,200,76,0,200,77,0,200,78,0,200,79,0,201,80,0,201,81,0,200,82,0,200,83,0,200,84,0,200,85,0,201,86,0,201,87,0,200,88,0,200*53
$PAIRSAT,3,23,2,0,1221,3,0,1221,4,0,1200,5,0,200,7,0,1221,8,0,1221,9,0,1200,10,0,1200,11,0,1200,12,0,1200,13,0,1221,15,0,1221,19,0,1200,21,0,1200,24,0,1200,25,0,1200,26,0,1221,27,0,1200,30,0,1221,31,0,1200,33,0,1200,34,0,1200,36,0,1200*6A
$PAIRSAT,4,50,1,0,200,2,0,200,3,0,200,4,0,200,5,0,200,6,0,201,7,0,200,8,0,201,9,0,201,10,0,200,11,0,200,12,0,200,13,0,201,14,0,200,15,0,200,16,0,201,19,0,621,20,0,621,21,0,600,22,0,621,23,0,600,24,0,600,25,0,600,26,0,600,27,0,600,28,0,600,29,0,621,30,0,600,31,0,200,32,0,600,33,0,600,34,0,600,35,0,621,36,0,621,37,0,621,38,0,621,39,0,621,40,0,600,41,0,600,42,0,600,43,0,600,44,0,600,45,0,600,46,0,621,56,0,200,57,0,200,58,0,200,59,0,600,60,0,600,61,0,600*41
$PAIRDGP,10,5,10,12,13,15,18,23,24,25,32*4D
$GNGGA,112950.200,2500.8153843,N,12132.4700651,E,2,63,0.42,17.366,M,15.25,M,16,3335*7C
$GNRMC,112950.200,A,2500.8153843,N,12132.4700651,E,0.02,35.89,260623,,,D,V*30
$GPHDT,,T*1B
$GNACCURACY,3.1*14
$GNGGA,112950.300,2500.8153723,N,12132.4700651,E,2,63,0.42,17.364,M,15.25,M,16,3335*76
$GNRMC,112950.300,A,2500.8153723,N,12132.4700651,E,0.02,35.89,260623,,,D,V*38
$GPHDT,,T*1B
$GNACCURACY,3.1*14
$GNGGA,112950.400,2500.8153603,N,12132.4700591,E,2,63,0.42,17.366,M,15.25,M,16,3335*7F
$GNRMC,112950.400,A,2500.8153603,N,12132.4700591,E,0.02,35.89,260623,,,D,V*33
$GPHDT,,T*1B
$GNACCURACY,3.1*14
$GNGGA,112950.500,2500.8153543,N,12132.4700651,E,2,62,0.42,17.371,M,15.25,M,16,3335*71
$GNRMC,112950.500,A,2500.8153543,N,12132.4700651,E,0.02,35.89,260623,,,D,V*3A
$GPHDT,,T*1B
$GNACCURACY,3.1*14
$GNGGA,112950.600,2500.8153483,N,12132.4700771,E,2,62,0.42,17.379,M,15.25,M,16,3335*74
$GNRMC,112950.600,A,2500.8153483,N,12132.4700771,E,0.02,35.89,260623,,,D,V*37
$GPHDT,,T*1B
$GNACCURACY,3.1*14
$GNGGA,112950.700,2500.8153363,N,12132.4700891,E,2,62,0.42,17.385,M,15.25,M,16,3335*7E
$GNRMC,112950.700,A,2500.8153363,N,12132.4700891,E,0.01,35.89,260623,,,D,V*3D
$GPHDT,,T*1B
$GNACCURACY,3.1*14
$GNGGA,112950.800,2500.8153303,N,12132.4700951,E,2,62,0.42,17.391,M,15.25,M,16,3335*7F
$GNRMC,112950.800,A,2500.8153303,N,12132.4700951,E,0.01,35.89,260623,,,D,V*39
$GPHDT,,T*1B
$GNACCURACY,3.1*14
$GNGGA,112950.900,2500.8153183,N,12132.4701071,E,2,62,0.42,17.393,M,15.25,M,16,3335*7C
$GNRMC,112950.900,A,2500.8153183,N,12132.4701071,E,0.01,35.89,260623,,,D,V*38
$GPHDT,,T*1B
$GNACCURACY,3.1*14
$GNGGA,112951.000,2500.8153123,N,12132.4701131,E,2,62,0.42,17.400,M,15.25,M,17,3335*77
$GNRMC,112951.000,A,2500.8153123,N,12132.4701131,E,0.02,35.89,260623,,,D,V*3C
$GPHDT,,T*1B
$GNACCURACY,3.1*14
$GNGGA,112951.100,2500.8153003,N,12132.4701251,E,2,62,0.42,17.407,M,15.25,M,17,3335*77
$GNRMC,112951.100,A,2500.8153003,N,12132.4701251,E,0.01,35.89,260623,,,D,V*38
$GPHDT,,T*1B
$GNGSA,A,3,196,24,199,18,23,15,195,194,12,10,05,32,0.67,0.42,0.52,1*03
$GNGSA,A,3,80,73,85,86,71,79,,,,,,,0.67,0.42,0.52,2*05
$GNGSA,A,3,13,08,07,26,30,02,15,03,,,,,0.67,0.42,0.52,3*0C
$GNGSA,A,3,38,08,39,13,16,06,46,09,19,36,35,29,0.67,0.42,0.52,4*05
$GNGSA,A,3,22,20,37,,,,,,,,,,0.67,0.42,0.52,4*02
$GPGSV,4,1,15,196,75,066,24,24,72,041,34,199,60,167,32,18,58,243,37,1*6D
$GPGSV,4,2,15,23,52,339,35,41,38,242,42,15,36,048,18,195,33,180,22,1*53
$GPGSV,4,3,15,194,31,138,24,12,21,140,29,10,19,319,38,05,18,120,30,1*5E
$GPGSV,4,4,15,25,10,175,17,32,10,270,32,13,07,058,30,1*5C
$GPGSV,3,1,09,196,75,066,34,24,72,041,40,199,60,167,43,18,58,243,40,8*6A
$GPGSV,3,2,09,23,52,339,36,195,33,180,20,194,31,138,34,10,19,319,34,8*6F
$GPGSV,3,3,09,32,10,270,21,8*52
$GLGSV,2,1,08,80,48,074,19,70,41,012,15,73,40,158,18,85,34,244,35,1*72
$GLGSV,2,2,08,86,27,300,33,71,22,316,42,69,12,075,15,79,10,031,27,1*7E
$GAGSV,3,1,09,13,55,230,40,08,46,027,30,07,44,305,42,26,33,305,30,7*75
$GAGSV,3,2,09,30,27,143,28,02,26,084,19,15,22,174,17,03,10,065,13,7*70
$GAGSV,3,3,09,25,02,042,,7*49
$GAGSV,2,1,05,13,55,230,44,07,44,305,42,26,33,305,37,30,27,143,16,1*76
$GAGSV,2,2,05,02,26,084,27,1*4F
$GBGSV,4,1,15,38,83,118,44,08,80,003,36,39,71,285,42,13,69,333,42,1*74
$GBGSV,4,2,15,16,66,260,37,06,65,255,37,46,60,109,46,09,50,240,39,1*7E
$GBGSV,4,3,15,19,49,346,30,20,42,064,14,36,36,184,22,37,22,047,,1*7B
$GBGSV,4,4,15,35,21,267,28,29,18,211,37,22,12,302,38,1*43
$GBGSV,3,1,10,38,83,118,44,39,71,285,43,46,60,109,47,19,49,346,38,4*7C
$GBGSV,3,2,10,20,42,064,24,36,36,184,36,37,22,047,27,35,21,267,20,4*7D
$GBGSV,3,3,10,29,18,211,31,22,12,302,36,4*77
$GNACCURACY,3.1*14
$PAIRSAT,1,35,1,0,200,2,0,200,3,0,200,4,0,200,5,0,201,6,0,200,7,0,200,8,0,200,9,0,200,10,0,221,11,0,200,12,0,201,13,0,201,14,0,200,15,0,201,16,0,200,17,0,200,18,0,221,19,0,200,20,0,200,21,0,200,23,0,221,24,0,221,25,0,200,26,0,200,27,0,200,28,0,200,29,0,200,30,0,200,31,0,200,32,0,221,194,0,621,195,0,621,196,0,620,199,0,621*68
$PAIRSAT,2,23,65,0,200,67,0,200,68,0,200,69,0,201,70,0,201,71,0,201,72,0,200,73,0,201,74,0,200,75,0,200,76,0,200,77,0,200,78,0,200,79,0,201,80,0,201,81,0,200,82,0,200,83,0,200,84,0,200,85,0,201,86,0,201,87,0,200,88,0,200*53
$PAIRSAT,3,23,2,0,1221,3,0,1221,4,0,1200,5,0,200,7,0,1221,8,0,1221,9,0,1200,10,0,1200,11,0,1200,12,0,1200,13,0,1221,15,0,1221,19,0,1200,21,0,1200,24,0,1200,25,0,1200,26,0,1221,27,0,1200,30,0,1221,31,0,1200,33,0,1200,34,0,1200,36,0,1200*6A
$PAIRSAT,4,50,1,0,200,2,0,200,3,0,200,4,0,200,5,0,200,6,0,201,7,0,200,8,0,201,9,0,201,10,0,200,11,0,200,12,0,200,13,0,201,14,0,200,15,0,200,16,0,201,19,0,621,20,0,621,21,0,600,22,0,621,23,0,600,24,0,600,25,0,600,26,0,600,27,0,600,28,0,600,29,0,621,30,0,600,31,0,200,32,0,600,33,0,600,34,0,600,35,0,621,36,0,621,37,0,621,38,0,621,39,0,621,40,0,600,41,0,600,42,0,600,43,0,600,44,0,600,45,0,600,46,0,621,56,0,200,57,0,200,58,0,200,59,0,600,60,0,600,61,0,600*41
$PAIRDGP,10,5,10,12,13,15,18,23,24,25,32*4D
$GNGGA,112951.200,2500.8152943,N,12132.4701311,E,2,62,0.42,17.411,M,15.25,M,17,3335*7A
$GNRMC,112951.200,A,2500.8152943,N,12132.4701311,E,0.01,35.89,260623,,,D,V*32
$GPHDT,,T*1B
$GNACCURACY,3.1*14
$GNGGA,112951.300,2500.8152883,N,12132.4701491,E,2,62,0.42,17.417,M,15.25,M,17,3335*7F
$GNRMC,112951.300,A,2500.8152883,N,12132.4701491,E,0.01,35.89,260623,,,D,V*31
$GPHDT,,T*1B
$GNACCURACY,3.1*14
$GNGGA,112951.400,2500.8152823,N,12132.4701551,E,2,63,0.41,17.424,M,15.25,M,17,3335*7D
$GNRMC,112951.400,A,2500.8152823,N,12132.4701551,E,0.03,35.89,260623,,,D,V*33
$GPHDT,,T*1B
$GNACCURACY,3.1*14
$GNGGA,112951.500,2500.8152763,N,12132.4701611,E,2,63,0.41,17.435,M,15.25,M,17,3335*70
$GNRMC,112951.500,A,2500.8152763,N,12132.4701611,E,0.03,35.89,260623,,,D,V*3E
$GPHDT,,T*1B
$GNACCURACY,3.1*14
$GNGGA,112951.600,2500.8152703,N,12132.4701671,E,2,63,0.41,17.444,M,15.25,M,17,3335*75
$GNRMC,112951.600,A,2500.8152703,N,12132.4701671,E,0.02,35.89,260623,,,D,V*3C
$GPHDT,,T*1B
$GNACCURACY,3.1*14
$GNGGA,112951.700,2500.8152643,N,12132.4701671,E,2,63,0.41,17.451,M,15.25,M,17,3335*75
$GNRMC,112951.700,A,2500.8152643,N,12132.4701671,E,0.02,35.89,260623,,,D,V*38
$GPHDT,,T*1B
$GNACCURACY,3.1*14
$GNGGA,112951.800,2500.8152583,N,12132.4701671,E,2,63,0.41,17.462,M,15.25,M,17,3335*75
$GNRMC,112951.800,A,2500.8152583,N,12132.4701671,E,0.01,35.89,260623,,,D,V*3B
$GPHDT,,T*1B
$GNACCURACY,3.1*14
$GNGGA,112951.900,2500.8152583,N,12132.4701671,E,2,63,0.41,17.472,M,15.25,M,17,3335*75
$GNRMC,112951.900,A,2500.8152583,N,12132.4701671,E,0.01,35.89,260623,,,D,V*3A
$GPHDT,,T*1B
$GNACCURACY,3.1*14
$GNGGA,112952.000,2500.8152583,N,12132.4701671,E,2,63,0.41,17.484,M,15.25,M,18,3335*79
$GNRMC,112952.000,A,2500.8152583,N,12132.4701671,E,0.01,35.89,260623,,,D,V*30
$GPHDT,,T*1B
$GNACCURACY,3.1*14
$GNGGA,112952.100,2500.8152523,N,12132.4701731,E,2,63,0.41,17.496,M,15.25,M,18,3335*74
$GNRMC,112952.100,A,2500.8152523,N,12132.4701731,E,0.01,35.89,260623,,,D,V*3E
$GPHDT,,T*1B
$GNGSA,A,3,196,24,199,18,23,15,195,194,12,10,05,32,0.66,0.41,0.51,1*02
$GNGSA,A,3,80,73,85,86,71,69,79,,,,,,0.66,0.41,0.51,2*0B
$GNGSA,A,3,13,08,07,26,30,02,15,03,,,,,0.66,0.41,0.51,3*0D
$GNGSA,A,3,38,08,39,13,16,06,46,09,19,36,35,29,0.66,0.41,0.51,4*04
$GNGSA,A,3,22,20,37,,,,,,,,,,0.66,0.41,0.51,4*03
$GPGSV,4,1,15,196,75,066,23,24,72,041,36,199,60,167,33,18,58,243,38,1*66
$GPGSV,4,2,15,23,52,339,34,41,38,242,39,15,36,048,18,195,33,180,22,1*5E
$GPGSV,4,3,15,194,31,138,23,12,21,140,30,10,19,319,38,05,18,120,30,1*51
$GPGSV,4,4,15,25,10,175,18,32,10,270,32,13,07,058,30,1*53
$GPGSV,3,1,09,196,75,066,34,24,72,041,39,199,60,167,44,18,58,243,42,8*61
$GPGSV,3,2,09,23,52,339,36,195,33,180,22,194,31,138,34,10,19,319,34,8*6D
$GPGSV,3,3,09,32,10,270,21,8*52
$GLGSV,2,1,08,80,48,074,22,70,41,012,14,73,40,158,17,85,34,244,32,1*73
$GLGSV,2,2,08,86,27,300,32,71,22,316,43,69,12,075,15,79,10,031,21,1*78
$GAGSV,3,1,09,13,55,230,40,08,46,027,30,07,44,305,42,26,33,305,30,7*75
$GAGSV,3,2,09,30,27,143,28,02,26,084,19,15,22,174,17,03,10,065,13,7*70
$GAGSV,3,3,09,25,02,042,,7*49
$GAGSV,1,1,04,13,55,230,44,07,44,305,41,26,33,305,38,02,26,084,26,1*71
$GBGSV,4,1,16,38,83,118,43,08,80,003,36,39,71,285,44,13,69,333,42,1*76
$GBGSV,4,2,16,16,66,260,39,06,65,255,38,46,60,109,46,09,50,240,38,1*7D
$GBGSV,4,3,16,19,49,347,29,20,42,065,14,36,36,184,22,37,22,047,,1*70
$GBGSV,4,4,16,35,21,267,32,29,18,211,37,22,12,302,32,32,01,100,,1*70
$GBGSV,3,1,10,38,83,118,45,39,71,285,44,46,60,109,47,19,49,347,37,4*74
$GBGSV,3,2,10,20,42,065,24,36,36,184,34,37,22,047,26,35,21,267,22,4*7D
$GBGSV,3,3,10,29,18,211,31,22,12,302,36,4*77
$GNACCURACY,3.1*14
$PAIRSAT,1,35,1,0,200,2,0,200,3,0,200,4,0,200,5,0,201,6,0,200,7,0,200,8,0,200,9,0,200,10,0,221,11,0,200,12,0,201,13,0,201,14,0,200,15,0,201,16,0,200,17,0,200,18,0,221,19,0,200,20,0,200,21,0,200,23,0,221,24,0,221,25,0,200,26,0,200,27,0,200,28,0,200,29,0,200,30,0,200,31,0,200,32,0,221,194,0,621,195,0,621,196,0,620,199,0,621*68
$PAIRSAT,2,23,65,0,200,67,0,200,68,0,200,69,0,201,70,0,201,71,0,201,72,0,200,73,0,201,74,0,200,75,0,200,76,0,200,77,0,200,78,0,200,79,0,201,80,0,201,81,0,200,82,0,200,83,0,200,84,0,200,85,0,201,86,0,201,87,0,200,88,0,200*53
$PAIRSAT,3,23,2,0,1221,3,0,1221,4,0,1200,5,0,200,7,0,1221,8,0,1221,9,0,1200,10,0,1200,11,0,1200,12,0,1200,13,0,1221,15,0,1221,19,0,1200,21,0,1200,24,0,1200,25,0,1200,26,0,1221,27,0,1200,30,0,1221,31,0,1200,33,0,1200,34,0,1200,36,0,1200*6A
$PAIRSAT,4,50,1,0,200,2,0,200,3,0,200,4,0,200,5,0,200,6,0,201,7,0,200,8,0,201,9,0,201,10,0,200,11,0,200,12,0,200,13,0,201,14,0,200,15,0,200,16,0,201,19,0,621,20,0,621,21,0,600,22,0,621,23,0,600,24,0,600,25,0,600,26,0,600,27,0,600,28,0,600,29,0,621,30,0,600,31,0,200,32,0,600,33,0,600,34,0,600,35,0,621,36,0,621,37,0,621,38,0,621,39,0,621,40,0,600,41,0,600,42,0,600,43,0,600,44,0,600,45,0,600,46,0,621,56,0,200,57,0,200,58,0,200,59,0,600,60,0,600,61,0,600*41
$PAIRDGP,10,5,10,12,13,15,18,23,24,25,32*4D
$GNGGA,112952.200,2500.8152463,N,12132.4701791,E,2,63,0.41,17.507,M,15.25,M,18,3335*71
$GNRMC,112952.200,A,2500.8152463,N,12132.4701791,E,0.01,35.89,260623,,,D,V*32
$GPHDT,,T*1B
$GNACCURACY,3.0*15
$GNGGA,112952.300,2500.8152403,N,12132.4701791,E,2,63,0.41,17.515,M,15.25,M,18,3335*75
$GNRMC,112952.300,A,2500.8152403,N,12132.4701791,E,0.01,35.89,260623,,,D,V*35
$GPHDT,,T*1B
$GNACCURACY,3.0*15
$GNGGA,112952.400,2500.8152343,N,12132.4701791,E,2,63,0.41,17.526,M,15.25,M,18,3335*71
$GNRMC,112952.400,A,2500.8152343,N,12132.4701791,E,0.01,35.89,260623,,,D,V*31
$GPHDT,,T*1B
$GNACCURACY,3.0*15
$GNGGA,112952.500,2500.8152343,N,12132.4701731,E,2,62,0.42,17.530,M,15.25,M,18,3335*7F
$GNRMC,112952.500,A,2500.8152343,N,12132.4701731,E,0.03,35.89,260623,,,D,V*38
$GPHDT,,T*1B
$GNACCURACY,3.0*15
$GNGGA,112952.600,2500.8152223,N,12132.4701731,E,2,62,0.42,17.532,M,15.25,M,18,3335*79
$GNRMC,112952.600,A,2500.8152223,N,12132.4701731,E,0.02,35.89,260623,,,D,V*3D
$GPHDT,,T*1B
$GNACCURACY,3.0*15
$GNGGA,112952.700,2500.8152223,N,12132.4701671,E,2,62,0.42,17.534,M,15.25,M,18,3335*7B
$GNRMC,112952.700,A,2500.8152223,N,12132.4701671,E,0.03,35.89,260623,,,D,V*38
$GPHDT,,T*1B
$GNACCURACY,3.0*15
$GNGGA,112952.800,2500.8152103,N,12132.4701551,E,2,62,0.42,17.537,M,15.25,M,18,3335*77
$GNRMC,112952.800,A,2500.8152103,N,12132.4701551,E,0.02,35.89,260623,,,D,V*36
$GPHDT,,T*1B
$GNACCURACY,3.0*15
$GNGGA,112952.900,2500.8151983,N,12132.4701491,E,2,62,0.42,17.540,M,15.25,M,18,3335*78
$GNRMC,112952.900,A,2500.8151983,N,12132.4701491,E,0.02,35.89,260623,,,D,V*39
$GPHDT,,T*1B
$GNACCURACY,3.0*15
$GNGGA,112953.000,2500.8151983,N,12132.4701491,E,2,62,0.42,17.547,M,15.25,M,19,3335*76
$GNRMC,112953.000,A,2500.8151983,N,12132.4701491,E,0.03,35.89,260623,,,D,V*30
$GPHDT,,T*1B
$GNACCURACY,3.0*15
$GNGGA,112953.100,2500.8151863,N,12132.4701371,E,2,62,0.42,17.547,M,15.25,M,19,3335*71
$GNRMC,112953.100,A,2500.8151863,N,12132.4701371,E,0.02,35.89,260623,,,D,V*36
$GPHDT,,T*1B
$GNGSA,A,3,196,24,199,18,23,195,194,12,10,05,32,,0.66,0.42,0.51,1*05
$GNGSA,A,3,80,73,85,86,71,69,79,,,,,,0.66,0.42,0.51,2*08
$GNGSA,A,3,13,08,07,26,30,02,15,03,,,,,0.66,0.42,0.51,3*0E
$GNGSA,A,3,38,08,39,13,16,06,46,09,19,36,35,29,0.66,0.42,0.51,4*07
$GNGSA,A,3,22,20,37,,,,,,,,,,0.66,0.42,0.51,4*00
$GPGSV,4,1,15,196,75,066,23,24,72,041,36,199,60,167,33,18,58,243,37,1*69
$GPGSV,4,2,15,23,52,339,35,41,38,242,37,15,36,048,17,195,33,180,26,1*5A
$GPGSV,4,3,15,194,31,138,20,12,21,140,30,10,19,319,38,05,18,120,30,1*52
$GPGSV,4,4,15,25,10,175,18,32,10,270,31,13,07,058,28,1*59
$GPGSV,3,1,09,196,75,066,37,24,72,041,40,199,60,167,45,18,58,243,42,8*6D
$GPGSV,3,2,09,23,52,339,35,195,33,180,23,194,31,138,34,10,19,319,34,8*6F
$GPGSV,3,3,09,32,10,270,22,8*51
$GLGSV,3,1,10,80,48,074,20,70,41,012,16,73,40,158,22,85,34,244,29,1*77
$GLGSV,3,2,10,86,27,300,31,71,22,316,42,69,12,075,15,79,10,031,21,1*72
$GLGSV,3,3,10,84,07,189,,74,04,187,,1*7B
$GAGSV,3,1,09,13,55,230,36,08,46,027,29,07,44,305,42,26,33,305,31,7*7D
$GAGSV,3,2,09,30,27,143,27,02,26,084,21,15,22,174,18,03,10,065,13,7*7B
$GAGSV,3,3,09,25,02,042,,7*49
$GAGSV,1,1,04,13,55,230,41,07,44,305,40,26,33,305,38,02,26,084,26,1*75
$GBGSV,4,1,16,38,83,118,43,08,80,003,36,39,71,285,44,13,69,333,42,1*76
$GBGSV,4,2,16,16,66,260,40,06,65,255,38,46,60,109,46,09,50,240,35,1*7E
$GBGSV,4,3,16,19,49,347,25,20,42,065,14,36,36,184,25,37,22,047,,1*7B
$GBGSV,4,4,16,35,21,267,32,29,18,211,36,22,12,302,34,07,05,192,,1*7E
$GBGSV,3,1,10,38,83,118,45,39,71,285,45,46,60,109,48,19,49,347,37,4*7A
$GBGSV,3,2,10,20,42,065,25,36,36,184,35,37,22,047,27,35,21,267,25,4*7B
$GBGSV,3,3,10,29,18,211,31,22,12,302,33,4*72
$GNACCURACY,3.0*15
$PAIRSAT,1,35,1,0,200,2,0,200,3,0,200,4,0,200,5,0,201,6,0,200,7,0,200,8,0,200,9,0,200,10,0,221,11,0,200,12,0,201,13,0,201,14,0,200,15,0,201,16,0,200,17,0,200,18,0,221,19,0,200,20,0,200,21,0,200,23,0,221,24,0,221,25,0,200,26,0,200,27,0,200,28,0,200,29,0,200,30,0,200,31,0,200,32,0,221,194,0,621,195,0,621,196,0,620,199,0,621*68
$PAIRSAT,2,23,65,0,200,67,0,200,68,0,200,69,0,201,70,0,201,71,0,201,72,0,200,73,0,201,74,0,200,75,0,200,76,0,200,77,0,200,78,0,200,79,0,201,80,0,201,81,0,200,82,0,200,83,0,200,84,0,200,85,0,201,86,0,201,87,0,200,88,0,200*53
$PAIRSAT,3,23,2,0,1221,3,0,1221,4,0,1200,5,0,200,7,0,1221,8,0,1221,9,0,1200,10,0,1200,11,0,1200,12,0,1200,13,0,1221,15,0,1221,19,0,1200,21,0,1200,24,0,1200,25,0,1200,26,0,1221,27,0,1200,30,0,1221,31,0,1200,33,0,1200,34,0,1200,36,0,1200*6A
$PAIRSAT,4,50,1,0,200,2,0,200,3,0,200,4,0,200,5,0,200,6,0,201,7,0,200,8,0,201,9,0,201,10,0,200,11,0,200,12,0,200,13,0,201,14,0,200,15,0,200,16,0,201,19,0,621,20,0,621,21,0,600,22,0,621,23,0,600,24,0,600,25,0,600,26,0,600,27,0,600,28,0,600,29,0,621,30,0,600,31,0,200,32,0,600,33,0,600,34,0,600,35,0,621,36,0,621,37,0,621,38,0,621,39,0,621,40,0,600,41,0,600,42,0,600,43,0,600,44,0,600,45,0,600,46,0,621,56,0,200,57,0,200,58,0,200,59,0,600,60,0,600,61,0,600*41
$PAIRDGP,10,5,10,12,13,15,18,23,24,25,32*4D
$GNGGA,112953.200,2500.8151743,N,12132.4701251,E,2,62,0.42,17.546,M,15.25,M,19,3335*7D
$GNRMC,112953.200,A,2500.8151743,N,12132.4701251,E,0.02,35.89,260623,,,D,V*3B
$GPHDT,,T*1B
$GNACCURACY,2.9*1D
$GNGGA,112953.300,2500.8151683,N,12132.4701131,E,2,62,0.42,17.546,M,15.25,M,19,3335*74
$GNRMC,112953.300,A,2500.8151683,N,12132.4701131,E,0.01,35.89,260623,,,D,V*31
$GPHDT,,T*1B
$GNACCURACY,2.9*1D
$GNGGA,112953.400,2500.8151503,N,12132.4701071,E,2,62,0.42,17.548,M,15.25,M,19,3335*73
$GNRMC,112953.400,A,2500.8151503,N,12132.4701071,E,0.01,35.89,260623,,,D,V*38
$GPHDT,,T*1B
$GNACCURACY,3.0*15
$GNGGA,112953.500,2500.8151443,N,12132.4701011,E,2,62,0.42,17.558,M,15.25,M,19,3335*70
$GNRMC,112953.500,A,2500.8151443,N,12132.4701011,E,0.01,35.89,260623,,,D,V*3A
$GPHDT,,T*1B
$GNACCURACY,3.0*15
$GNGGA,112953.600,2500.8151383,N,12132.4700951,E,2,62,0.42,17.572,M,15.25,M,19,3335*7C
$GNRMC,112953.600,A,2500.8151383,N,12132.4700951,E,0.02,35.89,260623,,,D,V*3D
$GPHDT,,T*1B
$GNACCURACY,3.0*15
$GNGGA,112953.700,2500.8151263,N,12132.4700951,E,2,62,0.42,17.584,M,15.25,M,19,3335*7B
$GNRMC,112953.700,A,2500.8151263,N,12132.4700951,E,0.02,35.89,260623,,,D,V*33
$GPHDT,,T*1B
$GNACCURACY,3.0*15
$GNGGA,112953.800,2500.8151203,N,12132.4700891,E,2,62,0.42,17.592,M,15.25,M,19,3335*78
$GNRMC,112953.800,A,2500.8151203,N,12132.4700891,E,0.02,35.89,260623,,,D,V*37
$GPHDT,,T*1B
$GNACCURACY,3.0*15
$GNGGA,112953.900,2500.8151143,N,12132.4700771,E,2,61,0.42,17.597,M,15.25,M,19,3335*79
$GNRMC,112953.900,A,2500.8151143,N,12132.4700771,E,0.02,35.89,260623,,,D,V*30
$GPHDT,,T*1B
$GNACCURACY,3.0*15
$GNGGA,112954.000,2500.8151023,N,12132.4700711,E,2,61,0.42,17.602,M,15.25,M,20,3335*73
$GNRMC,112954.000,A,2500.8151023,N,12132.4700711,E,0.02,35.89,260623,,,D,V*3F
$GPHDT,,T*1B
$GNACCURACY,3.0*15
$GNGGA,112954.100,2500.8150903,N,12132.4700651,E,2,61,0.42,17.603,M,15.25,M,20,3335*7C
$GNRMC,112954.100,A,2500.8150903,N,12132.4700651,E,0.02,35.89,260623,,,D,V*31
$GPHDT,,T*1B
$GNGSA,A,3,196,24,199,18,23,195,194,12,10,05,32,,0.67,0.42,0.52,1*07
$GNGSA,A,3,80,73,85,86,71,79,,,,,,,0.67,0.42,0.52,2*05
$GNGSA,A,3,13,08,07,26,30,02,15,03,,,,,0.67,0.42,0.52,3*0C
$GNGSA,A,3,38,08,39,13,16,06,46,09,19,36,35,29,0.67,0.42,0.52,4*05
$GNGSA,A,3,22,20,37,,,,,,,,,,0.67,0.42,0.52,4*02
$GPGSV,4,1,15,196,75,066,22,24,72,041,35,199,60,167,34,18,58,243,38,1*63
$GPGSV,4,2,15,23,52,339,35,41,38,242,36,15,36,048,16,195,33,180,25,1*59
$GPGSV,4,3,15,194,31,138,20,12,21,140,30,10,19,319,38,05,18,120,30,1*52
$GPGSV,4,4,15,25,10,175,18,32,10,270,29,13,07,058,28,1*50
$GPGSV,3,1,09,196,75,066,37,24,72,041,40,199,60,167,45,18,58,243,43,8*6C
$GPGSV,3,2,09,23,52,339,35,195,33,180,18,194,31,138,34,10,19,319,35,8*66
$GPGSV,3,3,09,32,10,270,22,8*51
$GLGSV,3,1,09,80,48,074,19,70,41,012,13,73,40,158,22,85,34,244,29,1*70
$GLGSV,3,2,09,86,27,300,31,71,22,316,42,69,12,075,17,79,10,031,21,1*78
$GLGSV,3,3,09,84,07,189,,1*4A
$GAGSV,3,1,10,13,55,230,33,08,46,027,30,07,44,305,42,26,33,305,34,7*7D
$GAGSV,3,2,10,30,27,143,27,02,26,084,19,15,22,174,17,03,10,065,13,7*77
$GAGSV,3,3,10,27,02,188,,25,02,042,,7*77
$GAGSV,1,1,04,13,55,230,40,07,44,305,42,26,33,305,39,02,26,084,28,1*79
$GBGSV,4,1,15,38,83,118,43,08,80,003,36,39,71,285,41,13,69,333,42,1*70
$GBGSV,4,2,15,16,66,260,30,06,65,255,34,46,60,109,44,09,50,240,32,1*73
$GBGSV,4,3,15,19,49,347,28,20,42,065,,36,36,184,27,37,22,047,,1*72
$GBGSV,4,4,15,35,21,267,33,29,18,211,37,22,12,302,29,1*49
$GBGSV,3,1,10,38,83,118,45,39,71,285,42,46,60,109,48,19,49,347,37,4*7D
$GBGSV,3,2,10,20,42,065,25,36,36,184,34,37,22,047,26,35,21,267,26,4*78
$GBGSV,3,3,10,29,18,211,25,22,12,302,36,4*72
$GNACCURACY,3.0*15
$PAIRSAT,1,35,1,0,200,2,0,200,3,0,200,4,0,200,5,0,201,6,0,200,7,0,200,8,0,200,9,0,200,10,0,221,11,0,200,12,0,201,13,0,201,14,0,200,15,0,201,16,0,200,17,0,200,18,0,221,19,0,200,20,0,200,21,0,200,23,0,221,24,0,221,25,0,200,26,0,200,27,0,200,28,0,200,29,0,200,30,0,200,31,0,200,32,0,221,194,0,621,195,0,621,196,0,620,199,0,621*68
$PAIRSAT,2,23,65,0,200,67,0,200,68,0,200,69,0,201,70,0,201,71,0,201,72,0,200,73,0,201,74,0,200,75,0,200,76,0,200,77,0,200,78,0,200,79,0,201,80,0,201,81,0,200,82,0,200,83,0,200,84,0,200,85,0,201,86,0,201,87,0,200,88,0,200*53
$PAIRSAT,3,23,2,0,1221,3,0,1221,4,0,1200,5,0,200,7,0,1221,8,0,1221,9,0,1200,10,0,1200,11,0,1200,12,0,1200,13,0,1221,15,0,1221,19,0,1200,21,0,1200,24,0,1200,25,0,1200,26,0,1221,27,0,1200,30,0,1221,31,0,1200,33,0,1200,34,0,1200,36,0,1200*6A
$PAIRSAT,4,50,1,0,200,2,0,200,3,0,200,4,0,200,5,0,200,6,0,201,7,0,200,8,0,201,9,0,201,10,0,200,11,0,200,12,0,200,13,0,201,14,0,200,15,0,200,16,0,201,19,0,621,20,0,621,21,0,600,22,0,621,23,0,600,24,0,600,25,0,600,26,0,600,27,0,600,28,0,600,29,0,621,30,0,600,31,0,200,32,0,600,33,0,600,34,0,600,35,0,621,36,0,621,37,0,621,38,0,621,39,0,621,40,0,600,41,0,600,42,0,600,43,0,600,44,0,600,45,0,600,46,0,621,56,0,200,57,0,200,58,0,200,59,0,600,60,0,600,61,0,600*41
$PAIRDGP,10,5,10,12,13,15,18,23,24,25,32*4D
$GNGGA,112954.200,2500.8150783,N,12132.4700531,E,2,61,0.42,17.606,M,15.25,M,20,3335*79
$GNRMC,112954.200,A,2500.8150783,N,12132.4700531,E,0.02,35.89,260623,,,D,V*31
$GPHDT,,T*1B
$GNACCURACY,3.0*15
$GNGGA,112954.300,2500.8150723,N,12132.4700411,E,2,61,0.42,17.608,M,15.25,M,20,3335*7F
$GNRMC,112954.300,A,2500.8150723,N,12132.4700411,E,0.02,35.89,260623,,,D,V*39
$GPHDT,,T*1B
$GNACCURACY,2.9*1D
$GNGGA,112954.400,2500.8150663,N,12132.4700171,E,2,61,0.42,17.610,M,15.25,M,20,3335*77
$GNRMC,112954.400,A,2500.8150663,N,12132.4700171,E,0.02,35.89,260623,,,D,V*38
$GPHDT,,T*1B
$GNACCURACY,2.9*1D
$GNGGA,112954.500,2500.8150543,N,12132.4699991,E,2,61,0.42,17.609,M,15.25,M,20,3335*78
$GNRMC,112954.500,A,2500.8150543,N,12132.4699991,E,0.01,35.89,260623,,,D,V*3C
$GPHDT,,T*1B
$GNACCURACY,2.9*1D
$GNGGA,112954.600,2500.8150483,N,12132.4699871,E,2,61,0.42,17.605,M,15.25,M,20,3335*75
$GNRMC,112954.600,A,2500.8150483,N,12132.4699871,E,0.01,35.89,260623,,,D,V*3D
$GPHDT,,T*1B
$GNACCURACY,3.0*15
$GNGGA,112954.700,2500.8150483,N,12132.4699691,E,2,61,0.42,17.600,M,15.25,M,20,3335*71
$GNRMC,112954.700,A,2500.8150483,N,12132.4699691,E,0.00,35.89,260623,,,D,V*3D
$GPHDT,,T*1B
$GNACCURACY,3.0*15
$GNGGA,112954.800,2500.8150423,N,12132.4699571,E,2,61,0.42,17.594,M,15.25,M,20,3335*77
$GNRMC,112954.800,A,2500.8150423,N,12132.4699571,E,0.00,35.89,260623,,,D,V*35
$GPHDT,,T*1B
$GNACCURACY,3.0*15
$GNGGA,112954.900,2500.8150423,N,12132.4699451,E,2,61,0.42,17.587,M,15.25,M,20,3335*77
$GNRMC,112954.900,A,2500.8150423,N,12132.4699451,E,0.00,35.89,260623,,,D,V*37
$GPHDT,,T*1B
$GNACCURACY,3.0*15
$GNGGA,112955.000,2500.8150423,N,12132.4699391,E,2,61,0.42,17.580,M,15.25,M,21,3335*72
$GNRMC,112955.000,A,2500.8150423,N,12132.4699391,E,0.02,35.89,260623,,,D,V*36
$GPHDT,,T*1B
$GNACCURACY,3.0*15
$GNGGA,112955.100,2500.8150423,N,12132.4699271,E,2,61,0.42,17.573,M,15.25,M,21,3335*70
$GNRMC,112955.100,A,2500.8150423,N,12132.4699271,E,0.02,35.89,260623,,,D,V*38
$GPHDT,,T*1B
$GNGSA,A,3,196,24,199,18,23,195,194,12,10,05,32,,0.67,0.42,0.52,1*07
$GNGSA,A,3,80,73,85,86,71,79,,,,,,,0.67,0.42,0.52,2*05
$GNGSA,A,3,13,08,07,26,30,02,15,03,,,,,0.67,0.42,0.52,3*0C
$GNGSA,A,3,38,08,39,13,16,06,46,09,19,36,35,29,0.67,0.42,0.52,4*05
$GNGSA,A,3,22,20,37,,,,,,,,,,0.67,0.42,0.52,4*02
$GPGSV,4,1,15,196,75,066,20,24,72,041,34,199,60,167,33,18,58,243,38,1*67
$GPGSV,4,2,15,23,52,339,35,41,38,242,42,15,36,048,16,195,33,180,25,1*5A
$GPGSV,4,3,15,194,31,138,22,12,21,140,30,10,19,319,38,05,18,120,30,1*50
$GPGSV,4,4,15,25,10,175,18,32,10,270,30,13,07,058,28,1*58
$GPGSV,3,1,09,196,75,066,37,24,72,041,40,199,60,167,39,18,58,243,39,8*6A
$GPGSV,3,2,09,23,52,339,36,195,33,180,17,194,31,138,34,10,19,319,34,8*6B
$GPGSV,3,3,09,32,10,270,24,8*57
$GLGSV,3,1,09,80,48,074,19,70,41,012,12,73,40,158,26,85,34,244,33,1*7E
$GLGSV,3,2,09,86,27,300,32,71,22,316,42,69,12,075,15,79,10,031,26,1*7E
$GLGSV,3,3,09,84,07,189,,1*4A
$GAGSV,3,1,10,13,55,230,28,08,46,027,30,07,44,305,41,26,33,305,32,7*72
$GAGSV,3,2,10,30,27,143,26,02,26,084,21,15,22,174,17,03,10,065,13,7*7D
$GAGSV,3,3,10,27,02,188,,25,02,042,,7*77
$GAGSV,1,1,04,13,55,230,35,07,44,305,42,26,33,305,38,02,26,084,27,1*75
$GBGSV,4,1,15,38,83,118,43,08,80,003,36,39,71,285,41,13,69,333,42,1*70
$GBGSV,4,2,15,16,66,260,38,06,65,255,35,46,60,109,44,09,50,240,37,1*7F
$GBGSV,4,3,15,19,49,347,30,20,42,065,,36,36,184,21,37,22,047,,1*7D
$GBGSV,4,4,15,35,21,267,34,29,18,211,34,22,12,302,34,1*41
$GBGSV,3,1,10,38,83,118,43,39,71,285,43,46,60,109,48,19,49,347,37,4*7A
$GBGSV,3,2,10,20,42,065,26,36,36,184,32,37,22,047,26,35,21,267,27,4*7C
$GBGSV,3,3,10,29,18,211,23,22,12,302,36,4*74
$GNACCURACY,3.0*15
$PAIRSAT,1,35,1,0,200,2,0,200,3,0,200,4,0,200,5,0,201,6,0,200,7,0,200,8,0,200,9,0,200,10,0,221,11,0,200,12,0,201,13,0,201,14,0,200,15,0,201,16,0,200,17,0,200,18,0,221,19,0,200,20,0,200,21,0,200,23,0,221,24,0,221,25,0,200,26,0,200,27,0,200,28,0,200,29,0,200,30,0,200,31,0,200,32,0,221,194,0,621,195,0,621,196,0,620,199,0,621*68
$PAIRSAT,2,23,65,0,200,67,0,200,68,0,200,69,0,201,70,0,201,71,0,201,72,0,200,73,0,201,74,0,200,75,0,200,76,0,200,77,0,200,78,0,200,79,0,201,80,0,201,81,0,200,82,0,200,83,0,200,84,0,200,85,0,201,86,0,201,87,0,200,88,0,200*53
$PAIRSAT,3,23,2,0,1221,3,0,1221,4,0,1200,5,0,200,7,0,1221,8,0,1221,9,0,1200,10,0,1200,11,0,1200,12,0,1200,13,0,1221,15,0,1221,19,0,1200,21,0,1200,24,0,1200,25,0,1200,26,0,1221,27,0,1200,30,0,1221,31,0,1200,33,0,1200,34,0,1200,36,0,1200*6A
$PAIRSAT,4,50,1,0,200,2,0,200,3,0,200,4,0,200,5,0,200,6,0,201,7,0,200,8,0,201,9,0,201,10,0,200,11,0,200,12,0,200,13,0,201,14,0,200,15,0,200,16,0,201,19,0,621,20,0,621,21,0,600,22,0,621,23,0,600,24,0,600,25,0,600,26,0,600,27,0,600,28,0,600,29,0,621,30,0,600,31,0,200,32,0,600,33,0,600,34,0,600,35,0,621,36,0,621,37,0,621,38,0,621,39,0,621,40,0,600,41,0,600,42,0,600,43,0,600,44,0,600,45,0,600,46,0,621,56,0,200,57,0,200,58,0,200,59,0,600,60,0,600,61,0,600*41
$PAIRDGP,10,5,10,12,13,15,18,23,24,25,32*4D
$GNGGA,112955.200,2500.8150363,N,12132.4699091,E,2,61,0.42,17.568,M,15.25,M,21,3335*76
$GNRMC,112955.200,A,2500.8150363,N,12132.4699091,E,0.01,35.89,260623,,,D,V*37
$GPHDT,,T*1B
$GNACCURACY,3.0*15
$GNGGA,112955.300,2500.8150423,N,12132.4698971,E,2,61,0.42,17.564,M,15.25,M,21,3335*7E
$GNRMC,112955.300,A,2500.8150423,N,12132.4698971,E,0.01,35.89,260623,,,D,V*33
$GPHDT,,T*1B
$GNACCURACY,3.0*15
$GNGGA,112955.400,2500.8150423,N,12132.4698911,E,2,61,0.42,17.557,M,15.25,M,21,3335*7F
$GNRMC,112955.400,A,2500.8150423,N,12132.4698911,E,0.01,35.89,260623,,,D,V*32
$GPHDT,,T*1B
$GNACCURACY,3.0*15
$GNGGA,112955.500,2500.8150423,N,12132.4698851,E,2,61,0.42,17.547,M,15.25,M,21,3335*7A
$GNRMC,112955.500,A,2500.8150423,N,12132.4698851,E,0.01,35.89,260623,,,D,V*36
$GPHDT,,T*1B
$GNACCURACY,3.0*15
$GNGGA,112955.600,2500.8150363,N,12132.4698731,E,2,61,0.42,17.538,M,15.25,M,21,3335*7B
$GNRMC,112955.600,A,2500.8150363,N,12132.4698731,E,0.01,35.89,260623,,,D,V*3F
$GPHDT,,T*1B
$GNACCURACY,3.0*15
$GNGGA,112955.700,2500.8150363,N,12132.4698611,E,2,61,0.42,17.529,M,15.25,M,21,3335*79
$GNRMC,112955.700,A,2500.8150363,N,12132.4698611,E,0.02,35.89,260623,,,D,V*3E
$GPHDT,,T*1B
$GNACCURACY,3.0*15
$GNGGA,112955.800,2500.8150363,N,12132.4698551,E,2,61,0.42,17.525,M,15.25,M,21,3335*7D
$GNRMC,112955.800,A,2500.8150363,N,12132.4698551,E,0.01,35.89,260623,,,D,V*35
$GPHDT,,T*1B
$GNACCURACY,3.1*14
$GNGGA,112955.900,2500.8150423,N,12132.4698431,E,2,61,0.42,17.519,M,15.25,M,21,3335*77
$GNRMC,112955.900,A,2500.8150423,N,12132.4698431,E,0.02,35.89,260623,,,D,V*33
