$FW : RTK35X,V1.1X0314AS,Lib20210517,1*54
$Tool : LOCOSYS , GNSS Firebird , v1.0.0.19*39
$---------------------------------------------------*2D
,30,0,1221,31,0,1200,33,0,1200,34,0,1200,36,0,1200*6A
$PAIRSAT,4,50,1,0,200,2,0,200,3,0,200,4,0,200,5,0,200,6,0,201,7,0,200,8,0,201,9,0,201,10,0,200,11,0,200,12,0,200,13,0,201,14,0,200,15,0,200,16,0,201,19,0,621,20,0,621,21,0,600,22,0,621,23,0,600,24,0,600,25,0,600,26,0,600,27,0,600,28,0,600,29,0,621,30,0,600,31,0,200,32,0,600,33,0,600,34,0,600,35,0,621,36,0,621,37,0,621,38,0,621,39,0,621,40,0,600,41,0,600,42,0,600,43,0,600,44,0,600,45,0,600,46,0,621,56,0,200,57,0,200,58,0,200,59,0,600,60,0,600,61,0,600*41
$PAIRDGP,10,5,10,12,13,15,18,23,24,25,32*4D
$GNGGA,113122.200,2500.8147657,N,12132.4688893,E,2,64,0.42,16.910,M,15.25,M,1,3335*44
$GNRMC,113122.200,A,2500.8147657,N,12132.4688893,E,0.02,35.89,260623,,,D,V*33
$GPHDT,,T*1B
$GNACCURACY,2.7*13
$GNGGA,113122.300,2500.8147597,N,12132.4688833,E,2,64,0.42,16.923,M,15.25,M,1,3335*40
$GNRMC,113122.300,A,2500.8147597,N,12132.4688833,E,0.02,35.89,260623,,,D,V*37
$GPHDT,,T*1B
$GNACCURACY,2.7*13
$GNGGA,113122.400,2500.8147537,N,12132.4688773,E,2,65,0.42,16.934,M,15.25,M,1,3335*41
$GNRMC,113122.400,A,2500.8147537,N,12132.4688773,E,0.02,35.89,260623,,,D,V*31
$GPHDT,,T*1B
$GNACCURACY,2.7*13
$GNGGA,113122.500,2500.8147477,N,12132.4688713,E,2,63,0.42,16.942,M,15.25,M,1,3335*44
$GNRMC,113122.500,A,2500.8147477,N,12132.4688713,E,0.02,35.89,260623,,,D,V*33
$GPHDT,,T*1B
$GNACCURACY,2.8*1C
$GNGGA,113122.600,2500.8147417,N,12132.4688593,E,2,63,0.42,16.953,M,15.25,M,1,3335*4B
$GNRMC,113122.600,A,2500.8147417,N,12132.4688593,E,0.02,35.89,260623,,,D,V*3C
$GPHDT,,T*1B
$GNACCURACY,2.8*1C
$GNGGA,113122.700,2500.8147417,N,12132.4688533,E,2,63,0.42,16.965,M,15.25,M,1,3335*45
$GNRMC,113122.700,A,2500.8147417,N,12132.4688533,E,0.02,35.89,260623,,,D,V*37
$GPHDT,,T*1B
$GNACCURACY,2.8*1C
$GNGGA,113122.800,2500.8147357,N,12132.4688413,E,2,63,0.42,16.979,M,15.25,M,1,3335*47
$GNRMC,113122.800,A,2500.8147357,N,12132.4688413,E,0.01,35.89,260623,,,D,V*3B
$GPHDT,,T*1B
$GNACCURACY,2.8*1C
$GNGGA,113122.900,2500.8147297,N,12132.4688353,E,2,63,0.42,16.993,M,15.25,M,1,3335*4C
$GNRMC,113122.900,A,2500.8147297,N,12132.4688353,E,0.02,35.89,260623,,,D,V*37
$GPHDT,,T*1B
$GNACCURACY,2.8*1C
$GNGGA,113123.000,2500.8147297,N,12132.4688293,E,2,63,0.42,17.008,M,15.25,M,2,3335*40
$GNRMC,113123.000,A,2500.8147297,N,12132.4688293,E,0.01,35.89,260623,,,D,V*31
$GPHDT,,T*1B
$GNACCURACY,2.8*1C
$GNGGA,113123.100,2500.8147237,N,12132.4688233,E,2,63,0.42,17.022,M,15.25,M,2,3335*49
$GNRMC,113123.100,A,2500.8147237,N,12132.4688233,E,0.01,35.89,260623,,,D,V*30
$GPHDT,,T*1B
$GNGSA,A,3,196,24,199,18,23,15,195,194,12,10,05,32,0.67,0.42,0.52,1*03
$GNGSA,A,3,80,73,85,86,71,69,79,,,,,,0.67,0.42,0.52,2*0A
$GNGSA,A,3,13,08,07,26,30,15,02,,,,,,0.67,0.42,0.52,3*0F
$GNGSA,A,3,38,08,39,13,16,06,46,19,09,20,36,35,0.67,0.42,0.52,4*0C
$GNGSA,A,3,37,29,22,,,,,,,,,,0.67,0.42,0.52,4*0B
$GPGSV,4,1,15,196,75,066,15,24,71,040,28,199,60,167,34,18,57,242,45,1*6D
$GPGSV,4,2,15,23,53,340,30,41,38,242,45,15,36,049,27,195,33,180,30,1*50
$GPGSV,4,3,15,194,31,138,31,12,22,139,26,10,20,320,31,05,18,120,27,1*57
$GPGSV,4,4,15,25,10,175,16,32,10,271,20,13,07,058,21,1*5F
$GPGSV,3,1,09,196,75,066,36,24,71,040,36,199,60,167,44,18,57,242,47,8*65
$GPGSV,3,2,09,23,53,340,39,195,33,180,29,194,31,138,26,10,20,320,35,8*64
$GPGSV,3,3,09,32,10,271,14,8*55
$GLGSV,3,1,09,80,48,072,24,70,41,013,,73,41,158,33,85,34,243,37,1*72
$GLGSV,3,2,09,86,27,299,42,71,23,316,39,69,12,076,13,79,10,031,34,1*73
$GLGSV,3,3,09,84,06,189,,1*4B
$GAGSV,3,1,09,13,55,229,44,08,46,027,16,07,44,305,42,26,33,305,43,7*79
$GAGSV,3,2,09,30,27,142,19,02,26,083,,15,21,174,21,03,09,066,18,7*7A
$GAGSV,3,3,09,27,02,187,,7*43
$GAGSV,2,1,06,13,55,229,46,08,46,027,24,07,44,305,40,26,33,305,43,1*70
$GAGSV,2,2,06,30,27,142,25,02,26,083,18,1*71
$GBGSV,4,1,15,38,83,121,44,08,80,002,37,39,71,286,42,13,69,332,41,1*7F
$GBGSV,4,2,15,16,66,261,42,06,65,256,40,46,61,107,45,19,50,347,35,1*79
$GBGSV,4,3,15,09,50,240,40,20,42,065,30,36,37,184,31,35,21,267,37,1*73
$GBGSV,4,4,15,37,21,046,22,29,18,210,23,22,12,303,40,1*40
$GBGSV,2,1,08,38,83,121,44,39,71,286,47,46,61,107,47,19,50,347,36,4*71
$GBGSV,2,2,08,36,37,184,24,35,21,267,30,29,18,210,31,22,12,303,29,4*7F
$GNACCURACY,2.8*1C
$PAIRSAT,1,35,1,0,200,2,0,200,3,0,200,4,0,200,5,0,201,6,0,200,7,0,200,8,0,200,9,0,200,10,0,221,11,0,200,12,0,201,13,0,201,14,0,200,15,0,201,16,0,200,17,0,200,18,0,221,19,0,200,20,0,200,21,0,200,23,0,221,24,0,221,25,0,200,26,0,200,27,0,200,28,0,200,29,0,200,30,0,200,31,0,200,32,0,221,194,0,621,195,0,621,196,0,620,199,0,621*68
$PAIRSAT,2,23,65,0,200,67,0,200,68,0,200,69,0,201,70,0,201,71,0,201,72,0,200,73,0,201,74,0,200,75,0,200,76,0,200,77,0,200,78,0,200,79,0,201,80,0,201,81,0,200,82,0,200,83,0,200,84,0,200,85,0,201,86,0,201,87,0,200,88,0,200*53
$PAIRSAT,3,23,2,0,1221,3,0,1221,4,0,1200,5,0,200,7,0,1221,8,0,1221,9,0,1200,10,0,1200,11,0,1200,12,0,1200,13,0,1221,15,0,1221,19,0,1200,21,0,1200,24,0,1200,25,0,1200,26,0,1221,27,0,1200,30,0,1221,31,0,1200,33,0,1200,34,0,1200,36,0,1200*6A
$PAIRSAT,4,50,1,0,200,2,0,200,3,0,200,4,0,200,5,0,200,6,0,201,7,0,200,8,0,201,9,0,201,10,0,200,11,0,200,12,0,200,13,0,201,14,0,200,15,0,200,16,0,201,19,0,621,20,0,621,21,0,600,22,0,621,23,0,600,24,0,600,25,0,600,26,0,600,27,0,600,28,0,600,29,0,621,30,0,600,31,0,200,32,0,600,33,0,600,34,0,600,35,0,621,36,0,621,37,0,621,38,0,621,39,0,621,40,0,600,41,0,600,42,0,600,43,0,600,44,0,600,45,0,600,46,0,621,56,0,200,57,0,200,58,0,200,59,0,600,60,0,600,61,0,600*41
$PAIRDGP,10,5,10,12,13,15,18,23,24,25,32*4D
$GNGGA,113123.200,2500.8147177,N,12132.4688113,E,2,63,0.42,17.034,M,15.25,M,2,3335*4B
$GNRMC,113123.200,A,2500.8147177,N,12132.4688113,E,0.00,35.89,260623,,,D,V*34
$GPHDT,,T*1B
$GNACCURACY,2.8*1C
$GNGGA,113123.300,2500.8147177,N,12132.4688053,E,2,63,0.42,17.048,M,15.25,M,2,3335*44
$GNRMC,113123.300,A,2500.8147177,N,12132.4688053,E,0.01,35.89,260623,,,D,V*31
$GPHDT,,T*1B
$GNACCURACY,2.7*13
$GNGGA,113123.400,2500.8147117,N,12132.4687993,E,2,63,0.42,17.063,M,15.25,M,2,3335*46
$GNRMC,113123.400,A,2500.8147117,N,12132.4687993,E,0.00,35.89,260623,,,D,V*3B
$GPHDT,,T*1B
$GNACCURACY,2.7*13
$GNGGA,113123.500,2500.8147117,N,12132.4687933,E,2,63,0.42,17.077,M,15.25,M,2,3335*48
$GNRMC,113123.500,A,2500.8147117,N,12132.4687933,E,0.01,35.89,260623,,,D,V*31
$GPHDT,,T*1B
$GNACCURACY,2.7*13
$GNGGA,113123.600,2500.8147057,N,12132.4687873,E,2,62,0.43,17.091,M,15.25,M,2,3335*43
$GNRMC,113123.600,A,2500.8147057,N,12132.4687873,E,0.00,35.89,260623,,,D,V*33
$GPHDT,,T*1B
$GNACCURACY,2.7*13
$GNGGA,113123.700,2500.8147057,N,12132.4687813,E,2,61,0.43,17.104,M,15.25,M,2,3335*4A
$GNRMC,113123.700,A,2500.8147057,N,12132.4687813,E,0.01,35.89,260623,,,D,V*35
$GPHDT,,T*1B
$GNACCURACY,2.8*1C
$GNGGA,113123.800,2500.8147057,N,12132.4687813,E,2,60,0.43,17.117,M,15.25,M,2,3335*46
$GNRMC,113123.800,A,2500.8147057,N,12132.4687813,E,0.05,35.89,260623,,,D,V*3E
$GPHDT,,T*1B
$GNACCURACY,2.8*1C
$GNGGA,113123.900,2500.8147057,N,12132.4687753,E,2,60,0.43,17.131,M,15.25,M,2,3335*48
$GNRMC,113123.900,A,2500.8147057,N,12132.4687753,E,0.05,35.89,260623,,,D,V*34
$GPHDT,,T*1B
$GNACCURACY,2.8*1C
$GNGGA,113124.000,2500.8147057,N,12132.4687753,E,2,60,0.43,17.144,M,15.25,M,3,3335*45
$GNRMC,113124.000,A,2500.8147057,N,12132.4687753,E,0.03,35.89,260623,,,D,V*3C
$GPHDT,,T*1B
$GNACCURACY,2.8*1C
$GNGGA,113124.100,2500.8147057,N,12132.4687753,E,2,62,0.43,17.159,M,15.25,M,3,3335*4A
$GNRMC,113124.100,A,2500.8147057,N,12132.4687753,E,0.01,35.89,260623,,,D,V*3F
$GPHDT,,T*1B
$GNGSA,A,3,196,24,199,18,23,15,195,194,12,10,05,32,0.69,0.43,0.54,1*0A
$GNGSA,A,3,80,73,85,86,71,79,,,,,,,0.69,0.43,0.54,2*0C
$GNGSA,A,3,13,08,07,26,30,02,15,,,,,,0.69,0.43,0.54,3*06
$GNGSA,A,3,38,08,39,13,16,06,46,19,09,20,36,37,0.69,0.43,0.54,4*07
$GNGSA,A,3,35,29,22,,,,,,,,,,0.69,0.43,0.54,4*00
$GPGSV,4,1,15,196,75,066,15,24,71,040,29,199,60,167,34,18,57,242,45,1*6C
$GPGSV,4,2,15,23,53,340,30,41,38,242,45,15,36,049,25,195,33,180,30,1*52
$GPGSV,4,3,15,194,31,138,31,12,22,139,26,10,20,320,31,05,18,120,25,1*55
$GPGSV,4,4,15,25,10,175,15,32,10,271,19,13,07,058,22,1*55
$GPGSV,3,1,09,196,75,066,36,24,71,040,36,199,60,167,44,18,57,242,47,8*65
$GPGSV,3,2,09,23,53,340,38,195,33,180,28,194,31,138,24,10,20,320,35,8*66
$GPGSV,3,3,09,32,10,271,11,8*50
$GLGSV,3,1,10,80,48,072,21,70,41,013,,73,41,158,34,85,34,243,37,1*78
$GLGSV,3,2,10,86,27,299,42,71,23,316,40,69,12,076,15,79,10,031,32,1*75
$GLGSV,3,3,10,84,06,189,,74,05,187,,1*7B
$GAGSV,3,1,09,13,55,229,44,08,46,027,18,07,44,305,42,26,33,305,43,7*77
$GAGSV,3,2,09,30,27,142,19,02,26,083,21,15,21,174,21,03,09,066,16,7*77
$GAGSV,3,3,09,27,02,187,,7*43
$GAGSV,2,1,06,13,55,229,46,08,46,027,24,07,44,305,40,26,33,305,42,1*71
$GAGSV,2,2,06,30,27,142,24,02,26,083,17,1*7F
$GBGSV,5,1,17,38,83,121,44,08,80,002,37,39,71,286,42,13,69,332,41,1*7C
$GBGSV,5,2,17,16,66,261,42,06,65,256,40,46,61,107,46,19,50,347,35,1*79
$GBGSV,5,3,17,09,50,240,40,20,42,065,28,36,37,184,32,37,21,046,19,1*75
$GBGSV,5,4,17,35,21,267,37,29,18,210,24,22,12,303,40,07,05,192,,1*7B
$GBGSV,5,5,17,44,03,310,,1*41
$GBGSV,2,1,08,38,83,121,44,39,71,286,46,46,61,107,47,19,50,347,37,4*71
$GBGSV,2,2,08,36,37,184,24,35,21,267,29,29,18,210,32,22,12,303,30,4*7C
$GNACCURACY,2.8*1C
$PAIRSAT,1,35,1,0,200,2,0,200,3,0,200,4,0,200,5,0,201,6,0,200,7,0,200,8,0,200,9,0,200,10,0,221,11,0,200,12,0,201,13,0,201,14,0,200,15,0,201,16,0,200,17,0,200,18,0,221,19,0,200,20,0,200,21,0,200,23,0,221,24,0,221,25,0,200,26,0,200,27,0,200,28,0,200,29,0,200,30,0,200,31,0,200,32,0,221,194,0,621,195,0,621,196,0,620,199,0,621*68
$PAIRSAT,2,23,65,0,200,67,0,200,68,0,200,69,0,201,70,0,201,71,0,201,72,0,200,73,0,201,74,0,200,75,0,200,76,0,200,77,0,200,78,0,200,79,0,201,80,0,201,81,0,200,82,0,200,83,0,200,84,0,200,85,0,201,86,0,201,87,0,200,88,0,200*53
$PAIRSAT,3,23,2,0,1221,3,0,1221,4,0,1200,5,0,200,7,0,1221,8,0,1221,9,0,1200,10,0,1200,11,0,1200,12,0,1200,13,0,1221,15,0,1221,19,0,1200,21,0,1200,24,0,1200,25,0,1200,26,0,1221,27,0,1200,30,0,1221,31,0,1200,33,0,1200,34,0,1200,36,0,1200*6A
$PAIRSAT,4,50,1,0,200,2,0,200,3,0,200,4,0,200,5,0,200,6,0,201,7,0,200,8,0,201,9,0,201,10,0,200,11,0,200,12,0,200,13,0,201,14,0,200,15,0,200,16,0,201,19,0,621,20,0,621,21,0,600,22,0,621,23,0,600,24,0,600,25,0,600,26,0,600,27,0,600,28,0,600,29,0,621,30,0,600,31,0,200,32,0,600,33,0,600,34,0,600,35,0,621,36,0,621,37,0,621,38,0,621,39,0,621,40,0,600,41,0,600,42,0,600,43,0,600,44,0,600,45,0,600,46,0,621,56,0,200,57,0,200,58,0,200,59,0,600,60,0,600,61,0,600*41
$PAIRDGP,10,5,10,12,13,15,18,23,24,25,32*4D
$GNGGA,113124.200,2500.8147057,N,12132.4687693,E,2,63,0.43,17.176,M,15.25,M,3,3335*48
$GNRMC,113124.200,A,2500.8147057,N,12132.4687693,E,0.03,35.89,260623,,,D,V*33
$GPHDT,,T*1B
$GNACCURACY,2.8*1C
$GNGGA,113124.300,2500.8146997,N,12132.4687693,E,2,61,0.45,17.188,M,15.25,M,3,3335*48
$GNRMC,113124.300,A,2500.8146997,N,12132.4687693,E,0.02,35.89,260623,,,D,V*37
$GPHDT,,T*1B
$GNACCURACY,2.8*1C
$GNGGA,113124.400,2500.8146997,N,12132.4687633,E,2,62,0.45,17.199,M,15.25,M,3,3335*46
$GNRMC,113124.400,A,2500.8146997,N,12132.4687633,E,0.03,35.89,260623,,,D,V*3B
$GPHDT,,T*1B
$GNACCURACY,2.8*1C
$GNGGA,113124.500,2500.8146937,N,12132.4687633,E,2,61,0.46,17.212,M,15.25,M,3,3335*4D
$GNRMC,113124.500,A,2500.8146937,N,12132.4687633,E,0.01,35.89,260623,,,D,V*32
$GPHDT,,T*1B
$GNACCURACY,2.8*1C
$GNGGA,113124.600,2500.8146937,N,12132.4687633,E,2,62,0.45,17.221,M,15.25,M,3,3335*4E
$GNRMC,113124.600,A,2500.8146937,N,12132.4687633,E,0.09,35.89,260623,,,D,V*39
$GPHDT,,T*1B
$GNACCURACY,2.7*13
$GNGGA,113124.700,2500.8146877,N,12132.4687573,E,2,62,0.45,17.232,M,15.25,M,3,3335*4F
$GNRMC,113124.700,A,2500.8146877,N,12132.4687573,E,0.07,35.89,260623,,,D,V*34
$GPHDT,,T*1B
$GNACCURACY,2.7*13
$GNGGA,113124.800,2500.8146877,N,12132.4687573,E,2,62,0.45,17.245,M,15.25,M,3,3335*40
$GNRMC,113124.800,A,2500.8146877,N,12132.4687573,E,0.04,35.89,260623,,,D,V*38
$GPHDT,,T*1B
$GNACCURACY,2.7*13
$GNGGA,113124.900,2500.8146877,N,12132.4687573,E,2,62,0.45,17.257,M,15.25,M,3,3335*42
$GNRMC,113124.900,A,2500.8146877,N,12132.4687573,E,0.05,35.89,260623,,,D,V*38
$GPHDT,,T*1B
$GNACCURACY,2.7*13
$GNGGA,113125.000,2500.8146877,N,12132.4687513,E,2,62,0.45,17.271,M,15.25,M,4,3335*4F
$GNRMC,113125.000,A,2500.8146877,N,12132.4687513,E,0.04,35.89,260623,,,D,V*37
$GPHDT,,T*1B
$GNACCURACY,2.7*13
$GNGGA,113125.100,2500.8146817,N,12132.4687513,E,2,62,0.43,17.281,M,15.25,M,4,3335*41
$GNRMC,113125.100,A,2500.8146817,N,12132.4687513,E,0.03,35.89,260623,,,D,V*37
$GPHDT,,T*1B
$GNGSA,A,3,196,24,199,18,23,15,195,194,12,10,05,32,0.69,0.43,0.54,1*0A
$GNGSA,A,3,80,73,85,86,71,79,,,,,,,0.69,0.43,0.54,2*0C
$GNGSA,A,3,13,08,07,26,30,02,15,,,,,,0.69,0.43,0.54,3*06
$GNGSA,A,3,38,08,39,13,16,06,46,19,09,36,35,29,0.69,0.43,0.54,4*0C
$GNGSA,A,3,22,37,,,,,,,,,,,0.69,0.43,0.54,4*09
$GPGSV,4,1,15,196,75,066,16,24,71,040,28,199,60,167,34,18,57,242,45,1*6E
$GPGSV,4,2,15,23,53,340,30,41,38,242,45,15,36,049,27,195,33,180,29,1*58
$GPGSV,4,3,15,194,31,138,32,12,22,139,26,10,20,320,32,05,18,120,26,1*56
$GPGSV,4,4,15,25,10,175,15,32,10,271,21,13,07,058,22,1*5E
$GPGSV,3,1,09,196,75,066,35,24,71,040,36,199,60,167,44,18,57,242,47,8*66
$GPGSV,3,2,09,23,53,340,39,195,33,180,27,194,31,138,25,10,20,320,35,8*69
$GPGSV,3,3,09,32,10,271,16,8*57
$GLGSV,3,1,10,80,48,072,23,70,41,013,,73,41,158,34,85,34,243,37,1*7A
$GLGSV,3,2,10,86,27,299,41,71,23,316,39,69,12,076,16,79,10,031,33,1*7A
$GLGSV,3,3,10,84,06,189,,74,05,187,,1*7B
$GAGSV,3,1,09,13,55,229,44,08,46,027,18,07,44,305,42,26,33,305,43,7*77
$GAGSV,3,2,09,30,27,142,20,02,26,083,20,15,21,174,21,03,09,066,17,7*7D
$GAGSV,3,3,09,27,02,187,,7*43
$GAGSV,2,1,06,13,55,229,46,08,46,027,24,07,44,305,41,26,33,305,42,1*70
$GAGSV,2,2,06,30,27,142,26,02,26,083,17,1*7D
$GBGSV,4,1,15,38,83,121,43,08,80,002,37,39,71,286,42,13,69,332,41,1*78
$GBGSV,4,2,15,16,66,261,42,06,65,256,40,46,61,107,46,19,50,347,34,1*7B
$GBGSV,4,3,15,09,50,240,40,20,42,065,27,36,37,184,34,37,21,046,17,1*71
$GBGSV,4,4,15,35,21,267,37,29,18,210,25,22,12,303,40,1*41
$GBGSV,3,1,09,38,83,121,43,39,71,286,46,46,61,107,47,19,50,347,37,4*76
$GBGSV,3,2,09,36,37,184,24,35,21,267,29,37,21,046,20,29,18,210,31,4*78
$GBGSV,3,3,09,22,12,303,28,4*43
$GNACCURACY,2.7*13
$PAIRSAT,1,35,1,0,200,2,0,200,3,0,200,4,0,200,5,0,201,6,0,200,7,0,200,8,0,200,9,0,200,10,0,221,11,0,200,12,0,201,13,0,201,14,0,200,15,0,201,16,0,200,17,0,200,18,0,221,19,0,200,20,0,200,21,0,200,23,0,221,24,0,221,25,0,200,26,0,200,27,0,200,28,0,200,29,0,200,30,0,200,31,0,200,32,0,221,194,0,621,195,0,621,196,0,620,199,0,621*68
$PAIRSAT,2,23,65,0,200,67,0,200,68,0,200,69,0,201,70,0,201,71,0,201,72,0,200,73,0,201,74,0,200,75,0,200,76,0,200,77,0,200,78,0,200,79,0,201,80,0,201,81,0,200,82,0,200,83,0,200,84,0,200,85,0,201,86,0,201,87,0,200,88,0,200*53
$PAIRSAT,3,23,2,0,1221,3,0,1221,4,0,1200,5,0,200,7,0,1221,8,0,1221,9,0,1200,10,0,1200,11,0,1200,12,0,1200,13,0,1221,15,0,1221,19,0,1200,21,0,1200,24,0,1200,25,0,1200,26,0,1221,27,0,1200,30,0,1221,31,0,1200,33,0,1200,34,0,1200,36,0,1200*6A
$PAIRSAT,4,50,1,0,200,2,0,200,3,0,200,4,0,200,5,0,200,6,0,201,7,0,200,8,0,201,9,0,201,10,0,200,11,0,200,12,0,200,13,0,201,14,0,200,15,0,200,16,0,201,19,0,621,20,0,621,21,0,600,22,0,621,23,0,600,24,0,600,25,0,600,26,0,600,27,0,600,28,0,600,29,0,621,30,0,600,31,0,200,32,0,600,33,0,600,34,0,600,35,0,621,36,0,621,37,0,621,38,0,621,39,0,621,40,0,600,41,0,600,42,0,600,43,0,600,44,0,600,45,0,600,46,0,621,56,0,200,57,0,200,58,0,200,59,0,600,60,0,600,61,0,600*41
$PAIRDGP,10,5,10,12,13,15,18,23,24,25,32*4D
$GNGGA,113125.200,2500.8146817,N,12132.4687453,E,2,62,0.43,17.292,M,15.25,M,4,3335*45
$GNRMC,113125.200,A,2500.8146817,N,12132.4687453,E,0.03,35.89,260623,,,D,V*31
$GPHDT,,T*1B
$GNACCURACY,2.7*13
$GNGGA,113125.300,2500.8146817,N,12132.4687453,E,2,62,0.43,17.306,M,15.25,M,4,3335*48
$GNRMC,113125.300,A,2500.8146817,N,12132.4687453,E,0.03,35.89,260623,,,D,V*30
$GPHDT,,T*1B
$GNACCURACY,2.7*13
$GNGGA,113125.400,2500.8146757,N,12132.4687453,E,2,63,0.43,17.314,M,15.25,M,4,3335*46
$GNRMC,113125.400,A,2500.8146757,N,12132.4687453,E,0.02,35.89,260623,,,D,V*3D
$GPHDT,,T*1B
$GNACCURACY,2.7*13
$GNGGA,113125.500,2500.8146757,N,12132.4687513,E,2,62,0.43,17.322,M,15.25,M,1,3335*43
$GNRMC,113125.500,A,2500.8146757,N,12132.4687513,E,0.03,35.89,260623,,,D,V*38
$GPHDT,,T*1B
$GNACCURACY,2.7*13
$GNGGA,113125.600,2500.8146697,N,12132.4687513,E,2,62,0.43,17.332,M,15.25,M,1,3335*4C
$GNRMC,113125.600,A,2500.8146697,N,12132.4687513,E,0.02,35.89,260623,,,D,V*37
$GPHDT,,T*1B
$GNACCURACY,2.7*13
$GNGGA,113125.700,2500.8146637,N,12132.4687513,E,2,63,0.43,17.340,M,15.25,M,1,3335*43
$GNRMC,113125.700,A,2500.8146637,N,12132.4687513,E,0.01,35.89,260623,,,D,V*3F
$GPHDT,,T*1B
$GNACCURACY,2.7*13
$GNGGA,113125.800,2500.8146637,N,12132.4687513,E,2,63,0.43,17.347,M,15.25,M,1,3335*4B
$GNRMC,113125.800,A,2500.8146637,N,12132.4687513,E,0.02,35.89,260623,,,D,V*33
$GPHDT,,T*1B
$GNACCURACY,2.7*13
$GNGGA,113125.900,2500.8146637,N,12132.4687513,E,2,63,0.43,17.357,M,15.25,M,1,3335*4B
$GNRMC,113125.900,A,2500.8146637,N,12132.4687513,E,0.01,35.89,260623,,,D,V*31
$GPHDT,,T*1B
$GNACCURACY,2.7*13
$GNGGA,113126.000,2500.8146577,N,12132.4687513,E,2,63,0.43,17.367,M,15.25,M,2,3335*46
$GNRMC,113126.000,A,2500.8146577,N,12132.4687513,E,0.01,35.89,260623,,,D,V*3C
$GPHDT,,T*1B
$GNACCURACY,2.7*13
$GNGGA,113126.100,2500.8146577,N,12132.4687513,E,2,63,0.45,17.379,M,15.25,M,2,3335*4E
$GNRMC,113126.100,A,2500.8146577,N,12132.4687513,E,0.01,35.89,260623,,,D,V*3D
$GPHDT,,T*1B
$GNGSA,A,3,196,24,199,18,23,15,195,194,12,10,05,32,0.70,0.45,0.54,1*04
$GNGSA,A,3,80,73,85,86,71,69,,,,,,,0.70,0.45,0.54,2*03
$GNGSA,A,3,13,08,07,26,30,02,15,,,,,,0.70,0.45,0.54,3*08
$GNGSA,A,3,38,08,39,13,16,06,46,19,09,36,35,37,0.70,0.45,0.54,4*0D
$GNGSA,A,3,29,22,,,,,,,,,,,0.70,0.45,0.54,4*08
$GPGSV,4,1,15,196,75,066,15,24,71,040,28,199,60,167,34,18,57,242,45,1*6D
$GPGSV,4,2,15,23,53,340,31,41,38,242,45,15,36,049,27,195,33,180,29,1*59
$GPGSV,4,3,15,194,31,138,32,12,22,139,25,10,20,320,32,05,18,120,26,1*55
$GPGSV,4,4,15,25,10,175,17,32,10,271,20,13,07,058,23,1*5C
$GPGSV,3,1,09,196,75,066,35,24,71,040,36,199,60,167,44,18,57,242,47,8*66
$GPGSV,3,2,09,23,53,340,39,195,33,180,26,194,31,138,26,10,20,320,35,8*6B
$GPGSV,3,3,09,32,10,271,17,8*56
$GLGSV,3,1,09,80,48,072,23,70,41,013,,73,41,158,34,85,34,243,37,1*72
$GLGSV,3,2,09,86,27,299,41,71,23,316,39,69,12,076,17,79,09,031,34,1*7C
$GLGSV,3,3,09,84,06,189,,1*4B
$GAGSV,3,1,09,13,55,229,44,08,46,027,19,07,44,305,42,26,33,305,43,7*76
$GAGSV,3,2,09,30,27,142,19,02,26,083,22,15,21,174,21,03,09,066,18,7*7A
$GAGSV,3,3,09,27,02,187,,7*43
$GAGSV,2,1,06,13,55,229,46,08,46,027,24,07,44,305,41,26,33,305,42,1*70
$GAGSV,2,2,06,30,27,142,27,02,26,083,15,1*7E
$GBGSV,4,1,15,38,83,121,43,08,80,002,37,39,71,286,42,13,69,332,41,1*78
$GBGSV,4,2,15,16,66,261,42,06,65,256,40,46,61,107,46,19,50,347,34,1*7B
$GBGSV,4,3,15,09,50,240,40,20,42,065,26,36,37,184,34,35,21,267,38,1*7E
$GBGSV,4,4,15,37,21,046,20,29,18,210,27,22,12,303,40,1*46
$GBGSV,3,1,09,38,83,121,43,39,71,286,46,46,61,107,47,19,50,347,37,4*76
$GBGSV,3,2,09,36,37,184,23,35,21,267,28,37,21,046,26,29,18,210,31,4*78
$GBGSV,3,3,09,22,12,303,29,4*42
$GNACCURACY,2.7*13
$PAIRSAT,1,35,1,0,200,2,0,200,3,0,200,4,0,200,5,0,201,6,0,200,7,0,200,8,0,200,9,0,200,10,0,221,11,0,200,12,0,201,13,0,201,14,0,200,15,0,201,16,0,200,17,0,200,18,0,221,19,0,200,20,0,200,21,0,200,23,0,221,24,0,221,25,0,200,26,0,200,27,0,200,28,0,200,29,0,200,30,0,200,31,0,200,32,0,221,194,0,621,195,0,621,196,0,620,199,0,621*68
$PAIRSAT,2,23,65,0,200,67,0,200,68,0,200,69,0,201,70,0,201,71,0,201,72,0,200,73,0,201,74,0,200,75,0,200,76,0,200,77,0,200,78,0,200,79,0,201,80,0,201,81,0,200,82,0,200,83,0,200,84,0,200,85,0,201,86,0,201,87,0,200,88,0,200*53
$PAIRSAT,3,23,2,0,1221,3,0,1221,4,0,1200,5,0,200,7,0,1221,8,0,1221,9,0,1200,10,0,1200,11,0,1200,12,0,1200,13,0,1221,15,0,1221,19,0,1200,21,0,1200,24,0,1200,25,0,1200,26,0,1221,27,0,1200,30,0,1221,31,0,1200,33,0,1200,34,0,1200,36,0,1200*6A
$PAIRSAT,4,50,1,0,200,2,0,200,3,0,200,4,0,200,5,0,200,6,0,201,7,0,200,8,0,201,9,0,201,10,0,200,11,0,200,12,0,200,13,0,201,14,0,200,15,0,200,16,0,201,19,0,621,20,0,621,21,0,600,22,0,621,23,0,600,24,0,600,25,0,600,26,0,600,27,0,600,28,0,600,29,0,621,30,0,600,31,0,200,32,0,600,33,0,600,34,0,600,35,0,621,36,0,621,37,0,621,38,0,621,39,0,621,40,0,600,41,0,600,42,0,600,43,0,600,44,0,600,45,0,600,46,0,621,56,0,200,57,0,200,58,0,200,59,0,600,60,0,600,61,0,600*41
$PAIRDGP,10,5,10,12,13,15,18,23,24,25,32*4D
$GNGGA,113126.200,2500.8146517,N,12132.4687453,E,2,63,0.45,17.389,M,15.25,M,2,3335*41
$GNRMC,113126.200,A,2500.8146517,N,12132.4687453,E,0.02,35.89,260623,,,D,V*3E
$GPHDT,,T*1B
$GNACCURACY,2.7*13
$GNGGA,113126.300,2500.8146517,N,12132.4687453,E,2,63,0.45,17.405,M,15.25,M,2,3335*43
$GNRMC,113126.300,A,2500.8146517,N,12132.4687453,E,0.01,35.89,260623,,,D,V*3C
$GPHDT,,T*1B
$GNACCURACY,2.7*13
$GNGGA,113126.400,2500.8146457,N,12132.4687453,E,2,63,0.45,17.417,M,15.25,M,2,3335*42
$GNRMC,113126.400,A,2500.8146457,N,12132.4687453,E,0.01,35.89,260623,,,D,V*3E
$GPHDT,,T*1B
$GNACCURACY,2.7*13
$GNGGA,113126.500,2500.8146457,N,12132.4687453,E,2,63,0.45,17.429,M,15.25,M,2,3335*4E
$GNRMC,113126.500,A,2500.8146457,N,12132.4687453,E,0.02,35.89,260623,,,D,V*3C
$GPHDT,,T*1B
$GNACCURACY,2.7*13
$GNGGA,113126.600,2500.8146457,N,12132.4687393,E,2,63,0.45,17.443,M,15.25,M,2,3335*4A
$GNRMC,113126.600,A,2500.8146457,N,12132.4687393,E,0.01,35.89,260623,,,D,V*37
$GPHDT,,T*1B
$GNACCURACY,2.7*13
$GNGGA,113126.700,2500.8146457,N,12132.4687393,E,2,63,0.45,17.457,M,15.25,M,2,3335*4E
$GNRMC,113126.700,A,2500.8146457,N,12132.4687393,E,0.00,35.89,260623,,,D,V*37
$GPHDT,,T*1B
$GNACCURACY,2.7*13
$GNGGA,113126.800,2500.8146457,N,12132.4687393,E,2,63,0.45,17.469,M,15.25,M,2,3335*4C
$GNRMC,113126.800,A,2500.8146457,N,12132.4687393,E,0.01,35.89,260623,,,D,V*39
$GPHDT,,T*1B
$GNACCURACY,2.7*13
$GNGGA,113126.900,2500.8146457,N,12132.4687393,E,2,64,0.43,17.485,M,15.25,M,2,3335*4E
$GNRMC,113126.900,A,2500.8146457,N,12132.4687393,E,0.01,35.89,260623,,,D,V*38
$GPHDT,,T*1B
$GNACCURACY,2.7*13
$GNGGA,113127.000,2500.8146457,N,12132.4687333,E,2,64,0.45,17.499,M,15.25,M,3,3335*46
$GNRMC,113127.000,A,2500.8146457,N,12132.4687333,E,0.01,35.89,260623,,,D,V*3A
$GPHDT,,T*1B
$GNACCURACY,2.7*13
$GNGGA,113127.100,2500.8147791,N,12132.4690570,E,4,64,0.45,16.022,M,15.25,M,3,3335*4B
$GNRMC,113127.100,A,2500.8147791,N,12132.4690570,E,0.01,35.89,260623,,,R,V*22
$GPHDT,,T*1B
$GNGSA,A,3,196,24,199,18,23,15,195,194,12,10,05,32,0.69,0.43,0.54,1*0A
$GNGSA,A,3,80,73,85,86,71,69,,,,,,,0.69,0.43,0.54,2*0D
$GNGSA,A,3,13,08,07,26,30,02,15,,,,,,0.69,0.43,0.54,3*06
$GNGSA,A,3,38,08,39,13,16,06,46,19,09,20,36,35,0.69,0.43,0.54,4*05
$GNGSA,A,3,37,29,22,,,,,,,,,,0.69,0.43,0.54,4*02
$GPGSV,4,1,15,196,75,066,16,24,71,040,28,199,60,167,34,18,57,242,45,1*6E
$GPGSV,4,2,15,23,53,340,32,41,38,242,45,15,36,049,27,195,33,180,29,1*5A
$GPGSV,4,3,15,194,31,138,32,12,22,139,26,10,20,320,31,05,18,120,26,1*55
$GPGSV,4,4,15,25,10,175,17,32,10,271,20,13,07,058,25,1*5A
$GPGSV,3,1,09,196,75,066,35,24,71,040,36,199,60,167,44,18,57,242,47,8*66
$GPGSV,3,2,09,23,53,340,39,195,33,180,24,194,31,138,25,10,20,320,35,8*6A
$GPGSV,3,3,09,32,10,271,17,8*56
$GLGSV,3,1,09,80,48,072,23,70,41,013,,73,41,158,34,85,34,243,36,1*73
$GLGSV,3,2,09,86,27,299,41,71,23,316,39,69,12,076,17,79,09,031,34,1*7C
$GLGSV,3,3,09,84,06,189,,1*4B
$GAGSV,3,1,09,13,55,229,44,08,46,027,19,07,44,305,42,26,33,305,43,7*76
$GAGSV,3,2,09,30,27,142,19,02,26,083,25,15,21,174,21,03,09,066,17,7*72
$GAGSV,3,3,09,27,02,187,,7*43
$GAGSV,2,1,07,13,55,229,46,08,46,027,24,07,44,305,41,26,33,305,42,1*71
$GAGSV,2,2,07,30,27,142,26,02,26,083,15,15,21,174,20,1*49
$GBGSV,4,1,15,38,83,121,43,08,80,002,37,39,71,286,42,13,69,332,41,1*78
$GBGSV,4,2,15,16,66,261,42,06,65,256,40,46,61,107,46,19,50,347,34,1*7B
$GBGSV,4,3,15,09,50,240,40,20,42,065,27,36,37,184,34,35,21,267,38,1*7F
$GBGSV,4,4,15,37,21,046,20,29,18,210,25,22,12,303,40,1*44
$GBGSV,3,1,09,38,83,121,43,39,71,286,46,46,61,107,47,19,50,347,37,4*76
$GBGSV,3,2,09,36,37,184,24,35,21,267,27,37,21,046,25,29,18,210,32,4*70
$GBGSV,3,3,09,22,12,303,29,4*42
$GNACCURACY,2.7*13
$PAIRSAT,1,35,1,0,200,2,0,200,3,0,200,4,0,200,5,0,201,6,0,200,7,0,200,8,0,200,9,0,200,10,0,221,11,0,200,12,0,201,13,0,201,14,0,200,15,0,201,16,0,200,17,0,200,18,0,221,19,0,200,20,0,200,21,0,200,23,0,221,24,0,221,25,0,200,26,0,200,27,0,200,28,0,200,29,0,200,30,0,200,31,0,200,32,0,221,194,0,621,195,0,621,196,0,620,199,0,621*68
$PAIRSAT,2,23,65,0,200,67,0,200,68,0,200,69,0,201,70,0,201,71,0,201,72,0,200,73,0,201,74,0,200,75,0,200,76,0,200,77,0,200,78,0,200,79,0,201,80,0,201,81,0,200,82,0,200,83,0,200,84,0,200,85,0,201,86,0,201,87,0,200,88,0,200*53
$PAIRSAT,3,23,2,0,1221,3,0,1221,4,0,1200,5,0,200,7,0,1221,8,0,1221,9,0,1200,10,0,1200,11,0,1200,12,0,1200,13,0,1221,15,0,1221,19,0,1200,21,0,1200,24,0,1200,25,0,1200,26,0,1221,27,0,1200,30,0,1221,31,0,1200,33,0,1200,34,0,1200,36,0,1200*6A
$PAIRSAT,4,50,1,0,200,2,0,200,3,0,200,4,0,200,5,0,200,6,0,201,7,0,200,8,0,201,9,0,201,10,0,200,11,0,200,12,0,200,13,0,201,14,0,200,15,0,200,16,0,201,19,0,621,20,0,621,21,0,600,22,0,621,23,0,600,24,0,600,25,0,600,26,0,600,27,0,600,28,0,600,29,0,621,30,0,600,31,0,200,32,0,600,33,0,600,34,0,600,35,0,621,36,0,621,37,0,621,38,0,621,39,0,621,40,0,600,41,0,600,42,0,600,43,0,600,44,0,600,45,0,600,46,0,621,56,0,200,57,0,200,58,0,200,59,0,600,60,0,600,61,0,600*41
$PAIRDGP,10,5,10,12,13,15,18,23,24,25,32*4D
$GNGGA,113127.200,2500.8147798,N,12132.4690600,E,4,65,0.43,16.013,M,15.25,M,3,3335*40
$GNRMC,113127.200,A,2500.8147798,N,12132.4690600,E,0.01,35.89,260623,,,R,V*2C
$GPHDT,,T*1B
$GNACCURACY,2.7*13
$GNGGA,113127.300,2500.8147784,N,12132.4690684,E,4,64,0.43,15.999,M,15.25,M,3,3335*49
$GNRMC,113127.300,A,2500.8147784,N,12132.4690684,E,0.01,35.89,260623,,,R,V*2C
$GPHDT,,T*1B
$GNACCURACY,2.7*13
$GNGGA,113127.400,2500.8147796,N,12132.4690586,E,4,64,0.43,16.015,M,15.25,M,3,3335*42
$GNRMC,113127.400,A,2500.8147796,N,12132.4690586,E,0.02,35.89,260623,,,R,V*2A
$GPHDT,,T*1B
$GNACCURACY,2.7*13
$GNGGA,113127.500,2500.8147807,N,12132.4690644,E,4,64,0.43,16.007,M,15.25,M,3,3335*4A
$GNRMC,113127.500,A,2500.8147807,N,12132.4690644,E,0.03,35.89,260623,,,R,V*20
$GPHDT,,T*1B
$GNACCURACY,2.7*13
$GNGGA,113127.600,2500.8147800,N,12132.4690619,E,4,63,0.45,16.011,M,15.25,M,3,3335*40
$GNRMC,113127.600,A,2500.8147800,N,12132.4690619,E,0.03,35.89,260623,,,R,V*2C
$GPHDT,,T*1B
$GNACCURACY,2.7*13
$GNGGA,113127.700,2500.8147795,N,12132.4690601,E,4,63,0.45,16.011,M,15.25,M,3,3335*4B
$GNRMC,113127.700,A,2500.8147795,N,12132.4690601,E,0.03,35.89,260623,,,R,V*27
$GPHDT,,T*1B
$GNACCURACY,2.7*13
$GNGGA,113127.800,2500.8147779,N,12132.4690624,E,4,63,0.45,16.002,M,15.25,M,3,3335*43
$GNRMC,113127.800,A,2500.8147779,N,12132.4690624,E,0.03,35.89,260623,,,R,V*2D
$GPHDT,,T*1B
$GNACCURACY,2.7*13
$GNGGA,113127.900,2500.8147790,N,12132.4690626,E,4,63,0.45,16.012,M,15.25,M,3,3335*46
$GNRMC,113127.900,A,2500.8147790,N,12132.4690626,E,0.04,35.89,260623,,,R,V*2E
$GPHDT,,T*1B
$GNACCURACY,2.7*13
$GNGGA,113128.000,2500.8147801,N,12132.4690615,E,4,64,0.43,16.006,M,15.25,M,4,3335*44
$GNRMC,113128.000,A,2500.8147801,N,12132.4690615,E,0.03,35.89,260623,,,R,V*28
$GPHDT,,T*1B
$GNACCURACY,2.7*13
$GNGGA,113128.100,2500.8147791,N,12132.4690648,E,4,63,0.45,16.000,M,15.25,M,4,3335*4C
$GNRMC,113128.100,A,2500.8147791,N,12132.4690648,E,0.03,35.89,260623,,,R,V*27
$GPHDT,,T*1B
$GNGSA,A,3,196,24,199,18,23,15,195,194,12,10,05,32,0.70,0.45,0.54,1*04
$GNGSA,A,3,80,73,85,86,71,69,,,,,,,0.70,0.45,0.54,2*03
$GNGSA,A,3,13,08,07,26,30,02,15,,,,,,0.70,0.45,0.54,3*08
$GNGSA,A,3,38,08,39,13,16,06,46,19,09,36,35,22,0.70,0.45,0.54,4*09
$GNGSA,A,3,37,29,,,,,,,,,,,0.70,0.45,0.54,4*0C
$GPGSV,4,1,15,196,75,066,16,24,71,040,29,199,60,167,34,18,57,242,45,1*6F
$GPGSV,4,2,15,23,53,340,32,41,38,242,45,15,36,049,26,195,33,180,28,1*5A
$GPGSV,4,3,15,194,31,138,32,12,22,139,25,10,20,320,32,05,18,120,26,1*55
$GPGSV,4,4,15,25,10,175,17,32,10,271,21,13,07,058,24,1*5A
$GPGSV,3,1,09,196,75,066,35,24,71,040,36,199,60,167,44,18,57,242,47,8*66
$GPGSV,3,2,09,23,53,340,39,195,33,180,22,194,31,138,25,10,20,320,35,8*6C
$GPGSV,3,3,09,32,10,271,17,8*56
$GLGSV,3,1,09,80,48,072,23,70,41,013,,73,41,158,34,85,34,243,37,1*72
$GLGSV,3,2,09,86,27,299,41,71,23,316,39,69,12,076,18,79,09,031,34,1*73
$GLGSV,3,3,09,84,06,189,,1*4B
$GAGSV,3,1,09,13,55,229,44,08,46,027,20,07,44,305,42,26,33,305,43,7*7C
$GAGSV,3,2,09,30,27,142,20,02,26,083,23,15,21,174,23,03,09,066,16,7*7D
$GAGSV,3,3,09,27,02,187,,7*43
$GAGSV,2,1,07,13,55,229,46,08,46,027,23,07,44,305,41,26,33,305,42,1*76
$GAGSV,2,2,07,30,27,142,26,02,26,083,15,15,21,174,19,1*43
$GBGSV,4,1,15,38,83,121,43,08,80,002,37,39,71,286,42,13,69,332,41,1*78
$GBGSV,4,2,15,16,66,261,42,06,65,256,40,46,61,107,46,19,50,347,33,1*7C
$GBGSV,4,3,15,09,50,240,40,20,42,065,26,36,37,184,33,35,21,267,38,1*79
$GBGSV,4,4,15,37,21,046,18,29,18,210,23,22,12,303,40,1*49
$GBGSV,3,1,09,38,83,121,43,39,71,286,46,46,61,107,47,19,50,347,37,4*76
$GBGSV,3,2,09,36,37,184,24,35,21,267,26,37,21,046,25,29,18,210,32,4*71
$GBGSV,3,3,09,22,12,303,29,4*42
$GNACCURACY,2.7*13
$PAIRSAT,1,35,1,0,200,2,0,200,3,0,200,4,0,200,5,0,201,6,0,200,7,0,200,8,0,200,9,0,200,10,0,221,11,0,200,12,0,201,13,0,201,14,0,200,15,0,201,16,0,200,17,0,200,18,0,221,19,0,200,20,0,200,21,0,200,23,0,221,24,0,221,25,0,200,26,0,200,27,0,200,28,0,200,29,0,200,30,0,200,31,0,200,32,0,221,194,0,621,195,0,621,196,0,620,199,0,621*68
$PAIRSAT,2,23,65,0,200,67,0,200,68,0,200,69,0,201,70,0,201,71,0,201,72,0,200,73,0,201,74,0,200,75,0,200,76,0,200,77,0,200,78,0,200,79,0,201,80,0,201,81,0,200,82,0,200,83,0,200,84,0,200,85,0,201,86,0,201,87,0,200,88,0,200*53
$PAIRSAT,3,23,2,0,1221,3,0,1221,4,0,1200,5,0,200,7,0,1221,8,0,1221,9,0,1200,10,0,1200,11,0,1200,12,0,1200,13,0,1221,15,0,1221,19,0,1200,21,0,1200,24,0,1200,25,0,1200,26,0,1221,27,0,1200,30,0,1221,31,0,1200,33,0,1200,34,0,1200,36,0,1200*6A
$PAIRSAT,4,50,1,0,200,2,0,200,3,0,200,4,0,200,5,0,200,6,0,201,7,0,200,8,0,201,9,0,201,10,0,200,11,0,200,12,0,200,13,0,201,14,0,200,15,0,200,16,0,201,19,0,621,20,0,621,21,0,600,22,0,621,23,0,600,24,0,600,25,0,600,26,0,600,27,0,600,28,0,600,29,0,621,30,0,600,31,0,200,32,0,600,33,0,600,34,0,600,35,0,621,36,0,621,37,0,621,38,0,621,39,0,621,40,0,600,41,0,600,42,0,600,43,0,600,44,0,600,45,0,600,46,0,621,56,0,200,57,0,200,58,0,200,59,0,600,60,0,600,61,0,600*41
$PAIRDGP,10,5,10,12,13,15,18,23,24,25,32*4D
$GNGGA,113128.200,2500.8147773,N,12132.4690632,E,4,62,0.45,16.001,M,15.25,M,4,3335*4E
$GNRMC,113128.200,A,2500.8147773,N,12132.4690632,E,0.04,35.89,260623,,,R,V*22
$GPHDT,,T*1B
$GNACCURACY,2.7*13
$GNGGA,113128.300,2500.8147804,N,12132.4690578,E,4,62,0.45,16.028,M,15.25,M,4,3335*46
$GNRMC,113128.300,A,2500.8147804,N,12132.4690578,E,0.04,35.89,260623,,,R,V*21
$GPHDT,,T*1B
$GNACCURACY,2.7*13
$GNGGA,113128.400,2500.8147786,N,12132.4690589,E,4,62,0.45,16.010,M,15.25,M,4,3335*41
$GNRMC,113128.400,A,2500.8147786,N,12132.4690589,E,0.04,35.89,260623,,,R,V*2D
$GPHDT,,T*1B
$GNACCURACY,2.7*13
$GNGGA,113128.500,2500.8147773,N,12132.4690633,E,4,62,0.45,16.004,M,15.25,M,4,3335*4D
$GNRMC,113128.500,A,2500.8147773,N,12132.4690633,E,0.04,35.89,260623,,,R,V*24
$GPHDT,,T*1B
$GNACCURACY,2.7*13
$GNGGA,113128.600,2500.8147791,N,12132.4690613,E,4,63,0.45,16.013,M,15.25,M,4,3335*47
$GNRMC,113128.600,A,2500.8147791,N,12132.4690613,E,0.04,35.89,260623,,,R,V*29
$GPHDT,,T*1B
$GNACCURACY,2.7*13
$GNGGA,113128.700,2500.8147822,N,12132.4690599,E,4,63,0.45,16.011,M,15.25,M,4,3335*42
$GNRMC,113128.700,A,2500.8147822,N,12132.4690599,E,0.04,35.89,260623,,,R,V*2E
$GPHDT,,T*1B
$GNACCURACY,2.7*13
$GNGGA,113128.800,2500.8147768,N,12132.4690669,E,4,63,0.45,15.999,M,15.25,M,4,3335*4A
$GNRMC,113128.800,A,2500.8147768,N,12132.4690669,E,0.05,35.89,260623,,,R,V*2D
$GPHDT,,T*1B
$GNACCURACY,2.7*13
$GNGGA,113128.900,2500.8147819,N,12132.4690551,E,4,62,0.45,16.018,M,15.25,M,4,3335*48
$GNRMC,113128.900,A,2500.8147819,N,12132.4690551,E,0.01,35.89,260623,,,R,V*29
$GPHDT,,T*1B
$GNACCURACY,2.7*13
$GNGGA,113129.000,2500.8147824,N,12132.4690620,E,4,63,0.45,16.013,M,15.25,M,5,3335*40
$GNRMC,113129.000,A,2500.8147824,N,12132.4690620,E,0.02,35.89,260623,,,R,V*29
$GPHDT,,T*1B
$GNACCURACY,2.7*13
$GNGGA,113129.100,2500.8147774,N,12132.4690605,E,4,63,0.45,16.007,M,15.25,M,5,3335*49
$GNRMC,113129.100,A,2500.8147774,N,12132.4690605,E,0.01,35.89,260623,,,R,V*26
$GPHDT,,T*1B
$GNGSA,A,3,196,24,199,18,23,15,195,194,12,10,05,32,0.70,0.45,0.54,1*04
$GNGSA,A,3,80,73,85,86,71,69,,,,,,,0.70,0.45,0.54,2*03
$GNGSA,A,3,13,08,07,26,30,02,15,,,,,,0.70,0.45,0.54,3*08
$GNGSA,A,3,38,08,39,13,16,06,46,19,09,36,35,29,0.70,0.45,0.54,4*02
$GNGSA,A,3,22,37,,,,,,,,,,,0.70,0.45,0.54,4*07
$GPGSV,4,1,15,196,75,066,15,24,71,040,29,199,60,167,34,18,57,242,45,1*6C
$GPGSV,4,2,15,23,53,340,32,41,38,242,45,15,36,049,25,195,33,180,29,1*58
$GPGSV,4,3,15,194,31,138,32,12,22,139,23,10,20,320,33,05,18,120,26,1*52
$GPGSV,4,4,15,25,10,175,17,32,10,271,20,13,07,058,23,1*5C
$GPGSV,3,1,09,196,75,066,35,24,71,040,36,199,60,167,43,18,57,242,47,8*61
$GPGSV,3,2,09,23,53,340,38,195,33,180,23,194,31,138,24,10,20,320,35,8*6D
$GPGSV,3,3,09,32,10