$FW : RTK35X,V1.1X0314AS,Lib20210517,1*54
$Tool : LOCOSYS , GNSS Firebird , v1.0.0.19*39
$---------------------------------------------------*2D
,1*4B
$GBGSV,3,1,09,38,83,117,45,39,71,285,40,46,60,109,48,19,49,346,39,4*77
$GBGSV,3,2,09,20,42,064,22,36,36,184,35,37,22,047,25,29,18,211,36,4*73
$GBGSV,3,3,09,22,12,302,29,4*43
$GNACCURACY,2.9*1D
$PAIRSAT,1,35,1,0,200,2,0,200,3,0,200,4,0,200,5,0,201,6,0,200,7,0,200,8,0,200,9,0,200,10,0,221,11,0,200,12,0,201,13,0,201,14,0,200,15,0,201,16,0,200,17,0,200,18,0,221,19,0,200,20,0,200,21,0,200,23,0,221,24,0,221,25,0,200,26,0,200,27,0,200,28,0,200,29,0,200,30,0,200,31,0,200,32,0,221,194,0,621,195,0,621,196,0,620,199,0,621*68
$PAIRSAT,2,23,65,0,200,67,0,200,68,0,200,69,0,201,70,0,201,71,0,201,72,0,200,73,0,201,74,0,200,75,0,200,76,0,200,77,0,200,78,0,200,79,0,201,80,0,201,81,0,200,82,0,200,83,0,200,84,0,200,85,0,201,86,0,201,87,0,200,88,0,200*53
$PAIRSAT,3,23,2,0,1221,3,0,1221,4,0,1200,5,0,200,7,0,1221,8,0,1221,9,0,1200,10,0,1200,11,0,1200,12,0,1200,13,0,1221,15,0,1221,19,0,1200,21,0,1200,24,0,1200,25,0,1200,26,0,1221,27,0,1200,30,0,1221,31,0,1200,33,0,1200,34,0,1200,36,0,1200*6A
$PAIRSAT,4,50,1,0,200,2,0,200,3,0,200,4,0,200,5,0,200,6,0,201,7,0,200,8,0,201,9,0,201,10,0,200,11,0,200,12,0,200,13,0,201,14,0,200,15,0,200,16,0,201,19,0,621,20,0,621,21,0,600,22,0,621,23,0,600,24,0,600,25,0,600,26,0,600,27,0,600,28,0,600,29,0,621,30,0,600,31,0,200,32,0,600,33,0,600,34,0,600,35,0,621,36,0,621,37,0,621,38,0,621,39,0,621,40,0,600,41,0,600,42,0,600,43,0,600,44,0,600,45,0,600,46,0,621,56,0,200,57,0,200,58,0,200,59,0,600,60,0,600,61,0,600*41
$PAIRDGP,10,5,10,12,13,15,18,23,24,25,32*4D
$GNGGA,112930.200,2500.8163263,N,12132.4700891,E,2,60,0.43,16.495,M,15.25,M,10,3335*7D
$GNRMC,112930.200,A,2500.8163263,N,12132.4700891,E,0.06,35.89,260623,,,D,V*3B
$GPHDT,,T*1B
$GNACCURACY,2.9*1D
$GNGGA,112930.300,2500.8163263,N,12132.4700831,E,2,60,0.43,16.522,M,15.25,M,10,3335*7B
$GNRMC,112930.300,A,2500.8163263,N,12132.4700831,E,0.07,35.89,260623,,,D,V*31
$GPHDT,,T*1B
$GNACCURACY,2.9*1D
$GNGGA,112930.400,2500.8163203,N,12132.4700711,E,2,61,0.43,16.547,M,15.25,M,10,3335*75
$GNRMC,112930.400,A,2500.8163203,N,12132.4700711,E,0.06,35.89,260623,,,D,V*3C
$GPHDT,,T*1B
$GNACCURACY,2.9*1D
$GNGGA,112930.500,2500.8163143,N,12132.4700591,E,2,62,0.43,16.571,M,15.25,M,10,3335*7F
$GNRMC,112930.500,A,2500.8163143,N,12132.4700591,E,0.06,35.89,260623,,,D,V*30
$GPHDT,,T*1B
$GNACCURACY,2.8*1C
$GNGGA,112930.600,2500.8163143,N,12132.4700531,E,2,62,0.43,16.591,M,15.25,M,10,3335*78
$GNRMC,112930.600,A,2500.8163143,N,12132.4700531,E,0.05,35.89,260623,,,D,V*3A
$GPHDT,,T*1B
$GNACCURACY,2.8*1C
$GNGGA,112930.700,2500.8163203,N,12132.4700531,E,2,61,0.43,16.604,M,15.25,M,10,3335*72
$GNRMC,112930.700,A,2500.8163203,N,12132.4700531,E,0.05,35.89,260623,,,D,V*3C
$GPHDT,,T*1B
$GNACCURACY,2.9*1D
$GNGGA,112930.800,2500.8163203,N,12132.4700531,E,2,61,0.43,16.618,M,15.25,M,10,3335*70
$GNRMC,112930.800,A,2500.8163203,N,12132.4700531,E,0.05,35.89,260623,,,D,V*33
$GPHDT,,T*1B
$GNACCURACY,2.8*1C
$GNGGA,112930.900,2500.8163203,N,12132.4700531,E,2,62,0.43,16.637,M,15.25,M,10,3335*7F
$GNRMC,112930.900,A,2500.8163203,N,12132.4700531,E,0.05,35.89,260623,,,D,V*32
$GPHDT,,T*1B
$GNACCURACY,2.8*1C
$GNGGA,112931.000,2500.8163203,N,12132.4700591,E,2,62,0.43,16.655,M,15.25,M,11,3335*78
$GNRMC,112931.000,A,2500.8163203,N,12132.4700591,E,0.05,35.89,260623,,,D,V*30
$GPHDT,,T*1B
$GNACCURACY,2.9*1D
$GNGGA,112931.100,2500.8163203,N,12132.4700591,E,2,61,0.43,16.672,M,15.25,M,11,3335*7F
$GNRMC,112931.100,A,2500.8163203,N,12132.4700591,E,0.05,35.89,260623,,,D,V*31
$GPHDT,,T*1B
$GNGSA,A,3,196,24,199,18,23,15,195,194,12,10,05,32,0.69,0.43,0.54,1*0A
$GNGSA,A,3,80,73,85,86,71,79,,,,,,,0.69,0.43,0.54,2*0C
$GNGSA,A,3,13,08,07,26,30,02,15,,,,,,0.69,0.43,0.54,3*06
$GNGSA,A,3,38,08,39,13,16,06,46,09,19,20,36,37,0.69,0.43,0.54,4*07
$GNGSA,A,3,35,29,22,,,,,,,,,,0.69,0.43,0.54,4*00
$GPGSV,4,1,15,196,75,066,20,24,72,041,31,199,60,167,33,18,58,244,44,1*6E
$GPGSV,4,2,15,23,52,339,28,41,38,242,46,15,36,048,30,195,33,180,25,1*56
$GPGSV,4,3,15,194,31,138,23,12,21,140,28,10,19,319,33,05,18,120,32,1*51
$GPGSV,4,4,15,25,10,175,18,32,10,270,18,13,07,058,31,1*5A
$GPGSV,3,1,09,196,75,066,36,24,72,041,39,199,60,167,45,18,58,244,47,8*60
$GPGSV,3,2,09,23,52,339,34,195,33,180,24,194,31,138,32,10,19,319,29,8*63
$GPGSV,3,3,09,32,10,270,23,8*50
$GLGSV,2,1,08,80,48,074,32,70,41,012,,73,40,158,27,85,34,244,38,1*7E
$GLGSV,2,2,08,86,27,300,40,71,22,315,38,69,12,075,11,79,10,031,24,1*73
$GAGSV,3,1,09,13,55,230,42,08,46,026,28,07,44,305,40,26,33,306,33,7*7D
$GAGSV,3,2,09,30,27,143,30,02,26,084,20,15,22,174,17,03,10,065,,7*71
$GAGSV,3,3,09,25,02,042,,7*49
$GAGSV,1,1,04,13,55,230,45,08,46,026,19,07,44,305,38,26,33,306,35,1*78
$GBGSV,4,1,15,38,83,117,44,08,80,003,37,39,71,285,43,13,69,333,40,1*79
$GBGSV,4,2,15,16,66,259,40,06,65,255,40,46,60,109,46,09,50,239,42,1*76
$GBGSV,4,3,15,19,49,346,32,20,42,064,20,36,36,184,31,37,22,047,27,1*79
$GBGSV,4,4,15,35,21,268,32,29,18,211,37,22,12,302,41,1*49
$GBGSV,3,1,09,38,83,117,44,39,71,285,44,46,60,109,48,19,49,346,36,4*7D
$GBGSV,3,2,09,20,42,064,19,36,36,184,35,37,22,047,25,29,18,211,36,4*7B
$GBGSV,3,3,09,22,12,302,25,4*4F
$GNACCURACY,2.8*1C
$PAIRSAT,1,35,1,0,200,2,0,200,3,0,200,4,0,200,5,0,201,6,0,200,7,0,200,8,0,200,9,0,200,10,0,221,11,0,200,12,0,201,13,0,201,14,0,200,15,0,201,16,0,200,17,0,200,18,0,221,19,0,200,20,0,200,21,0,200,23,0,221,24,0,221,25,0,200,26,0,200,27,0,200,28,0,200,29,0,200,30,0,200,31,0,200,32,0,221,194,0,621,195,0,621,196,0,620,199,0,621*68
$PAIRSAT,2,23,65,0,200,67,0,200,68,0,200,69,0,201,70,0,201,71,0,201,72,0,200,73,0,201,74,0,200,75,0,200,76,0,200,77,0,200,78,0,200,79,0,201,80,0,201,81,0,200,82,0,200,83,0,200,84,0,200,85,0,201,86,0,201,87,0,200,88,0,200*53
$PAIRSAT,3,23,2,0,1221,3,0,1221,4,0,1200,5,0,200,7,0,1221,8,0,1221,9,0,1200,10,0,1200,11,0,1200,12,0,1200,13,0,1221,15,0,1221,19,0,1200,21,0,1200,24,0,1200,25,0,1200,26,0,1221,27,0,1200,30,0,1221,31,0,1200,33,0,1200,34,0,1200,36,0,1200*6A
$PAIRSAT,4,50,1,0,200,2,0,200,3,0,200,4,0,200,5,0,200,6,0,201,7,0,200,8,0,201,9,0,201,10,0,200,11,0,200,12,0,200,13,0,201,14,0,200,15,0,200,16,0,201,19,0,621,20,0,621,21,0,600,22,0,621,23,0,600,24,0,600,25,0,600,26,0,600,27,0,600,28,0,600,29,0,621,30,0,600,31,0,200,32,0,600,33,0,600,34,0,600,35,0,621,36,0,621,37,0,621,38,0,621,39,0,621,40,0,600,41,0,600,42,0,600,43,0,600,44,0,600,45,0,600,46,0,621,56,0,200,57,0,200,58,0,200,59,0,600,60,0,600,61,0,600*41
$PAIRDGP,10,5,10,12,13,15,18,23,24,25,32*4D
$GNGGA,112931.200,2500.8163203,N,12132.4700591,E,2,62,0.43,16.682,M,15.25,M,11,3335*70
$GNRMC,112931.200,A,2500.8163203,N,12132.4700591,E,0.05,35.89,260623,,,D,V*32
$GPHDT,,T*1B
$GNACCURACY,2.8*1C
$GNGGA,112931.300,2500.8163203,N,12132.4700591,E,2,62,0.43,16.694,M,15.25,M,11,3335*76
$GNRMC,112931.300,A,2500.8163203,N,12132.4700591,E,0.05,35.89,260623,,,D,V*33
$GPHDT,,T*1B
$GNACCURACY,2.8*1C
$GNGGA,112931.400,2500.8163203,N,12132.4700591,E,2,62,0.43,16.704,M,15.25,M,11,3335*79
$GNRMC,112931.400,A,2500.8163203,N,12132.4700591,E,0.05,35.89,260623,,,D,V*34
$GPHDT,,T*1B
$GNACCURACY,2.9*1D
$GNGGA,112931.500,2500.8163203,N,12132.4700591,E,2,62,0.43,16.716,M,15.25,M,11,3335*7B
$GNRMC,112931.500,A,2500.8163203,N,12132.4700591,E,0.05,35.89,260623,,,D,V*35
$GPHDT,,T*1B
$GNACCURACY,2.9*1D
$GNGGA,112931.600,2500.8163143,N,12132.4700591,E,2,62,0.43,16.727,M,15.25,M,11,3335*7D
$GNRMC,112931.600,A,2500.8163143,N,12132.4700591,E,0.05,35.89,260623,,,D,V*31
$GPHDT,,T*1B
$GNACCURACY,2.9*1D
$GNGGA,112931.700,2500.8163143,N,12132.4700531,E,2,62,0.43,16.738,M,15.25,M,11,3335*78
$GNRMC,112931.700,A,2500.8163143,N,12132.4700531,E,0.05,35.89,260623,,,D,V*3A
$GPHDT,,T*1B
$GNACCURACY,2.9*1D
$GNGGA,112931.800,2500.8163143,N,12132.4700531,E,2,63,0.43,16.748,M,15.25,M,11,3335*71
$GNRMC,112931.800,A,2500.8163143,N,12132.4700531,E,0.05,35.89,260623,,,D,V*35
$GPHDT,,T*1B
$GNACCURACY,2.9*1D
$GNGGA,112931.900,2500.8163083,N,12132.4700531,E,2,63,0.43,16.760,M,15.25,M,11,3335*77
$GNRMC,112931.900,A,2500.8163083,N,12132.4700531,E,0.04,35.89,260623,,,D,V*38
$GPHDT,,T*1B
$GNACCURACY,2.9*1D
$GNGGA,112932.000,2500.8163023,N,12132.4700531,E,2,63,0.43,16.769,M,15.25,M,12,3335*7D
$GNRMC,112932.000,A,2500.8163023,N,12132.4700531,E,0.04,35.89,260623,,,D,V*38
$GPHDT,,T*1B
$GNACCURACY,2.9*1D
$GNGGA,112932.100,2500.8162963,N,12132.4700531,E,2,63,0.43,16.781,M,15.25,M,12,3335*76
$GNRMC,112932.100,A,2500.8162963,N,12132.4700531,E,0.04,35.89,260623,,,D,V*35
$GPHDT,,T*1B
$GNGSA,A,3,196,24,199,18,23,15,195,194,12,10,05,32,0.69,0.43,0.54,1*0A
$GNGSA,A,3,80,73,85,86,71,79,,,,,,,0.69,0.43,0.54,2*0C
$GNGSA,A,3,13,08,07,26,30,02,15,,,,,,0.69,0.43,0.54,3*06
$GNGSA,A,3,38,08,39,13,16,06,46,09,19,20,36,37,0.69,0.43,0.54,4*07
$GNGSA,A,3,35,29,22,,,,,,,,,,0.69,0.43,0.54,4*00
$GPGSV,4,1,15,196,75,066,20,24,72,041,30,199,60,167,33,18,58,244,44,1*6F
$GPGSV,4,2,15,23,52,339,31,41,38,242,46,15,36,048,30,195,33,180,25,1*5E
$GPGSV,4,3,15,194,31,138,22,12,21,140,29,10,19,319,33,05,18,120,32,1*51
$GPGSV,4,4,15,25,10,175,18,32,10,270,19,13,07,058,31,1*5B
$GPGSV,3,1,09,196,75,066,36,24,72,041,39,199,60,167,45,18,58,244,47,8*60
$GPGSV,3,2,09,23,52,339,35,195,33,180,24,194,31,138,32,10,19,319,30,8*6A
$GPGSV,3,3,09,32,10,270,23,8*50
$GLGSV,2,1,08,80,48,074,32,70,41,012,,73,40,158,28,85,34,244,38,1*71
$GLGSV,2,2,08,86,27,300,43,71,22,316,36,69,12,075,13,79,10,031,24,1*7F
$GAGSV,2,1,08,13,55,230,42,08,46,026,28,07,44,305,42,26,33,306,37,7*7B
$GAGSV,2,2,08,30,27,143,30,02,26,084,20,15,22,174,17,03,10,065,,7*71
$GAGSV,2,1,05,13,55,230,45,08,46,026,18,07,44,305,42,26,33,306,35,1*76
$GAGSV,2,2,05,15,22,174,15,1*42
$GBGSV,4,1,15,38,83,117,44,08,80,003,37,39,71,285,43,13,69,333,40,1*79
$GBGSV,4,2,15,16,66,259,40,06,65,255,40,46,60,109,46,09,50,239,42,1*76
$GBGSV,4,3,15,19,49,346,32,20,42,064,21,36,36,184,29,37,22,047,28,1*7E
$GBGSV,4,4,15,35,21,268,33,29,18,211,37,22,12,302,42,1*4B
$GBGSV,3,1,09,38,83,117,44,39,71,285,44,46,60,109,48,19,49,346,38,4*73
$GBGSV,3,2,09,20,42,064,20,36,36,184,35,37,22,047,25,29,18,211,35,4*72
$GBGSV,3,3,09,22,12,302,33,4*48
$GNACCURACY,2.9*1D
$PAIRSAT,1,35,1,0,200,2,0,200,3,0,200,4,0,200,5,0,201,6,0,200,7,0,200,8,0,200,9,0,200,10,0,221,11,0,200,12,0,201,13,0,201,14,0,200,15,0,201,16,0,200,17,0,200,18,0,221,19,0,200,20,0,200,21,0,200,23,0,221,24,0,221,25,0,200,26,0,200,27,0,200,28,0,200,29,0,200,30,0,200,31,0,200,32,0,221,194,0,621,195,0,621,196,0,620,199,0,621*68
$PAIRSAT,2,23,65,0,200,67,0,200,68,0,200,69,0,201,70,0,201,71,0,201,72,0,200,73,0,201,74,0,200,75,0,200,76,0,200,77,0,200,78,0,200,79,0,201,80,0,201,81,0,200,82,0,200,83,0,200,84,0,200,85,0,201,86,0,201,87,0,200,88,0,200*53
$PAIRSAT,3,23,2,0,1221,3,0,1221,4,0,1200,5,0,200,7,0,1221,8,0,1221,9,0,1200,10,0,1200,11,0,1200,12,0,1200,13,0,1221,15,0,1221,19,0,1200,21,0,1200,24,0,1200,25,0,1200,26,0,1221,27,0,1200,30,0,1221,31,0,1200,33,0,1200,34,0,1200,36,0,1200*6A
$PAIRSAT,4,50,1,0,200,2,0,200,3,0,200,4,0,200,5,0,200,6,0,201,7,0,200,8,0,201,9,0,201,10,0,200,11,0,200,12,0,200,13,0,201,14,0,200,15,0,200,16,0,201,19,0,621,20,0,621,21,0,600,22,0,621,23,0,600,24,0,600,25,0,600,26,0,600,27,0,600,28,0,600,29,0,621,30,0,600,31,0,200,32,0,600,33,0,600,34,0,600,35,0,621,36,0,621,37,0,621,38,0,621,39,0,621,40,0,600,41,0,600,42,0,600,43,0,600,44,0,600,45,0,600,46,0,621,56,0,200,57,0,200,58,0,200,59,0,600,60,0,600,61,0,600*41
$PAIRDGP,10,5,10,12,13,15,18,23,24,25,32*4D
$GNGGA,112932.200,2500.8162903,N,12132.4700471,E,2,63,0.43,16.792,M,15.25,M,12,3335*74
$GNRMC,112932.200,A,2500.8162903,N,12132.4700471,E,0.04,35.89,260623,,,D,V*35
$GPHDT,,T*1B
$GNACCURACY,2.9*1D
$GNGGA,112932.300,2500.8162843,N,12132.4700471,E,2,63,0.43,16.803,M,15.25,M,12,3335*77
$GNRMC,112932.300,A,2500.8162843,N,12132.4700471,E,0.04,35.89,260623,,,D,V*31
$GPHDT,,T*1B
$GNACCURACY,2.9*1D
$GNGGA,112932.400,2500.8162783,N,12132.4700411,E,2,63,0.43,16.819,M,15.25,M,12,3335*7E
$GNRMC,112932.400,A,2500.8162783,N,12132.4700411,E,0.02,35.89,260623,,,D,V*35
$GPHDT,,T*1B
$GNACCURACY,2.9*1D
$GNGGA,112932.500,2500.8162723,N,12132.4700411,E,2,63,0.42,16.832,M,15.25,M,1,3335*4F
$GNRMC,112932.500,A,2500.8162723,N,12132.4700411,E,0.02,35.89,260623,,,D,V*3E
$GPHDT,,T*1B
$GNACCURACY,2.9*1D
$GNGGA,112932.600,2500.8162663,N,12132.4700351,E,2,64,0.42,16.844,M,15.25,M,1,3335*4C
$GNRMC,112932.600,A,2500.8162663,N,12132.4700351,E,0.02,35.89,260623,,,D,V*3B
$GPHDT,,T*1B
$GNACCURACY,2.9*1D
$GNGGA,112932.700,2500.8162543,N,12132.4700351,E,2,63,0.42,16.857,M,15.25,M,1,3335*49
$GNRMC,112932.700,A,2500.8162543,N,12132.4700351,E,0.01,35.89,260623,,,D,V*38
$GPHDT,,T*1B
$GNACCURACY,2.9*1D
$GNGGA,112932.800,2500.8162483,N,12132.4700291,E,2,63,0.42,16.869,M,15.25,M,1,3335*4B
$GNRMC,112932.800,A,2500.8162483,N,12132.4700291,E,0.01,35.89,260623,,,D,V*37
$GPHDT,,T*1B
$GNACCURACY,2.9*1D
$GNGGA,112932.900,2500.8162363,N,12132.4700231,E,2,63,0.42,16.882,M,15.25,M,1,3335*4C
$GNRMC,112932.900,A,2500.8162363,N,12132.4700231,E,0.01,35.89,260623,,,D,V*35
$GPHDT,,T*1B
$GNACCURACY,2.9*1D
$GNGGA,112933.000,2500.8162303,N,12132.4700231,E,2,63,0.42,16.894,M,15.25,M,2,3335*46
$GNRMC,112933.000,A,2500.8162303,N,12132.4700231,E,0.02,35.89,260623,,,D,V*38
$GPHDT,,T*1B
$GNACCURACY,2.9*1D
$GNGGA,112933.100,2500.8162243,N,12132.4700231,E,2,63,0.42,16.905,M,15.25,M,2,3335*4B
$GNRMC,112933.100,A,2500.8162243,N,12132.4700231,E,0.02,35.89,260623,,,D,V*3C
$GPHDT,,T*1B
$GNGSA,A,3,196,24,199,18,23,15,195,194,12,10,05,32,0.67,0.42,0.52,1*03
$GNGSA,A,3,80,73,85,86,71,79,,,,,,,0.67,0.42,0.52,2*05
$GNGSA,A,3,13,08,07,26,30,02,15,03,,,,,0.67,0.42,0.52,3*0C
$GNGSA,A,3,38,08,39,13,16,06,46,09,19,20,36,35,0.67,0.42,0.52,4*0C
$GNGSA,A,3,29,22,37,,,,,,,,,,0.67,0.42,0.52,4*0B
$GPGSV,4,1,15,196,75,066,20,24,72,041,31,199,60,167,34,18,58,244,44,1*69
$GPGSV,4,2,15,23,52,339,33,41,38,242,46,15,36,048,30,195,33,180,27,1*5E
$GPGSV,4,3,15,194,31,138,23,12,21,140,30,10,19,319,33,05,18,120,31,1*5B
$GPGSV,4,4,15,25,10,175,19,32,10,270,22,13,07,058,31,1*52
$GPGSV,3,1,09,196,75,066,35,24,72,041,39,199,60,167,44,18,58,244,47,8*62
$GPGSV,3,2,09,23,52,339,35,195,33,180,23,194,31,138,32,10,19,319,29,8*65
$GPGSV,3,3,09,32,10,270,25,8*56
$GLGSV,2,1,08,80,48,074,32,70,41,012,,73,40,158,26,85,34,244,38,1*7F
$GLGSV,2,2,08,86,27,300,41,71,22,316,37,69,12,075,14,79,10,031,22,1*7D
$GAGSV,2,1,08,13,55,230,42,08,46,026,29,07,44,305,43,26,33,306,29,7*74
$GAGSV,2,2,08,30,27,143,30,02,26,084,20,15,22,174,18,03,10,065,16,7*79
$GAGSV,2,1,05,13,55,230,45,08,46,026,19,07,44,305,43,26,33,306,35,1*76
$GAGSV,2,2,05,15,22,174,14,1*43
$GBGSV,4,1,15,38,83,117,44,08,80,003,37,39,71,285,43,13,69,333,40,1*79
$GBGSV,4,2,15,16,66,259,40,06,65,255,40,46,60,109,46,09,50,239,42,1*76
$GBGSV,4,3,15,19,49,346,31,20,42,064,21,36,36,184,29,37,22,047,27,1*72
$GBGSV,4,4,15,35,21,268,33,29,18,211,37,22,12,302,40,1*49
$GBGSV,3,1,09,38,83,117,44,39,71,285,44,46,60,109,48,19,49,346,38,4*73
$GBGSV,3,2,09,20,42,064,21,36,36,184,35,37,22,047,26,29,18,211,36,4*73
$GBGSV,3,3,09,22,12,302,30,4*4B
$GNACCURACY,2.9*1D
$PAIRSAT,1,35,1,0,200,2,0,200,3,0,200,4,0,200,5,0,201,6,0,200,7,0,200,8,0,200,9,0,200,10,0,221,11,0,200,12,0,201,13,0,201,14,0,200,15,0,201,16,0,200,17,0,200,18,0,221,19,0,200,20,0,200,21,0,200,23,0,221,24,0,221,25,0,200,26,0,200,27,0,200,28,0,200,29,0,200,30,0,200,31,0,200,32,0,221,194,0,621,195,0,621,196,0,620,199,0,621*68
$PAIRSAT,2,23,65,0,200,67,0,200,68,0,200,69,0,201,70,0,201,71,0,201,72,0,200,73,0,201,74,0,200,75,0,200,76,0,200,77,0,200,78,0,200,79,0,201,80,0,201,81,0,200,82,0,200,83,0,200,84,0,200,85,0,201,86,0,201,87,0,200,88,0,200*53
$PAIRSAT,3,23,2,0,1221,3,0,1221,4,0,1200,5,0,200,7,0,1221,8,0,1221,9,0,1200,10,0,1200,11,0,1200,12,0,1200,13,0,1221,15,0,1221,19,0,1200,21,0,1200,24,0,1200,25,0,1200,26,0,1221,27,0,1200,30,0,1221,31,0,1200,33,0,1200,34,0,1200,36,0,1200*6A
$PAIRSAT,4,50,1,0,200,2,0,200,3,0,200,4,0,200,5,0,200,6,0,201,7,0,200,8,0,201,9,0,201,10,0,200,11,0,200,12,0,200,13,0,201,14,0,200,15,0,200,16,0,201,19,0,621,20,0,621,21,0,600,22,0,621,23,0,600,24,0,600,25,0,600,26,0,600,27,0,600,28,0,600,29,0,621,30,0,600,31,0,200,32,0,600,33,0,600,34,0,600,35,0,621,36,0,621,37,0,621,38,0,621,39,0,621,40,0,600,41,0,600,42,0,600,43,0,600,44,0,600,45,0,600,46,0,621,56,0,200,57,0,200,58,0,200,59,0,600,60,0,600,61,0,600*41
$PAIRDGP,10,5,10,12,13,15,18,23,24,25,32*4D
$GNGGA,112933.200,2500.8162123,N,12132.4700231,E,2,63,0.42,16.915,M,15.25,M,2,3335*4C
$GNRMC,112933.200,A,2500.8162123,N,12132.4700231,E,0.02,35.89,260623,,,D,V*3A
$GPHDT,,T*1B
$GNACCURACY,2.9*1D
$GNGGA,112933.300,2500.8162063,N,12132.4700171,E,2,65,0.42,16.927,M,15.25,M,1,3335*4B
$GNRMC,112933.300,A,2500.8162063,N,12132.4700171,E,0.02,35.89,260623,,,D,V*39
$GPHDT,,T*1B
$GNACCURACY,2.9*1D
$GNGGA,112933.400,2500.8162003,N,12132.4700111,E,2,65,0.42,16.944,M,15.25,M,1,3335*49
$GNRMC,112933.400,A,2500.8162003,N,12132.4700111,E,0.02,35.89,260623,,,D,V*3E
$GPHDT,,T*1B
$GNACCURACY,2.9*1D
$GNGGA,112933.500,2500.8161943,N,12132.4700051,E,2,67,0.41,16.959,M,15.25,M,1,3335*4E
$GNRMC,112933.500,A,2500.8161943,N,12132.4700051,E,0.02,35.89,260623,,,D,V*34
$GPHDT,,T*1B
$GNACCURACY,2.9*1D
$GNGGA,112933.600,2500.8161883,N,12132.4699931,E,2,67,0.41,16.968,M,15.25,M,1,3335*4C
$GNRMC,112933.600,A,2500.8161883,N,12132.4699931,E,0.03,35.89,260623,,,D,V*35
$GPHDT,,T*1B
$GNACCURACY,2.9*1D
$GNGGA,112933.700,2500.8161763,N,12132.4699811,E,2,67,0.41,16.978,M,15.25,M,1,3335*4E
$GNRMC,112933.700,A,2500.8161763,N,12132.4699811,E,0.03,35.89,260623,,,D,V*36
$GPHDT,,T*1B
$GNACCURACY,2.9*1D
$GNGGA,112933.800,2500.8161703,N,12132.4699691,E,2,67,0.41,16.987,M,15.25,M,1,3335*41
$GNRMC,112933.800,A,2500.8161703,N,12132.4699691,E,0.03,35.89,260623,,,D,V*39
$GPHDT,,T*1B
$GNACCURACY,2.9*1D
$GNGGA,112933.900,2500.8161643,N,12132.4699571,E,2,67,0.41,16.993,M,15.25,M,1,3335*4D
$GNRMC,112933.900,A,2500.8161643,N,12132.4699571,E,0.03,35.89,260623,,,D,V*30
$GPHDT,,T*1B
$GNACCURACY,2.9*1D
$GNGGA,112934.000,2500.8161583,N,12132.4699511,E,2,66,0.41,17.006,M,15.25,M,1,3335*4F
$GNRMC,112934.000,A,2500.8161583,N,12132.4699511,E,0.03,35.89,260623,,,D,V*37
$GPHDT,,T*1B
$GNACCURACY,2.9*1D
$GNGGA,112934.100,2500.8161523,N,12132.4699511,E,2,67,0.41,17.019,M,15.25,M,1,3335*4B
$GNRMC,112934.100,A,2500.8161523,N,12132.4699511,E,0.03,35.89,260623,,,D,V*3C
$GPHDT,,T*1B
$GNGSA,A,3,196,24,199,18,23,15,195,194,12,10,05,32,0.66,0.41,0.52,1*01
$GNGSA,A,3,80,70,73,85,86,71,79,,,,,,0.66,0.41,0.52,2*00
$GNGSA,A,3,13,08,07,26,30,02,15,03,,,,,0.66,0.41,0.52,3*0E
$GNGSA,A,3,38,08,39,13,16,06,46,09,19,20,36,37,0.66,0.41,0.52,4*0C
$GNGSA,A,3,35,29,22,,,,,,,,,,0.66,0.41,0.52,4*0B
$GPGSV,4,1,15,196,75,066,21,24,72,041,30,199,60,167,34,18,58,244,44,1*69
$GPGSV,4,2,15,23,52,339,34,41,38,242,46,15,36,048,31,195,33,180,23,1*5C
$GPGSV,4,3,15,194,31,138,22,12,21,140,29,10,19,319,40,05,18,120,31,1*56
$GPGSV,4,4,15,25,10,175,18,32,10,270,21,13,07,058,32,1*53
$GPGSV,3,1,09,196,75,066,35,24,72,041,39,199,60,167,44,18,58,244,47,8*62
$GPGSV,3,2,09,23,52,339,36,195,33,180,23,194,31,138,32,10,19,319,31,8*6F
$GPGSV,3,3,09,32,10,270,19,8*59
$GLGSV,2,1,08,80,48,074,30,70,41,012,17,73,40,158,27,85,34,244,38,1*7A
$GLGSV,2,2,08,86,27,300,39,71,22,316,41,69,12,075,15,79,10,031,22,1*72
$GAGSV,3,1,09,13,55,230,42,08,46,026,29,07,44,305,43,26,33,306,34,7*78
$GAGSV,3,2,09,30,27,143,30,02,26,084,20,15,22,174,17,03,10,065,14,7*74
$GAGSV,3,3,09,25,02,042,,7*49
$GAGSV,2,1,06,13,55,230,45,08,46,026,18,07,44,305,43,26,33,306,39,1*78
$GAGSV,2,2,06,02,26,084,22,15,22,174,12,1*7C
$GBGSV,4,1,15,38,83,117,44,08,80,003,37,39,71,285,43,13,69,333,41,1*78
$GBGSV,4,2,15,16,66,259,40,06,65,255,40,46,60,109,46,09,50,239,42,1*76
$GBGSV,4,3,15,19,49,346,30,20,42,064,20,36,36,184,28,37,22,047,28,1*7C
$GBGSV,4,4,15,35,21,268,32,29,18,211,37,22,12,302,39,1*46
$GBGSV,3,1,10,38,83,117,44,39,71,285,44,46,60,109,48,19,49,346,39,4*7A
$GBGSV,3,2,10,20,42,064,21,36,36,184,35,37,22,047,25,35,21,268,21,4*77
$GBGSV,3,3,10,29,18,211,35,22,12,302,31,4*74
$GNACCURACY,2.9*1D
$PAIRSAT,1,35,1,0,200,2,0,200,3,0,200,4,0,200,5,0,201,6,0,200,7,0,200,8,0,200,9,0,200,10,0,221,11,0,200,12,0,201,13,0,201,14,0,200,15,0,201,16,0,200,17,0,200,18,0,221,19,0,200,20,0,200,21,0,200,23,0,221,24,0,221,25,0,200,26,0,200,27,0,200,28,0,200,29,0,200,30,0,200,31,0,200,32,0,221,194,0,621,195,0,621,196,0,620,199,0,621*68
$PAIRSAT,2,23,65,0,200,67,0,200,68,0,200,69,0,201,70,0,201,71,0,201,72,0,200,73,0,201,74,0,200,75,0,200,76,0,200,77,0,200,78,0,200,79,0,201,80,0,201,81,0,200,82,0,200,83,0,200,84,0,200,85,0,201,86,0,201,87,0,200,88,0,200*53
$PAIRSAT,3,23,2,0,1221,3,0,1221,4,0,1200,5,0,200,7,0,1221,8,0,1221,9,0,1200,10,0,1200,11,0,1200,12,0,1200,13,0,1221,15,0,1221,19,0,1200,21,0,1200,24,0,1200,25,0,1200,26,0,1221,27,0,1200,30,0,1221,31,0,1200,33,0,1200,34,0,1200,36,0,1200*6A
$PAIRSAT,4,50,1,0,200,2,0,200,3,0,200,4,0,200,5,0,200,6,0,201,7,0,200,8,0,201,9,0,201,10,0,200,11,0,200,12,0,200,13,0,201,14,0,200,15,0,200,16,0,201,19,0,621,20,0,621,21,0,600,22,0,621,23,0,600,24,0,600,25,0,600,26,0,600,27,0,600,28,0,600,29,0,621,30,0,600,31,0,200,32,0,600,33,0,600,34,0,600,35,0,621,36,0,621,37,0,621,38,0,621,39,0,621,40,0,600,41,0,600,42,0,600,43,0,600,44,0,600,45,0,600,46,0,621,56,0,200,57,0,200,58,0,200,59,0,600,60,0,600,61,0,600*41
$PAIRDGP,10,5,10,12,13,15,18,23,24,25,32*4D
$GNGGA,112934.200,2500.8161463,N,12132.4699451,E,2,67,0.41,17.031,M,15.25,M,1,3335*42
$GNRMC,112934.200,A,2500.8161463,N,12132.4699451,E,0.03,35.89,260623,,,D,V*3F
$GPHDT,,T*1B
$GNACCURACY,2.8*1C
$GNGGA,112934.300,2500.8161343,N,12132.4699331,E,2,66,0.41,17.044,M,15.25,M,1,3335*44
$GNRMC,112934.300,A,2500.8161343,N,12132.4699331,E,0.03,35.89,260623,,,D,V*3A
$GPHDT,,T*1B
$GNACCURACY,2.8*1C
$GNGGA,112934.400,2500.8161283,N,12132.4699271,E,2,66,0.41,17.058,M,15.25,M,1,3335*46
$GNRMC,112934.400,A,2500.8161283,N,12132.4699271,E,0.03,35.89,260623,,,D,V*35
$GPHDT,,T*1B
$GNACCURACY,2.8*1C
$GNGGA,112934.500,2500.8161163,N,12132.4699151,E,2,66,0.41,17.071,M,15.25,M,1,3335*40
$GNRMC,112934.500,A,2500.8161163,N,12132.4699151,E,0.02,35.89,260623,,,D,V*39
$GPHDT,,T*1B
$GNACCURACY,2.8*1C
$GNGGA,112934.600,2500.8161043,N,12132.4699031,E,2,66,0.41,17.080,M,15.25,M,1,3335*49
$GNRMC,112934.600,A,2500.8161043,N,12132.4699031,E,0.02,35.89,260623,,,D,V*3E
$GPHDT,,T*1B
$GNACCURACY,2.8*1C
$GNGGA,112934.700,2500.8160863,N,12132.4698851,E,2,66,0.41,17.090,M,15.25,M,1,3335*4D
$GNRMC,112934.700,A,2500.8160863,N,12132.4698851,E,0.02,35.89,260623,,,D,V*3B
$GPHDT,,T*1B
$GNACCURACY,2.8*1C
$GNGGA,112934.800,2500.8160743,N,12132.4698731,E,2,66,0.41,17.101,M,15.25,M,1,3335*4F
$GNRMC,112934.800,A,2500.8160743,N,12132.4698731,E,0.01,35.89,260623,,,D,V*33
$GPHDT,,T*1B
$GNACCURACY,2.8*1C
$GNGGA,112934.900,2500.8160623,N,12132.4698671,E,2,65,0.41,17.114,M,15.25,M,1,3335*4B
$GNRMC,112934.900,A,2500.8160623,N,12132.4698671,E,0.02,35.89,260623,,,D,V*33
$GPHDT,,T*1B
$GNACCURACY,2.7*13
$GNGGA,112935.000,2500.8160503,N,12132.4698551,E,2,65,0.41,17.126,M,15.25,M,2,3335*41
$GNRMC,112935.000,A,2500.8160503,N,12132.4698551,E,0.01,35.89,260623,,,D,V*38
$GPHDT,,T*1B
$GNACCURACY,2.7*13
$GNGGA,112935.100,2500.8160383,N,12132.4698371,E,2,65,0.41,17.139,M,15.25,M,2,3335*44
$GNRMC,112935.100,A,2500.8160383,N,12132.4698371,E,0.01,35.89,260623,,,D,V*33
$GPHDT,,T*1B
$GNGSA,A,3,196,24,199,18,23,15,195,194,12,10,05,32,0.66,0.41,0.52,1*01
$GNGSA,A,3,80,70,73,85,86,71,79,,,,,,0.66,0.41,0.52,2*00
$GNGSA,A,3,13,08,07,26,30,15,03,02,,,,,0.66,0.41,0.52,3*0E
$GNGSA,A,3,38,08,39,13,16,06,46,09,19,20,36,35,0.66,0.41,0.52,4*0E
$GNGSA,A,3,29,22,37,,,,,,,,,,0.66,0.41,0.52,4*09
$GPGSV,4,1,15,196,75,066,22,24,72,041,30,199,60,167,34,18,58,244,44,1*6A
$GPGSV,4,2,15,23,52,339,34,41,38,242,46,15,36,048,31,195,33,180,23,1*5C
$GPGSV,4,3,15,194,31,138,25,12,21,140,27,10,19,319,40,05,18,120,31,1*5F
$GPGSV,4,4,15,25,10,175,18,32,10,270,21,13,07,058,32,1*53
$GPGSV,3,1,09,196,75,066,35,24,72,041,39,199,60,167,44,18,58,244,47,8*62
$GPGSV,3,2,09,23,52,339,37,195,33,180,26,194,31,138,34,10,19,319,34,8*68
$GPGSV,3,3,09,32,10,270,20,8*53
$GLGSV,2,1,08,80,48,074,30,70,41,012,16,73,40,158,26,85,34,244,38,1*7A
$GLGSV,2,2,08,86,27,300,38,71,22,316,43,69,12,075,14,79,10,031,24,1*76
$GAGSV,3,1,09,13,55,230,42,08,46,026,29,07,44,305,43,26,33,306,24,7*79
$GAGSV,3,2,09,30,27,143,30,02,26,084,,15,22,174,18,03,10,065,15,7*78
$GAGSV,3,3,09,25,02,042,,7*49
$GAGSV,2,1,06,13,55,230,45,08,46,026,19,07,44,305,42,26,33,306,36,1*77
$GAGSV,2,2,06,02,26,084,25,15,22,174,14,1*7D
$GBGSV,4,1,15,38,83,117,44,08,80,003,37,39,71,285,43,13,69,333,41,1*78
$GBGSV,4,2,15,16,66,260,40,06,65,255,40,46,60,109,46,09,50,239,42,1*7C
$GBGSV,4,3,15,19,49,346,30,20,42,064,18,36,36,184,28,37,22,047,27,1*78
$GBGSV,4,4,15,35,21,268,32,29,18,211,37,22,12,302,37,1*48
$GBGSV,3,1,10,38,83,117,44,39,71,285,44,46,60,109,48,19,49,346,40,4*74
$GBGSV,3,2,10,20,42,064,23,36,36,184,35,37,22,047,26,35,21,268,27,4*70
$GBGSV,3,3,10,29,18,211,37,22,12,302,33,4*74
$GNACCURACY,2.7*13
$PAIRSAT,1,35,1,0,200,2,0,200,3,0,200,4,0,200,5,0,201,6,0,200,7,0,200,8,0,200,9,0,200,10,0,221,11,0,200,12,0,201,13,0,201,14,0,200,15,0,201,16,0,200,17,0,200,18,0,221,19,0,200,20,0,200,21,0,200,23,0,221,24,0,221,25,0,200,26,0,200,27,0,200,28,0,200,29,0,200,30,0,200,31,0,200,32,0,221,194,0,621,195,0,621,196,0,620,199,0,621*68
$PAIRSAT,2,23,65,0,200,67,0,200,68,0,200,69,0,201,70,0,201,71,0,201,72,0,200,73,0,201,74,0,200,75,0,200,76,0,200,77,0,200,78,0,200,79,0,201,80,0,201,81,0,200,82,0,200,83,0,200,84,0,200,85,0,201,86,0,201,87,0,200,88,0,200*53
$PAIRSAT,3,23,2,0,1221,3,0,1221,4,0,1200,5,0,200,7,0,1221,8,0,1221,9,0,1200,10,0,1200,11,0,1200,12,0,1200,13,0,1221,15,0,1221,19,0,1200,21,0,1200,24,0,1200,25,0,1200,26,0,1221,27,0,1200,30,0,1221,31,0,1200,33,0,1200,34,0,1200,36,0,1200*6A
$PAIRSAT,4,50,1,0,200,2,0,200,3,0,200,4,0,200,5,0,200,6,0,201,7,0,200,8,0,201,9,0,201,10,0,200,11,0,200,12,0,200,13,0,201,14,0,200,15,0,200,16,0,201,19,0,621,20,0,621,21,0,600,22,0,621,23,0,600,24,0,600,25,0,600,26,0,600,27,0,600,28,0,600,29,0,621,30,0,600,31,0,200,32,0,600,33,0,600,34,0,600,35,0,621,36,0,621,37,0,621,38,0,621,39,0,621,40,0,600,41,0,600,42,0,600,43,0,600,44,0,600,45,0,600,46,0,621,56,0,200,57,0,200,58,0,200,59,0,600,60,0,600,61,0,600*41
$PAIRDGP,10,5,10,12,13,15,18,23,24,25,32*4D
$GNGGA,112935.200,2500.8160263,N,12132.4698251,E,2,65,0.41,17.154,M,15.25,M,2,3335*40
$GNRMC,112935.200,A,2500.8160263,N,12132.4698251,E,0.01,35.89,260623,,,D,V*3C
$GPHDT,,T*1B
$GNACCURACY,2.7*13
$GNGGA,112935.300,2500.8160143,N,12132.4698131,E,2,66,0.41,17.166,M,15.25,M,2,3335*47
$GNRMC,112935.300,A,2500.8160143,N,12132.4698131,E,0.02,35.89,260623,,,D,V*3A
$GPHDT,,T*1B
$GNACCURACY,2.7*13
$GNGGA,112935.400,2500.8160023,N,12132.4698011,E,2,66,0.41,17.180,M,15.25,M,2,3335*4C
$GNRMC,112935.400,A,2500.8160023,N,12132.4698011,E,0.01,35.89,260623,,,D,V*3A
$GPHDT,,T*1B
$GNACCURACY,2.7*13
$GNGGA,112935.500,2500.8159843,N,12132.4697891,E,2,66,0.41,17.193,M,15.25,M,2,3335*44
$GNRMC,112935.500,A,2500.8159843,N,12132.4697891,E,0.01,35.89,260623,,,D,V*30
$GPHDT,,T*1B
$GNACCURACY,2.7*13
$GNGGA,112935.600,2500.8159723,N,12132.4697771,E,2,65,0.41,17.205,M,15.25,M,2,3335*40
$GNRMC,112935.600,A,2500.8159723,N,12132.4697771,E,0.01,35.89,260623,,,D,V*3B
$GPHDT,,T*1B
$GNACCURACY,2.7*13
$GNGGA,112935.700,2500.8159663,N,12132.4697651,E,2,65,0.41,17.215,M,15.25,M,2,3335*46
$GNRMC,112935.700,A,2500.8159663,N,12132.4697651,E,0.01,35.89,260623,,,D,V*3C
$GPHDT,,T*1B
$GNACCURACY,2.7*13
$GNGGA,112935.800,2500.8159543,N,12132.4697531,E,2,65,0.41,17.224,M,15.25,M,2,3335*4F
$GNRMC,112935.800,A,2500.8159543,N,12132.4697531,E,0.01,35.89,260623,,,D,V*37
$GPHDT,,T*1B
$GNACCURACY,2.7*13
$GNGGA,112935.900,2500.8159423,N,12132.4697471,E,2,65,0.41,17.236,M,15.25,M,2,3335*4F
$GNRMC,112935.900,A,2500.8159423,N,12132.4697471,E,0.01,35.89,260623,,,D,V*34
$GPHDT,,T*1B
$GNACCURACY,2.7*13
$GNGGA,112936.000,2500.8159303,N,12132.4697411,E,2,65,0.41,17.248,M,15.25,M,3,3335*4E
$GNRMC,112936.000,A,2500.8159303,N,12132.4697411,E,0.01,35.89,260623,,,D,V*3D
$GPHDT,,T*1B
$GNACCURACY,2.7*13
$GNGGA,112936.100,2500.8159183,N,12132.4697351,E,2,65,0.41,17.261,M,15.25,M,3,3335*4D
$GNRMC,112936.100,A,2500.8159183,N,12132.4697351,E,0.01,35.89,260623,,,D,V*35
$GPHDT,,T*1B
$GNGSA,A,3,196,24,199,18,23,15,195,194,12,10,05,32,0.66,0.41,0.52,1*01
$GNGSA,A,3,80,70,73,85,86,71,79,,,,,,0.66,0.41,0.52,2*00
$GNGSA,A,3,13,08,07,26,30,02,15,03,,,,,0.66,0.41,0.52,3*0E
$GNGSA,A,3,38,08,39,13,16,06,46,09,19,20,36,35,0.66,0.41,0.52,4*0E
$GNGSA,A,3,29,22,37,,,,,,,,,,0.66,0.41,0.52,4*09
$GPGSV,4,1,15,196,75,066,21,24,72,041,31,199,60,167,33,18,58,244,44,1*6F
$GPGSV,4,2,15,23,52,339,33,41,38,242,46,15,36,048,30,195,33,180,23,1*5A
$GPGSV,4,3,15,194,31,138,24,12,21,140,27,10,19,319,40,05,18,120,31,1*5E
$GPGSV,4,4,15,25,10,175,18,32,10,270,21,13,07,058,32,1*53
$GPGSV,3,1,09,196,75,066,36,24,72,041,39,199,60,167,44,18,58,244,48,8*6E
$GPGSV,3,2,09,23,52,339,37,195,33,180,26,194,31,138,33,10,19,319,31,8*6A
$GPGSV,3,3,09,32,10,270,21,8*52
$GLGSV,2,1,08,80,48,074,29,70,41,012,15,73,40,158,28,85,34,244,39,1*7E
$GLGSV,2,2,08,86,27,300,38,71,22,316,43,69,12,075,14,79,10,031,21,1*73
$GAGSV,3,1,09,13,55,230,42,08,46,026,29,07,44,305,43,26,33,306,36,7*7A
$GAGSV,3,2,09,30,27,143,30,02,26,084,18,15,22,174,17,03,10,065,15,7*7E
$GAGSV,3,3,09,25,02,042,,7*49
$GAGSV,2,1,05,13,55,230,45,08,46,026,19,07,44,305,39,26,33,306,37,1*79
$GAGSV,2,2,05,02,26,084,23,1*4B
$GBGSV,4,1,15,38,83,117,44,08,80,003,37,39,71,285,43,13,69,333,41,1*78
$GBGSV,4,2,15,16,66,260,40,06,65,255,40,46,60,109,46,09,50,239,42,1*7C
$GBGSV,4,3,15,19,49,346,31,20,42,064,17,36,36,184,28,37,22,047,26,1*77
$GBGSV,4,4,15,35,21,268,32,29,18,211,37,22,12,302,39,1*46
$GBGSV,3,1,10,38,83,117,44,39,71,285,44,46,60,109,48,19,49,346,40,4*74
$GBGSV,3,2,10,20,42,064,23,36,36,184,35,37,22,047,27,35,21,268,20,4*76
$GBGSV,3,3,10,29,18,211,36,22,12,302,32,4*74
$GNACCURACY,2.7*13
$PAIRSAT,1,35,1,0,200,2,0,200,3,0,200,4,0,200,5,0,201,6,0,200,7,0,200,8,0,200,9,0,200,10,0,221,11,0,200,12,0,201,13,0,201,14,0,200,15,0,201,16,0,200,17,0,200,18,0,221,19,0,200,20,0,200,21,0,200,23,0,221,24,0,221,25,0,200,26,0,200,27,0,200,28,0,200,29,0,200,30,0,200,31,0,200,32,0,221,194,0,621,195,0,621,196,0,620,199,0,621*68
$PAIRSAT,2,23,65,0,200,67,0,200,68,0,200,69,0,201,70,0,201,71,0,201,72,0,200,73,0,201,74,0,200,75,0,200,76,0,200,77,0,200,78,0,200,79,0,201,80,0,201,81,0,200,82,0,200,83,0,200,84,0,200,85,0,201,86,0,201,87,0,200,88,0,200*53
$PAIRSAT,3,23,2,0,1221,3,0,1221,4,0,1200,5,0,200,7,0,1221,8,0,1221,9,0,1200,10,0,1200,11,0,1200,12,0,1200,13,0,1221,15,0,1221,19,0,1200,21,0,1200,24,0,1200,25,0,1200,26,0,1221,27,0,1200,30,0,1221,31,0,1200,33,0,1200,34,0,1200,36,0,1200*6A
$PAIRSAT,4,50,1,0,200,2,0,200,3,0,200,4,0,200,5,0,200,6,0,201,7,0,200,8,0,201,9,0,201,10,0,200,11,0,200,12,0,200,13,0,201,14,0,200,15,0,200,16,0,201,19,0,621,20,0,621,21,0,600,22,0,621,23,0,600,24,0,600,25,0,600,26,0,600,27,0,600,28,0,600,29,0,621,30,0,600,31,0,200,32,0,600,33,0,600,34,0,600,35,0,621,36,0,621,37,0,621,38,0,621,39,0,621,40,0,600,41,0,600,42,0,600,43,0,600,44,0,600,45,0,600,46,0,621,56,0,200,57,0,200,58,0,200,59,0,600,60,0,600,61,0,600*41
$PAIRDGP,10,5,10,12,13,15,18,23,24,25,32*4D
$GNGGA,112936.200,2500.8159063,N,12132.4697291,E,2,65,0.41,17.274,M,15.25,M,3,3335*48
$GNRMC,112936.200,A,2500.8159063,N,12132.4697291,E,0.00,35.89,260623,,,D,V*35
$GPHDT,,T*1B
$GNACCURACY,2.7*13
$GNGGA,112936.300,2500.8158943,N,12132.4697171,E,2,65,0.41,17.289,M,15.25,M,3,3335*4C
$GNRMC,112936.300,A,2500.8158943,N,12132.4697171,E,0.02,35.89,260623,,,D,V*31
$GPHDT,,T*1B
$GNACCURACY,2.7*13
$GNGGA,112936.400,2500.8158883,N,12132.4697111,E,2,65,0.41,17.302,M,15.25,M,3,3335*42
$GNRMC,112936.400,A,2500.8158883,N,12132.4697111,E,0.01,35.89,260623,,,D,V*3E
$GPHDT,,T*1B
$GNACCURACY,2.7*13
$GNGGA,112936.500,2500.8158763,N,12132.4696991,E,2,65,0.41,17.316,M,15.25,M,3,3335*46
$GNRMC,112936.500,A,2500.8158763,N,12132.4696991,E,0.02,35.89,260623,,,D,V*3C
