$FW : RTK35X,V1.1X0314AS,Lib20210517,1*54
$Tool : LOCOSYS , GNSS Firebird , v1.0.0.19*39
$---------------------------------------------------*2D
8,27,1*50
$GPGSV,2,1,08,196,75,066,36,24,72,041,41,199,60,167,44,18,58,243,44,8*6A
$GPGSV,2,2,08,23,52,339,35,194,31,138,32,10,19,319,28,32,10,270,21,8*57
$GLGSV,3,1,09,80,48,073,26,70,41,013,,73,40,158,31,85,34,244,25,1*76
$GLGSV,3,2,09,86,27,300,38,71,22,316,41,69,12,075,18,79,10,031,27,1*7B
$GLGSV,3,3,09,84,07,189,,1*4A
$GAGSV,3,1,09,13,55,230,29,08,46,027,26,07,44,305,44,26,33,305,37,7*7C
$GAGSV,3,2,09,30,27,142,19,02,26,084,21,15,21,174,19,03,10,065,,7*77
$GAGSV,3,3,09,25,02,042,,7*49
$GAGSV,1,1,04,13,55,230,40,07,44,305,44,26,33,305,41,02,26,084,25,1*7D
$GBGSV,4,1,15,38,83,119,43,08,80,003,38,39,71,285,43,13,69,332,41,1*7F
$GBGSV,4,2,15,16,66,260,35,06,65,256,36,46,60,108,45,19,50,347,34,1*76
$GBGSV,4,3,15,09,50,240,35,20,42,065,27,36,36,184,26,37,22,046,,1*74
$GBGSV,4,4,15,35,21,267,26,29,18,211,31,22,12,302,39,1*4A
$GBGSV,3,1,09,38,83,119,44,39,71,285,42,46,60,108,48,19,50,347,36,4*7D
$GBGSV,3,2,09,20,42,065,23,36,36,184,35,37,22,046,26,29,18,211,29,4*7F
$GBGSV,3,3,09,22,12,302,37,4*4C
$GNACCURACY,3.0*15
$PAIRSAT,1,35,1,0,200,2,0,200,3,0,200,4,0,200,5,0,201,6,0,200,7,0,200,8,0,200,9,0,200,10,0,221,11,0,200,12,0,201,13,0,201,14,0,200,15,0,201,16,0,200,17,0,200,18,0,221,19,0,200,20,0,200,21,0,200,23,0,221,24,0,221,25,0,200,26,0,200,27,0,200,28,0,200,29,0,200,30,0,200,31,0,200,32,0,221,194,0,621,195,0,621,196,0,620,199,0,621*68
$PAIRSAT,2,23,65,0,200,67,0,200,68,0,200,69,0,201,70,0,201,71,0,201,72,0,200,73,0,201,74,0,200,75,0,200,76,0,200,77,0,200,78,0,200,79,0,201,80,0,201,81,0,200,82,0,200,83,0,200,84,0,200,85,0,201,86,0,201,87,0,200,88,0,200*53
$PAIRSAT,3,23,2,0,1221,3,0,1221,4,0,1200,5,0,200,7,0,1221,8,0,1221,9,0,1200,10,0,1200,11,0,1200,12,0,1200,13,0,1221,15,0,1221,19,0,1200,21,0,1200,24,0,1200,25,0,1200,26,0,1221,27,0,1200,30,0,1221,31,0,1200,33,0,1200,34,0,1200,36,0,1200*6A
$PAIRSAT,4,50,1,0,200,2,0,200,3,0,200,4,0,200,5,0,200,6,0,201,7,0,200,8,0,201,9,0,201,10,0,200,11,0,200,12,0,200,13,0,201,14,0,200,15,0,200,16,0,201,19,0,621,20,0,621,21,0,600,22,0,621,23,0,600,24,0,600,25,0,600,26,0,600,27,0,600,28,0,600,29,0,621,30,0,600,31,0,200,32,0,600,33,0,600,34,0,600,35,0,621,36,0,621,37,0,621,38,0,621,39,0,621,40,0,600,41,0,600,42,0,600,43,0,600,44,0,600,45,0,600,46,0,621,56,0,200,57,0,200,58,0,200,59,0,600,60,0,600,61,0,600*41
$PAIRDGP,10,5,10,12,13,15,18,23,24,25,32*4D
$GNGGA,113013.200,2500.8149223,N,12132.4689251,E,2,60,0.42,17.724,M,15.25,M,10,3335*77
$GNRMC,113013.200,A,2500.8149223,N,12132.4689251,E,0.02,35.89,260623,,,D,V*3C
$GPHDT,,T*1B
$GNACCURACY,3.0*15
$GNGGA,113013.300,2500.8149163,N,12132.4689131,E,2,60,0.42,17.746,M,15.25,M,10,3335*70
$GNRMC,113013.300,A,2500.8149163,N,12132.4689131,E,0.02,35.89,260623,,,D,V*3F
$GPHDT,,T*1B
$GNACCURACY,3.0*15
$GNGGA,113013.400,2500.8149043,N,12132.4688951,E,2,60,0.42,17.765,M,15.25,M,10,3335*7A
$GNRMC,113013.400,A,2500.8149043,N,12132.4688951,E,0.03,35.89,260623,,,D,V*35
$GPHDT,,T*1B
$GNACCURACY,3.0*15
$GNGGA,113013.500,2500.8148863,N,12132.4688831,E,2,60,0.42,17.785,M,15.25,M,10,3335*79
$GNRMC,113013.500,A,2500.8148863,N,12132.4688831,E,0.03,35.89,260623,,,D,V*38
$GPHDT,,T*1B
$GNACCURACY,3.0*15
$GNGGA,113013.600,2500.8148743,N,12132.4688771,E,2,60,0.42,17.804,M,15.25,M,10,3335*7A
$GNRMC,113013.600,A,2500.8148743,N,12132.4688771,E,0.03,35.89,260623,,,D,V*3D
$GPHDT,,T*1B
$GNACCURACY,3.0*15
$GNGGA,113013.700,2500.8148623,N,12132.4688651,E,2,60,0.42,17.823,M,15.25,M,10,3335*7A
$GNRMC,113013.700,A,2500.8148623,N,12132.4688651,E,0.03,35.89,260623,,,D,V*38
$GPHDT,,T*1B
$GNACCURACY,3.1*14
$GNGGA,113013.800,2500.8148563,N,12132.4688591,E,2,60,0.42,17.838,M,15.25,M,10,3335*77
$GNRMC,113013.800,A,2500.8148563,N,12132.4688591,E,0.03,35.89,260623,,,D,V*3F
$GPHDT,,T*1B
$GNACCURACY,3.0*15
$GNGGA,113013.900,2500.8148383,N,12132.4688471,E,2,60,0.42,17.853,M,15.25,M,10,3335*7C
$GNRMC,113013.900,A,2500.8148383,N,12132.4688471,E,0.03,35.89,260623,,,D,V*39
$GPHDT,,T*1B
$GNACCURACY,3.0*15
$GNGGA,113014.000,2500.8148263,N,12132.4688411,E,2,60,0.42,17.865,M,15.25,M,11,3335*7F
$GNRMC,113014.000,A,2500.8148263,N,12132.4688411,E,0.03,35.89,260623,,,D,V*3E
$GPHDT,,T*1B
$GNACCURACY,3.0*15
$GNGGA,113014.100,2500.8148263,N,12132.4688351,E,2,60,0.42,17.879,M,15.25,M,11,3335*70
$GNRMC,113014.100,A,2500.8148263,N,12132.4688351,E,0.02,35.89,260623,,,D,V*3D
$GPHDT,,T*1B
$GNGSA,A,3,196,24,199,18,23,15,195,194,12,10,05,32,0.67,0.42,0.52,1*03
$GNGSA,A,3,80,73,85,86,71,69,79,,,,,,0.67,0.42,0.52,2*0A
$GNGSA,A,3,13,08,07,26,30,02,15,,,,,,0.67,0.42,0.52,3*0F
$GNGSA,A,3,38,08,39,13,16,06,46,09,19,36,35,29,0.67,0.42,0.52,4*05
$GNGSA,A,3,22,20,37,,,,,,,,,,0.67,0.42,0.52,4*02
$GPGSV,4,1,15,196,75,066,19,24,72,041,34,199,60,167,32,18,58,243,39,1*6D
$GPGSV,4,2,15,23,52,339,32,41,38,242,33,15,36,049,30,195,33,180,24,1*5F
$GPGSV,4,3,15,194,31,138,32,12,21,140,33,10,19,319,35,05,18,120,29,1*57
$GPGSV,4,4,15,25,10,175,16,32,10,270,27,13,07,058,24,1*5C
$GPGSV,2,1,08,196,75,066,36,24,72,041,41,199,60,167,44,18,58,243,44,8*6A
$GPGSV,2,2,08,23,52,339,36,194,31,138,32,10,19,319,25,32,10,270,23,8*5B
$GLGSV,2,1,08,80,48,073,26,70,41,013,,73,40,158,31,85,34,244,20,1*73
$GLGSV,2,2,08,86,27,300,38,71,22,316,41,69,12,075,19,79,10,031,24,1*79
$GAGSV,3,1,09,13,55,230,35,08,46,027,26,07,44,305,44,26,33,305,38,7*7E
$GAGSV,3,2,09,30,27,142,19,02,26,084,19,15,21,174,19,03,10,065,,7*7C
$GAGSV,3,3,09,25,02,042,,7*49
$GAGSV,1,1,04,13,55,230,41,07,44,305,41,26,33,305,40,02,26,084,24,1*79
$GBGSV,4,1,15,38,83,119,42,08,80,003,37,39,71,285,44,13,69,332,41,1*76
$GBGSV,4,2,15,16,66,260,40,06,65,256,39,46,60,108,44,09,50,240,37,1*7E
$GBGSV,4,3,15,19,50,347,33,20,42,065,25,36,36,184,24,37,22,046,,1*75
$GBGSV,4,4,15,35,21,267,29,29,18,211,36,22,12,302,38,1*43
$GBGSV,3,1,09,38,83,119,44,39,71,285,45,46,60,108,48,19,50,347,36,4*7A
$GBGSV,3,2,09,20,42,065,23,36,36,184,35,37,22,046,26,29,18,211,37,4*70
$GBGSV,3,3,09,22,12,302,37,4*4C
$GNACCURACY,3.0*15
$PAIRSAT,1,35,1,0,200,2,0,200,3,0,200,4,0,200,5,0,201,6,0,200,7,0,200,8,0,200,9,0,200,10,0,221,11,0,200,12,0,201,13,0,201,14,0,200,15,0,201,16,0,200,17,0,200,18,0,221,19,0,200,20,0,200,21,0,200,23,0,221,24,0,221,25,0,200,26,0,200,27,0,200,28,0,200,29,0,200,30,0,200,31,0,200,32,0,221,194,0,621,195,0,621,196,0,620,199,0,621*68
$PAIRSAT,2,23,65,0,200,67,0,200,68,0,200,69,0,201,70,0,201,71,0,201,72,0,200,73,0,201,74,0,200,75,0,200,76,0,200,77,0,200,78,0,200,79,0,201,80,0,201,81,0,200,82,0,200,83,0,200,84,0,200,85,0,201,86,0,201,87,0,200,88,0,200*53
$PAIRSAT,3,23,2,0,1221,3,0,1221,4,0,1200,5,0,200,7,0,1221,8,0,1221,9,0,1200,10,0,1200,11,0,1200,12,0,1200,13,0,1221,15,0,1221,19,0,1200,21,0,1200,24,0,1200,25,0,1200,26,0,1221,27,0,1200,30,0,1221,31,0,1200,33,0,1200,34,0,1200,36,0,1200*6A
$PAIRSAT,4,50,1,0,200,2,0,200,3,0,200,4,0,200,5,0,200,6,0,201,7,0,200,8,0,201,9,0,201,10,0,200,11,0,200,12,0,200,13,0,201,14,0,200,15,0,200,16,0,201,19,0,621,20,0,621,21,0,600,22,0,621,23,0,600,24,0,600,25,0,600,26,0,600,27,0,600,28,0,600,29,0,621,30,0,600,31,0,200,32,0,600,33,0,600,34,0,600,35,0,621,36,0,621,37,0,621,38,0,621,39,0,621,40,0,600,41,0,600,42,0,600,43,0,600,44,0,600,45,0,600,46,0,621,56,0,200,57,0,200,58,0,200,59,0,600,60,0,600,61,0,600*41
$PAIRDGP,10,5,10,12,13,15,18,23,24,25,32*4D
$GNGGA,113014.200,2500.8148143,N,12132.4688171,E,2,60,0.42,17.888,M,15.25,M,11,3335*7C
$GNRMC,113014.200,A,2500.8148143,N,12132.4688171,E,0.03,35.89,260623,,,D,V*3E
$GPHDT,,T*1B
$GNACCURACY,3.0*15
$GNGGA,113014.300,2500.8148023,N,12132.4688111,E,2,60,0.42,17.903,M,15.25,M,11,3335*7E
$GNRMC,113014.300,A,2500.8148023,N,12132.4688111,E,0.05,35.89,260623,,,D,V*38
$GPHDT,,T*1B
$GNACCURACY,3.0*15
$GNGGA,113014.400,2500.8147903,N,12132.4687931,E,2,60,0.42,17.915,M,15.25,M,11,3335*7F
$GNRMC,113014.400,A,2500.8147903,N,12132.4687931,E,0.03,35.89,260623,,,D,V*38
$GPHDT,,T*1B
$GNACCURACY,3.0*15
$GNGGA,113014.500,2500.8147783,N,12132.4687751,E,2,60,0.42,17.922,M,15.25,M,11,3335*74
$GNRMC,113014.500,A,2500.8147783,N,12132.4687751,E,0.05,35.89,260623,,,D,V*31
$GPHDT,,T*1B
$GNACCURACY,3.0*15
$GNGGA,113014.600,2500.8147603,N,12132.4687631,E,2,61,0.42,17.935,M,15.25,M,11,3335*7E
$GNRMC,113014.600,A,2500.8147603,N,12132.4687631,E,0.03,35.89,260623,,,D,V*3A
$GPHDT,,T*1B
$GNACCURACY,3.0*15
$GNGGA,113014.700,2500.8147423,N,12132.4687511,E,2,61,0.42,17.949,M,15.25,M,8,3335*4D
$GNRMC,113014.700,A,2500.8147423,N,12132.4687511,E,0.03,35.89,260623,,,D,V*3A
$GPHDT,,T*1B
$GNACCURACY,3.0*15
$GNGGA,113014.800,2500.8147303,N,12132.4687331,E,2,61,0.42,17.960,M,15.25,M,8,3335*48
$GNRMC,113014.800,A,2500.8147303,N,12132.4687331,E,0.04,35.89,260623,,,D,V*33
$GPHDT,,T*1B
$GNACCURACY,3.0*15
$GNGGA,113014.900,2500.8147183,N,12132.4687151,E,2,61,0.42,17.972,M,15.25,M,8,3335*44
$GNRMC,113014.900,A,2500.8147183,N,12132.4687151,E,0.06,35.89,260623,,,D,V*3E
$GPHDT,,T*1B
$GNACCURACY,3.0*15
$GNGGA,113015.000,2500.8147003,N,12132.4687031,E,2,61,0.42,17.985,M,15.25,M,9,3335*4B
$GNRMC,113015.000,A,2500.8147003,N,12132.4687031,E,0.02,35.89,260623,,,D,V*3C
$GPHDT,,T*1B
$GNACCURACY,3.0*15
$GNGGA,113015.100,2500.8146883,N,12132.4686851,E,2,61,0.42,18.000,M,15.25,M,9,3335*4F
$GNRMC,113015.100,A,2500.8146883,N,12132.4686851,E,0.00,35.89,260623,,,D,V*31
$GPHDT,,T*1B
$GNGSA,A,3,196,24,199,18,23,15,195,194,12,10,05,32,0.67,0.42,0.52,1*03
$GNGSA,A,3,80,73,85,86,71,69,79,,,,,,0.67,0.42,0.52,2*0A
$GNGSA,A,3,13,08,07,26,30,02,15,,,,,,0.67,0.42,0.52,3*0F
$GNGSA,A,3,38,08,39,13,16,06,46,09,19,36,35,29,0.67,0.42,0.52,4*05
$GNGSA,A,3,22,20,37,,,,,,,,,,0.67,0.42,0.52,4*02
$GPGSV,4,1,15,196,75,066,17,24,72,041,34,199,60,167,32,18,58,243,41,1*6C
$GPGSV,4,2,15,23,52,339,32,41,38,242,31,15,36,049,30,195,33,180,21,1*58
$GPGSV,4,3,15,194,31,138,31,12,21,140,33,10,19,319,36,05,18,120,29,1*57
$GPGSV,4,4,15,25,10,175,17,32,10,270,25,13,07,058,24,1*5F
$GPGSV,2,1,08,196,75,066,36,24,72,041,41,199,60,167,44,18,58,243,44,8*6A
$GPGSV,2,2,08,23,52,339,36,194,31,138,32,10,19,319,25,32,10,270,23,8*5B
$GLGSV,2,1,08,80,48,073,25,70,41,013,,73,40,158,30,85,34,244,27,1*76
$GLGSV,2,2,08,86,27,300,38,71,22,316,41,69,12,075,21,79,10,031,25,1*73
$GAGSV,3,1,09,13,55,230,37,08,46,027,26,07,44,305,44,26,33,305,38,7*7C
$GAGSV,3,2,09,30,27,142,19,02,26,084,21,15,21,174,22,03,10,065,,7*7F
$GAGSV,3,3,09,25,02,042,,7*49
$GAGSV,2,1,05,13,55,230,41,07,44,305,41,26,33,305,40,02,26,084,24,1*7B
$GAGSV,2,2,05,15,21,174,18,1*4C
$GBGSV,4,1,15,38,83,119,42,08,80,003,37,39,71,285,44,13,69,332,41,1*76
$GBGSV,4,2,15,16,66,260,42,06,65,256,40,46,60,108,44,09,50,240,38,1*7D
$GBGSV,4,3,15,19,50,347,32,20,42,065,24,36,36,184,24,37,22,046,,1*75
$GBGSV,4,4,15,35,21,267,29,29,18,211,37,22,12,302,38,1*42
$GBGSV,3,1,09,38,83,119,44,39,71,285,45,46,60,108,48,19,50,347,36,4*7A
$GBGSV,3,2,09,20,42,065,23,36,36,184,36,37,22,046,26,29,18,211,37,4*73
$GBGSV,3,3,09,22,12,302,38,4*43
$GNACCURACY,3.0*15
$PAIRSAT,1,35,1,0,200,2,0,200,3,0,200,4,0,200,5,0,201,6,0,200,7,0,200,8,0,200,9,0,200,10,0,221,11,0,200,12,0,201,13,0,201,14,0,200,15,0,201,16,0,200,17,0,200,18,0,221,19,0,200,20,0,200,21,0,200,23,0,221,24,0,221,25,0,200,26,0,200,27,0,200,28,0,200,29,0,200,30,0,200,31,0,200,32,0,221,194,0,621,195,0,621,196,0,620,199,0,621*68
$PAIRSAT,2,23,65,0,200,67,0,200,68,0,200,69,0,201,70,0,201,71,0,201,72,0,200,73,0,201,74,0,200,75,0,200,76,0,200,77,0,200,78,0,200,79,0,201,80,0,201,81,0,200,82,0,200,83,0,200,84,0,200,85,0,201,86,0,201,87,0,200,88,0,200*53
$PAIRSAT,3,23,2,0,1221,3,0,1221,4,0,1200,5,0,200,7,0,1221,8,0,1221,9,0,1200,10,0,1200,11,0,1200,12,0,1200,13,0,1221,15,0,1221,19,0,1200,21,0,1200,24,0,1200,25,0,1200,26,0,1221,27,0,1200,30,0,1221,31,0,1200,33,0,1200,34,0,1200,36,0,1200*6A
$PAIRSAT,4,50,1,0,200,2,0,200,3,0,200,4,0,200,5,0,200,6,0,201,7,0,200,8,0,201,9,0,201,10,0,200,11,0,200,12,0,200,13,0,201,14,0,200,15,0,200,16,0,201,19,0,621,20,0,621,21,0,600,22,0,621,23,0,600,24,0,600,25,0,600,26,0,600,27,0,600,28,0,600,29,0,621,30,0,600,31,0,200,32,0,600,33,0,600,34,0,600,35,0,621,36,0,621,37,0,621,38,0,621,39,0,621,40,0,600,41,0,600,42,0,600,43,0,600,44,0,600,45,0,600,46,0,621,56,0,200,57,0,200,58,0,200,59,0,600,60,0,600,61,0,600*41
$PAIRDGP,10,5,10,12,13,15,18,23,24,25,32*4D
$GNGGA,113015.200,2500.8146763,N,12132.4686731,E,2,61,0.42,18.014,M,15.25,M,9,3335*41
$GNRMC,113015.200,A,2500.8146763,N,12132.4686731,E,0.01,35.89,260623,,,D,V*3B
$GPHDT,317.950,T*3C
$GNACCURACY,3.0*15
$GNGGA,113015.300,2500.8146643,N,12132.4686551,E,2,61,0.42,18.028,M,15.25,M,9,3335*48
$GNRMC,113015.300,A,2500.8146643,N,12132.4686551,E,0.04,35.89,260623,,,D,V*38
$GPHDT,,T*1B
$GNACCURACY,3.0*15
$GNGGA,113015.400,2500.8146523,N,12132.4686431,E,2,61,0.42,18.041,M,15.25,M,9,3335*42
$GNRMC,113015.400,A,2500.8146523,N,12132.4686431,E,0.04,35.89,260623,,,D,V*3D
$GPHDT,317.656,T*35
$GNACCURACY,3.0*15
$GNGGA,113015.500,2500.8146403,N,12132.4686311,E,2,61,0.42,18.050,M,15.25,M,9,3335*45
$GNRMC,113015.500,A,2500.8146403,N,12132.4686311,E,0.02,35.89,260623,,,D,V*3C
$GPHDT,,T*1B
$GNACCURACY,3.0*15
$GNGGA,113015.600,2500.8146283,N,12132.4686131,E,2,61,0.42,18.059,M,15.25,M,9,3335*41
$GNRMC,113015.600,A,2500.8146283,N,12132.4686131,E,0.03,35.89,260623,,,D,V*30
$GPHDT,318.083,T*34
$GNACCURACY,3.0*15
$GNGGA,113015.700,2500.8146163,N,12132.4686011,E,2,61,0.42,18.070,M,15.25,M,0,3335*4C
$GNRMC,113015.700,A,2500.8146163,N,12132.4686011,E,0.01,35.89,260623,,,D,V*3D
$GPHDT,,T*1B
$GNACCURACY,3.0*15
$GNGGA,113015.800,2500.8146043,N,12132.4685891,E,2,61,0.42,18.080,M,15.25,M,0,3335*4C
$GNRMC,113015.800,A,2500.8146043,N,12132.4685891,E,0.05,35.89,260623,,,D,V*36
$GPHDT,317.866,T*38
$GNACCURACY,3.0*15
$GNGGA,113015.900,2500.8145923,N,12132.4685771,E,2,60,0.42,18.086,M,15.25,M,0,3335*47
$GNRMC,113015.900,A,2500.8145923,N,12132.4685771,E,0.03,35.89,260623,,,D,V*3C
$GPHDT,,T*1B
$GNACCURACY,3.0*15
$GNGGA,113016.000,2500.8145743,N,12132.4685591,E,2,60,0.42,18.095,M,15.25,M,1,3335*4A
$GNRMC,113016.000,A,2500.8145743,N,12132.4685591,E,0.02,35.89,260623,,,D,V*33
$GPHDT,318.077,T*3F
$GNACCURACY,3.0*15
$GNGGA,113016.100,2500.8145563,N,12132.4685411,E,2,60,0.42,18.105,M,15.25,M,1,3335*4A
$GNRMC,113016.100,A,2500.8145563,N,12132.4685411,E,0.03,35.89,260623,,,D,V*3A
$GPHDT,,T*1B
$GNGSA,A,3,196,24,199,18,23,15,195,194,12,10,05,32,0.67,0.42,0.52,1*03
$GNGSA,A,3,80,73,85,86,71,69,79,,,,,,0.67,0.42,0.52,2*0A
$GNGSA,A,3,13,08,07,26,30,02,15,,,,,,0.67,0.42,0.52,3*0F
$GNGSA,A,3,38,08,39,13,16,06,46,09,19,36,35,29,0.67,0.42,0.52,4*05
$GNGSA,A,3,22,20,37,,,,,,,,,,0.67,0.42,0.52,4*02
$GPGSV,4,1,15,196,75,066,19,24,72,041,35,199,60,167,32,18,58,243,43,1*61
$GPGSV,4,2,15,23,52,339,29,41,38,242,37,15,36,049,29,195,33,180,21,1*5C
$GPGSV,4,3,15,194,31,138,31,12,21,140,33,10,19,319,36,05,18,120,28,1*56
$GPGSV,4,4,15,25,10,175,17,32,10,271,28,13,07,058,23,1*54
$GPGSV,2,1,08,196,75,066,36,24,72,041,41,199,60,167,44,18,58,243,47,8*69
$GPGSV,2,2,08,23,52,339,36,194,31,138,32,10,19,319,26,32,10,271,21,8*5B
$GLGSV,2,1,08,80,48,073,24,70,41,013,,73,40,158,31,85,34,244,32,1*72
$GLGSV,2,2,08,86,27,300,39,71,22,316,41,69,12,075,22,79,10,031,25,1*71
$GAGSV,3,1,09,13,55,230,39,08,46,027,27,07,44,305,44,26,33,305,38,7*73
$GAGSV,3,2,09,30,27,142,19,02,26,084,21,15,21,174,22,03,10,065,,7*7F
$GAGSV,3,3,09,25,02,042,,7*49
$GAGSV,2,1,05,13,55,230,43,07,44,305,42,26,33,305,40,02,26,084,24,1*7A
$GAGSV,2,2,05,15,21,174,19,1*4D
$GBGSV,4,1,15,38,83,119,42,08,80,003,37,39,71,285,44,13,69,332,41,1*76
$GBGSV,4,2,15,16,66,260,42,06,65,256,40,46,60,108,44,09,50,240,40,1*72
$GBGSV,4,3,15,19,50,347,32,20,42,065,22,36,36,184,25,37,22,046,,1*72
$GBGSV,4,4,15,35,21,267,29,29,18,211,35,22,12,302,37,1*4F
$GBGSV,3,1,09,38,83,119,44,39,71,285,45,46,60,108,48,19,50,347,36,4*7A
$GBGSV,3,2,09,20,42,065,26,36,36,184,37,37,22,046,27,29,18,211,37,4*76
$GBGSV,3,3,09,22,12,302,38,4*43
$GNACCURACY,3.0*15
$PAIRSAT,1,35,1,0,200,2,0,200,3,0,200,4,0,200,5,0,201,6,0,200,7,0,200,8,0,200,9,0,200,10,0,221,11,0,200,12,0,201,13,0,201,14,0,200,15,0,201,16,0,200,17,0,200,18,0,221,19,0,200,20,0,200,21,0,200,23,0,221,24,0,221,25,0,200,26,0,200,27,0,200,28,0,200,29,0,200,30,0,200,31,0,200,32,0,221,194,0,621,195,0,621,196,0,620,199,0,621*68
$PAIRSAT,2,23,65,0,200,67,0,200,68,0,200,69,0,201,70,0,201,71,0,201,72,0,200,73,0,201,74,0,200,75,0,200,76,0,200,77,0,200,78,0,200,79,0,201,80,0,201,81,0,200,82,0,200,83,0,200,84,0,200,85,0,201,86,0,201,87,0,200,88,0,200*53
$PAIRSAT,3,23,2,0,1221,3,0,1221,4,0,1200,5,0,200,7,0,1221,8,0,1221,9,0,1200,10,0,1200,11,0,1200,12,0,1200,13,0,1221,15,0,1221,19,0,1200,21,0,1200,24,0,1200,25,0,1200,26,0,1221,27,0,1200,30,0,1221,31,0,1200,33,0,1200,34,0,1200,36,0,1200*6A
$PAIRSAT,4,50,1,0,200,2,0,200,3,0,200,4,0,200,5,0,200,6,0,201,7,0,200,8,0,201,9,0,201,10,0,200,11,0,200,12,0,200,13,0,201,14,0,200,15,0,200,16,0,201,19,0,621,20,0,621,21,0,600,22,0,621,23,0,600,24,0,600,25,0,600,26,0,600,27,0,600,28,0,600,29,0,621,30,0,600,31,0,200,32,0,600,33,0,600,34,0,600,35,0,621,36,0,621,37,0,621,38,0,621,39,0,621,40,0,600,41,0,600,42,0,600,43,0,600,44,0,600,45,0,600,46,0,621,56,0,200,57,0,200,58,0,200,59,0,600,60,0,600,61,0,600*41
$PAIRDGP,10,5,10,12,13,15,18,23,24,25,32*4D
$GNGGA,113016.200,2500.8145443,N,12132.4685231,E,2,61,0.42,18.117,M,15.25,M,1,3335*4C
$GNRMC,113016.200,A,2500.8145443,N,12132.4685231,E,0.03,35.89,260623,,,D,V*3E
$GPHDT,317.710,T*36
$GNACCURACY,3.0*15
$GNGGA,113016.300,2500.8145383,N,12132.4685111,E,2,61,0.42,18.125,M,15.25,M,1,3335*46
$GNRMC,113016.300,A,2500.8145383,N,12132.4685111,E,0.03,35.89,260623,,,D,V*35
$GPHDT,,T*1B
$GNACCURACY,3.0*15
$GNGGA,113016.400,2500.8145323,N,12132.4685051,E,2,61,0.42,18.134,M,15.25,M,0,3335*4F
$GNRMC,113016.400,A,2500.8145323,N,12132.4685051,E,0.02,35.89,260623,,,D,V*3C
$GPHDT,317.725,T*30
$GNACCURACY,3.0*15
$GNGGA,113016.500,2500.8145263,N,12132.4684931,E,2,61,0.42,18.141,M,15.25,M,0,3335*47
$GNRMC,113016.500,A,2500.8145263,N,12132.4684931,E,0.01,35.89,260623,,,D,V*35
$GPHDT,,T*1B
$GNACCURACY,3.0*15
$GNGGA,113016.600,2500.8145203,N,12132.4684871,E,2,61,0.42,18.150,M,15.25,M,0,3335*47
$GNRMC,113016.600,A,2500.8145203,N,12132.4684871,E,0.01,35.89,260623,,,D,V*35
$GPHDT,317.715,T*33
$GNACCURACY,3.0*15
$GNGGA,113016.700,2500.8145143,N,12132.4684811,E,2,61,0.42,18.158,M,15.25,M,0,3335*4F
$GNRMC,113016.700,A,2500.8145143,N,12132.4684811,E,0.00,35.89,260623,,,D,V*34
$GPHDT,,T*1B
$GNACCURACY,3.0*15
$GNGGA,113016.800,2500.8145083,N,12132.4684691,E,2,61,0.42,18.170,M,15.25,M,0,3335*41
$GNRMC,113016.800,A,2500.8145083,N,12132.4684691,E,0.01,35.89,260623,,,D,V*31
$GPHDT,317.155,T*31
$GNACCURACY,3.0*15
$GNGGA,113016.900,2500.8145023,N,12132.4684571,E,2,61,0.42,18.182,M,15.25,M,0,3335*4A
$GNRMC,113016.900,A,2500.8145023,N,12132.4684571,E,0.00,35.89,260623,,,D,V*36
$GPHDT,,T*1B
$GNACCURACY,3.0*15
$GNGGA,113017.000,2500.8144903,N,12132.4684451,E,2,61,0.42,18.192,M,15.25,M,1,3335*4B
$GNRMC,113017.000,A,2500.8144903,N,12132.4684451,E,0.01,35.89,260623,,,D,V*36
$GPHDT,317.836,T*3D
$GNACCURACY,3.1*14
$GNGGA,113017.100,2500.8144843,N,12132.4684331,E,2,61,0.42,18.203,M,15.25,M,1,3335*45
$GNRMC,113017.100,A,2500.8144843,N,12132.4684331,E,0.01,35.89,260623,,,D,V*33
$GPHDT,,T*1B
$GNGSA,A,3,196,24,199,18,23,15,195,194,12,10,05,32,0.67,0.42,0.52,1*03
$GNGSA,A,3,80,73,85,86,71,69,79,,,,,,0.67,0.42,0.52,2*0A
$GNGSA,A,3,13,08,07,26,30,02,15,,,,,,0.67,0.42,0.52,3*0F
$GNGSA,A,3,38,08,39,13,16,06,46,09,19,36,35,29,0.67,0.42,0.52,4*05
$GNGSA,A,3,22,20,37,,,,,,,,,,0.67,0.42,0.52,4*02
$GPGSV,4,1,15,196,75,066,18,24,72,041,35,199,60,167,31,18,58,243,43,1*63
$GPGSV,4,2,15,23,52,339,30,41,38,242,43,15,36,049,29,195,33,180,25,1*53
$GPGSV,4,3,15,194,31,138,32,12,21,140,33,10,19,319,35,05,18,120,28,1*56
$GPGSV,4,4,15,25,10,175,18,32,10,271,29,13,07,058,27,1*5E
$GPGSV,2,1,08,196,75,066,34,24,72,041,41,199,60,167,44,18,58,243,47,8*6B
$GPGSV,2,2,08,23,52,339,36,194,31,138,32,10,19,319,26,32,10,271,18,8*51
$GLGSV,2,1,08,80,48,073,28,70,41,013,,73,40,158,32,85,34,244,35,1*7A
$GLGSV,2,2,08,86,27,300,39,71,22,316,41,69,12,075,22,79,10,031,28,1*7C
$GAGSV,3,1,09,13,55,230,39,08,46,027,26,07,44,305,44,26,33,305,38,7*72
$GAGSV,3,2,09,30,27,142,19,02,26,084,21,15,21,174,21,03,10,065,,7*7C
$GAGSV,3,3,09,25,02,042,,7*49
$GAGSV,2,1,05,13,55,230,42,07,44,305,42,26,33,305,39,02,26,084,23,1*72
$GAGSV,2,2,05,15,21,174,18,1*4C
$GBGSV,4,1,15,38,83,119,42,08,80,003,37,39,71,285,45,13,69,332,41,1*77
$GBGSV,4,2,15,16,66,260,42,06,65,256,40,46,60,108,44,09,50,240,40,1*72
$GBGSV,4,3,15,19,50,347,32,20,42,065,22,36,36,184,26,37,22,046,,1*71
$GBGSV,4,4,15,35,21,267,31,29,18,211,28,22,12,302,37,1*4A
$GBGSV,3,1,09,38,83,119,44,39,71,285,45,46,60,108,48,19,50,347,36,4*7A
$GBGSV,3,2,09,20,42,065,26,36,36,184,36,37,22,046,26,29,18,211,31,4*70
$GBGSV,3,3,09,22,12,302,38,4*43
$GNACCURACY,3.0*15
$PAIRSAT,1,35,1,0,200,2,0,200,3,0,200,4,0,200,5,0,201,6,0,200,7,0,200,8,0,200,9,0,200,10,0,221,11,0,200,12,0,201,13,0,201,14,0,200,15,0,201,16,0,200,17,0,200,18,0,221,19,0,200,20,0,200,21,0,200,23,0,221,24,0,221,25,0,200,26,0,200,27,0,200,28,0,200,29,0,200,30,0,200,31,0,200,32,0,221,194,0,621,195,0,621,196,0,620,199,0,621*68
$PAIRSAT,2,23,65,0,200,67,0,200,68,0,200,69,0,201,70,0,201,71,0,201,72,0,200,73,0,201,74,0,200,75,0,200,76,0,200,77,0,200,78,0,200,79,0,201,80,0,201,81,0,200,82,0,200,83,0,200,84,0,200,85,0,201,86,0,201,87,0,200,88,0,200*53
$PAIRSAT,3,23,2,0,1221,3,0,1221,4,0,1200,5,0,200,7,0,1221,8,0,1221,9,0,1200,10,0,1200,11,0,1200,12,0,1200,13,0,1221,15,0,1221,19,0,1200,21,0,1200,24,0,1200,25,0,1200,26,0,1221,27,0,1200,30,0,1221,31,0,1200,33,0,1200,34,0,1200,36,0,1200*6A
$PAIRSAT,4,50,1,0,200,2,0,200,3,0,200,4,0,200,5,0,200,6,0,201,7,0,200,8,0,201,9,0,201,10,0,200,11,0,200,12,0,200,13,0,201,14,0,200,15,0,200,16,0,201,19,0,621,20,0,621,21,0,600,22,0,621,23,0,600,24,0,600,25,0,600,26,0,600,27,0,600,28,0,600,29,0,621,30,0,600,31,0,200,32,0,600,33,0,600,34,0,600,35,0,621,36,0,621,37,0,621,38,0,621,39,0,621,40,0,600,41,0,600,42,0,600,43,0,600,44,0,600,45,0,600,46,0,621,56,0,200,57,0,200,58,0,200,59,0,600,60,0,600,61,0,600*41
$PAIRDGP,10,5,10,12,13,15,18,23,24,25,32*4D
$GNGGA,113017.200,2500.8144783,N,12132.4684271,E,2,61,0.42,18.210,M,15.25,M,1,3335*42
$GNRMC,113017.200,A,2500.8144783,N,12132.4684271,E,0.01,35.89,260623,,,D,V*36
$GPHDT,318.171,T*38
$GNACCURACY,3.0*15
$GNGGA,113017.300,2500.8144723,N,12132.4684151,E,2,62,0.42,18.220,M,15.25,M,1,3335*48
$GNRMC,113017.300,A,2500.8144723,N,12132.4684151,E,0.02,35.89,260623,,,D,V*3F
$GPHDT,,T*1B
$GNACCURACY,3.0*15
$GNGGA,113017.400,2500.8144663,N,12132.4684091,E,2,62,0.42,18.229,M,15.25,M,1,3335*4E
$GNRMC,113017.400,A,2500.8144663,N,12132.4684091,E,0.02,35.89,260623,,,D,V*30
$GPHDT,317.951,T*3D
$GNACCURACY,3.0*15
$GNGGA,113017.500,2500.8144663,N,12132.4684031,E,2,62,0.42,18.238,M,15.25,M,1,3335*45
$GNRMC,113017.500,A,2500.8144663,N,12132.4684031,E,0.02,35.89,260623,,,D,V*3B
$GPHDT,,T*1B
$GNACCURACY,3.0*15
$GNGGA,113017.600,2500.8144603,N,12132.4683911,E,2,62,0.42,18.245,M,15.25,M,1,3335*46
$GNRMC,113017.600,A,2500.8144603,N,12132.4683911,E,0.02,35.89,260623,,,D,V*32
$GPHDT,317.773,T*33
$GNACCURACY,3.0*15
$GNGGA,113017.700,2500.8144543,N,12132.4683851,E,2,62,0.42,18.253,M,15.25,M,1,3335*42
$GNRMC,113017.700,A,2500.8144543,N,12132.4683851,E,0.01,35.89,260623,,,D,V*32
$GPHDT,,T*1B
$GNACCURACY,3.0*15
$GNGGA,113017.800,2500.8144543,N,12132.4683731,E,2,62,0.42,18.260,M,15.25,M,1,3335*44
$GNRMC,113017.800,A,2500.8144543,N,12132.4683731,E,0.00,35.89,260623,,,D,V*35
$GPHDT,318.127,T*3B
$GNACCURACY,3.0*15
$GNGGA,113017.900,2500.8144543,N,12132.4683671,E,2,62,0.42,18.269,M,15.25,M,1,3335*49
$GNRMC,113017.900,A,2500.8144543,N,12132.4683671,E,0.01,35.89,260623,,,D,V*30
$GPHDT,,T*1B
$GNACCURACY,3.1*14
$GNGGA,113018.000,2500.8144483,N,12132.4683551,E,2,62,0.42,18.277,M,15.25,M,1,3335*4C
$GNRMC,113018.000,A,2500.8144483,N,12132.4683551,E,0.01,35.89,260623,,,D,V*3A
$GPHDT,318.388,T*3C
$GNACCURACY,3.1*14
$GNGGA,113018.100,2500.8144483,N,12132.4683431,E,2,62,0.42,18.287,M,15.25,M,1,3335*45
$GNRMC,113018.100,A,2500.8144483,N,12132.4683431,E,0.01,35.89,260623,,,D,V*3C
$GPHDT,,T*1B
$GNGSA,A,3,196,24,199,18,23,15,195,194,12,10,05,32,0.67,0.42,0.52,1*03
$GNGSA,A,3,80,73,85,86,71,69,79,,,,,,0.67,0.42,0.52,2*0A
$GNGSA,A,3,13,08,07,26,30,02,15,,,,,,0.67,0.42,0.52,3*0F
$GNGSA,A,3,38,08,39,13,16,06,46,09,19,36,35,29,0.67,0.42,0.52,4*05
$GNGSA,A,3,22,20,37,,,,,,,,,,0.67,0.42,0.52,4*02
$GPGSV,4,1,15,196,75,066,20,24,72,041,35,199,60,167,33,18,58,243,44,1*6D
$GPGSV,4,2,15,23,52,339,30,41,38,242,43,15,36,049,27,195,33,180,27,1*5F
$GPGSV,4,3,15,194,31,138,32,12,21,140,33,10,19,319,35,05,18,120,25,1*5B
$GPGSV,4,4,15,25,10,175,18,32,10,271,28,13,07,058,25,1*5D
$GPGSV,2,1,08,196,75,066,35,24,72,041,41,199,60,167,44,18,58,243,47,8*6A
$GPGSV,2,2,08,23,52,339,35,194,31,138,32,10,19,319,28,32,10,271,19,8*5D
$GLGSV,2,1,08,80,48,073,24,70,41,013,,73,40,158,32,85,34,244,34,1*77
$GLGSV,2,2,08,86,27,300,39,71,22,316,41,69,12,075,21,79,10,031,28,1*7F
$GAGSV,2,1,08,13,55,230,37,08,46,027,26,07,44,305,44,26,33,305,38,7*7C
$GAGSV,2,2,08,30,27,142,19,02,26,084,21,15,21,174,22,03,10,065,,7*7F
$GAGSV,2,1,05,13,55,230,41,07,44,305,42,26,33,305,39,02,26,084,23,1*71
$GAGSV,2,2,05,15,21,174,17,1*43
$GBGSV,4,1,15,38,83,119,42,08,80,003,37,39,71,285,45,13,69,332,41,1*77
$GBGSV,4,2,15,16,66,260,42,06,65,256,40,46,60,108,44,09,50,240,40,1*72
$GBGSV,4,3,15,19,50,347,32,20,42,065,24,36,36,184,22,37,22,046,,1*73
$GBGSV,4,4,15,35,21,267,29,29,18,211,28,22,12,302,37,1*43
$GBGSV,3,1,10,38,83,119,44,39,71,285,45,46,60,108,48,19,50,347,36,4*72
$GBGSV,3,2,10,20,42,065,25,36,36,184,36,37,22,046,26,35,21,267,20,4*7D
$GBGSV,3,3,10,29,18,211,31,22,12,302,37,4*76
$GNACCURACY,3.1*14
$PAIRSAT,1,35,1,0,200,2,0,200,3,0,200,4,0,200,5,0,201,6,0,200,7,0,200,8,0,200,9,0,200,10,0,221,11,0,200,12,0,201,13,0,201,14,0,200,15,0,201,16,0,200,17,0,200,18,0,221,19,0,200,20,0,200,21,0,200,23,0,221,24,0,221,25,0,200,26,0,200,27,0,200,28,0,200,29,0,200,30,0,200,31,0,200,32,0,221,194,0,621,195,0,621,196,0,620,199,0,621*68
$PAIRSAT,2,23,65,0,200,67,0,200,68,0,200,69,0,201,70,0,201,71,0,201,72,0,200,73,0,201,74,0,200,75,0,200,76,0,200,77,0,200,78,0,200,79,0,201,80,0,201,81,0,200,82,0,200,83,0,200,84,0,200,85,0,201,86,0,201,87,0,200,88,0,200*53
$PAIRSAT,3,23,2,0,1221,3,0,1221,4,0,1200,5,0,200,7,0,1221,8,0,1221,9,0,1200,10,0,1200,11,0,1200,12,0,1200,13,0,1221,15,0,1221,19,0,1200,21,0,1200,24,0,1200,25,0,1200,26,0,1221,27,0,1200,30,0,1221,31,0,1200,33,0,1200,34,0,1200,36,0,1200*6A
$PAIRSAT,4,50,1,0,200,2,0,200,3,0,200,4,0,200,5,0,200,6,0,201,7,0,200,8,0,201,9,0,201,10,0,200,11,0,200,12,0,200,13,0,201,14,0,200,15,0,200,16,0,201,19,0,621,20,0,621,21,0,600,22,0,621,23,0,600,24,0,600,25,0,600,26,0,600,27,0,600,28,0,600,29,0,621,30,0,600,31,0,200,32,0,600,33,0,600,34,0,600,35,0,621,36,0,621,37,0,621,38,0,621,39,0,621,40,0,600,41,0,600,42,0,600,43,0,600,44,0,600,45,0,600,46,0,621,56,0,200,57,0,200,58,0,200,59,0,600,60,0,600,61,0,600*41
$PAIRDGP,10,5,10,12,13,15,18,23,24,25,32*4D
$GNGGA,113018.200,2500.8144423,N,12132.4683371,E,2,62,0.42,18.296,M,15.25,M,1,3335*4F
$GNRMC,113018.200,A,2500.8144423,N,12132.4683371,E,0.01,35.89,260623,,,D,V*36
$GPHDT,317.792,T*3C
$GNACCURACY,3.0*15
$GNGGA,113018.300,2500.8144363,N,12132.4683311,E,2,63,0.42,18.304,M,15.25,M,1,3335*40
$GNRMC,113018.300,A,2500.8144363,N,12132.4683311,E,0.02,35.89,260623,,,D,V*31
$GPHDT,,T*1B
$GNACCURACY,3.0*15
$GNGGA,113018.400,2500.8144303,N,12132.4683251,E,2,63,0.42,18.313,M,15.25,M,1,3335*42
$GNRMC,113018.400,A,2500.8144303,N,12132.4683251,E,0.03,35.89,260623,,,D,V*34
$GPHDT,317.887,T*37
$GNACCURACY,3.0*15
$GNGGA,113018.500,2500.8144303,N,12132.4683131,E,2,63,0.42,18.323,M,15.25,M,1,3335*45
$GNRMC,113018.500,A,2500.8144303,N,12132.4683131,E,0.02,35.89,260623,,,D,V*31
$GPHDT,,T*1B
$GNACCURACY,3.0*15
$GNGGA,113018.600,2500.8144303,N,12132.4683071,E,2,63,0.42,18.330,M,15.25,M,1,3335*41
$GNRMC,113018.600,A,2500.8144303,N,12132.4683071,E,0.01,35.89,260623,,,D,V*34
$GPHDT,317.450,T*31
$GNACCURACY,3.0*15
$GNGGA,113018.700,2500.8144243,N,12132.4682951,E,2,63,0.42,18.336,M,15.25,M,0,3335*48
$GNRMC,113018.700,A,2500.8144243,N,12132.4682951,E,0.01,35.89,260623,,,D,V*3A
$GPHDT,,T*1B
$GNACCURACY,3.0*15
$GNGGA,113018.800,2500.8144243,N,12132.4682891,E,2,63,0.42,18.345,M,15.25,M,0,3335*4E
$GNRMC,113018.800,A,2500.8144243,N,12132.4682891,E,0.01,35.89,260623,,,D,V*38
$GPHDT,316.895,T*35
$GNACCURACY,3.0*15
$GNGGA,113018.900,2500.8144243,N,12132.4682831,E,2,63,0.42,18.352,M,15.25,M,0,3335*43
$GNRMC,113018.900,A,2500.8144243,N,12132.4682831,E,0.01,35.89,260623,,,D,V*33
$GPHDT,,T*1B
$GNACCURACY,3.0*15
$GNGGA,113019.000,2500.8144243,N,12132.4682711,E,2,63,0.42,18.359,M,15.25,M,1,3335*4C
$GNRMC,113019.000,A,2500.8144243,N,12132.4682711,E,0.01,35.89,260623,,,D,V*36
$GPHDT,316.809,T*30
$GNACCURACY,3.1*14
$GNGGA,113019.100,2500.8144183,N,12132.4682591,E,2,63,0.42,18.367,M,15.25,M,1,3335*45
$GNRMC,113019.100,A,2500.8144183,N,12132.4682591,E,0.01,35.89,260623,,,D,V*32
