$FW : RTK35X,V1.1X0314AS,Lib20210517,1*54
$Tool : LOCOSYS , GNSS Firebird , v1.0.0.19*39
$---------------------------------------------------*2D
32,0,221,194,0,621,195,0,621,196,0,620,199,0,621*68
$PAIRSAT,2,23,65,0,200,67,0,200,68,0,200,69,0,201,70,0,201,71,0,201,72,0,200,73,0,201,74,0,200,75,0,200,76,0,200,77,0,200,78,0,200,79,0,201,80,0,201,81,0,200,82,0,200,83,0,200,84,0,200,85,0,201,86,0,201,87,0,200,88,0,200*53
$PAIRSAT,3,23,2,0,1221,3,0,1221,4,0,1200,5,0,200,7,0,1221,8,0,1221,9,0,1200,10,0,1200,11,0,1200,12,0,1200,13,0,1221,15,0,1221,19,0,1200,21,0,1200,24,0,1200,25,0,1200,26,0,1221,27,0,1200,30,0,1221,31,0,1200,33,0,1200,34,0,1200,36,0,1200*6A
$PAIRSAT,4,50,1,0,200,2,0,200,3,0,200,4,0,200,5,0,200,6,0,201,7,0,200,8,0,201,9,0,201,10,0,200,11,0,200,12,0,200,13,0,201,14,0,200,15,0,200,16,0,201,19,0,621,20,0,621,21,0,600,22,0,621,23,0,600,24,0,600,25,0,600,26,0,600,27,0,600,28,0,600,29,0,621,30,0,600,31,0,200,32,0,600,33,0,600,34,0,600,35,0,621,36,0,621,37,0,621,38,0,621,39,0,621,40,0,600,41,0,600,42,0,600,43,0,600,44,0,600,45,0,600,46,0,621,56,0,200,57,0,200,58,0,200,59,0,600,60,0,600,61,0,600*41
$PAIRDGP,10,5,10,12,13,15,18,23,24,25,32*4D
$GNGGA,113046.200,2500.8149103,N,12132.4670051,E,2,59,0.43,17.627,M,15.25,M,1,3335*4B
$GNRMC,113046.200,A,2500.8149103,N,12132.4670051,E,0.01,35.89,260623,,,D,V*3A
$GPHDT,227.764,T*37
$GNACCURACY,2.9*1D
$GNGGA,113046.300,2500.8149163,N,12132.4670111,E,2,58,0.43,17.619,M,15.25,M,1,3335*45
$GNRMC,113046.300,A,2500.8149163,N,12132.4670111,E,0.01,35.89,260623,,,D,V*38
$GPHDT,,T*1B
$GNACCURACY,2.9*1D
$GNGGA,113046.400,2500.8149223,N,12132.4670171,E,2,58,0.43,17.609,M,15.25,M,1,3335*42
$GNRMC,113046.400,A,2500.8149223,N,12132.4670171,E,0.00,35.89,260623,,,D,V*3F
$GPHDT,227.388,T*31
$GNACCURACY,2.9*1D
$GNGGA,113046.500,2500.8149223,N,12132.4670291,E,2,57,0.43,17.602,M,15.25,M,1,3335*4A
$GNRMC,113046.500,A,2500.8149223,N,12132.4670291,E,0.00,35.89,260623,,,D,V*33
$GPHDT,,T*1B
$GNACCURACY,2.9*1D
$GNGGA,113046.600,2500.8149283,N,12132.4670291,E,2,58,0.43,17.597,M,15.25,M,1,3335*43
$GNRMC,113046.600,A,2500.8149283,N,12132.4670291,E,0.00,35.89,260623,,,D,V*3A
$GPHDT,227.621,T*37
$GNACCURACY,2.8*1C
$GNGGA,113046.700,2500.8149343,N,12132.4670411,E,2,58,0.43,17.590,M,15.25,M,1,3335*46
$GNRMC,113046.700,A,2500.8149343,N,12132.4670411,E,0.00,35.89,260623,,,D,V*38
$GPHDT,,T*1B
$GNACCURACY,2.8*1C
$GNGGA,113046.800,2500.8149463,N,12132.4670471,E,2,57,0.43,17.582,M,15.25,M,1,3335*46
$GNRMC,113046.800,A,2500.8149463,N,12132.4670471,E,0.01,35.89,260623,,,D,V*35
$GPHDT,227.459,T*3A
$GNACCURACY,2.9*1D
$GNGGA,113046.900,2500.8149523,N,12132.4670591,E,2,57,0.43,17.575,M,15.25,M,1,3335*45
$GNRMC,113046.900,A,2500.8149523,N,12132.4670591,E,0.01,35.89,260623,,,D,V*3E
$GPHDT,,T*1B
$GNACCURACY,2.9*1D
$GNGGA,113047.000,2500.8149523,N,12132.4670651,E,2,57,0.43,17.571,M,15.25,M,2,3335*45
$GNRMC,113047.000,A,2500.8149523,N,12132.4670651,E,0.01,35.89,260623,,,D,V*39
$GPHDT,227.223,T*31
$GNACCURACY,2.9*1D
$GNGGA,113047.100,2500.8147730,N,12132.4690618,E,4,57,0.43,15.993,M,15.25,M,2,3335*4D
$GNRMC,113047.100,A,2500.8147730,N,12132.4690618,E,0.01,35.89,260623,,,R,V*23
$GPHDT,,T*1B
$GNGSA,A,3,24,199,18,23,15,195,194,12,10,05,32,196,0.69,0.43,0.54,1*0A
$GNGSA,A,3,80,73,85,86,71,79,,,,,,,0.69,0.43,0.54,2*0C
$GNGSA,A,3,13,08,07,26,30,02,15,,,,,,0.69,0.43,0.54,3*06
$GNGSA,A,3,38,08,39,13,16,06,46,09,19,36,35,29,0.69,0.43,0.54,4*0C
$GNGSA,A,3,22,37,,,,,,,,,,,0.69,0.43,0.54,4*09
$GPGSV,4,1,15,196,75,066,14,24,72,040,32,199,60,167,29,18,58,242,46,1*64
$GPGSV,4,2,15,23,52,340,35,41,38,242,45,15,36,049,29,195,33,180,29,1*52
$GPGSV,4,3,15,194,31,138,30,12,21,140,25,10,19,319,29,05,18,120,27,1*51
$GPGSV,4,4,15,25,10,175,21,32,10,271,29,13,07,058,22,1*51
$GPGSV,2,1,07,196,75,066,35,24,72,040,38,199,60,167,41,18,58,242,46,8*6F
$GPGSV,2,2,07,23,52,340,38,194,31,138,33,10,19,319,30,8*65
$GLGSV,2,1,08,80,48,073,16,70,41,013,,73,40,158,33,85,34,244,38,1*7B
$GLGSV,2,2,08,86,27,299,42,71,22,316,40,69,12,076,15,79,10,031,28,1*77
$GAGSV,3,1,09,13,55,230,43,08,46,027,24,07,44,305,43,26,33,305,41,7*74
$GAGSV,3,2,09,30,27,142,27,02,26,084,24,15,21,174,23,03,10,065,,7*76
$GAGSV,3,3,09,27,02,188,,7*4C
$GAGSV,2,1,05,13,55,230,44,08,46,027,23,07,44,305,43,26,33,305,43,1*7D
$GAGSV,2,2,05,30,27,142,24,1*47
$GBGSV,4,1,15,38,83,120,42,08,80,003,37,39,71,286,43,13,69,332,41,1*78
$GBGSV,4,2,15,16,66,260,43,06,65,256,41,46,60,108,46,09,50,240,40,1*70
$GBGSV,4,3,15,19,50,347,33,20,42,065,,36,37,184,31,35,21,267,35,1*71
$GBGSV,4,4,15,37,21,046,25,29,18,211,27,22,12,303,36,1*43
$GBGSV,3,1,09,38,83,120,44,39,71,286,45,46,60,108,48,19,50,347,36,4*73
$GBGSV,3,2,09,36,37,184,22,35,21,267,27,37,21,046,27,29,18,211,33,4*74
$GBGSV,3,3,09,22,12,303,36,4*4C
$GNACCURACY,2.9*1D
$PAIRSAT,1,35,1,0,200,2,0,200,3,0,200,4,0,200,5,0,201,6,0,200,7,0,200,8,0,200,9,0,200,10,0,221,11,0,200,12,0,201,13,0,201,14,0,200,15,0,201,16,0,200,17,0,200,18,0,221,19,0,200,20,0,200,21,0,200,23,0,221,24,0,221,25,0,200,26,0,200,27,0,200,28,0,200,29,0,200,30,0,200,31,0,200,32,0,221,194,0,621,195,0,621,196,0,620,199,0,621*68
$PAIRSAT,2,23,65,0,200,67,0,200,68,0,200,69,0,201,70,0,201,71,0,201,72,0,200,73,0,201,74,0,200,75,0,200,76,0,200,77,0,200,78,0,200,79,0,201,80,0,201,81,0,200,82,0,200,83,0,200,84,0,200,85,0,201,86,0,201,87,0,200,88,0,200*53
$PAIRSAT,3,23,2,0,1221,3,0,1221,4,0,1200,5,0,200,7,0,1221,8,0,1221,9,0,1200,10,0,1200,11,0,1200,12,0,1200,13,0,1221,15,0,1221,19,0,1200,21,0,1200,24,0,1200,25,0,1200,26,0,1221,27,0,1200,30,0,1221,31,0,1200,33,0,1200,34,0,1200,36,0,1200*6A
$PAIRSAT,4,50,1,0,200,2,0,200,3,0,200,4,0,200,5,0,200,6,0,201,7,0,200,8,0,201,9,0,201,10,0,200,11,0,200,12,0,200,13,0,201,14,0,200,15,0,200,16,0,201,19,0,621,20,0,621,21,0,600,22,0,621,23,0,600,24,0,600,25,0,600,26,0,600,27,0,600,28,0,600,29,0,621,30,0,600,31,0,200,32,0,600,33,0,600,34,0,600,35,0,621,36,0,621,37,0,621,38,0,621,39,0,621,40,0,600,41,0,600,42,0,600,43,0,600,44,0,600,45,0,600,46,0,621,56,0,200,57,0,200,58,0,200,59,0,600,60,0,600,61,0,600*41
$PAIRDGP,10,5,10,12,13,15,18,23,24,25,32*4D
$GNGGA,113047.200,2500.8147752,N,12132.4690577,E,4,57,0.43,16.002,M,15.25,M,2,3335*42
$GNRMC,113047.200,A,2500.8147752,N,12132.4690577,E,0.01,35.89,260623,,,R,V*2E
$GPHDT,227.467,T*37
$GNACCURACY,2.9*1D
$GNGGA,113047.300,2500.8147717,N,12132.4690605,E,4,57,0.43,15.995,M,15.25,M,2,3335*40
$GNRMC,113047.300,A,2500.8147717,N,12132.4690605,E,0.01,35.89,260623,,,R,V*28
$GPHDT,,T*1B
$GNACCURACY,2.9*1D
$GNGGA,113047.400,2500.8147753,N,12132.4690636,E,4,57,0.43,15.989,M,15.25,M,2,3335*4A
$GNRMC,113047.400,A,2500.8147753,N,12132.4690636,E,0.02,35.89,260623,,,R,V*2C
$GPHDT,227.444,T*36
$GNACCURACY,2.9*1D
$GNGGA,113047.500,2500.8147720,N,12132.4690616,E,4,58,0.42,15.984,M,15.25,M,2,3335*4E
$GNRMC,113047.500,A,2500.8147720,N,12132.4690616,E,0.01,35.89,260623,,,R,V*28
$GPHDT,,T*1B
$GNACCURACY,2.9*1D
$GNGGA,113047.600,2500.8147737,N,12132.4690572,E,4,58,0.42,16.000,M,15.25,M,2,3335*4C
$GNRMC,113047.600,A,2500.8147737,N,12132.4690572,E,0.02,35.89,260623,,,R,V*2F
$GPHDT,227.278,T*3F
$GNACCURACY,2.9*1D
$GNGGA,113047.700,2500.8147754,N,12132.4690641,E,4,58,0.42,15.999,M,15.25,M,2,3335*41
$GNRMC,113047.700,A,2500.8147754,N,12132.4690641,E,0.02,35.89,260623,,,R,V*28
$GPHDT,,T*1B
$GNACCURACY,2.9*1D
$GNGGA,113047.800,2500.8147737,N,12132.4690579,E,4,59,0.42,15.993,M,15.25,M,2,3335*48
$GNRMC,113047.800,A,2500.8147737,N,12132.4690579,E,0.02,35.89,260623,,,R,V*2A
$GPHDT,227.133,T*33
$GNACCURACY,2.9*1D
$GNGGA,113047.900,2500.8147748,N,12132.4690618,E,4,59,0.42,15.995,M,15.25,M,2,3335*43
$GNRMC,113047.900,A,2500.8147748,N,12132.4690618,E,0.01,35.89,260623,,,R,V*24
$GPHDT,,T*1B
$GNACCURACY,2.9*1D
$GNGGA,113048.000,2500.8147733,N,12132.4690560,E,4,59,0.42,15.994,M,15.25,M,3,3335*45
$GNRMC,113048.000,A,2500.8147733,N,12132.4690560,E,0.01,35.89,260623,,,R,V*22
$GPHDT,227.186,T*3D
$GNACCURACY,2.9*1D
$GNGGA,113048.100,2500.8147681,N,12132.4690602,E,4,58,0.42,15.992,M,15.25,M,3,3335*4C
$GNRMC,113048.100,A,2500.8147681,N,12132.4690602,E,0.01,35.89,260623,,,R,V*2C
$GPHDT,,T*1B
$GNGSA,A,3,24,199,18,23,195,194,12,10,05,32,196,,0.66,0.42,0.51,1*05
$GNGSA,A,3,80,73,85,86,71,69,79,,,,,,0.66,0.42,0.51,2*08
$GNGSA,A,3,13,08,07,26,30,02,15,03,,,,,0.66,0.42,0.51,3*0E
$GNGSA,A,3,38,08,39,13,16,06,46,09,19,36,35,29,0.66,0.42,0.51,4*07
$GNGSA,A,3,22,37,,,,,,,,,,,0.66,0.42,0.51,4*02
$GPGSV,4,1,15,196,75,066,17,24,72,040,31,199,60,167,28,18,58,242,46,1*65
$GPGSV,4,2,15,23,52,340,35,41,38,242,45,15,36,049,,195,33,180,29,1*59
$GPGSV,4,3,15,194,31,138,31,12,21,140,25,10,19,319,28,05,18,120,28,1*5E
$GPGSV,4,4,15,25,10,175,20,32,10,271,29,13,07,058,21,1*53
$GPGSV,2,1,07,196,75,066,35,24,72,040,38,199,60,167,41,18,58,242,46,8*6F
$GPGSV,2,2,07,23,52,340,38,194,31,138,32,10,19,319,31,8*65
$GLGSV,3,1,09,80,48,073,15,70,41,013,,73,40,158,33,85,34,244,38,1*78
$GLGSV,3,2,09,86,27,299,42,71,22,316,41,69,12,076,17,79,10,031,29,1*75
$GLGSV,3,3,09,84,07,189,,1*4A
$GAGSV,2,1,08,13,55,230,43,08,46,027,24,07,44,305,43,26,33,305,42,7*77
$GAGSV,2,2,08,30,27,142,26,02,26,084,24,15,21,174,22,03,10,065,16,7*71
$GAGSV,2,1,05,13,55,230,44,08,46,027,23,07,44,305,43,26,33,305,43,1*7D
$GAGSV,2,2,05,30,27,142,26,1*45
$GBGSV,4,1,15,38,83,120,42,08,80,003,35,39,71,286,43,13,69,332,41,1*7A
$GBGSV,4,2,15,16,66,260,43,06,65,256,41,46,60,108,46,09,50,240,40,1*70
$GBGSV,4,3,15,19,50,347,34,20,42,065,,36,37,184,30,35,21,267,34,1*76
$GBGSV,4,4,15,37,21,046,27,29,18,211,28,22,12,303,36,1*4E
$GBGSV,3,1,09,38,83,120,44,39,71,286,45,46,60,108,48,19,50,347,36,4*73
$GBGSV,3,2,09,36,37,184,21,35,21,267,29,37,21,046,27,29,18,211,33,4*79
$GBGSV,3,3,09,22,12,303,36,4*4C
$GNACCURACY,2.9*1D
$PAIRSAT,1,35,1,0,200,2,0,200,3,0,200,4,0,200,5,0,201,6,0,200,7,0,200,8,0,200,9,0,200,10,0,221,11,0,200,12,0,201,13,0,201,14,0,200,15,0,201,16,0,200,17,0,200,18,0,221,19,0,200,20,0,200,21,0,200,23,0,221,24,0,221,25,0,200,26,0,200,27,0,200,28,0,200,29,0,200,30,0,200,31,0,200,32,0,221,194,0,621,195,0,621,196,0,620,199,0,621*68
$PAIRSAT,2,23,65,0,200,67,0,200,68,0,200,69,0,201,70,0,201,71,0,201,72,0,200,73,0,201,74,0,200,75,0,200,76,0,200,77,0,200,78,0,200,79,0,201,80,0,201,81,0,200,82,0,200,83,0,200,84,0,200,85,0,201,86,0,201,87,0,200,88,0,200*53
$PAIRSAT,3,23,2,0,1221,3,0,1221,4,0,1200,5,0,200,7,0,1221,8,0,1221,9,0,1200,10,0,1200,11,0,1200,12,0,1200,13,0,1221,15,0,1221,19,0,1200,21,0,1200,24,0,1200,25,0,1200,26,0,1221,27,0,1200,30,0,1221,31,0,1200,33,0,1200,34,0,1200,36,0,1200*6A
$PAIRSAT,4,50,1,0,200,2,0,200,3,0,200,4,0,200,5,0,200,6,0,201,7,0,200,8,0,201,9,0,201,10,0,200,11,0,200,12,0,200,13,0,201,14,0,200,15,0,200,16,0,201,19,0,621,20,0,621,21,0,600,22,0,621,23,0,600,24,0,600,25,0,600,26,0,600,27,0,600,28,0,600,29,0,621,30,0,600,31,0,200,32,0,600,33,0,600,34,0,600,35,0,621,36,0,621,37,0,621,38,0,621,39,0,621,40,0,600,41,0,600,42,0,600,43,0,600,44,0,600,45,0,600,46,0,621,56,0,200,57,0,200,58,0,200,59,0,600,60,0,600,61,0,600*41
$PAIRDGP,10,5,10,12,13,15,18,23,24,25,32*4D
$GNGGA,113048.200,2500.8147678,N,12132.4690608,E,4,58,0.42,15.994,M,15.25,M,3,3335*45
$GNRMC,113048.200,A,2500.8147678,N,12132.4690608,E,0.01,35.89,260623,,,R,V*23
$GPHDT,227.216,T*37
$GNACCURACY,2.9*1D
$GNGGA,113048.300,2500.8147722,N,12132.4690577,E,4,58,0.42,15.994,M,15.25,M,3,3335*41
$GNRMC,113048.300,A,2500.8147722,N,12132.4690577,E,0.01,35.89,260623,,,R,V*27
$GPHDT,,T*1B
$GNACCURACY,2.9*1D
$GNGGA,113048.400,2500.8147706,N,12132.4690594,E,4,58,0.42,16.001,M,15.25,M,3,3335*4B
$GNRMC,113048.400,A,2500.8147706,N,12132.4690594,E,0.01,35.89,260623,,,R,V*2B
$GPHDT,227.267,T*31
$GNACCURACY,2.9*1D
$GNGGA,113048.500,2500.8147759,N,12132.4690581,E,4,58,0.42,16.002,M,15.25,M,3,3335*47
$GNRMC,113048.500,A,2500.8147759,N,12132.4690581,E,0.01,35.89,260623,,,R,V*24
$GPHDT,,T*1B
$GNACCURACY,2.9*1D
$GNGGA,113048.600,2500.8147738,N,12132.4690591,E,4,58,0.42,15.997,M,15.25,M,3,3335*44
$GNRMC,113048.600,A,2500.8147738,N,12132.4690591,E,0.01,35.89,260623,,,R,V*21
$GPHDT,227.260,T*36
$GNACCURACY,2.9*1D
$GNGGA,113048.700,2500.8147752,N,12132.4690619,E,4,58,0.42,15.988,M,15.25,M,3,3335*44
$GNRMC,113048.700,A,2500.8147752,N,12132.4690619,E,0.02,35.89,260623,,,R,V*2C
$GPHDT,,T*1B
$GNACCURACY,2.9*1D
$GNGGA,113048.800,2500.8147743,N,12132.4690611,E,4,59,0.42,15.988,M,15.25,M,3,3335*42
$GNRMC,113048.800,A,2500.8147743,N,12132.4690611,E,0.02,35.89,260623,,,R,V*2B
$GPHDT,227.070,T*35
$GNACCURACY,2.9*1D
$GNGGA,113048.900,2500.8147747,N,12132.4690590,E,4,59,0.42,16.000,M,15.25,M,3,3335*47
$GNRMC,113048.900,A,2500.8147747,N,12132.4690590,E,0.02,35.89,260623,,,R,V*24
$GPHDT,,T*1B
$GNACCURACY,2.9*1D
$GNGGA,113049.000,2500.8147768,N,12132.4690618,E,4,59,0.42,16.005,M,15.25,M,4,3335*43
$GNRMC,113049.000,A,2500.8147768,N,12132.4690618,E,0.01,35.89,260623,,,R,V*21
$GPHDT,227.186,T*3D
$GNACCURACY,2.9*1D
$GNGGA,113049.100,2500.8147733,N,12132.4690569,E,4,59,0.42,15.998,M,15.25,M,4,3335*47
$GNRMC,113049.100,A,2500.8147733,N,12132.4690569,E,0.02,35.89,260623,,,R,V*28
$GPHDT,,T*1B
$GNGSA,A,3,196,24,199,18,23,195,194,12,10,05,32,,0.66,0.42,0.51,1*05
$GNGSA,A,3,80,73,85,86,71,69,79,,,,,,0.66,0.42,0.51,2*08
$GNGSA,A,3,13,08,07,26,30,02,15,03,,,,,0.66,0.42,0.51,3*0E
$GNGSA,A,3,38,08,39,13,16,06,46,09,19,36,35,29,0.66,0.42,0.51,4*07
$GNGSA,A,3,22,37,,,,,,,,,,,0.66,0.42,0.51,4*02
$GPGSV,4,1,15,196,75,066,17,24,72,040,30,199,60,167,30,18,58,242,46,1*6D
$GPGSV,4,2,15,23,52,340,36,41,38,242,45,15,36,049,,195,33,180,29,1*5A
$GPGSV,4,3,15,194,31,138,31,12,21,140,25,10,19,319,28,05,18,120,28,1*5E
$GPGSV,4,4,15,25,10,175,19,32,10,271,29,13,07,058,19,1*52
$GPGSV,2,1,07,196,75,066,35,24,72,040,38,199,60,167,41,18,58,242,46,8*6F
$GPGSV,2,2,07,23,52,340,38,194,31,138,32,10,19,319,31,8*65
$GLGSV,3,1,09,80,48,073,13,70,41,013,,73,40,158,33,85,34,244,39,1*7F
$GLGSV,3,2,09,86,27,299,42,71,22,316,41,69,12,076,17,79,10,031,29,1*75
$GLGSV,3,3,09,84,07,189,,1*4A
$GAGSV,2,1,08,13,55,230,43,08,46,027,25,07,44,305,43,26,33,305,42,7*76
$GAGSV,2,2,08,30,27,142,27,02,26,084,24,15,21,174,22,03,10,066,14,7*71
$GAGSV,2,1,05,13,55,230,44,08,46,027,23,07,44,305,43,26,33,305,43,1*7D
$GAGSV,2,2,05,30,27,142,26,1*45
$GBGSV,4,1,15,38,83,120,42,08,80,003,35,39,71,286,43,13,69,332,41,1*7A
$GBGSV,4,2,15,16,66,260,43,06,65,256,41,46,60,108,46,09,50,240,40,1*70
$GBGSV,4,3,15,19,50,347,34,20,42,065,,36,37,184,30,35,21,267,34,1*76
$GBGSV,4,4,15,37,21,046,27,29,18,211,26,22,12,303,36,1*40
$GBGSV,3,1,09,38,83,120,44,39,71,286,45,46,60,108,48,19,50,347,36,4*73
$GBGSV,3,2,09,36,37,184,21,35,21,267,29,37,21,046,28,29,18,211,33,4*76
$GBGSV,3,3,09,22,12,303,37,4*4D
$GNACCURACY,2.9*1D
$PAIRSAT,1,35,1,0,200,2,0,200,3,0,200,4,0,200,5,0,201,6,0,200,7,0,200,8,0,200,9,0,200,10,0,221,11,0,200,12,0,201,13,0,201,14,0,200,15,0,201,16,0,200,17,0,200,18,0,221,19,0,200,20,0,200,21,0,200,23,0,221,24,0,221,25,0,200,26,0,200,27,0,200,28,0,200,29,0,200,30,0,200,31,0,200,32,0,221,194,0,621,195,0,621,196,0,620,199,0,621*68
$PAIRSAT,2,23,65,0,200,67,0,200,68,0,200,69,0,201,70,0,201,71,0,201,72,0,200,73,0,201,74,0,200,75,0,200,76,0,200,77,0,200,78,0,200,79,0,201,80,0,201,81,0,200,82,0,200,83,0,200,84,0,200,85,0,201,86,0,201,87,0,200,88,0,200*53
$PAIRSAT,3,23,2,0,1221,3,0,1221,4,0,1200,5,0,200,7,0,1221,8,0,1221,9,0,1200,10,0,1200,11,0,1200,12,0,1200,13,0,1221,15,0,1221,19,0,1200,21,0,1200,24,0,1200,25,0,1200,26,0,1221,27,0,1200,30,0,1221,31,0,1200,33,0,1200,34,0,1200,36,0,1200*6A
$PAIRSAT,4,50,1,0,200,2,0,200,3,0,200,4,0,200,5,0,200,6,0,201,7,0,200,8,0,201,9,0,201,10,0,200,11,0,200,12,0,200,13,0,201,14,0,200,15,0,200,16,0,201,19,0,621,20,0,621,21,0,600,22,0,621,23,0,600,24,0,600,25,0,600,26,0,600,27,0,600,28,0,600,29,0,621,30,0,600,31,0,200,32,0,600,33,0,600,34,0,600,35,0,621,36,0,621,37,0,621,38,0,621,39,0,621,40,0,600,41,0,600,42,0,600,43,0,600,44,0,600,45,0,600,46,0,621,56,0,200,57,0,200,58,0,200,59,0,600,60,0,600,61,0,600*41
$PAIRDGP,10,5,10,12,13,15,18,23,24,25,32*4D
$GNGGA,113049.200,2500.8147678,N,12132.4690619,E,4,59,0.42,15.999,M,15.25,M,1,3335*4A
$GNRMC,113049.200,A,2500.8147678,N,12132.4690619,E,0.02,35.89,260623,,,R,V*21
$GPHDT,227.667,T*35
$GNACCURACY,2.9*1D
$GNGGA,113049.300,2500.8147750,N,12132.4690598,E,4,59,0.42,15.992,M,15.25,M,1,3335*41
$GNRMC,113049.300,A,2500.8147750,N,12132.4690598,E,0.02,35.89,260623,,,R,V*21
$GPHDT,,T*1B
$GNACCURACY,2.8*1C
$GNGGA,113049.400,2500.8147764,N,12132.4690608,E,4,59,0.42,15.997,M,15.25,M,1,3335*4E
$GNRMC,113049.400,A,2500.8147764,N,12132.4690608,E,0.02,35.89,260623,,,R,V*2B
$GPHDT,227.294,T*3D
$GNACCURACY,2.8*1C
$GNGGA,113049.500,2500.8147757,N,12132.4690621,E,4,60,0.42,15.994,M,15.25,M,1,3335*4D
$GNRMC,113049.500,A,2500.8147757,N,12132.4690621,E,0.02,35.89,260623,,,R,V*21
$GPHDT,,T*1B
$GNACCURACY,2.9*1D
$GNGGA,113049.600,2500.8147727,N,12132.4690562,E,4,59,0.42,15.992,M,15.25,M,1,3335*41
$GNRMC,113049.600,A,2500.8147727,N,12132.4690562,E,0.02,35.89,260623,,,R,V*21
$GPHDT,227.147,T*30
$GNACCURACY,2.9*1D
$GNGGA,113049.700,2500.8147761,N,12132.4690562,E,4,59,0.42,16.000,M,15.25,M,1,3335*43
$GNRMC,113049.700,A,2500.8147761,N,12132.4690562,E,0.02,35.89,260623,,,R,V*22
$GPHDT,,T*1B
$GNACCURACY,2.8*1C
$GNGGA,113049.800,2500.8147661,N,12132.4690598,E,4,59,0.42,15.996,M,15.25,M,1,3335*4D
$GNRMC,113049.800,A,2500.8147661,N,12132.4690598,E,0.03,35.89,260623,,,R,V*28
$GPHDT,227.514,T*32
$GNACCURACY,2.8*1C
$GNGGA,113049.900,2500.8147728,N,12132.4690611,E,4,59,0.42,15.997,M,15.25,M,0,3335*42
$GNRMC,113049.900,A,2500.8147728,N,12132.4690611,E,0.02,35.89,260623,,,R,V*26
$GPHDT,,T*1B
$GNACCURACY,2.8*1C
$GNGGA,113050.000,2500.8147689,N,12132.4690612,E,4,59,0.42,15.994,M,15.25,M,1,3335*48
$GNRMC,113050.000,A,2500.8147689,N,12132.4690612,E,0.03,35.89,260623,,,R,V*2F
$GPHDT,227.415,T*32
$GNACCURACY,2.8*1C
$GNGGA,113050.100,2500.8147734,N,12132.4690583,E,4,59,0.42,15.979,M,15.25,M,1,3335*46
$GNRMC,113050.100,A,2500.8147734,N,12132.4690583,E,0.03,35.89,260623,,,R,V*22
$GPHDT,,T*1B
$GNGSA,A,3,196,24,199,18,23,195,194,12,10,05,32,,0.66,0.42,0.51,1*05
$GNGSA,A,3,73,85,86,71,69,79,,,,,,,0.66,0.42,0.51,2*00
$GNGSA,A,3,13,08,07,26,30,02,15,03,,,,,0.66,0.42,0.51,3*0E
$GNGSA,A,3,38,08,39,13,16,06,46,09,19,36,35,29,0.66,0.42,0.51,4*07
$GNGSA,A,3,22,20,37,,,,,,,,,,0.66,0.42,0.51,4*00
$GPGSV,4,1,15,196,75,066,17,24,72,040,30,199,60,167,30,18,58,242,46,1*6D
$GPGSV,4,2,15,23,52,340,36,41,38,242,45,15,36,049,,195,33,180,30,1*52
$GPGSV,4,3,15,194,31,138,32,12,21,140,25,10,19,319,28,05,18,120,28,1*5D
$GPGSV,4,4,15,25,10,175,19,32,10,271,29,13,07,058,19,1*52
$GPGSV,2,1,07,196,75,066,35,24,72,040,38,199,60,167,41,18,58,242,46,8*6F
$GPGSV,2,2,07,23,52,340,38,194,31,138,32,10,19,319,31,8*65
$GLGSV,3,1,09,80,48,073,16,70,41,013,,73,40,158,33,85,34,244,39,1*7A
$GLGSV,3,2,09,86,27,299,42,71,22,316,42,69,12,076,18,79,10,031,29,1*79
$GLGSV,3,3,09,84,07,189,,1*4A
$GAGSV,2,1,08,13,55,229,43,08,46,027,26,07,44,305,43,26,33,305,42,7*7D
$GAGSV,2,2,08,30,27,142,26,02,26,084,24,15,21,174,23,03,10,066,13,7*76
$GAGSV,2,1,05,13,55,229,44,08,46,027,23,07,44,305,43,26,33,305,43,1*75
$GAGSV,2,2,05,30,27,142,27,1*44
$GBGSV,4,1,15,38,83,120,42,08,80,003,35,39,71,286,43,13,69,332,41,1*7A
$GBGSV,4,2,15,16,66,260,43,06,65,256,41,46,60,108,46,09,50,240,40,1*70
$GBGSV,4,3,15,19,50,347,34,20,42,065,,36,37,184,30,35,21,267,34,1*76
$GBGSV,4,4,15,37,21,046,25,29,18,211,27,22,12,303,36,1*43
$GBGSV,3,1,10,38,83,120,44,39,71,286,45,46,60,108,48,19,50,347,36,4*7B
$GBGSV,3,2,10,20,42,065,18,36,37,184,20,35,21,267,29,37,21,046,28,4*71
$GBGSV,3,3,10,29,18,211,32,22,12,303,37,4*74
$GNACCURACY,2.8*1C
$PAIRSAT,1,35,1,0,200,2,0,200,3,0,200,4,0,200,5,0,201,6,0,200,7,0,200,8,0,200,9,0,200,10,0,221,11,0,200,12,0,201,13,0,201,14,0,200,15,0,201,16,0,200,17,0,200,18,0,221,19,0,200,20,0,200,21,0,200,23,0,221,24,0,221,25,0,200,26,0,200,27,0,200,28,0,200,29,0,200,30,0,200,31,0,200,32,0,221,194,0,621,195,0,621,196,0,620,199,0,621*68
$PAIRSAT,2,23,65,0,200,67,0,200,68,0,200,69,0,201,70,0,201,71,0,201,72,0,200,73,0,201,74,0,200,75,0,200,76,0,200,77,0,200,78,0,200,79,0,201,80,0,201,81,0,200,82,0,200,83,0,200,84,0,200,85,0,201,86,0,201,87,0,200,88,0,200*53
$PAIRSAT,3,23,2,0,1221,3,0,1221,4,0,1200,5,0,200,7,0,1221,8,0,1221,9,0,1200,10,0,1200,11,0,1200,12,0,1200,13,0,1221,15,0,1221,19,0,1200,21,0,1200,24,0,1200,25,0,1200,26,0,1221,27,0,1200,30,0,1221,31,0,1200,33,0,1200,34,0,1200,36,0,1200*6A
$PAIRSAT,4,50,1,0,200,2,0,200,3,0,200,4,0,200,5,0,200,6,0,201,7,0,200,8,0,201,9,0,201,10,0,200,11,0,200,12,0,200,13,0,201,14,0,200,15,0,200,16,0,201,19,0,621,20,0,621,21,0,600,22,0,621,23,0,600,24,0,600,25,0,600,26,0,600,27,0,600,28,0,600,29,0,621,30,0,600,31,0,200,32,0,600,33,0,600,34,0,600,35,0,621,36,0,621,37,0,621,38,0,621,39,0,621,40,0,600,41,0,600,42,0,600,43,0,600,44,0,600,45,0,600,46,0,621,56,0,200,57,0,200,58,0,200,59,0,600,60,0,600,61,0,600*41
$PAIRDGP,10,5,10,12,13,15,18,23,24,25,32*4D
$GNGGA,113050.200,2500.8147762,N,12132.4690617,E,4,60,0.42,15.985,M,15.25,M,1,3335*41
$GNRMC,113050.200,A,2500.8147762,N,12132.4690617,E,0.03,35.89,260623,,,R,V*2C
$GPHDT,227.425,T*31
$GNACCURACY,2.8*1C
$GNGGA,113050.300,2500.8147739,N,12132.4690610,E,4,60,0.42,15.998,M,15.25,M,1,3335*45
$GNRMC,113050.300,A,2500.8147739,N,12132.4690610,E,0.03,35.89,260623,,,R,V*24
$GPHDT,,T*1B
$GNACCURACY,2.8*1C
$GNGGA,113050.400,2500.8147732,N,12132.4690572,E,4,60,0.42,15.982,M,15.25,M,1,3335*45
$GNRMC,113050.400,A,2500.8147732,N,12132.4690572,E,0.02,35.89,260623,,,R,V*2E
$GPHDT,227.349,T*3C
$GNACCURACY,2.8*1C
$GNGGA,113050.500,2500.8147740,N,12132.4690582,E,4,60,0.42,15.992,M,15.25,M,1,3335*4F
$GNRMC,113050.500,A,2500.8147740,N,12132.4690582,E,0.02,35.89,260623,,,R,V*25
$GPHDT,,T*1B
$GNACCURACY,2.8*1C
$GNGGA,113050.600,2500.8147724,N,12132.4690613,E,4,60,0.42,15.988,M,15.25,M,1,3335*4E
$GNRMC,113050.600,A,2500.8147724,N,12132.4690613,E,0.01,35.89,260623,,,R,V*2C
$GPHDT,227.509,T*3E
$GNACCURACY,2.8*1C
$GNGGA,113050.700,2500.8147737,N,12132.4690600,E,4,60,0.42,15.979,M,15.25,M,1,3335*41
$GNRMC,113050.700,A,2500.8147737,N,12132.4690600,E,0.02,35.89,260623,,,R,V*2E
$GPHDT,,T*1B
$GNACCURACY,2.8*1C
$GNGGA,113050.800,2500.8147760,N,12132.4690584,E,4,60,0.42,15.994,M,15.25,M,1,3335*40
$GNRMC,113050.800,A,2500.8147760,N,12132.4690584,E,0.02,35.89,260623,,,R,V*2C
$GPHDT,227.060,T*34
$GNACCURACY,2.8*1C
$GNGGA,113050.900,2500.8147770,N,12132.4690579,E,4,60,0.42,15.997,M,15.25,M,1,3335*41
$GNRMC,113050.900,A,2500.8147770,N,12132.4690579,E,0.02,35.89,260623,,,R,V*2E
$GPHDT,,T*1B
$GNACCURACY,2.8*1C
$GNGGA,113051.000,2500.8147748,N,12132.4690583,E,4,60,0.42,15.988,M,15.25,M,2,3335*4A
$GNRMC,113051.000,A,2500.8147748,N,12132.4690583,E,0.01,35.89,260623,,,R,V*2B
$GPHDT,227.288,T*30
$GNACCURACY,2.8*1C
$GNGGA,113051.100,2500.8147675,N,12132.4690632,E,4,60,0.42,16.002,M,15.25,M,2,3335*45
$GNRMC,113051.100,A,2500.8147675,N,12132.4690632,E,0.01,35.89,260623,,,R,V*2C
$GPHDT,,T*1B
$GNGSA,A,3,196,24,199,18,23,195,194,12,10,05,32,,0.66,0.42,0.51,1*05
$GNGSA,A,3,73,85,86,71,69,79,,,,,,,0.66,0.42,0.51,2*00
$GNGSA,A,3,13,08,07,26,30,02,15,03,,,,,0.66,0.42,0.51,3*0E
$GNGSA,A,3,38,08,39,13,16,06,46,09,19,36,35,29,0.66,0.42,0.51,4*07
$GNGSA,A,3,22,20,37,,,,,,,,,,0.66,0.42,0.51,4*00
$GPGSV,4,1,15,196,75,066,17,24,72,040,29,199,60,167,30,18,58,242,46,1*65
$GPGSV,4,2,15,23,52,340,36,41,38,242,45,15,36,049,,195,33,180,30,1*52
$GPGSV,4,3,15,194,31,138,31,12,21,140,25,10,19,319,27,05,18,120,27,1*5E
$GPGSV,4,4,15,25,10,175,19,32,10,271,29,13,07,058,18,1*53
$GPGSV,2,1,07,196,75,066,35,24,72,040,38,199,60,167,41,18,58,242,46,8*6F
$GPGSV,2,2,07,23,52,340,38,194,31,138,33,10,19,319,32,8*67
$GLGSV,3,1,09,80,48,073,17,70,41,013,,73,40,158,31,85,34,244,39,1*79
$GLGSV,3,2,09,86,27,299,43,71,22,316,42,69,12,076,18,79,10,031,29,1*78
$GLGSV,3,3,09,84,07,189,,1*4A
$GAGSV,2,1,08,13,55,229,43,08,46,027,26,07,44,305,43,26,33,305,42,7*7D
$GAGSV,2,2,08,30,27,142,26,02,26,084,24,15,21,174,23,03,10,066,14,7*71
$GAGSV,2,1,05,13,55,229,44,08,46,027,24,07,44,305,43,26,33,305,43,1*72
$GAGSV,2,2,05,30,27,142,27,1*44
$GBGSV,4,1,15,38,83,120,42,08,80,003,35,39,71,286,43,13,69,332,41,1*7A
$GBGSV,4,2,15,16,66,260,43,06,65,256,41,46,60,108,46,09,50,240,40,1*70
$GBGSV,4,3,15,19,50,347,34,20,42,065,,36,37,184,30,35,21,267,34,1*76
$GBGSV,4,4,15,37,21,046,27,29,18,211,29,22,12,303,36,1*4F
$GBGSV,3,1,10,38,83,120,44,39,71,286,45,46,60,108,48,19,50,347,36,4*7B
$GBGSV,3,2,10,20,42,065,20,36,37,184,21,35,21,267,28,37,21,046,29,4*7B
$GBGSV,3,3,10,29,18,211,31,22,12,303,37,4*77
$GNACCURACY,2.8*1C
$PAIRSAT,1,35,1,0,200,2,0,200,3,0,200,4,0,200,5,0,201,6,0,200,7,0,200,8,0,200,9,0,200,10,0,221,11,0,200,12,0,201,13,0,201,14,0,200,15,0,201,16,0,200,17,0,200,18,0,221,19,0,200,20,0,200,21,0,200,23,0,221,24,0,221,25,0,200,26,0,200,27,0,200,28,0,200,29,0,200,30,0,200,31,0,200,32,0,221,194,0,621,195,0,621,196,0,620,199,0,621*68
$PAIRSAT,2,23,65,0,200,67,0,200,68,0,200,69,0,201,70,0,201,71,0,201,72,0,200,73,0,201,74,0,200,75,0,200,76,0,200,77,0,200,78,0,200,79,0,201,80,0,201,81,0,200,82,0,200,83,0,200,84,0,200,85,0,201,86,0,201,87,0,200,88,0,200*53
$PAIRSAT,3,23,2,0,1221,3,0,1221,4,0,1200,5,0,200,7,0,1221,8,0,1221,9,0,1200,10,0,1200,11,0,1200,12,0,1200,13,0,1221,15,0,1221,19,0,1200,21,0,1200,24,0,1200,25,0,1200,26,0,1221,27,0,1200,30,0,1221,31,0,1200,33,0,1200,34,0,1200,36,0,1200*6A
$PAIRSAT,4,50,1,0,200,2,0,200,3,0,200,4,0,200,5,0,200,6,0,201,7,0,200,8,0,201,9,0,201,10,0,200,11,0,200,12,0,200,13,0,201,14,0,200,15,0,200,16,0,201,19,0,621,20,0,621,21,0,600,22,0,621,23,0,600,24,0,600,25,0,600,26,0,600,27,0,600,28,0,600,29,0,621,30,0,600,31,0,200,32,0,600,33,0,600,34,0,600,35,0,621,36,0,621,37,0,621,38,0,621,39,0,621,40,0,600,41,0,600,42,0,600,43,0,600,44,0,600,45,0,600,46,0,621,56,0,200,57,0,200,58,0,200,59,0,600,60,0,600,61,0,600*41
$PAIRDGP,10,5,10,12,13,15,18,23,24,25,32*4D
$GNGGA,113051.200,2500.8147742,N,12132.4690611,E,4,60,0.42,15.981,M,15.25,M,2,3335*43
$GNRMC,113051.200,A,2500.8147742,N,12132.4690611,E,0.00,35.89,260623,,,R,V*2A
$GPHDT,227.571,T*31
$GNACCURACY,2.8*1C
$GNGGA,113051.300,2500.8147784,N,12132.4690620,E,4,60,0.42,15.995,M,15.25,M,2,3335*4F
$GNRMC,113051.300,A,2500.8147784,N,12132.4690620,E,0.01,35.89,260623,,,R,V*22
$GPHDT,,T*1B
$GNACCURACY,2.8*1C
$GNGGA,113051.400,2500.8147749,N,12132.4690582,E,4,61,0.42,15.985,M,15.25,M,2,3335*42
$GNRMC,113051.400,A,2500.8147749,N,12132.4690582,E,0.01,35.89,260623,,,R,V*2F
$GPHDT,227.104,T*37
$GNACCURACY,2.8*1C
$GNGGA,113051.500,2500.8147747,N,12132.4690577,E,4,60,0.42,15.989,M,15.25,M,2,3335*4A
$GNRMC,113051.500,A,2500.8147747,N,12132.4690577,E,0.01,35.89,260623,,,R,V*2A
$GPHDT,,T*1B
$GNACCURACY,2.8*1C
$GNGGA,113051.600,2500.8147652,N,12132.4690632,E,4,60,0.42,15.982,M,15.25,M,2,3335*45
$GNRMC,113051.600,A,2500.8147652,N,12132.4690632,E,0.01,35.89,260623,,,R,V*2E
$GPHDT,228.151,T*38
$GNACCURACY,2.8*1C
$GNGGA,113051.700,2500.8147756,N,12132.4690596,E,4,60,0.42,15.986,M,15.25,M,2,3335*48
$GNRMC,113051.700,A,2500.8147756,N,12132.4690596,E,0.01,35.89,260623,,,R,V*27
$GPHDT,,T*1B
$GNACCURACY,2.8*1C
$GNGGA,113051.800,2500.8147727,N,12132.4690599,E,4,60,0.42,15.978,M,15.25,M,2,3335*4F
$GNRMC,113051.800,A,2500.8147727,N,12132.4690599,E,0.01,35.89,260623,,,R,V*21
$GPHDT,227.391,T*39
$GNACCURACY,2.8*1C
$GNGGA,113051.900,2500.8147708,N,12132.4690625,E,4,60,0.42,15.968,M,15.25,M,2,3335*46
$GNRMC,113051.900,A,2500.8147708,N,12132.4690625,E,0.01,35.89,260623,,,R,V*29
$GPHDT,,T*1B
$GNACCURACY,2.8*1C
$GNGGA,113052.000,2500.8147736,N,12132.4690594,E,4,60,0.42,15.987,M,15.25,M,3,3335*48
$GNRMC,113052.000,A,2500.8147736,N,12132.4690594,E,0.01,35.89,260623,,,R,V*27
$GPHDT,227.399,T*31
$GNACCURACY,2.8*1C
$GNGGA,113052.100,2500.8147713,N,12132.4690620,E,4,60,0.42,15.972,M,15.25,M,3,3335*48
$GNRMC,113052.100,A,2500.8147713,N,12132.4690620,E,0.01,35.89,260623,,,R,V*2D
$GPHDT,,T*1B
$GNGSA,A,3,196,24,199,18,23,195,194,12,10,05,32,,0.66,0.42,0.51,1*05
$GNGSA,A,3,80,73,85,86,71,69,79,,,,,,0.66,0.42,0.51,2*08
$GNGSA,A,3,13,08,07,26,30,02,15,03,,,,,0.66,0.42,0.51,3*0E
$GNGSA,A,3,38,08,39,13,16,06,46,09,19,36,35,37,0.66,0.42,0.51,4*08
$GNGSA,A,3,29,22,20,,,,,,,,,,0.66,0.42,0.51,4*0F
$GPGSV,4,1,15,196,75,066,17,24,72,040,31,199,60,167,30,18,58,242,46,1*6C
$GPGSV,4,2,15,23,52,340,36,41,38,242,45,15,36,049,,195,33,180,30,1*52
$GPGSV,4,3,15,194,31,138,30,12,21,140,25,10,19,319,27,05,18,120,27,1*5F
$GPGSV,4,4,15,25,10,175,18,32,10,271,29,13,07,058,19,1*53
$GPGSV,2,1,07,196,75,066,35,24,72,040,37,199,60,167,41,18,58,242,46,8*60
$GPGSV,2,2,07,23,52,340,38,194,31,138,31,10,19,319,31,8*66
$GLGSV,3,1,10,80,48,073,17,70,41,013,,73,40,158,29,85,34,244,38,1*79
$GLGSV,3,2,10,86,27,299,43,71,22,316,42,69,12,076,17,79,10,031,27,1*71
$GLGSV,3,3,10,84,07,189,,74,04,187,,1*7B
$GAGSV,2,1,08,13,55,229,43,08,46,027,26,07,44,305,43,26,33,305,42,7*7D
$GAGSV,2,2,08,30,27,142,26,02,26,084,23,15,21,174,23,03,10,066,15,7*77
$GAGSV,2,1,05,13,55,229,44,08,46,027,24,07,44,305,42,26,33,305,43,1*73
$GAGSV,2,2,05,30,27,142,25,1*46
$GBGSV,4,1,16,38,83,120,42,08,80,003,36,39,71,286,43,13,69,332,41,1*7A
$GBGSV,4,2,16,16,66,260,43,06,65,256,41,46,60,108,46,09,50,240,40,1*73
$GBGSV,4,3,16,19,50,347,35,20,42,065,,36,37,184,29,35,21,267,33,1*7B
$GBGSV,4,4,16,37,21,046,26,29,18,211,29,22,12,303,38,44,03,310,,1*72
$GBGSV,3,1,10,38,83,120,44,39,71,286,45,46,60,108,47,19,50,347,36,4*74
$GBGSV,3,2,10,20,42,065,17,36,37,184,20,35,21