$FW : RTK35X,V1.1X0314AS,Lib20210517,1*54
$Tool : LOCOSYS , GNSS Firebird , v1.0.0.19*39
$---------------------------------------------------*2D
$GPHDT,,T*1B
$GNACCURACY,6.2*12
$GNGGA,035547.000,2500.8031382,N,12132.4295887,E,4,42,0.76,16.808,M,15.25,M,1,3335*49
$GNRMC,035547.000,A,2500.8031382,N,12132.4295887,E,0.13,48.75,090324,,,R,V*23
$GPHDT,,T*1B
$GNACCURACY,6.2*12
$GNGGA,035547.100,2500.8031359,N,12132.4295855,E,4,41,0.76,16.800,M,15.25,M,1,3335*4A
$GNRMC,035547.100,A,2500.8031359,N,12132.4295855,E,0.11,48.75,090324,,,R,V*29
$GPHDT,,T*1B
$GNGSA,A,3,08,194,195,199,21,27,07,16,26,,,,1.35,0.76,1.11,1*3C
$GNGSA,A,3,88,78,77,,,,,,,,,,1.35,0.76,1.11,2*0A
$GNGSA,A,3,13,21,27,,,,,,,,,,1.35,0.76,1.11,3*00
$GNGSA,A,3,09,16,23,43,40,07,39,10,25,37,34,,1.35,0.76,1.11,4*07
$GPGSV,3,1,12,08,67,343,45,194,64,050,43,195,62,117,41,50,60,167,31,1*6F
$GPGSV,3,2,12,199,60,167,29,21,53,161,46,02,41,178,21,27,38,033,45,1*5E
$GPGSV,3,3,12,07,36,319,42,16,30,069,40,196,20,170,17,26,11,094,20,1*50
$GPGSV,2,1,07,08,67,343,47,194,64,050,45,195,62,117,43,199,60,167,37,8*57
$GPGSV,2,2,07,27,38,033,45,196,20,170,18,26,11,094,26,8*6B
$GLGSV,2,1,05,88,62,039,44,78,53,025,43,77,27,103,21,79,21,329,37,1*7C
$GLGSV,2,2,05,87,09,026,21,1*4C
$GAGSV,2,1,05,13,54,090,36,21,53,004,44,26,38,173,16,27,30,074,33,7*73
$GAGSV,2,2,05,04,12,304,,7*46
$GAGSV,1,1,02,21,53,004,45,27,30,074,38,1*79
$GBGSV,3,1,11,09,74,276,30,16,72,197,32,23,70,016,45,43,64,040,46,1*71
$GBGSV,3,2,11,40,62,325,43,07,61,304,43,39,61,184,35,10,51,285,33,1*78
$GBGSV,3,3,11,25,41,111,35,37,25,320,43,34,16,039,16,1*4B
$GBGSV,2,1,07,23,70,016,44,43,64,040,46,40,62,325,46,39,61,184,42,4*75
$GBGSV,2,2,07,25,41,111,35,37,25,320,40,34,16,039,20,4*4F
$GNACCURACY,6.2*12
$PAIRSAT,1,16,2,0,200,7,0,1,8,0,21,16,0,1,20,0,200,21,0,201,22,0,200,23,0,200,24,0,200,25,0,200,26,0,20,27,0,21,194,0,21,195,0,621,196,0,200,199,0,621*4E
$PAIRSAT,2,12,70,0,200,75,0,200,76,0,200,77,0,1,78,0,201,79,0,200,80,0,200,84,0,200,85,0,200,86,0,200,87,0,201,88,0,201*72
$PAIRSAT,3,13,2,0,1200,3,0,1200,4,0,1200,5,0,200,13,0,21,21,0,21,25,0,1000,26,0,1000,27,0,1021,30,0,1000,31,0,1000,33,0,200,36,0,200*51
$PAIRSAT,4,36,3,0,400,7,0,1,9,0,201,10,0,201,11,0,200,12,0,200,13,0,200,14,0,200,16,0,1,19,0,400,20,0,400,21,0,400,22,0,400,23,0,421,24,0,400,25,0,421,26,0,400,27,0,400,28,0,400,29,0,400,30,0,400,32,0,400,33,0,400,34,0,421,35,0,400,36,0,400,37,0,421,38,0,400,39,0,421,40,0,421,41,0,400,42,0,400,43,0,421,44,0,400,45,0,400,46,0,400*48
$PAIRDGP,0*45
$GNGGA,035547.200,2500.8031463,N,12132.4295908,E,4,41,0.76,16.815,M,15.25,M,1,3335*4A
$GNRMC,035547.200,A,2500.8031463,N,12132.4295908,E,0.10,48.75,090324,,,R,V*2C
$GPHDT,,T*1B
$GNACCURACY,6.2*12
$GNGGA,035547.300,2500.8031502,N,12132.4295933,E,4,41,0.76,16.823,M,15.25,M,1,3335*40
$GNRMC,035547.300,A,2500.8031502,N,12132.4295933,E,0.09,48.75,090324,,,R,V*2B
$GPHDT,,T*1B
$GNACCURACY,6.2*12
$GNGGA,035547.400,2500.8031504,N,12132.4295910,E,4,41,0.76,16.823,M,15.25,M,1,3335*40
$GNRMC,035547.400,A,2500.8031504,N,12132.4295910,E,0.09,48.75,090324,,,R,V*2B
$GPHDT,,T*1B
$GNACCURACY,6.2*12
$GNGGA,035547.500,2500.8031491,N,12132.4295913,E,4,41,0.76,16.820,M,15.25,M,0,3335*4D
$GNRMC,035547.500,A,2500.8031491,N,12132.4295913,E,0.10,48.75,090324,,,R,V*2C
$GPHDT,,T*1B
$GNACCURACY,6.2*12
$GNGGA,035547.600,2500.8031517,N,12132.4295944,E,4,41,0.76,16.823,M,15.25,M,0,3335*40
$GNRMC,035547.600,A,2500.8031517,N,12132.4295944,E,0.11,48.75,090324,,,R,V*23
$GPHDT,,T*1B
$GNACCURACY,6.2*12
$GNGGA,035547.700,2500.8031506,N,12132.4295916,E,4,41,0.76,16.828,M,15.25,M,0,3335*4D
$GNRMC,035547.700,A,2500.8031506,N,12132.4295916,E,0.12,48.75,090324,,,R,V*26
$GPHDT,,T*1B
$GNACCURACY,6.2*12
$GNGGA,035547.800,2500.8031501,N,12132.4295923,E,4,41,0.76,16.827,M,15.25,M,0,3335*4C
$GNRMC,035547.800,A,2500.8031501,N,12132.4295923,E,0.14,48.75,090324,,,R,V*2E
$GPHDT,,T*1B
$GNACCURACY,6.2*12
$GNGGA,035547.900,2500.8031396,N,12132.4295885,E,4,41,0.76,16.807,M,15.25,M,0,3335*4A
$GNRMC,035547.900,A,2500.8031396,N,12132.4295885,E,0.15,48.75,090324,,,R,V*2B
$GPHDT,,T*1B
$GNACCURACY,6.2*12
$GNGGA,035548.000,2500.8031398,N,12132.4295891,E,4,41,0.76,16.803,M,15.25,M,1,3335*42
$GNRMC,035548.000,A,2500.8031398,N,12132.4295891,E,0.14,48.75,090324,,,R,V*27
$GPHDT,,T*1B
$GNACCURACY,6.2*12
$GNGGA,035548.100,2500.8031519,N,12132.4295944,E,4,42,0.76,16.823,M,15.25,M,1,3335*44
$GNRMC,035548.100,A,2500.8031519,N,12132.4295944,E,0.14,48.75,090324,,,R,V*20
$GPHDT,,T*1B
$GNGSA,A,3,08,194,195,199,21,27,07,16,26,,,,1.35,0.76,1.11,1*3C
$GNGSA,A,3,88,78,77,,,,,,,,,,1.35,0.76,1.11,2*0A
$GNGSA,A,3,13,21,27,,,,,,,,,,1.35,0.76,1.11,3*00
$GNGSA,A,3,09,16,23,43,40,07,39,10,25,37,34,,1.35,0.76,1.11,4*07
$GPGSV,3,1,12,08,67,343,45,194,64,050,44,195,62,117,42,50,60,167,31,1*6B
$GPGSV,3,2,12,199,60,167,27,21,53,161,46,02,41,178,21,27,38,033,46,1*53
$GPGSV,3,3,12,07,36,319,42,16,30,069,40,196,20,170,17,26,11,094,21,1*51
$GPGSV,2,1,07,08,67,343,47,194,64,050,46,195,62,117,44,199,60,167,37,8*53
$GPGSV,2,2,07,27,38,033,45,196,20,170,19,26,11,094,25,8*69
$GLGSV,2,1,05,88,62,039,45,78,53,025,44,77,27,103,22,79,21,329,37,1*79
$GLGSV,2,2,05,87,09,026,20,1*4D
$GAGSV,2,1,05,13,54,090,38,21,53,004,44,26,38,173,14,27,30,074,34,7*78
$GAGSV,2,2,05,04,12,304,,7*46
$GAGSV,1,1,03,13,54,090,28,21,53,004,46,27,30,074,39,1*4A
$GBGSV,3,1,11,09,74,276,31,16,72,197,30,23,70,016,45,43,64,040,46,1*72
$GBGSV,3,2,11,40,62,325,43,07,61,304,43,39,61,184,35,10,51,285,32,1*79
$GBGSV,3,3,11,25,41,111,30,37,25,320,43,34,16,039,16,1*4E
$GBGSV,2,1,07,23,70,016,45,43,64,040,47,40,62,325,47,39,61,184,43,4*75
$GBGSV,2,2,07,25,41,111,37,37,25,320,40,34,16,039,19,4*47
$GNACCURACY,6.2*12
$PAIRSAT,1,16,2,0,200,7,0,1,8,0,21,16,0,1,20,0,200,21,0,201,22,0,200,23,0,200,24,0,200,25,0,200,26,0,20,27,0,21,194,0,21,195,0,621,196,0,200,199,0,621*4E
$PAIRSAT,2,13,70,0,200,71,0,200,75,0,200,76,0,200,77,0,1,78,0,201,79,0,200,80,0,200,84,0,200,85,0,200,86,0,200,87,0,201,88,0,201*5B
$PAIRSAT,3,13,2,0,1200,3,0,1200,4,0,1200,5,0,200,13,0,21,21,0,21,25,0,1000,26,0,1000,27,0,1021,30,0,1000,31,0,1000,33,0,200,36,0,200*51
$PAIRSAT,4,36,3,0,400,7,0,1,9,0,201,10,0,201,11,0,200,12,0,200,13,0,200,14,0,200,16,0,1,19,0,400,20,0,400,21,0,400,22,0,400,23,0,421,24,0,400,25,0,421,26,0,400,27,0,400,28,0,400,29,0,400,30,0,400,32,0,400,33,0,400,34,0,421,35,0,400,36,0,400,37,0,421,38,0,400,39,0,421,40,0,421,41,0,400,42,0,400,43,0,421,44,0,400,45,0,400,46,0,400*48
$PAIRDGP,0*45
$GNGGA,035548.200,2500.8031523,N,12132.4295953,E,4,42,0.76,16.828,M,15.25,M,1,3335*43
$GNRMC,035548.200,A,2500.8031523,N,12132.4295953,E,0.13,48.75,090324,,,R,V*2B
$GPHDT,,T*1B
$GNACCURACY,6.2*12
$GNGGA,035548.300,2500.8031401,N,12132.4295864,E,4,42,0.76,16.808,M,15.25,M,1,3335*44
$GNRMC,035548.300,A,2500.8031401,N,12132.4295864,E,0.13,48.75,090324,,,R,V*2E
$GPHDT,,T*1B
$GNACCURACY,6.2*12
$GNGGA,035548.400,2500.8031423,N,12132.4295891,E,4,42,0.76,16.816,M,15.25,M,1,3335*46
$GNRMC,035548.400,A,2500.8031423,N,12132.4295891,E,0.12,48.75,090324,,,R,V*22
$GPHDT,,T*1B
$GNACCURACY,6.2*12
$GNGGA,035548.500,2500.8031407,N,12132.4295853,E,4,42,0.76,16.828,M,15.25,M,0,3335*43
$GNRMC,035548.500,A,2500.8031407,N,12132.4295853,E,0.12,48.75,090324,,,R,V*2B
$GPHDT,,T*1B
$GNACCURACY,6.2*12
$GNGGA,035548.600,2500.8031404,N,12132.4295857,E,4,42,0.76,16.830,M,15.25,M,0,3335*4E
$GNRMC,035548.600,A,2500.8031404,N,12132.4295857,E,0.13,48.75,090324,,,R,V*2E
$GPHDT,,T*1B
$GNACCURACY,6.2*12
$GNGGA,035548.700,2500.8031393,N,12132.4295846,E,4,42,0.76,16.826,M,15.25,M,0,3335*41
$GNRMC,035548.700,A,2500.8031393,N,12132.4295846,E,0.13,48.75,090324,,,R,V*26
$GPHDT,,T*1B
$GNACCURACY,6.2*12
$GNGGA,035548.800,2500.8031417,N,12132.4295880,E,4,42,0.76,16.830,M,15.25,M,0,3335*48
$GNRMC,035548.800,A,2500.8031417,N,12132.4295880,E,0.18,48.75,090324,,,R,V*23
$GPHDT,,T*1B
$GNACCURACY,6.2*12
$GNGGA,035548.900,2500.8031413,N,12132.4295898,E,4,42,0.76,16.816,M,15.25,M,0,3335*40
$GNRMC,035548.900,A,2500.8031413,N,12132.4295898,E,0.26,48.75,090324,,,R,V*22
$GPHDT,,T*1B
$GNACCURACY,6.2*12
$GNGGA,035549.000,2500.8031517,N,12132.4295941,E,4,41,0.76,16.826,M,15.25,M,1,3335*49
$GNRMC,035549.000,A,2500.8031517,N,12132.4295941,E,0.15,48.75,090324,,,R,V*2A
$GPHDT,,T*1B
$GNACCURACY,6.2*12
$GNGGA,035549.100,2500.8031423,N,12132.4295923,E,4,41,0.76,16.821,M,15.25,M,1,3335*4D
$GNRMC,035549.100,A,2500.8031423,N,12132.4295923,E,0.11,48.75,090324,,,R,V*2D
$GPHDT,,T*1B
$GNGSA,A,3,08,194,195,21,27,07,16,26,199,,,,1.35,0.76,1.11,1*3C
$GNGSA,A,3,88,78,77,,,,,,,,,,1.35,0.76,1.11,2*0A
$GNGSA,A,3,13,21,27,,,,,,,,,,1.35,0.76,1.11,3*00
$GNGSA,A,3,09,16,23,43,40,07,39,10,25,37,34,,1.35,0.76,1.11,4*07
$GPGSV,3,1,12,08,67,343,46,194,64,050,44,195,62,117,42,50,60,167,30,1*69
$GPGSV,3,2,12,199,60,167,26,21,53,161,46,02,41,178,24,27,38,033,46,1*57
$GPGSV,3,3,12,07,36,319,42,16,30,069,40,196,20,170,18,26,11,094,23,1*5C
$GPGSV,2,1,07,08,67,343,47,194,64,050,46,195,62,117,44,199,60,167,37,8*53
$GPGSV,2,2,07,27,38,033,45,196,20,170,18,26,11,094,27,8*6A
$GLGSV,2,1,05,88,62,039,45,78,53,025,44,77,27,103,22,79,21,329,38,1*76
$GLGSV,2,2,05,87,09,026,20,1*4D
$GAGSV,2,1,05,13,54,090,38,21,53,004,44,26,38,173,17,27,30,074,34,7*7B
$GAGSV,2,2,05,04,12,304,,7*46
$GAGSV,1,1,03,13,54,090,30,21,53,004,46,27,30,074,39,1*43
$GBGSV,4,1,13,09,74,276,31,16,72,197,31,23,70,016,45,43,64,040,47,1*77
$GBGSV,4,2,13,40,62,325,42,07,61,304,43,39,61,184,34,10,51,285,32,1*7C
$GBGSV,4,3,13,28,50,216,,25,41,111,31,37,25,320,43,34,16,039,12,1*74
$GBGSV,4,4,13,38,08,169,,1*49
$GBGSV,2,1,07,23,70,016,45,43,64,040,47,40,62,325,47,39,61,184,43,4*75
$GBGSV,2,2,07,25,41,111,37,37,25,320,40,34,16,039,20,4*4D
$GNACCURACY,6.2*12
$PAIRSAT,1,16,2,0,200,7,0,1,8,0,21,16,0,1,20,0,200,21,0,201,22,0,200,23,0,200,24,0,200,25,0,200,26,0,20,27,0,21,194,0,21,195,0,621,196,0,200,199,0,621*4E
$PAIRSAT,2,13,70,0,200,71,0,200,75,0,200,76,0,200,77,0,1,78,0,201,79,0,200,80,0,200,84,0,200,85,0,200,86,0,200,87,0,201,88,0,201*5B
$PAIRSAT,3,13,2,0,1200,3,0,1200,4,0,1200,5,0,200,13,0,21,21,0,21,25,0,1000,26,0,1000,27,0,1021,30,0,1000,31,0,1000,33,0,200,36,0,200*51
$PAIRSAT,4,36,3,0,400,7,0,1,9,0,201,10,0,201,11,0,200,12,0,200,13,0,200,14,0,200,16,0,1,19,0,400,20,0,400,21,0,400,22,0,400,23,0,421,24,0,400,25,0,421,26,0,400,27,0,400,28,0,400,29,0,400,30,0,400,32,0,400,33,0,400,34,0,421,35,0,400,36,0,400,37,0,421,38,0,400,39,0,421,40,0,421,41,0,400,42,0,400,43,0,421,44,0,400,45,0,400,46,0,400*48
$PAIRDGP,0*45
$GNGGA,035549.200,2500.8031415,N,12132.4295901,E,4,41,0.76,16.820,M,15.25,M,1,3335*4A
$GNRMC,035549.200,A,2500.8031415,N,12132.4295901,E,0.11,48.75,090324,,,R,V*2B
$GPHDT,,T*1B
$GNACCURACY,6.2*12
$GNGGA,035549.300,2500.8031553,N,12132.4295970,E,4,42,0.76,16.833,M,15.25,M,1,3335*4F
$GNRMC,035549.300,A,2500.8031553,N,12132.4295970,E,0.12,48.75,090324,,,R,V*2C
$GPHDT,,T*1B
$GNACCURACY,6.2*12
$GNGGA,035549.400,2500.8031532,N,12132.4295957,E,4,41,0.76,16.833,M,15.25,M,1,3335*49
$GNRMC,035549.400,A,2500.8031532,N,12132.4295957,E,0.12,48.75,090324,,,R,V*29
$GPHDT,,T*1B
$GNACCURACY,6.2*12
$GNGGA,035549.500,2500.8031534,N,12132.4295965,E,4,41,0.76,16.839,M,15.25,M,0,3335*44
$GNRMC,035549.500,A,2500.8031534,N,12132.4295965,E,0.12,48.75,090324,,,R,V*2F
$GPHDT,,T*1B
$GNACCURACY,6.2*12
$GNGGA,035549.600,2500.8031529,N,12132.4295976,E,4,41,0.76,16.832,M,15.25,M,0,3335*42
$GNRMC,035549.600,A,2500.8031529,N,12132.4295976,E,0.12,48.75,090324,,,R,V*22
$GPHDT,,T*1B
$GNACCURACY,6.2*12
$GNGGA,035549.700,2500.8031525,N,12132.4295983,E,4,41,0.76,16.827,M,15.25,M,0,3335*41
$GNRMC,035549.700,A,2500.8031525,N,12132.4295983,E,0.13,48.75,090324,,,R,V*24
$GPHDT,,T*1B
$GNACCURACY,6.2*12
$GNGGA,035549.800,2500.8031527,N,12132.4295957,E,4,41,0.76,16.838,M,15.25,M,0,3335*4B
$GNRMC,035549.800,A,2500.8031527,N,12132.4295957,E,0.13,48.75,090324,,,R,V*20
$GPHDT,,T*1B
$GNACCURACY,6.2*12
$GNGGA,035549.900,2500.8031547,N,12132.4295986,E,4,41,0.76,16.834,M,15.25,M,0,3335*4C
$GNRMC,035549.900,A,2500.8031547,N,12132.4295986,E,0.35,48.75,090324,,,R,V*2F
$GPHDT,,T*1B
$GNACCURACY,6.1*11
$GNGGA,035550.000,2500.8031512,N,12132.4295932,E,4,39,0.76,16.826,M,15.25,M,1,3335*4F
$GNRMC,035550.000,A,2500.8031512,N,12132.4295932,E,0.24,48.75,090324,,,R,V*21
$GPHDT,,T*1B
$GNACCURACY,6.1*11
$GNGGA,035550.100,2500.8031513,N,12132.4295929,E,4,39,0.76,16.831,M,15.25,M,1,3335*43
$GNRMC,035550.100,A,2500.8031513,N,12132.4295929,E,0.20,48.75,090324,,,R,V*2F
$GPHDT,,T*1B
$GNGSA,A,3,08,194,195,21,27,07,16,26,199,,,,1.35,0.76,1.11,1*3C
$GNGSA,A,3,88,78,77,,,,,,,,,,1.35,0.76,1.11,2*0A
$GNGSA,A,3,13,21,27,,,,,,,,,,1.35,0.76,1.11,3*00
$GNGSA,A,3,09,16,23,43,40,07,39,10,25,37,34,,1.35,0.76,1.11,4*07
$GPGSV,3,1,12,08,66,343,46,194,64,050,44,195,62,117,41,50,60,167,30,1*6B
$GPGSV,3,2,12,199,60,167,26,21,53,161,46,02,41,178,23,27,38,033,45,1*53
$GPGSV,3,3,12,07,36,319,42,16,30,069,39,196,20,170,16,26,11,094,24,1*5B
$GPGSV,2,1,07,08,66,343,47,194,64,050,46,195,62,117,44,199,60,167,35,8*50
$GPGSV,2,2,07,27,38,033,45,196,20,170,18,26,11,094,26,8*6B
$GLGSV,2,1,05,88,62,039,45,78,53,025,44,77,27,103,21,79,21,329,36,1*7B
$GLGSV,2,2,05,87,09,026,26,1*4B
$GAGSV,2,1,05,13,54,090,36,21,53,004,43,26,38,173,17,27,30,074,34,7*72
$GAGSV,2,2,05,04,12,304,,7*46
$GAGSV,1,1,02,21,53,004,44,27,30,074,38,1*78
$GBGSV,3,1,11,09,74,276,31,16,72,197,31,23,70,016,45,43,64,040,47,1*72
$GBGSV,3,2,11,40,62,325,42,07,61,304,43,39,61,184,35,10,51,285,33,1*79
$GBGSV,3,3,11,25,41,111,28,37,25,320,43,34,16,039,13,1*42
$GBGSV,2,1,07,23,70,016,45,43,64,040,47,40,62,325,47,39,61,184,43,4*75
$GBGSV,2,2,07,25,41,111,38,37,25,320,38,34,16,039,22,4*4F
$GNACCURACY,6.1*11
$PAIRSAT,1,16,2,0,200,7,0,1,8,0,21,16,0,1,20,0,200,21,0,201,22,0,200,23,0,200,24,0,200,25,0,200,26,0,20,27,0,21,194,0,21,195,0,621,196,0,200,199,0,621*4E
$PAIRSAT,2,13,70,0,200,71,0,200,75,0,200,76,0,200,77,0,1,78,0,201,79,0,200,80,0,200,84,0,200,85,0,200,86,0,200,87,0,201,88,0,201*5B
$PAIRSAT,3,13,2,0,1200,3,0,1200,4,0,1200,5,0,200,13,0,21,21,0,21,25,0,1000,26,0,1000,27,0,1021,30,0,1000,31,0,1000,33,0,200,36,0,200*51
$PAIRSAT,4,36,3,0,400,7,0,1,9,0,201,10,0,201,11,0,200,12,0,200,13,0,200,14,0,200,16,0,1,19,0,400,20,0,400,21,0,400,22,0,400,23,0,421,24,0,400,25,0,421,26,0,400,27,0,400,28,0,400,29,0,400,30,0,400,32,0,400,33,0,400,34,0,421,35,0,400,36,0,400,37,0,421,38,0,400,39,0,421,40,0,421,41,0,400,42,0,400,43,0,421,44,0,400,45,0,400,46,0,400*48
$PAIRDGP,0*45
$GNGGA,035550.200,2500.8031502,N,12132.4295957,E,4,39,0.76,16.829,M,15.25,M,1,3335*40
$GNRMC,035550.200,A,2500.8031502,N,12132.4295957,E,0.14,48.75,090324,,,R,V*22
$GPHDT,,T*1B
$GNACCURACY,6.2*12
$GNGGA,035550.300,2500.8031525,N,12132.4295874,E,4,39,0.76,16.834,M,15.25,M,1,3335*48
$GNRMC,035550.300,A,2500.8031525,N,12132.4295874,E,0.13,48.75,090324,,,R,V*21
$GPHDT,,T*1B
$GNACCURACY,6.1*11
$GNGGA,035550.400,2500.8031445,N,12132.4295889,E,4,39,0.76,16.826,M,15.25,M,1,3335*49
$GNRMC,035550.400,A,2500.8031445,N,12132.4295889,E,0.13,48.75,090324,,,R,V*23
$GPHDT,,T*1B
$GNACCURACY,6.1*11
$GNGGA,035550.500,2500.8031469,N,12132.4295913,E,4,39,0.76,16.826,M,15.25,M,1,3335*44
$GNRMC,035550.500,A,2500.8031469,N,12132.4295913,E,0.12,48.75,090324,,,R,V*2F
$GPHDT,,T*1B
$GNACCURACY,6.1*11
$GNGGA,035550.600,2500.8031417,N,12132.4295855,E,4,39,0.76,16.812,M,15.25,M,0,3335*4B
$GNRMC,035550.600,A,2500.8031417,N,12132.4295855,E,0.12,48.75,090324,,,R,V*26
$GPHDT,,T*1B
$GNACCURACY,6.1*11
$GNGGA,035550.700,2500.8031494,N,12132.4295920,E,4,39,0.76,16.811,M,15.25,M,0,3335*41
$GNRMC,035550.700,A,2500.8031494,N,12132.4295920,E,0.13,48.75,090324,,,R,V*2E
$GPHDT,,T*1B
$GNACCURACY,6.1*11
$GNGGA,035550.800,2500.8031488,N,12132.4295890,E,4,39,0.76,16.820,M,15.25,M,0,3335*4B
$GNRMC,035550.800,A,2500.8031488,N,12132.4295890,E,0.14,48.75,090324,,,R,V*21
$GPHDT,,T*1B
$GNACCURACY,6.1*11
$GNGGA,035550.900,2500.8031466,N,12132.4295906,E,4,39,0.76,16.810,M,15.25,M,0,3335*47
$GNRMC,035550.900,A,2500.8031466,N,12132.4295906,E,0.14,48.75,090324,,,R,V*2E
$GPHDT,,T*1B
$GNACCURACY,6.1*11
$GNGGA,035551.000,2500.8031490,N,12132.4295905,E,4,39,0.76,16.825,M,15.25,M,1,3335*42
$GNRMC,035551.000,A,2500.8031490,N,12132.4295905,E,0.13,48.75,090324,,,R,V*2B
$GPHDT,,T*1B
$GNACCURACY,6.1*11
$GNGGA,035551.100,2500.8031486,N,12132.4295913,E,4,39,0.76,16.812,M,15.25,M,1,3335*47
$GNRMC,035551.100,A,2500.8031486,N,12132.4295913,E,0.12,48.75,090324,,,R,V*2B
$GPHDT,,T*1B
$GNGSA,A,3,08,194,195,21,27,07,16,26,199,,,,1.35,0.76,1.11,1*3C
$GNGSA,A,3,88,78,77,,,,,,,,,,1.35,0.76,1.11,2*0A
$GNGSA,A,3,13,21,27,,,,,,,,,,1.35,0.76,1.11,3*00
$GNGSA,A,3,09,16,23,43,40,07,39,10,25,37,34,,1.35,0.76,1.11,4*07
$GPGSV,3,1,12,08,66,343,45,194,64,050,44,195,62,117,41,50,60,167,29,1*60
$GPGSV,3,2,12,199,60,167,25,21,53,161,47,02,41,178,22,27,38,033,46,1*53
$GPGSV,3,3,12,07,36,319,42,16,30,069,36,196,20,170,17,26,11,094,27,1*56
$GPGSV,2,1,07,08,66,343,47,194,64,050,45,195,62,117,46,199,60,167,36,8*52
$GPGSV,2,2,07,27,38,033,46,196,20,170,19,26,11,094,24,8*6B
$GLGSV,2,1,05,88,62,039,45,78,53,025,45,77,27,103,27,79,21,329,38,1*72
$GLGSV,2,2,05,87,09,026,24,1*49
$GAGSV,2,1,05,13,54,090,36,21,53,004,42,26,38,173,19,27,30,074,33,7*7A
$GAGSV,2,2,05,04,12,304,,7*46
$GAGSV,1,1,03,13,54,090,35,21,53,004,44,27,30,074,38,1*45
$GBGSV,3,1,11,09,74,276,31,16,72,197,34,23,70,016,45,43,64,040,47,1*77
$GBGSV,3,2,11,40,62,325,42,07,61,304,43,39,61,184,36,10,51,285,32,1*7B
$GBGSV,3,3,11,25,41,111,42,37,25,320,43,34,16,039,14,1*49
$GBGSV,2,1,07,23,70,016,45,43,64,040,45,40,62,325,47,39,61,184,43,4*77
$GBGSV,2,2,07,25,41,111,44,37,25,320,41,34,16,039,19,4*42
$GNACCURACY,6.1*11
$PAIRSAT,1,16,2,0,200,7,0,1,8,0,21,16,0,1,20,0,200,21,0,201,22,0,200,23,0,200,24,0,200,25,0,200,26,0,20,27,0,21,194,0,21,195,0,621,196,0,200,199,0,621*4E
$PAIRSAT,2,13,70,0,200,71,0,200,75,0,200,76,0,200,77,0,1,78,0,201,79,0,200,80,0,200,84,0,200,85,0,200,86,0,200,87,0,201,88,0,201*5B
$PAIRSAT,3,13,2,0,1200,3,0,1200,4,0,1200,5,0,200,13,0,21,21,0,21,25,0,1000,26,0,1000,27,0,1021,30,0,1000,31,0,1000,33,0,200,36,0,200*51
$PAIRSAT,4,36,3,0,400,7,0,1,9,0,201,10,0,201,11,0,200,12,0,200,13,0,200,14,0,200,16,0,201,19,0,400,20,0,400,21,0,400,22,0,400,23,0,421,24,0,400,25,0,421,26,0,400,27,0,400,28,0,400,29,0,400,30,0,400,32,0,400,33,0,400,34,0,421,35,0,400,36,0,400,37,0,421,38,0,400,39,0,421,40,0,421,41,0,400,42,0,400,43,0,421,44,0,400,45,0,400,46,0,400*4A
$PAIRDGP,0*45
$GNGGA,035551.200,2500.8031474,N,12132.4295894,E,4,40,0.76,16.820,M,15.25,M,1,3335*48
$GNRMC,035551.200,A,2500.8031474,N,12132.4295894,E,0.11,48.75,090324,,,R,V*28
$GPHDT,,T*1B
$GNACCURACY,6.1*11
$GNGGA,035551.300,2500.8031497,N,12132.4295910,E,4,40,0.76,16.826,M,15.25,M,1,3335*4F
$GNRMC,035551.300,A,2500.8031497,N,12132.4295910,E,0.12,48.75,090324,,,R,V*2A
$GPHDT,,T*1B
$GNACCURACY,6.1*11
$GNGGA,035551.400,2500.8031507,N,12132.4295974,E,4,40,0.76,16.811,M,15.25,M,1,3335*46
$GNRMC,035551.400,A,2500.8031507,N,12132.4295974,E,0.11,48.75,090324,,,R,V*24
$GPHDT,,T*1B
$GNACCURACY,6.1*11
$GNGGA,035551.500,2500.8031501,N,12132.4295983,E,4,40,0.76,16.802,M,15.25,M,1,3335*4B
$GNRMC,035551.500,A,2500.8031501,N,12132.4295983,E,0.11,48.75,090324,,,R,V*2B
$GPHDT,,T*1B
$GNACCURACY,6.1*11
$GNGGA,035551.600,2500.8031520,N,12132.4295981,E,4,40,0.76,16.813,M,15.25,M,1,3335*49
$GNRMC,035551.600,A,2500.8031520,N,12132.4295981,E,0.12,48.75,090324,,,R,V*2A
$GPHDT,,T*1B
$GNACCURACY,6.1*11
$GNGGA,035551.700,2500.8031517,N,12132.4295958,E,4,40,0.76,16.816,M,15.25,M,1,3335*4D
$GNRMC,035551.700,A,2500.8031517,N,12132.4295958,E,0.12,48.75,090324,,,R,V*2B
$GPHDT,,T*1B
$GNACCURACY,6.1*11
$GNGGA,035551.800,2500.8031534,N,12132.4295999,E,4,40,0.76,16.804,M,15.25,M,0,3335*4C
$GNRMC,035551.800,A,2500.8031534,N,12132.4295999,E,0.13,48.75,090324,,,R,V*29
$GPHDT,,T*1B
$GNACCURACY,6.2*12
$GNGGA,035551.900,2500.8031519,N,12132.4295984,E,4,40,0.76,16.807,M,15.25,M,0,3335*4D
$GNRMC,035551.900,A,2500.8031519,N,12132.4295984,E,0.22,48.75,090324,,,R,V*29
$GPHDT,,T*1B
$GNACCURACY,6.1*11
$GNGGA,035552.000,2500.8031516,N,12132.4296010,E,4,41,0.76,16.792,M,15.25,M,1,3335*4C
$GNRMC,035552.000,A,2500.8031516,N,12132.4296010,E,0.16,48.75,090324,,,R,V*2C
$GPHDT,,T*1B
$GNACCURACY,6.2*12
$GNGGA,035552.100,2500.8031529,N,12132.4296023,E,4,41,0.76,16.805,M,15.25,M,1,3335*40
$GNRMC,035552.100,A,2500.8031529,N,12132.4296023,E,0.12,48.75,090324,,,R,V*25
$GPHDT,,T*1B
$GNGSA,A,3,08,194,195,21,27,07,16,26,199,,,,1.35,0.76,1.11,1*3C
$GNGSA,A,3,88,78,77,,,,,,,,,,1.35,0.76,1.11,2*0A
$GNGSA,A,3,13,21,27,,,,,,,,,,1.35,0.76,1.11,3*00
$GNGSA,A,3,09,16,23,43,40,07,39,10,25,37,34,,1.35,0.76,1.11,4*07
$GPGSV,3,1,12,08,66,343,45,194,64,050,44,195,62,117,42,50,60,167,28,1*62
$GPGSV,3,2,12,199,60,167,24,21,53,161,47,02,41,178,23,27,38,033,46,1*53
$GPGSV,3,3,12,07,36,319,42,16,30,069,33,196,20,170,17,26,11,094,27,1*53
$GPGSV,2,1,07,08,66,343,47,194,64,050,45,195,62,117,46,199,60,167,37,8*53
$GPGSV,2,2,07,27,38,033,46,196,20,170,18,26,11,094,24,8*6A
$GLGSV,2,1,05,88,62,039,45,78,53,025,45,77,27,103,30,79,21,329,37,1*7B
$GLGSV,2,2,05,87,09,026,24,1*49
$GAGSV,2,1,05,13,54,090,38,21,53,004,42,26,38,173,19,27,30,074,35,7*72
$GAGSV,2,2,05,04,12,304,,7*46
$GAGSV,1,1,03,13,54,090,35,21,53,004,44,27,30,074,38,1*45
$GBGSV,3,1,11,09,74,276,31,16,72,197,33,23,70,016,45,43,64,040,47,1*70
$GBGSV,3,2,11,40,62,325,43,07,61,304,42,39,61,184,35,10,51,285,30,1*7A
$GBGSV,3,3,11,25,41,111,42,37,25,320,43,34,16,039,17,1*4A
$GBGSV,2,1,07,23,70,016,45,43,64,040,45,40,62,325,47,39,61,184,43,4*77
$GBGSV,2,2,07,25,41,111,44,37,25,320,40,34,16,039,18,4*42
$GNACCURACY,6.2*12
$PAIRSAT,1,16,2,0,200,7,0,1,8,0,21,16,0,1,20,0,200,21,0,201,22,0,200,23,0,200,24,0,200,25,0,200,26,0,20,27,0,21,194,0,21,195,0,621,196,0,200,199,0,621*4E
$PAIRSAT,2,13,70,0,200,71,0,200,75,0,200,76,0,200,77,0,1,78,0,201,79,0,200,80,0,200,84,0,200,85,0,200,86,0,200,87,0,201,88,0,201*5B
$PAIRSAT,3,13,2,0,1200,3,0,1200,4,0,1200,5,0,200,13,0,21,21,0,21,25,0,1000,26,0,1000,27,0,1021,30,0,1000,31,0,1000,33,0,200,36,0,200*51
$PAIRSAT,4,36,3,0,400,7,0,1,9,0,201,10,0,201,11,0,200,12,0,200,13,0,200,14,0,200,16,0,201,19,0,400,20,0,400,21,0,400,22,0,400,23,0,421,24,0,400,25,0,421,26,0,400,27,0,400,28,0,400,29,0,400,30,0,400,32,0,400,33,0,400,34,0,421,35,0,400,36,0,400,37,0,421,38,0,400,39,0,421,40,0,421,41,0,400,42,0,400,43,0,421,44,0,400,45,0,400,46,0,400*4A
$PAIRDGP,0*45
$GNGGA,035552.200,2500.8031443,N,12132.4295952,E,4,41,0.76,16.802,M,15.25,M,1,3335*45
$GNRMC,035552.200,A,2500.8031443,N,12132.4295952,E,0.11,48.75,090324,,,R,V*24
$GPHDT,,T*1B
$GNACCURACY,6.2*12
$GNGGA,035552.300,2500.8031454,N,12132.4295966,E,4,41,0.76,16.799,M,15.25,M,1,3335*48
$GNRMC,035552.300,A,2500.8031454,N,12132.4295966,E,0.11,48.75,090324,,,R,V*24
$GPHDT,,T*1B
$GNACCURACY,6.2*12
$GNGGA,035552.400,2500.8031459,N,12132.4295978,E,4,41,0.76,16.794,M,15.25,M,1,3335*40
$GNRMC,035552.400,A,2500.8031459,N,12132.4295978,E,0.11,48.75,090324,,,R,V*21
$GPHDT,,T*1B
$GNACCURACY,6.2*12
$GNGGA,035552.500,2500.8031422,N,12132.4295934,E,4,41,0.76,16.807,M,15.25,M,0,3335*41
$GNRMC,035552.500,A,2500.8031422,N,12132.4295934,E,0.11,48.75,090324,,,R,V*24
$GPHDT,,T*1B
$GNACCURACY,6.2*12
$GNGGA,035552.600,2500.8031435,N,12132.4295957,E,4,41,0.76,16.811,M,15.25,M,0,3335*46
$GNRMC,035552.600,A,2500.8031435,N,12132.4295957,E,0.12,48.75,090324,,,R,V*27
$GPHDT,,T*1B
$GNACCURACY,6.2*12
$GNGGA,035552.700,2500.8031437,N,12132.4295941,E,4,41,0.76,16.803,M,15.25,M,0,3335*41
$GNRMC,035552.700,A,2500.8031437,N,12132.4295941,E,0.13,48.75,090324,,,R,V*22
$GPHDT,,T*1B
$GNACCURACY,6.2*12
$GNGGA,035552.800,2500.8031434,N,12132.4295946,E,4,41,0.76,16.804,M,15.25,M,0,3335*4D
$GNRMC,035552.800,A,2500.8031434,N,12132.4295946,E,0.14,48.75,090324,,,R,V*2E
$GPHDT,,T*1B
$GNACCURACY,6.2*12
$GNGGA,035552.900,2500.8031453,N,12132.4295929,E,4,41,0.76,16.813,M,15.25,M,0,3335*42
$GNRMC,035552.900,A,2500.8031453,N,12132.4295929,E,0.32,48.75,090324,,,R,V*23
$GPHDT,,T*1B
$GNACCURACY,6.2*12
$GNGGA,035553.000,2500.8031441,N,12132.4295917,E,4,41,0.76,16.809,M,15.25,M,1,3335*4E
$GNRMC,035553.000,A,2500.8031441,N,12132.4295917,E,0.22,48.75,090324,,,R,V*24
$GPHDT,,T*1B
$GNACCURACY,6.2*12
$GNGGA,035553.100,2500.8031431,N,12132.4295951,E,4,41,0.76,16.807,M,15.25,M,1,3335*44
$GNRMC,035553.100,A,2500.8031431,N,12132.4295951,E,0.13,48.75,090324,,,R,V*22
$GPHDT,,T*1B
$GNGSA,A,3,08,194,195,21,27,07,16,26,199,,,,1.35,0.76,1.11,1*3C
$GNGSA,A,3,88,78,77,,,,,,,,,,1.35,0.76,1.11,2*0A
$GNGSA,A,3,13,21,27,,,,,,,,,,1.35,0.76,1.11,3*00
$GNGSA,A,3,09,16,23,43,40,07,39,10,25,37,34,,1.35,0.76,1.11,4*07
$GPGSV,3,1,12,08,66,343,45,194,64,050,44,195,62,117,42,50,60,167,28,1*62
$GPGSV,3,2,12,199,60,167,25,21,53,161,47,02,41,178,23,27,38,033,46,1*52
$GPGSV,3,3,12,07,36,319,42,16,30,069,33,196,20,170,19,26,11,094,25,1*5F
$GPGSV,2,1,07,08,66,343,47,194,64,050,45,195,62,117,46,199,60,167,38,8*5C
$GPGSV,2,2,07,27,38,033,46,196,20,170,18,26,11,094,25,8*6B
$GLGSV,2,1,05,88,62,039,45,78,53,025,45,77,27,103,30,79,21,329,37,1*7B
$GLGSV,2,2,05,87,09,026,26,1*4B
$GAGSV,2,1,05,13,54,090,38,21,53,004,42,26,38,173,20,27,30,074,34,7*79
$GAGSV,2,2,05,04,12,304,,7*46
$GAGSV,1,1,03,13,54,090,37,21,53,004,44,27,30,074,39,1*46
$GBGSV,3,1,11,09,74,276,31,16,72,197,32,23,70,016,45,43,64,040,47,1*71
$GBGSV,3,2,11,40,62,325,43,07,61,304,42,39,61,184,35,10,51,285,29,1*72
$GBGSV,3,3,11,25,41,111,42,37,25,320,43,34,16,039,17,1*4A
$GBGSV,2,1,07,23,70,016,45,43,64,040,45,40,62,325,47,39,61,184,43,4*77
$GBGSV,2,2,07,25,41,111,44,37,25,320,40,34,16,039,18,4*42
$GNACCURACY,6.2*12
$PAIRSAT,1,16,2,0,200,7,0,1,8,0,21,16,0,1,20,0,200,21,0,201,22,0,200,23,0,200,24,0,200,25,0,200,26,0,20,27,0,21,194,0,21,195,0,621,196,0,200,199,0,621*4E
$PAIRSAT,2,13,70,0,200,71,0,200,75,0,200,76,0,200,77,0,1,78,0,201,79,0,200,80,0,200,84,0,200,85,0,200,86,0,200,87,0,201,88,0,201*5B
$PAIRSAT,3,14,2,0,1200,3,0,1200,4,0,1200,5,0,200,7,0,200,13,0,21,21,0,21,25,0,1000,26,0,1000,27,0,1021,30,0,1000,31,0,1000,33,0,200,36,0,200*4F
$PAIRSAT,4,36,3,0,400,7,0,1,9,0,201,10,0,201,11,0,200,12,0,200,13,0,200,14,0,200,16,0,201,19,0,400,20,0,400,21,0,400,22,0,400,23,0,421,24,0,400,25,0,421,26,0,400,27,0,400,28,0,400,29,0,400,30,0,400,32,0,400,33,0,400,34,0,421,35,0,400,36,0,400,37,0,421,38,0,400,39,0,421,40,0,421,41,0,400,42,0,400,43,0,421,44,0,400,45,0,400,46,0,400*4A
$PAIRDGP,0*45
$GNGGA,035553.200,2500.8031452,N,12132.4295944,E,4,41,0.76,16.817,M,15.25,M,1,3335*47
$GNRMC,035553.200,A,2500.8031452,N,12132.4295944,E,0.11,48.75,090324,,,R,V*22
$GPHDT,,T*1B
$GNACCURACY,6.2*12
$GNGGA,035553.300,2500.8031519,N,12132.4295995,E,4,41,0.76,16.811,M,15.25,M,1,3335*42
$GNRMC,035553.300,A,2500.8031519,N,12132.4295995,E,0.12,48.75,090324,,,R,V*22
$GPHDT,,T*1B
$GNACCURACY,6.2*12
$GNGGA,035553.400,2500.8031549,N,12132.4296016,E,4,41,0.76,16.812,M,15.25,M,1,3335*42
$GNRMC,035553.400,A,2500.8031549,N,12132.4296016,E,0.12,48.75,090324,,,R,V*21
$GPHDT,,T*1B
$GNACCURACY,6.2*12
$GNGGA,035553.500,2500.8031509,N,12132.4295963,E,4,41,0.76,16.824,M,15.25,M,1,3335*4A
$GNRMC,035553.500,A,2500.8031509,N,12132.4295963,E,0.11,48.75,090324,,,R,V*2F
$GPHDT,,T*1B
$GNACCURACY,6.2*12
$GNGGA,035553.600,2500.8031518,N,12132.4295946,E,4,41,0.76,16.825,M,15.25,M,1,3335*4F
$GNRMC,035553.600,A,2500.8031518,N,12132.4295946,E,0.12,48.75,090324,,,R,V*28
$GPHDT,,T*1B
$GNACCURACY,6.2*12
$GNGGA,035553.700,2500.8031501,N,12132.4295898,E,4,41,0.76,16.827,M,15.25,M,0,3335*47
$GNRMC,035553.700,A,2500.8031501,N,12132.4295898,E,0.13,48.75,090324,,,R,V*22
$GPHDT,,T*1B
$GNACCURACY,6.2*12
$GNGGA,035553.800,2500.8031499,N,12132.4295921,E,4,41,0.76,16.822,M,15.25,M,0,3335*4E
$GNRMC,035553.800,A,2500.8031499,N,12132.4295921,E,0.14,48.75,090324,,,R,V*29
$GPHDT,,T*1B
$GNACCURACY,6.2*12
$GNGGA,035553.900,2500.8031476,N,12132.4295906,E,4,41,0.76,16.817,M,15.25,M,0,3335*4D
$GNRMC,035553.900,A,2500.8031476,N,12132.4295906,E,0.15,48.75,090324,,,R,V*2D
$GPHDT,,T*1B
$GNACCURACY,6.2*12
$GNGGA,035554.000,2500.8031491,N,12132.4295967,E,4,41,0.76,16.801,M,15.25,M,1,3335*4B
$GNRMC,035554.000,A,2500.8031491,N,12132.4295967,E,0.14,48.75,090324,,,R,V*2C
$GPHDT,,T*1B
$GNACCURACY,6.2*12
$GNGGA,035554.100,2500.8031532,N,12132.4295998,E,4,41,0.76,16.808,M,15.25,M,1,3335*4B
$GNRMC,035554.100,A,2500.8031532,N,12132.4295998,E,0.13,48.75,090324,,,R,V*22
$GPHDT,,T*1B
$GNGSA,A,3,08,194,195,21,27,07,16,26,199,,,,1.35,0.76,1.11,1*3C
$GNGSA,A,3,88,78,77,,,,,,,,,,1.35,0.76,1.11,2*0A
$GNGSA,A,3,13,21,27,,,,,,,,,,1.35,0.76,1.11,3*00
$GNGSA,A,3,09,16,23,43,40,07,39,10,25,37,34,,1.35,0.76,1.11,4*07
$GPGSV,3,1,12,08,66,343,45,194,64,050,44,195,62,117,42,50,60,167,28,1*62
$GPGSV,3,2,12,199,60,167,24,21,53,161,47,02,41,178,23,27,38,033,46,1*53
$GPGSV,3,3,12,07,36,319,42,16,30,069,34,196,20,170,19,26,11,094,24,1*59
$GPGSV,2,1,07,08,66,343,47,194,64,050,45,195,62,117,46,199,60,167,38,8*5C
$GPGSV,2,2,07,27,38,033,46,196,20,170,18,26,11,094,25,8*6B
$GLGSV,2,1,05,88,62,039,45,78,53,025,45,77,27,103,30,79,21,329,36,1*7A
$GLGSV,2,2,05,87,09,026,27,1*4A
$GAGSV,1,1,04,13,54,090,38,21,53,004,42,26,38,173,20,27,30,074,33,7*7C
$GAGSV,1,1,03,13,54,090,37,21,53,004,44,27,30,074,39,1*46
$GBGSV,3,1,11,09,74,276,30,16,72,197,32,23,70,016,45,43,64,040,47,1*70
$GBGSV,3,2,11,40,62,325,43,07,61,304,41,39,61,184,35,10,51,285,29,1*71
$GBGSV,3,3,11,25,41,111,42,37,25,320,43,34,16,039,18,1*45
$GBGSV,2,1,07,23,70,016,44,43,64,040,45,40,62,325,47,39,61,184,43,4*76
$GBGSV,2,2,07,25,41,111,44,37,25,320,40,34,16,039,18,4*42
$GNACCURACY,6.2*12
$PAIRSAT,1,16,2,0,200,7,0,1,8,0,21,16,0,1,20,0,200,21,0,201,22,0,200,23,0,200,24,0,200,25,0,200,26,0,20,27,0,21,194,0,21,195,0,621,196,0,200,199,0,621*4E
$PAIRSAT,2,13,70,0,200,71,0,200,75,0,200,76,0,200,77,0,1,78,0,201,79,0,200,80,0,200,84,0,200,85,0,200,86,0,200,87,0,201,88,0,201*5B
$PAIRSAT,3,14,2,0,1200,3,0,1200,4,0,1200,5,0,200,7,0,200,13,0,21,21,0,21,25,0,1000,26,0,1000,27,0,1021,30,0,1000,31,0,1000,33,0,200,36,0,200*4F
$PAIRSAT,4,36,3,0,400,7,0,1,9,0,201,10,0,201,11,0,200,12,0,200,13,0,200,14,0,200,16,0,201,19,0,400,20,0,400,21,0,400,22,0,400,23,0,421,24,0,400,25,0,421,26,0,400,27,0,400,28,0,400,29,0,400,30,0,400,32,0,400,33,0,400,34,0,421,35,0,400,36,0,400,37,0,421,38,0,400,39,0,421,40,0,421,41,0,400,42,0,400,43,0,421,44,0,400,45,0,400,46,0,400*4A
$PAIRDGP,0*45
$GNGGA,035554.200,2500.8031514,N,12132.4295965,E,4,41,0.76,16.797,M,15.25,M,1,3335*47
$GNRMC,035554.200,A,2500.8031514,N,12132.4295965,E,0.12,48.75,090324,,,R,V*26
$GPHDT,,T*1B
$GNACCURACY,6.2*12
$GNGGA,035554.300,2500.8031512,N,12132.4295970,E,4,41,0.76,16.805,M,15.25,M,1,3335*40
$GNRMC,035554.300,A,2500.8031512,N,12132.4295970,E,0.12,48.75,090324,,,R,V*25
$GPHDT,,T*1B
$GNACCURACY,6.2*12
$GNGGA,035554.400,2500.8031489,N,12132.4295925,E,4,41,0.76,16.825,M,15.25,M,1,3335*46
$GNRMC,035554.400,A,2500.8031489,N,12132.4295925,E,0.11,48.75,090324,,,R,V*22
$GPHDT,,T*1B
$GNACCURACY,6.2*12
$GNGGA,035554.500,2500.8031486,N,12132.4295927,E,4,41,0.76,16.820,M,15.25,M,1,3335*4F
$GNRMC,035554.500,A,2500.8031486,N,12132.4295927,E,0.11,48.75,090324,,,R,V*2E
$GPHDT,,T*1B
$GNACCURACY,6.2*12
$GNGGA,035554.600,2500.8031517,N,12132.4295989,E,4,41,0.76,16.796,M,15.25,M,1,3335*43
$GNRMC,035554.600,A,2500.8031517,N,12132.4295989,E,0.13,48.75,090324,,,R,V*22
$GPHDT,,T*1B
$GNACCURACY,6.2*12
$GNGGA,035554.700,2500.8031502,N,12132.4295966,E,4,41,0.76,16.808,M,15.25,M,0,3335*4E
$GNRMC,035554.700,A,2500.8031502,N,12132.4295966,E,0.12,48.75,090324,,,R,V*27
$GPHDT,,T*1B
$GNACCURACY,6.2*12
$GNGGA,035554.800,2500.8031520,N,12132.4295998,E,4,41,0.76,16.807,M,15.25,M,0,3335*4F
$GNRMC,035554.800,A,2500.8031520,N,12132.4295998,E,0.13,48.75,090324,,,R,V*28
$GPHDT,,T*1B
$GNACCURACY,6.2*12
$GNGGA,035554.900,2500.8031496,N,12132.4295934,E,4,41,0.76,16.801,M,15.25,M,0,3335*42
$GNRMC,035554.900,A,2500.8031496,N,12132.4295934,E,0.17,48.75,090324,,,R,V*27
$GPHDT,,T*1B
$GNACCURACY,6.2*12
$GNGGA,035555.000,2500.8031535,N,12132.4295984,E,4,41,0.76,16.815,M,15.25,M,1,3335*4D
$GNRMC,035555.000,A,2500.8031535,N,12132.4295984,E,0.18,48.75,090324,,,R,V*23
$GPHDT,,T*1B
$GNACCURACY,6.2*12
$GNGGA,035555.100,2500.8031492,N,12132.4295910,E,4,41,0.76,16.832,M,15.25,M,1,3335*48
$GNRMC,035555.100,A,2500.8031492,N,12132.4295910,E,0.05,48.75,090324,,,R,V*2F
$GPHDT,,T*1B
$GNGSA,A,3,08,194,195,21,27,07,16,26,199,,,,1.35,0.76,1.11,1*3C
$GNGSA,A,3,88,78,77,,,,,,,,,,1.35,0.76,1.11,2*0A
$GNGSA,A,3,13,21,27,,,,,,,,,,1.35,0.76,1.11,3*00
$GNGSA,A,3,09,16,23,43,40,07,39,10,25,37,34,,1.35,0.76,1.11,4*07
$GPGSV,3,1,12,08,66,343,45,194,64,050,44,195,62,117,42,50,60,167,28,1*62
$GPGSV,3,2,12,199,60,167,24,21,53,161,47,02,41,178,21,27,38,033,46,1*51
$GPGSV,3,3,12,07,36,319,42,16,30,069,35,196,20,170,19,26,11,094,26,1*5A
$GPGSV,2,1,07,08,66,343,47,194,64,050,45,195,62,117,46,199,60,167,37,8*53
$GPGSV,2,2,07,27,38,033,46,196,20,170,18,26,11,094,24,8*6A
$GLGSV,2,1,05,88,62,039,45,78,53,025,45,77,27,103,30,79,21,329,36,1*7A
$GLGSV,2,2,05,87,09,026,27,1*4A
$GAGSV,1,1,04,13,54,090,38,21,53,004,43,26,38,173,20,27,30,074,33,7*7D
$GAGSV,1,1,03,13,54,090,35,21,53,004,44,27,30,074,39,1*44
$GBGSV,3,1,11,09,74,276,30,16,72,197,33,23,70,016,45,43,64,040,47,1*71
$GBGSV,3,2,11,40,62,325,43,07,61,304,41,39,61,184,35,10,51,285,30,1*79
$GBGSV,3,3,11,25,41,111,42,37,25,320,42,34,16,039,18,1*44
$GBGSV,2,1,07,23,70,016,44,43,64,040,45,40,62,325,46,39,61,184,43,4*77
$GBGSV,2,2,07,25,41,111,44,37,25,320,40,34,16,039,19,4*43
$GNACCURACY,6.1*11
$PAIRSAT,1,16,2,0,200,7,0,1,8,0,21,16,0,1,20,0,200,21,0,201,22,0,200,23,0,200,24,0,200,25,0,200,26,0,20,27,0,21,194,0,21,195,0,621,196,0,200,199,0,621*4E
$PAIRSAT,2,13,70,0,200,71,0,200,75,0,200,76,0,200,77,0,1,78,0,201,79,0,200,80,0,200,84,0,200,85,0,200,86,0,200,87,0,201,88,0,201*5B
$PAIRSAT,3,14,2,0,1200,3,0,1200,4,0,1200,5,0,200,7,0,200,13,0,21,21,0,21,25,0,1000,26,0,1000,27,0,1021,30,0,1000,31,0,1000,33,0,200,36,0,200*4F
$PAIRSAT,4,36,3,0,400,7,0,1,9,0,201,10,0,201,11,0,200,12,0,200,13,0,200,14,0,200,16,0,201,19,0,400,20,0,400,21,0,400,22,0,400,23,0,421,24,0,400,25,0,421,26,0,400,27,0,400,28,0,400,29,0,400,30,0,400,32,0,400,33,0,400,34,0,421,35,0,400,36,0,400,37,0,421,38,0,400,39,0,421,40,0,421,41,0,400,42,0,400,43,0,421,44,0,400,45,0,400,46,0,400*4A
$PAIRDGP,0*45
$GNGGA,035555.200,2500.8031510,N,12132.4295926,E,4,41,0.76,16.822,M,15.25,M,1,3335*44
$GNRMC,035555.200,A,2500.8031510,N,12132.4295926,E,0.09,48.75,090324,,,R,V*2E
$GPHDT,,T*1B
$GNACCURACY,6.1*11
$GNGGA,035555.300,2500.8031489,N,12132.4295924,E,4,41,0.76,16.827,M,15.25,M,1,3335*43
$GNRMC,035555.300,A,2500.8031489,N,12132.4295924,E,0.07,48.75,090324,,,R,V*22
$GPHDT,,T*1B
$GNACCURACY,6.1*11
$GNGGA,035555.400,2500.8031496,N,12132.4295927,E,4,41,0.76,16.825,M,15.25,M,1,3335*4B
$GNRMC,035555.400,A,2500.8031496,N,12132.4295927,E,0.07,48.75,090324,,,R,V*28
$GPHDT,,T*1B
$GNACCURACY,6.1*11
$GNGGA,035555.500,2500.8031482,N,12132.4295876,E,4,41,0.76,16.817,M,15.25,M,0,3335*4A
$GNRMC,035555.500,A,2500.8031482,N,12132.4295876,E,0.08,48.75,090324,,,R,V*26
$GPHDT,,T*1B
$GNACCURACY,6.1*11
$GNGGA,035555.600,2500.8031520,N,12132.4295906,E,4,41,0.76,16.832,M,15.25,M,0,3335*41
$GNRMC,035555.600,A,2500.8031520,N,12132.4295906,E,0.10,48.75,090324,,,R,V*23
$GPHDT,,T*1B
$GNACCURACY,6.1*11
$GNGGA,035555.700,2500.8031510,N,12132.4295908,E,4,41,0.76,16.818,M,15.25,M,0,3335*45
$GNRMC,035555.700,A,2500.8031510,N,12132.4295908,E,0.11,48.75,090324,,,R,V*2E
$GPHDT,,T*1B
$GNACCURACY,6.1*11
$GNGGA,035555.800,2500.8031490,N,12132.4295880,E,4,41,0.76,16.822,M,15.25,M,0,3335*4B
$GNRMC,035555.800,A,2500.8031490,N,12132.4295880,E,0.11,48.75,090324,,,R,V*29
$GPHDT,,T*1B
$GNACCURACY,6.1*11
$GNGGA,035555.900,2500.8031511,N,12132.4295896,E,4,41,0.76,16.833,M,15.25,M,0,3335*45
$GNRMC,035555.900,A,2500.8031511,N,12132.4295896,E,0.13,48.75,090324,,,R,V*25
$GPHDT,,T*1B
$GNACCURACY,6.1*11
$GNGGA,035556.000,2500.8031500,N,12132.4295904,E,4,41,0.76,16.817,M,15.25,M,1,3335*42
$GNRMC,035556.000,A,2500.8031500,N,12132.4295904,E,0.13,48.75,090324,,,R,V*25
$GPHDT,,T*1B
$GNACCURACY,6.1*11
$GNGGA,035556.100,2500.8031518,N,12132.4295895,E,4,41,0.76,16.833,M,15.25,M,1,3335*45
$GNRMC,035556.100,A,2500.8031518,N,12132.4295895,E,0.11,48.75,090324,,,R,V*26
$GPHDT,,T*1B
$GNGSA,A,3,08,194,195,21,27,07,16,26,199,,,,1.35,0.76,1.11,1*3C
$GNGSA,A,3,88,78,77,,,,,,,,,,1.35,0.76,1.11,2*0A
$GNGSA,A,3,13,21,27,,,,,,,,,,1.35,0.76,1.11,3*00
$GNGSA,A,3,09,16,23,43,40,07,39,10,25,37,34,,1.35,0.76,1.11,4*07
$GPGSV,3,1,12,08,66,343,45,194,64,050,44,195,62,117,42,50,60,167,28,1*62
$GPGSV,3,2,12,199,60,167,24,21,53,161,47,02,41,178,22,27,38,033,46,1*52
$GPGSV,3,3,12,07,36,319,42,16,30,069,36,196,20,170,19,26,11,094,26,1*59
$GPGSV,2,1,07,08,66,343,47,194,64,050,45,195,62,117,46,199,60,167,37,8*53
$GPGSV,2,2,07,27,38,033,46,196,20,170,17,26,11,094,24,8*65
$GLGSV,2,1,05,88,62,039,45,78,53,025,45,77,27,103,30,79,21,329,36,1*7A
$GLGSV,2,2,05,87,09,026,26,1*4B
$GAGSV,1,1,04,13,54,090,38,21,53,004,43,26,38,173,20,27,30,074,33,7*7D
$GAGSV,1,1,03,13,54,090,36,21,53,004,43,27,30,074,39,1*40
$GBGSV,3,1,11,09,74,276,30,16,72,197,33,23,70,016,45,43,64,040,47,1*71
$GBGSV,3,2,11,40,62,325,43,07,61,304,41,39,61,184,35,10,51,285,30,1*79
$GBGSV,3,3,11,25,41,111,42,37,25,320,42,34,16,039,17,1*4B
$GBGSV,2,1,07,23,70,016,44,43,64,040,45,40,62,325,46,39,61,184,43,4*77
$GBGSV,2,2,07,25,41,111,44,37,25,320,40,34,16,039,19,4*43
$GNACCURACY,6.1*11
$PAIRSAT,1,16,2,0,200,7,0,1,8,0,21,16,0,1,20,0,200,21,0,201,22,0,200,23,0,200,24,0,200,25,0,200,26,0,20,27,0,21,194,0,21,195,0,621,196,0,200,199,0,621*4E
$PAIRSAT,2,14,70,0,200,71,0,200,73,0,200,75,0,200,76,0,200,77,0,1,78,0,201,79,0,200,80,0,200,84,0,200,85,0,200,86,0,200,87,0,201,88,0,201*76
$PAIRSAT,3,14,2,0,1200,3,0,1200,4,0,1200,5,0,200,7,0,200,13,0,21,21,0,21,25,0,1000,26,0,1000,27,0,1021,30,0,1000,31,0,1000,33,0,200,36,0,200*4F
$PAIRSAT,4,36,3,0,400,7,0,1,9,0,201,10,0,201,11,0,200,12,0,200,13,0,200,14,0,200,16,0,201,19,0,400,20,0,400,21,0,400,22,0,400,23,0,421,24,0,400,25,0,421,26,0,400,27,0,400,28,0,400,29,0,400,30,0,400,32,0,400,33,0,400,34,0,421,35,0,400,36,0,400,37,0,421,38,0,400,39,0,421,40,0,421,41,0,400,42,0,400,43,0,421,44,0,400,45,0,400,46,0,400*4A
$PAIRDGP,0*45
$GNGGA,035556.200,2500.8031503,N,12132.4295889,E,4,41,0.76,16.829,M,15.25,M,1,3335*4A
$GNRMC,035556.200,A,2500.8031503,N,12132.4295889,E,0.10,48.75,090324,,,R,V*23
$GPHDT,,T*1B
$GNACCURACY,6.1*11
$GNGGA,035556.300,2500.8031497,N,12132.4295873,E,4,41,0.76,16.831,M,15.25,M,1,3335*4B
$GNRMC,035556.300,A,2500.8031497,N,12132.4295873,E,0.10,48.75,090324,,,R,V*2B
$GPHDT,,T*1B
$GNACCURACY,6.1*11
$GNGGA,035556.400,2500.8031500,N,12132.4295921,E,4,41,0.76,16.818,M,15.25,M,0,3335*4F
$GNRMC,035556.400,A,2500.8031500,N,12132.4295921,E,0.10,48.75,090324,,,R,V*25
$GPHDT,,T*1B
$GNACCURACY,6.1*11
$GNGGA,035556.500,2500.8031482,N,12132.4295913,E,4,41,0.76,16.816,M,15.25,M,0,3335*4A
$GNRMC,035556.500,A,2500.8031482,N,12132.4295913,E,0.11,48.75,090324,,,R,V*2F
$GPHDT,,T*1B
$GNACCURACY,6.1*11
$GNGGA,035556.600,2500.8031470,N,12132.4295903,E,4,41,0.76,16.816,M,15.25,M,0,3335*45
$GNRMC,035556.600,A,2500.8031470,N,12132.4295903,E,0.11,48.75,090324,,,R,V*20
$GPHDT,,T*1B
$GNACCURACY,6.2*12
$GNGGA,035556.700,2500.8031489,N,12132.4295915,E,4,41,0.76,16.824,M,15.25,M,0,3335*44
$GNRMC,035556.700,A,2500.8031489,N,12132.4295915,E,0.12,48.75,090324,,,R,V*23
$GPHDT,,T*1B
$GNACCURACY,6.1*11
$GNGGA,035556.800,2500.8031468,N,12132.4295889,E,4,41,0.76,16.816,M,15.25,M,0,3335*41
$GNRMC,035556.800,A,2500.8031468,N,12132.4295889,E,0.12,48.75,090324,,,R,V*27
$GPHDT,,T*1B
$GNACCURACY,6.1*11
$GNGGA,035556.900,2500.8031492,N,12132.4295890,E,4,41,0.76,16.823,M,15.25,M,0,3335*4B
$GNRMC,035556.900,A,2500.8031492,N,12132.4295890,E,0.30,48.75,090324,,,R,V*2B
$GPHDT,,T*1B
$GNACCURACY,6.1*11
$GNGGA,035557.000,2500.8031511,N,12132.4295936,E,4,41,0.76,16.818,M,15.25,M,1,3335*4D
$GNRMC,035557.000,A,2500.8031511,N,12132.4295936,E,0.19,48.75,090324,,,R,V*2F
$GPHDT,,T*1B
$GNACCURACY,6.1*11
$GNGGA,035557.100,2500.8031482,N,12132.4295881,E,4,41,0.76,16.823,M,15.25,M,1,3335*42
$GNRMC,035557.100,A,2500.8031482,N,12132.4295881,E,0.13,48.75,090324,,,R,V*22
$GPHDT,,T*1B
$GNGSA,A,3,08,194,195,21,27,07,16,26,199,,,,1.35,0.76,1.11,1*3C
$GNGSA,A,3,88,78,77,,,,,,,,,,1.35,0.76,1.11,2*0A
$GNGSA,A,3,13,21,27,,,,,,,,,,1.35,0.76,1.11,3*00
$GNGSA,A,3,09,16,23,43,40,07,39,10,25,37,34,,1.35,0.76,1.11,4*07
$GPGSV,3,1,12,08,66,343,45,194,64,050,44,195,62,117,42,50,60,167,27,1*6D
$GPGSV,3,2,12,199,60,167,24,21,53,161,47,02,41,178,22,27,38,033,46,1*52
$GPGSV,3,3,12,07,36,319,42,16,30,069,36,196,20,170,18,26,11,094,27,1*59
$GPGSV,2,1,07,08,66,343,48,194,64,050,45,195,62,117,46,199,60,167,37,8*5C
$GPGSV,2,2,07,27,38,033,46,196,20,170,17,26,11,094,23,8*62
$GLGSV,2,1,05,88,62,039,45,78,53,025,45,77,27,103,29,79,21,329,36,1*72
$GLGSV,2,2,05,87,09,026,26,1*4B
$GAGSV,1,1,04,13,54,090,38,21,53,004,43,26,38,173,20,27,30,074,33,7*7D
$GAGSV,1,1,03,13,54,090,36,21,53,004,43,27,30,074,39,1*40
$GBGSV,3,1,11,09,74,276,30,16,72,197,33,23,70,016,45,43,64,040,47,1*71
$GBGSV,3,2,11,40,62,325,43,07,61,304,41,39,61,184,35,10,51,285,30,1*79
$GBGSV,3,3,11,25,41,111,42,37,25,320,42,34,16,039,18,1*44
$GBGSV,2,1,07,23,70,016,44,43,64,040,45,40,62,325,46,39,61,184,43,4*77
$GBGSV,2,2,07,25,41,111,44,37,25,320,40,34,16,039,19,4*43
$GNACCURACY,6.1*11
$PAIRSAT,1,16,2,0,200,7,0,1,8,0,21,16,0,1,20,0,200,21,0,201,22,0,200,23,0,200,24,0,200,25,0,200,26,0,20,27,0,21,194,0,21,195,0,621,196,0,200,199,0,621*4E
$PAIRSAT,2,14,70,0,200,71,0,200,73,0,200,75,0,200,76,0,200,77,0,1,78,0,201,79,0,200,80,0,200,84,0,200,85,0,200,86,0,200,87,0,201,88,0,201*76
$PAIRSAT,3,14,2,0,1200,3,0,1200,4,0,1200,5,0,200,7,0,200,13,0,21,21,0,21,25,0,1000,26,0,1000,27,0,1021,30,0,1000,31,0,1000,33,0,200,36,0,200*4F
$PAIRSAT,4,36,3,0,400,7,0,1,9,0,201,10,0,201,11,0,200,12,0,200,13,0,200,14,0,200,16,0,201,19,0,400,20,0,400,21,0,400,22,0,400,23,0,421,24,0,400,25,0,421,26,0,400,27,0,400,28,0,400,29,0,400,30,0,400,32,0,400,33,0,400,34,0,421,35,0,400,36,0,400,37,0,421,38,0,400,39,0,421,40,0,421,41,0,400,42,0,400,43,0,421,44,0,400,45,0,400,46,0,400*4A
$PAIRDGP,0*45
$GNGGA,035557.200,2500.8031485,N,12132.4295923,E,4,41,0.76,16.825,M,15.25,M,1,3335*49
$GNRMC,035557.200,A,2500.8031485,N,12132.4295923,E,0.11,48.75,090324,,,R,V*2D
$GPHDT,,T*1B
$GNACCURACY,6.1*11
$GNGGA,035557.300,2500.8031488,N,12132.4295932,E,4,41,0.76,16.817,M,15.25,M,1,3335*44
$GNRMC,035557.300,A,2500.8031488,N,12132.4295932,E,0.10,48.75,090324,,,R,V*20
$GPHDT,,T*1B
$GNACCURACY,6.1*11
$GNGGA,035557.400,2500.8031480,N,12132.4295891,E,4,41,0.76,16.823,M,15.25,M,1,3335*44
$GNRMC,035557.400,A,2500.8031480,N,12132.4295891,E,0.09,48.75,090324,,,R,V*2F
$GPHDT,,T*1B
$GNACCURACY,6.1*11
$GNGGA,035557.500,2500.8031477,N,12132.4295895,E,4,41,0.76,16.822,M,15.25,M,1,3335*48
$GNRMC,035557.500,A,2500.8031477,N,12132.4295895,E,0.09,48.75,090324,,,R,V*22
$GPHDT,,T*1B
$GNACCURACY,6.1*11
$GNGGA,035557.600,2500.8031511,N,12132.4295919,E,4,41,0.76,16.821,M,15.25,M,0,3335*4D
$GNRMC,035557.600,A,2500.8031511,N,12132.4295919,E,0.11,48.75,090324,,,R,V*2C
$GPHDT,,T*1B
$GNACCURACY,6.1*11
$GNGGA,035557.700,2500.8031477,N,12132.4295921,E,4,41,0.76,16.820,M,15.25,M,0,3335*47
$GNRMC,035557.700,A,2500.8031477,N,12132.4295921,E,0.12,48.75,090324,,,R,V*24
$GPHDT,,T*1B
$GNACCURACY,6.1*11
$GNGGA,035557.800,2500.8031505,N,12132.4295932,E,4,41,0.76,16.819,M,15.25,M,0,3335*44
$GNRMC,035557.800,A,2500.8031505,N,12132.4295932,E,0.13,48.75,090324,,,R,V*2C
$GPHDT,,T*1B
$GNACCURACY,6.1*11
$GNGGA,035557.900,2500.8031488,N,12132.4295917,E,4,41,0.76,16.817,M,15.25,M,0,3335*48
$GNRMC,035557.900,A,2500.8031488,N,12132.4295917,E,0.34,48.75,090324,,,R,V*2B
$GPHDT,,T*1B
$GNACCURACY,6.1*11
$GNGGA,035558.000,2500.8031519,N,12132.4295912,E,4,41,0.76,16.840,M,15.25,M,1,3335*41
$GNRMC,035558.000,A,2500.8031519,N,12132.4295912,E,0.11,48.75,090324,,,R,V*26
$GPHDT,,T*1B
$GNACCURACY,6.1*11
$GNGGA,035558.100,2500.8031529,N,12132.4295980,E,4,41,0.76,16.806,M,15.25,M,1,3335*4A
$GNRMC,035558.100,A,2500.8031529,N,12132.4295980,E,0.10,48.75,090324,,,R,V*2E
$GPHDT,,T*1B
$GNGSA,A,3,08,194,195,21,27,07,16,26,199,,,,1.35,0.76,1.11,1*3C
$GNGSA,A,3,88,78,77,,,,,,,,,,1.35,0.76,1.11,2*0A
$GNGSA,A,3,13,21,27,,,,,,,,,,1.35,0.76,1.11,3*00
$GNGSA,A,3,09,16,23,43,40,07,39,10,25,37,34,,1.35,0.76,1.11,4*07
$GPGSV,3,1,12,08,66,343,44,194,64,050,44,195,62,117,42,50,60,167,27,1*6C
$GPGSV,3,2,12,199,60,167,24,21,53,161,47,02,41,178,24,27,38,033,45,1*57
$GPGSV,3,3,12,07,36,319,42,16,30,069,35,196,20,170,18,26,11,094,27,1*5A
$GPGSV,2,1,07,08,66,343,48,194,64,050,45,195,62,117,46,199,60,167,37,8*5C
$GPGSV,2,2,07,27,38,033,46,196,20,170,18,26,11,094,24,8*6A
$GLGSV,2,1,05,88,62,039,44,78,53,026,45,77,27,103,29,79,21,329,36,1*70
$GLGSV,2,2,05,87,09,026,26,1*4B
$GAGSV,1,1,04,13,54,090,38,21,53,004,43,26,38,173,20,27,30,074,33,7*7D
$GAGSV,1,1,03,13,54,090,36,21,53,004,44,27,30,074,39,1*47
$GBGSV,3,1,11,09,74,276,29,16,72,197,33,23,70,016,45,43,64,040,46,1*78
$GBGSV,3,2,11,40,62,325,43,07,61,304,41,39,61,184,35,10,51,285,31,1*78
$GBGSV,3,3,11,25,41,111,42,37,25,320,42,34,16,039,18,1*44
$GBGSV,2,1,07,23,70,016,44,43,64,040,45,40,62,325,46,39,61,184,43,4*77
$GBGSV,2,2,07,25,41,111,44,37,25,320,39,34,16,039,19,4*4D
$GNACCURACY,6.1*11
$PAIRSAT,1,16,2,0,200,7,0,1,8,0,21,16,0,1,20,0,200,21,0,201,22,0,200,23,0,200,24,0,200,25,0,200,26,0,20,27,0,21,194,0,21,195,0,621,196,0,200,199,0,621*4E
$PAIRSAT,2,14,70,0,200,71,0,200,73,0,200,75,0,200,76,0,200,77,0,1,78,0,201,79,0,200,80,0,200,84,0,200,85,0,200,86,0,200,87,0,201,88,0,201*76
$PAIRSAT,3,14,2,0,1200,3,0,1200,4,0,1200,5,0,200,7,0,200,13,0,21,21,0,21,25,0,1000,26,0,1000,27,0,1021,30,0,1000,31,0,1000,33,0,200,36,0,200*4F
$PAIRSAT,4,36,3,0,400,7,0,1,9,0,201,10,0,201,11,0,200,12,0,200,13,0,200,14,0,200,16,0,201,19,0,400,20,0,400,21,0,400,22,0,400,23,0,421,24,0,400,25,0,421,26,0,400,27,0,400,28,0,400,29,0,400,30,0,400,32,0,400,33,0,400,34,0,421,35,0,400,36,0,400,37,0,421,38,0,400,39,0,421,40,0,421,41,0,400,42,0,400,43,0,421,44,0,400,45,0,400,46,0,400*4A
$PAIRDGP,0*45
$GNGGA,035558.200,2500.8031508,N,12132.4295947,E,4,41,0.76,16.807,M,15.25,M,1,3335*40
$GNRMC,035558.200,A,2500.8031508,N,12132.4295947,E,0.11,48.75,090324,,,R,V*24
$GPHDT,,T*1B
$GNACCURACY,6.1*11
$GNGGA,035558.300,2500.8031503,N,12132.4295920,E,4,41,0.76,16.819,M,15.25,M,1,3335*44
$GNRMC,035558.300,A,2500.8031503,N,12132.4295920,E,0.11,48.75,090324,,,R,V*2F
$GPHDT,,T*1B
$GNACCURACY,6.1*11
$GNGGA,035558.400,2500.8031487,N,12132.4295901,E,4,41,0.76,16.823,M,15.25,M,1,3335*44
$GNRMC,035558.400,A,2500.8031487,N,12132.4295901,E,0.10,48.75,090324,,,R,V*27
$GPHDT,,T*1B
$GNACCURACY,6.1*11
$GNGGA,035558.500,2500.8031475,N,12132.4295887,E,4,41,0.76,16.822,M,15.25,M,0,3335*47
$GNRMC,035558.500,A,2500.8031475,N,12132.4295887,E,0.10,48.75,090324,,,R,V*24
$GPHDT,,T*1B
$GNACCURACY,6.1*11
$GNGGA,035558.600,2500.8031480,N,12132.4295842,E,4,41,0.76,16.835,M,15.25,M,0,3335*41
$GNRMC,035558.600,A,2500.8031480,N,12132.4295842,E,0.11,48.75,090324,,,R,V*25
$GPHDT,,T*1B
$GNACCURACY,6.1*11
$GNGGA,035558.700,2500.8031501,N,12132.4295852,E,4,41,0.76,16.837,M,15.25,M,0,3335*4B
$GNRMC,035558.700,A,2500.8031501,N,12132.4295852,E,0.13,48.75,090324,,,R,V*2F
$GPHDT,,T*1B
$GNACCURACY,6.1*11
$GNGGA,035558.800,2500.8031492,N,12132.4295866,E,4,41,0.76,16.830,M,15.25,M,0,3335*4F
$GNRMC,035558.800,A,2500.8031492,N,12132.4295866,E,0.13,48.75,090324,,,R,V*2C
$GPHDT,,T*1B
$GNACCURACY,6.1*11
$GNGGA,035558.900,2500.8031498,N,12132.4295874,E,4,41,0.76,16.831,M,15.25,M,0,3335*46
$GNRMC,035558.900,A,2500.8031498,N,12132.4295874,E,0.27,48.75,090324,,,R,V*23
$GPHDT,,T*1B
$GNACCURACY,6.1*11
$GNGGA,035559.000,2500.8031471,N,12132.4295895,E,4,41,0.76,16.807,M,15.25,M,1,3335*42
$GNRMC,035559.000,A,2500.8031471,N,12132.4295895,E,0.14,48.75,090324,,,R,V*23
$GPHDT,,T*1B
$GNACCURACY,6.1*11
$GNGGA,035559.100,2500.8031512,N,12132.4295904,E,4,41,0.76,16.828,M,15.25,M,1,3335*43
$GNRMC,035559.100,A,2500.8031512,N,12132.4295904,E,0.11,48.75,090324,,,R,V*2A
$GPHDT,,T*1B
$GNGSA,A,3,08,194,195,21,27,07,16,26,199,,,,1.35,0.76,1.11,1*3C
$GNGSA,A,3,88,78,77,,,,,,,,,,1.35,0.76,1.11,2*0A
$GNGSA,A,3,13,21,27,,,,,,,,,,1.35,0.76,1.11,3*00
$GNGSA,A,3,09,16,23,43,40,07,39,10,25,37,34,,1.35,0.76,1.11,4*07
$GPGSV,3,1,12,08,66,343,44,194,64,050,44,195,62,117,42,50,60,167,27,1*6C
$GPGSV,3,2,12,199,60,167,23,21,53,161,47,02,41,178,23,27,38,033,45,1*57
$GPGSV,3,3,12,07,36,319,42,16,30,069,36,196,20,170,18,26,11,094,25,1*5B
$GPGSV,2,1,07,08,66,343,48,194,64,050,45,195,62,117,45,199,60,167,37,8*5F
$GPGSV,2,2,07,27,38,033,46,196,20,170,18,26,11,094,23,8*6D
$GLGSV,2,1,05,88,62,038,44,78,53,026,45,77,27,103,27,79,21,329,36,1*7F
$GLGSV,2,2,05,87,08,026,26,1*4A
$GAGSV,1,1,04,13,54,090,38,21,53,004,43,26,38,173,20,27,30,074,34,7*7A
$GAGSV,1,1,03,13,54,090,32,21,53,004,44,27,30,074,39,1*43
$GBGSV,3,1,11,09,74,276,28,16,72,197,33,23,70,016,45,43,64,040,46,1*79
$GBGSV,3,2,11,40,62,325,43,07,61,304,41,39,61,184,36,10,51,285,31,1*7B
$GBGSV,3,3,11,25,41,111,41,37,25,320,42,34,16,039,15,1*4A
$GBGSV,2,1,07,23,70,016,44,43,64,040,45,40,62,325,46,39,61,184,42,4*76
$GBGSV,2,2,07,25,41,111,44,37,25,320,39,34,16,039,19,4*4D
$GNACCURACY,6.1*11
$PAIRSAT,1,16,2,0,200,7,0,1,8,0,21,16,0,1,20,0,200,21,0,201,22,0,200,23,0,200,24,0,200,25,0,200,26,0,20,27,0,21,194,0,21,195,0,621,196,0,200,199,0,621*4E
$PAIRSAT,2,14,70,0,200,71,0,200,73,0,200,75,0,200,76,0,200,77,0,1,78,0,201,79,0,200,80,0,200,84,0,200,85,0,200,86,0,200,87,0,201,88,0,201*76
$PAIRSAT,3,14,2,0,1200,3,0,1200,4,0,1200,5,0,200,7,0,200,13,0,21,21,0,21,25,0,1000,26,0,1000,27,0,1021,30,0,1000,31,0,1000,33,0,200,36,0,200*4F
$PAIRSAT,4,36,3,0,400,7,0,1,9,0,201,10,0,201,11,0,200,12,0,200,13,0,200,14,0,200,16,0,201,19,0,400,20,0,400,21,0,400,22,0,400,23,0,421,24,0,400,25,0,421,26,0,400,27,0,400,28,0,400,29,0,400,30,0,400,32,0,400,33,0,400,34,0,421,35,0,400,36,0,400,37,0,421,38,0,400,39,0,421,40,0,421,41,0,400,42,0,400,43,0,421,44,0,400,45,0,400,46,0,400*4A
$PAIRDGP,0*45
$GNGGA,035559.200,2500.8031492,N,12132.4295899,E,4,41,0.76,16.825,M,15.25,M,1,3335*41
$GNRMC,035559.200,A,2500.8031492,N,12132.4295899,E,0.11,48.75,090324,,,R,V*25
$GPHDT,,T*1B
$GNACCURACY,6.1*11
$GNGGA,035559.300,2500.8031505,N,12132.4295926,E,4,41,0.76,16.820,M,15.25,M,1,3335*4F
$GNRMC,035559.300,A,2500.8031505,N,12132.4295926,E,0.11,48.75,090324,,,R,V*2E
$GPHDT,,T*1B
$GNACCURACY,6.1*11
$GNGGA,035559.400,2500.8031502,N,12132.4295868,E,4,41,0.76,16.836,M,15.25,M,1,3335*43
$GNRMC,035559.400,A,2500.8031502,N,12132.4295868,E,0.10,48.75,090324,,,R,V*24
$GPHDT,,T*1B
$GNACCURACY,6.1*11
$GNGGA,035559.500,2500.8031510,N,12132.4295861,E,4,41,0.76,16.834,M,15.25,M,1,3335*4A
$GNRMC,035559.500,A,2500.8031510,N,12132.4295861,E,0.11,48.75,090324,,,R,V*2E
$GPHDT,,T*1B
$GNACCURACY,6.1*11
$GNGGA,035559.600,2500.8031499,N,12132.4295873,E,4,41,0.76,16.828,M,15.25,M,1,3335*47
$GNRMC,035559.600,A,2500.8031499,N,12132.4295873,E,0.11,48.75,090324,,,R,V*2E
$GPHDT,,T*1B
$GNACCURACY,6.2*12
$GNGGA,035559.700,2500.8031481,N,12132.4295880,E,4,40,0.76,16.842,M,15.25,M,0,3335*4F
$GNRMC,035559.700,A,2500.8031481,N,12132.4295880,E,0.12,48.75,090324,,,R,V*29
$GPHDT,,T*1B
$GNACCURACY,6.1*11
$GNGGA,035559.800,2500.8031479,N,12132.4295917,E,4,40,0.76,16.823,M,15.25,M,0,3335*4F
$GNRMC,035559.800,A,2500.8031479,N,12132.4295917,E,0.22,48.75,090324,,,R,V*2D
$GPHDT,,T*1B
$GNACCURACY,6.1*11
$GNGGA,035559.900,2500.8031489,N,12132.4295899,E,4,40,0.76,16.821,M,15.25,M,0,3335*44
$GNRMC,035559.900,A,2500.8031489,N,12132.4295899,E,0.21,48.75,090324,,,R,V*27
$GPHDT,,T*1B
$GNACCURACY,6.1*11
$GNGGA,035600.000,2500.8031486,N,12132.4295878,E,4,40,0.76,16.833,M,15.25,M,1,3335*40
$GNRMC,035600.000,A,2500.8031486,N,12132.4295878,E,0.13,48.75,090324,,,R,V*20
$GPHDT,,T*1B
$GNACCURACY,6.1*11
$GNGGA,035600.100,2500.8031480,N,12132.4295914,E,4,40,0.76,16.819,M,15.25,M,1,3335*44
$GNRMC,035600.100,A,2500.8031480,N,12132.4295914,E,0.08,48.75,090324,,,R,V*26
$GPHDT,,T*1B
$GNGSA,A,3,08,194,195,21,27,07,16,26,199,,,,1.35,0.76,1.11,1*3C
$GNGSA,A,3,88,78,77,,,,,,,,,,1.35,0.76,1.11,2*0A
$GNGSA,A,3,13,21,27,,,,,,,,,,1.35,0.76,1.11,3*00
$GNGSA,A,3,09,16,23,43,40,07,39,10,25,37,34,,1.35,0.76,1.11,4*07
$GPGSV,3,1,12,08,66,343,44,194,64,050,44,195,62,117,42,50,60,167,27,1*6C
$GPGSV,3,2,12,199,60,167,23,21,53,161,47,02,41,178,23,27,38,033,45,1*57
$GPGSV,3,3,12,07,36,319,42,16,30,069,37,196,20,170,17,26,11,094,25,1*55
$GPGSV,2,1,07,08,66,343,48,194,64,050,45,195,62,117,45,199,60,167,37,8*5F
$GPGSV,2,2,07,27,38,033,46,196,20,170,18,26,11,094,23,8*6D
$GLGSV,2,1,05,88,62,038,44,78,53,026,45,77,27,103,26,79,21,329,36,1*7E
$GLGSV,2,2,05,87,08,026,26,1*4A
$GAGSV,1,1,04,13,54,090,38,21,53,004,43,26,38,173,20,27,30,074,35,7*7B
$GAGSV,1,1,03,13,54,090,32,21,53,004,44,27,30,074,39,1*43
$GBGSV,3,1,11,09,74,276,30,16,72,197,34,23,70,016,45,43,64,040,46,1*77
$GBGSV,3,2,11,40,62,325,43,07,61,304,41,39,61,184,37,10,51,286,31,1*79
$GBGSV,3,3,11,25,41,111,41,37,25,320,42,34,16,039,17,1*48
$GBGSV,2,1,07,23,70,016,44,43,64,040,45,40,62,325,46,39,61,184,42,4*76
$GBGSV,2,2,07,25,41,111,44,37,25,320,38,34,16,039,18,4*4D
$GNACCURACY,6.1*11
$PAIRSAT,1,16,2,0,200,7,0,1,8,0,21,16,0,1,20,0,200,21,0,201,22,0,200,23,0,200,24,0,200,25,0,200,26,0,20,27,0,21,194,0,21,195,0,621,196,0,200,199,0,621*4E
$PAIRSAT,2,15,70,0,200,71,0,200,73,0,200,74,0,200,75,0,200,76,0,200,77,0,1,78,0,201,79,0,200,80,0,200,84,0,200,85,0,200,86,0,200,87,0,201,88,0,201*5A
$PAIRSAT,3,14,2,0,1200,3,0,1200,4,0,1200,5,0,200,7,0,200,13,0,21,21,0,21,25,0,1000,26,0,1000,27,0,1021,30,0,1000,31,0,1000,33,0,200,36,0,200*4F
$PAIRSAT,4,36,3,0,400,7,0,1,9,0,201,10,0,201,11,0,200,12,0,200,13,0,200,14,0,200,16,0,201,19,0,400,20,0,400,21,0,400,22,0,400,23,0,421,24,0,400,25,0,421,26,0,400,27,0,400,28,0,400,29,0,400,30,0,400,32,0,400,33,0,400,34,0,421,35,0,400,36,0,400,37,0,421,38,0,400,39,0,421,40,0,421,41,0,400,42,0,400,43,0,421,44,0,400,45,0,400,46,0,400*4A
$PAIRDGP,0*45
$GNGGA,035600.200,2500.8031503,N,12132.4295923,E,4,41,0.76,16.831,M,15.25,M,1,3335*42
$GNRMC,035600.200,A,2500.8031503,N,12132.4295923,E,0.08,48.75,090324,,,R,V*2B
$GPHDT,,T*1B
$GNACCURACY,6.1*11
$GNGGA,035600.300,2500.8031480,N,12132.4295901,E,4,41,0.76,16.831,M,15.25,M,1,3335*49
$GNRMC,035600.300,A,2500.8031480,N,12132.4295901,E,0.07,48.75,090324,,,R,V*2F
$GPHDT,,T*1B
$GNACCURACY,6.1*11
$GNGGA,035600.400,2500.8031470,N,12132.4295898,E,4,41,0.76,16.819,M,15.25,M,1,3335*4A
$GNRMC,035600.400,A,2500.8031470,N,12132.4295898,E,0.09,48.75,090324,,,R,V*28
$GPHDT,,T*1B
$GNACCURACY,6.1*11
$GNGGA,035600.500,2500.8031481,N,12132.4295886,E,4,41,0.76,16.837,M,15.25,M,1,3335*46
$GNRMC,035600.500,A,2500.8031481,N,