$FW : RTK35X,V1.1X0314AS,Lib20210517,1*54
$Tool : LOCOSYS , GNSS Firebird , v1.0.0.19*39
$---------------------------------------------------*2D
$GNACCURACY,6.6*16
$GNGGA,035611.700,2500.8031571,N,12132.4296214,E,4,43,0.70,16.857,M,15.25,M,0,3335*4B
$GNRMC,035611.700,A,2500.8031571,N,12132.4296214,E,0.16,279.90,090324,,,R,V*13
$GPHDT,,T*1B
$GNACCURACY,6.6*16
$GNGGA,035611.800,2500.8031592,N,12132.4296158,E,4,43,0.70,16.838,M,15.25,M,0,3335*4B
$GNRMC,035611.800,A,2500.8031592,N,12132.4296158,E,0.21,279.90,090324,,,R,V*1E
$GPHDT,,T*1B
$GNACCURACY,6.6*16
$GNGGA,035611.900,2500.8031605,N,12132.4296198,E,4,43,0.70,16.854,M,15.25,M,0,3335*41
$GNRMC,035611.900,A,2500.8031605,N,12132.4296198,E,0.22,279.90,090324,,,R,V*1D
$GPHDT,,T*1B
$GNACCURACY,6.6*16
$GNGGA,035612.000,2500.8031579,N,12132.4296196,E,4,43,0.70,16.843,M,15.25,M,1,3335*4A
$GNRMC,035612.000,A,2500.8031579,N,12132.4296196,E,0.14,279.90,090324,,,R,V*14
$GPHDT,,T*1B
$GNACCURACY,6.4*14
$GNGGA,035612.100,2500.8031578,N,12132.4296160,E,4,43,0.70,16.844,M,15.25,M,1,3335*44
$GNRMC,035612.100,A,2500.8031578,N,12132.4296160,E,0.12,279.90,090324,,,R,V*1B
$GPHDT,,T*1B
$GNGSA,A,3,08,194,195,199,21,27,07,16,26,,,,1.01,0.70,0.72,1*39
$GNGSA,A,3,88,78,77,79,,,,,,,,,1.01,0.70,0.72,2*01
$GNGSA,A,3,13,21,27,,,,,,,,,,1.01,0.70,0.72,3*05
$GNGSA,A,3,09,16,23,43,40,07,39,10,25,37,34,,1.01,0.70,0.72,4*02
$GPGSV,3,1,12,08,66,343,44,194,64,050,43,195,62,117,40,50,60,167,28,1*66
$GPGSV,3,2,12,199,60,167,26,21,54,161,41,02,42,178,27,27,38,033,38,1*5E
$GPGSV,3,3,12,07,36,319,33,16,30,069,43,196,20,170,12,26,11,095,24,1*55
$GPGSV,2,1,07,08,66,343,44,194,64,050,45,195,62,117,42,199,60,167,32,8*51
$GPGSV,2,2,07,27,38,033,44,196,20,170,12,26,11,095,24,8*63
$GLGSV,2,1,05,88,62,038,44,78,53,026,40,77,27,103,28,79,21,329,25,1*77
$GLGSV,2,2,05,87,08,026,27,1*4B
$GAGSV,1,1,04,13,54,090,44,21,53,004,34,26,38,173,13,27,30,074,40,7*72
$GAGSV,1,1,04,13,54,090,38,21,53,004,38,26,38,173,22,27,30,074,44,1*75
$GBGSV,3,1,11,09,74,276,31,16,71,197,33,23,70,016,45,43,64,040,44,1*70
$GBGSV,3,2,11,40,62,325,40,07,61,304,38,39,61,184,37,10,51,286,36,1*73
$GBGSV,3,3,11,25,41,111,47,37,26,320,32,34,16,039,18,1*45
$GBGSV,2,1,07,23,70,016,42,43,64,040,42,40,62,325,39,39,61,184,40,4*7D
$GBGSV,2,2,07,25,41,111,46,37,26,320,28,34,16,039,21,4*47
$GNACCURACY,6.4*14
$PAIRSAT,1,17,2,0,200,3,0,200,7,0,1,8,0,21,16,0,1,20,0,200,21,0,201,22,0,200,23,0,200,24,0,200,25,0,200,26,0,220,27,0,21,194,0,21,195,0,621,196,0,200,199,0,621*60
$PAIRSAT,2,15,70,0,200,71,0,200,73,0,200,74,0,200,75,0,200,76,0,200,77,0,1,78,0,201,79,0,201,80,0,200,84,0,200,85,0,200,86,0,200,87,0,201,88,0,201*5B
$PAIRSAT,3,14,2,0,1200,3,0,1200,4,0,1200,5,0,200,7,0,200,13,0,21,21,0,21,25,0,1000,26,0,1000,27,0,1021,30,0,1000,31,0,1000,33,0,200,36,0,200*4F
$PAIRSAT,4,36,3,0,400,7,0,1,9,0,201,10,0,201,11,0,200,12,0,200,13,0,200,14,0,200,16,0,201,19,0,400,20,0,400,21,0,400,22,0,400,23,0,421,24,0,400,25,0,421,26,0,400,27,0,400,28,0,400,29,0,400,30,0,400,32,0,400,33,0,400,34,0,421,35,0,400,36,0,400,37,0,421,38,0,400,39,0,421,40,0,421,41,0,400,42,0,400,43,0,421,44,0,400,45,0,400,46,0,400*4A
$PAIRDGP,0*45
$GNGGA,035612.200,2500.8031532,N,12132.4296119,E,4,43,0.70,16.821,M,15.25,M,1,3335*44
$GNRMC,035612.200,A,2500.8031532,N,12132.4296119,E,0.06,279.90,090324,,,R,V*1D
$GPHDT,,T*1B
$GNACCURACY,6.4*14
$GNGGA,035612.300,2500.8031619,N,12132.4296281,E,4,43,0.70,16.857,M,15.25,M,1,3335*4C
$GNRMC,035612.300,A,2500.8031619,N,12132.4296281,E,0.12,279.90,090324,,,R,V*11
$GPHDT,,T*1B
$GNACCURACY,6.4*14
$GNGGA,035612.400,2500.8031557,N,12132.4296247,E,4,43,0.70,16.865,M,15.25,M,1,3335*49
$GNRMC,035612.400,A,2500.8031557,N,12132.4296247,E,0.09,279.90,090324,,,R,V*1F
$GPHDT,,T*1B
$GNACCURACY,6.4*14
$GNGGA,035612.500,2500.8031527,N,12132.4296155,E,4,43,0.70,16.838,M,15.25,M,0,3335*46
$GNRMC,035612.500,A,2500.8031527,N,12132.4296155,E,0.11,279.90,090324,,,R,V*10
$GPHDT,,T*1B
$GNACCURACY,6.3*13
$GNGGA,035612.600,2500.8031594,N,12132.4296208,E,4,43,0.70,16.857,M,15.25,M,0,3335*4F
$GNRMC,035612.600,A,2500.8031594,N,12132.4296208,E,0.12,279.90,090324,,,R,V*13
$GPHDT,,T*1B
$GNACCURACY,6.3*13
$GNGGA,035612.700,2500.8031522,N,12132.4296173,E,4,43,0.70,16.844,M,15.25,M,0,3335*4E
$GNRMC,035612.700,A,2500.8031522,N,12132.4296173,E,0.11,279.90,090324,,,R,V*13
$GPHDT,,T*1B
$GNACCURACY,6.3*13
$GNGGA,035612.800,2500.8031574,N,12132.4296176,E,4,43,0.70,16.851,M,15.25,M,0,3335*43
$GNRMC,035612.800,A,2500.8031574,N,12132.4296176,E,0.18,279.90,090324,,,R,V*13
$GPHDT,,T*1B
$GNACCURACY,6.3*13
$GNGGA,035612.900,2500.8031526,N,12132.4296167,E,4,43,0.70,16.855,M,15.25,M,0,3335*41
$GNRMC,035612.900,A,2500.8031526,N,12132.4296167,E,0.16,279.90,090324,,,R,V*1B
$GPHDT,,T*1B
$GNACCURACY,6.3*13
$GNGGA,035613.000,2500.8031523,N,12132.4296181,E,4,43,0.74,16.848,M,15.25,M,1,3335*4D
$GNRMC,035613.000,A,2500.8031523,N,12132.4296181,E,0.01,279.90,090324,,,R,V*18
$GPHDT,,T*1B
$GNACCURACY,6.3*13
$GNGGA,035613.100,2500.8031545,N,12132.4296188,E,4,43,0.74,16.854,M,15.25,M,1,3335*48
$GNRMC,035613.100,A,2500.8031545,N,12132.4296188,E,0.04,279.90,090324,,,R,V*15
$GPHDT,,T*1B
$GNGSA,A,3,08,194,195,21,27,07,16,26,199,,,,1.26,0.74,1.02,1*3E
$GNGSA,A,3,88,78,77,79,,,,,,,,,1.26,0.74,1.02,2*06
$GNGSA,A,3,13,21,27,,,,,,,,,,1.26,0.74,1.02,3*02
$GNGSA,A,3,09,16,23,43,40,07,39,10,25,37,34,,1.26,0.74,1.02,4*05
$GPGSV,3,1,12,08,66,343,45,194,64,050,43,195,62,117,40,50,60,167,29,1*66
$GPGSV,3,2,12,199,60,167,26,21,54,161,41,02,42,178,26,27,38,033,38,1*5F
$GPGSV,3,3,12,07,36,319,36,16,30,069,43,196,20,170,13,26,11,095,20,1*55
$GPGSV,2,1,06,08,66,343,45,194,64,050,45,195,62,117,42,199,60,167,31,8*52
$GPGSV,2,2,06,27,38,033,44,26,11,095,19,8*65
$GLGSV,2,1,05,88,62,038,44,78,53,026,42,77,27,103,27,79,21,329,25,1*7A
$GLGSV,2,2,05,87,08,026,28,1*44
$GAGSV,1,1,04,13,54,090,44,21,53,004,37,26,38,173,15,27,30,074,41,7*76
$GAGSV,1,1,04,13,54,090,36,21,53,004,36,26,38,173,20,27,30,074,44,1*77
$GBGSV,3,1,11,09,74,276,31,16,71,197,31,23,70,016,46,43,64,040,44,1*71
$GBGSV,3,2,11,40,62,325,42,07,61,304,38,39,61,184,35,10,51,286,38,1*7D
$GBGSV,3,3,11,25,41,111,47,37,26,320,32,34,16,039,18,1*45
$GBGSV,2,1,07,23,70,016,42,43,64,040,43,40,62,325,40,39,61,184,39,4*7C
$GBGSV,2,2,07,25,41,111,45,37,26,320,27,34,16,039,21,4*4B
$GNACCURACY,6.3*13
$PAIRSAT,1,17,2,0,200,3,0,200,7,0,1,8,0,21,16,0,1,20,0,200,21,0,201,22,0,200,23,0,200,24,0,200,25,0,200,26,0,220,27,0,21,194,0,21,195,0,621,196,0,200,199,0,621*60
$PAIRSAT,2,15,70,0,200,71,0,200,73,0,200,74,0,200,75,0,200,76,0,200,77,0,1,78,0,201,79,0,201,80,0,200,84,0,200,85,0,200,86,0,200,87,0,201,88,0,201*5B
$PAIRSAT,3,14,2,0,1200,3,0,1200,4,0,1200,5,0,200,7,0,200,13,0,21,21,0,21,25,0,1000,26,0,1000,27,0,1021,30,0,1000,31,0,1000,33,0,200,36,0,200*4F
$PAIRSAT,4,36,3,0,400,7,0,1,9,0,201,10,0,201,11,0,200,12,0,200,13,0,200,14,0,200,16,0,201,19,0,400,20,0,400,21,0,400,22,0,400,23,0,421,24,0,400,25,0,421,26,0,400,27,0,400,28,0,400,29,0,400,30,0,400,32,0,400,33,0,400,34,0,421,35,0,400,36,0,400,37,0,421,38,0,400,39,0,421,40,0,421,41,0,400,42,0,400,43,0,421,44,0,400,45,0,400,46,0,400*4A
$PAIRDGP,0*45
$GNGGA,035613.200,2500.8031577,N,12132.4296195,E,4,42,0.74,16.855,M,15.25,M,1,3335*46
$GNRMC,035613.200,A,2500.8031577,N,12132.4296195,E,0.00,279.90,090324,,,R,V*1F
$GPHDT,,T*1B
$GNACCURACY,6.3*13
$GNGGA,035613.300,2500.8031597,N,12132.4296192,E,4,42,0.74,16.864,M,15.25,M,1,3335*4C
$GNRMC,035613.300,A,2500.8031597,N,12132.4296192,E,0.01,279.90,090324,,,R,V*16
$GPHDT,,T*1B
$GNACCURACY,6.4*14
$GNGGA,035613.400,2500.8031609,N,12132.4296198,E,4,42,0.74,16.850,M,15.25,M,1,3335*42
$GNRMC,035613.400,A,2500.8031609,N,12132.4296198,E,0.02,279.90,090324,,,R,V*1C
$GPHDT,,T*1B
$GNACCURACY,6.3*13
$GNGGA,035613.500,2500.8031592,N,12132.4296155,E,4,41,0.74,16.836,M,15.25,M,1,3335*40
$GNRMC,035613.500,A,2500.8031592,N,12132.4296155,E,0.00,279.90,090324,,,R,V*1F
$GPHDT,,T*1B
$GNACCURACY,6.4*14
$GNGGA,035613.600,2500.8031624,N,12132.4296206,E,4,41,0.74,16.854,M,15.25,M,0,3335*4D
$GNRMC,035613.600,A,2500.8031624,N,12132.4296206,E,0.03,279.90,090324,,,R,V*14
$GPHDT,,T*1B
$GNACCURACY,6.4*14
$GNGGA,035613.700,2500.8031600,N,12132.4296220,E,4,41,0.74,16.860,M,15.25,M,0,3335*49
$GNRMC,035613.700,A,2500.8031600,N,12132.4296220,E,0.01,279.90,090324,,,R,V*15
$GPHDT,,T*1B
$GNACCURACY,6.5*15
$GNGGA,035613.800,2500.8031587,N,12132.4296191,E,4,41,0.74,16.856,M,15.25,M,0,3335*46
$GNRMC,035613.800,A,2500.8031587,N,12132.4296191,E,0.13,279.90,090324,,,R,V*1C
$GPHDT,,T*1B
$GNACCURACY,6.5*15
$GNGGA,035613.900,2500.8031576,N,12132.4296215,E,4,41,0.74,16.848,M,15.25,M,0,3335*49
$GNRMC,035613.900,A,2500.8031576,N,12132.4296215,E,0.20,279.90,090324,,,R,V*1C
$GPHDT,,T*1B
$GNACCURACY,6.5*15
$GNGGA,035614.000,2500.8031585,N,12132.4296222,E,4,41,0.74,16.859,M,15.25,M,1,3335*4E
$GNRMC,035614.000,A,2500.8031585,N,12132.4296222,E,0.02,279.90,090324,,,R,V*1A
$GPHDT,,T*1B
$GNACCURACY,6.3*13
$GNGGA,035614.100,2500.8031551,N,12132.4296185,E,4,41,0.74,16.837,M,15.25,M,1,3335*40
$GNRMC,035614.100,A,2500.8031551,N,12132.4296185,E,0.03,279.90,090324,,,R,V*1D
$GPHDT,,T*1B
$GNGSA,A,3,08,194,195,21,27,07,16,26,199,,,,1.26,0.74,1.02,1*3E
$GNGSA,A,3,88,78,77,79,,,,,,,,,1.26,0.74,1.02,2*06
$GNGSA,A,3,13,21,27,,,,,,,,,,1.26,0.74,1.02,3*02
$GNGSA,A,3,09,16,23,43,40,07,39,10,25,37,34,,1.26,0.74,1.02,4*05
$GPGSV,3,1,12,08,66,343,45,194,64,050,43,195,62,117,38,50,60,167,24,1*64
$GPGSV,3,2,12,199,60,167,21,21,54,161,41,02,42,178,28,27,38,033,40,1*59
$GPGSV,3,3,12,07,36,319,33,16,30,069,42,196,20,170,15,26,11,095,25,1*52
$GPGSV,2,1,06,08,66,343,45,194,64,050,46,195,62,117,42,199,60,167,32,8*52
$GPGSV,2,2,06,27,38,033,40,26,11,095,20,8*6B
$GLGSV,2,1,05,88,62,038,44,78,54,026,42,77,27,103,28,79,21,329,29,1*7E
$GLGSV,2,2,05,87,08,026,27,1*4B
$GAGSV,1,1,04,13,54,090,44,21,53,004,39,26,38,173,17,27,30,074,41,7*7A
$GAGSV,1,1,04,13,54,090,38,21,53,004,40,26,38,173,20,27,30,074,44,1*78
$GBGSV,3,1,11,09,74,276,30,16,71,197,31,23,70,016,46,43,64,040,44,1*70
$GBGSV,3,2,11,40,62,325,42,07,61,304,38,39,61,184,37,10,51,286,32,1*75
$GBGSV,3,3,11,25,41,111,47,37,26,320,26,34,16,039,28,1*43
$GBGSV,2,1,05,23,70,016,42,43,64,040,43,40,62,325,37,39,61,184,39,4*7E
$GBGSV,2,2,05,25,41,111,45,4*44
$GNACCURACY,6.4*14
$PAIRSAT,1,17,2,0,200,3,0,200,7,0,1,8,0,21,16,0,1,20,0,200,21,0,201,22,0,200,23,0,200,24,0,200,25,0,200,26,0,220,27,0,21,194,0,21,195,0,621,196,0,200,199,0,621*60
$PAIRSAT,2,15,70,0,200,71,0,200,73,0,200,74,0,200,75,0,200,76,0,200,77,0,1,78,0,201,79,0,201,80,0,200,84,0,200,85,0,200,86,0,200,87,0,201,88,0,201*5B
$PAIRSAT,3,14,2,0,1200,3,0,1200,4,0,1200,5,0,200,7,0,200,13,0,21,21,0,21,25,0,1000,26,0,1000,27,0,1021,30,0,1000,31,0,1000,33,0,200,36,0,200*4F
$PAIRSAT,4,36,3,0,400,7,0,1,9,0,201,10,0,201,11,0,200,12,0,200,13,0,200,14,0,200,16,0,201,19,0,400,20,0,400,21,0,400,22,0,400,23,0,421,24,0,400,25,0,421,26,0,400,27,0,400,28,0,400,29,0,400,30,0,400,32,0,400,33,0,400,34,0,421,35,0,400,36,0,400,37,0,421,38,0,400,39,0,421,40,0,421,41,0,400,42,0,400,43,0,421,44,0,400,45,0,400,46,0,400*4A
$PAIRDGP,0*45
$GNGGA,035614.200,2500.8031566,N,12132.4296211,E,4,40,0.74,16.840,M,15.25,M,1,3335*48
$GNRMC,035614.200,A,2500.8031566,N,12132.4296211,E,0.03,279.90,090324,,,R,V*14
$GPHDT,,T*1B
$GNACCURACY,6.4*14
$GNGGA,035614.300,2500.8031570,N,12132.4296221,E,4,41,0.74,16.848,M,15.25,M,1,3335*44
$GNRMC,035614.300,A,2500.8031570,N,12132.4296221,E,0.00,279.90,090324,,,R,V*12
$GPHDT,,T*1B
$GNACCURACY,6.4*14
$GNGGA,035614.400,2500.8031581,N,12132.4296254,E,4,41,0.74,16.843,M,15.25,M,1,3335*44
$GNRMC,035614.400,A,2500.8031581,N,12132.4296254,E,0.03,279.90,090324,,,R,V*1A
$GPHDT,,T*1B
$GNACCURACY,6.4*14
$GNGGA,035614.500,2500.8031577,N,12132.4296240,E,4,41,0.74,16.849,M,15.25,M,1,3335*43
$GNRMC,035614.500,A,2500.8031577,N,12132.4296240,E,0.01,279.90,090324,,,R,V*15
$GPHDT,,T*1B
$GNACCURACY,6.4*14
$GNGGA,035614.600,2500.8031542,N,12132.4296208,E,4,41,0.74,16.849,M,15.25,M,0,3335*4B
$GNRMC,035614.600,A,2500.8031542,N,12132.4296208,E,0.02,279.90,090324,,,R,V*1F
$GPHDT,,T*1B
$GNACCURACY,6.4*14
$GNGGA,035614.700,2500.8031539,N,12132.4296213,E,4,41,0.74,16.840,M,15.25,M,0,3335*45
$GNRMC,035614.700,A,2500.8031539,N,12132.4296213,E,0.02,279.90,090324,,,R,V*18
$GPHDT,,T*1B
$GNACCURACY,6.4*14
$GNGGA,035614.800,2500.8031553,N,12132.4296266,E,4,42,0.74,16.852,M,15.25,M,0,3335*44
$GNRMC,035614.800,A,2500.8031553,N,12132.4296266,E,0.22,279.90,090324,,,R,V*1B
$GPHDT,,T*1B
$GNACCURACY,6.5*15
$GNGGA,035614.900,2500.8031522,N,12132.4296227,E,4,42,0.74,16.835,M,15.25,M,0,3335*47
$GNRMC,035614.900,A,2500.8031522,N,12132.4296227,E,0.13,279.90,090324,,,R,V*1B
$GPHDT,,T*1B
$GNACCURACY,6.5*15
$GNGGA,035615.000,2500.8031556,N,12132.4296283,E,4,42,0.74,16.865,M,15.25,M,1,3335*46
$GNRMC,035615.000,A,2500.8031556,N,12132.4296283,E,0.03,279.90,090324,,,R,V*1F
$GPHDT,,T*1B
$GNACCURACY,6.5*15
$GNGGA,035615.100,2500.8031531,N,12132.4296272,E,4,42,0.74,16.847,M,15.25,M,1,3335*48
$GNRMC,035615.100,A,2500.8031531,N,12132.4296272,E,0.02,279.90,090324,,,R,V*10
$GPHDT,,T*1B
$GNGSA,A,3,08,194,195,199,21,27,07,16,26,,,,1.26,0.74,1.02,1*3E
$GNGSA,A,3,88,78,77,79,,,,,,,,,1.26,0.74,1.02,2*06
$GNGSA,A,3,13,21,27,,,,,,,,,,1.26,0.74,1.02,3*02
$GNGSA,A,3,09,16,23,43,40,07,39,10,25,37,34,,1.26,0.74,1.02,4*05
$GPGSV,3,1,12,08,66,343,45,194,64,050,43,195,62,117,36,50,60,167,27,1*69
$GPGSV,3,2,12,199,60,167,24,21,54,161,41,02,42,178,29,27,38,033,40,1*5D
$GPGSV,3,3,12,07,36,319,31,16,30,069,41,196,20,170,18,26,11,095,26,1*5D
$GPGSV,2,1,06,08,66,343,45,194,64,050,46,195,62,117,43,199,60,167,32,8*53
$GPGSV,2,2,06,27,38,033,40,26,11,095,22,8*69
$GLGSV,2,1,05,88,62,038,43,78,54,026,41,77,27,103,27,79,21,329,29,1*75
$GLGSV,2,2,05,87,08,026,26,1*4A
$GAGSV,1,1,04,13,54,090,44,21,53,004,39,26,38,173,18,27,30,074,39,7*7A
$GAGSV,1,1,04,13,54,090,40,21,53,004,41,26,38,173,19,27,30,074,43,1*7B
$GBGSV,3,1,11,09,74,276,29,16,71,197,31,23,70,016,46,43,64,040,42,1*7E
$GBGSV,3,2,11,40,62,325,41,07,61,304,38,39,61,184,37,10,51,286,32,1*76
$GBGSV,3,3,11,25,41,111,47,37,26,320,21,34,16,039,29,1*45
$GBGSV,2,1,06,23,70,016,41,43,64,040,43,40,62,325,39,39,61,184,39,4*70
$GBGSV,2,2,06,25,41,111,43,34,16,039,26,4*7F
$GNACCURACY,6.6*16
$PAIRSAT,1,17,2,0,200,3,0,200,7,0,1,8,0,21,16,0,1,20,0,200,21,0,201,22,0,200,23,0,200,24,0,200,25,0,200,26,0,220,27,0,21,194,0,21,195,0,621,196,0,200,199,0,621*60
$PAIRSAT,2,15,70,0,200,71,0,200,73,0,200,74,0,200,75,0,200,76,0,200,77,0,1,78,0,201,79,0,201,80,0,200,84,0,200,85,0,200,86,0,200,87,0,201,88,0,201*5B
$PAIRSAT,3,14,2,0,1200,3,0,1200,4,0,1200,5,0,200,7,0,200,13,0,21,21,0,21,25,0,1000,26,0,1000,27,0,1021,30,0,1000,31,0,1000,33,0,200,36,0,200*4F
$PAIRSAT,4,36,3,0,400,7,0,1,9,0,201,10,0,201,11,0,200,12,0,200,13,0,200,14,0,200,16,0,201,19,0,400,20,0,400,21,0,400,22,0,400,23,0,421,24,0,400,25,0,421,26,0,400,27,0,400,28,0,400,29,0,400,30,0,400,32,0,400,33,0,400,34,0,421,35,0,400,36,0,400,37,0,421,38,0,400,39,0,421,40,0,421,41,0,400,42,0,400,43,0,421,44,0,400,45,0,400,46,0,400*4A
$PAIRDGP,0*45
$GNGGA,035615.200,2500.8031543,N,12132.4296285,E,4,42,0.74,16.853,M,15.25,M,1,3335*43
$GNRMC,035615.200,A,2500.8031543,N,12132.4296285,E,0.01,279.90,090324,,,R,V*1D
$GPHDT,,T*1B
$GNACCURACY,6.6*16
$GNGGA,035615.300,2500.8031537,N,12132.4296291,E,4,42,0.74,16.848,M,15.25,M,1,3335*4E
$GNRMC,035615.300,A,2500.8031537,N,12132.4296291,E,0.01,279.90,090324,,,R,V*1A
$GPHDT,,T*1B
$GNACCURACY,6.6*16
$GNGGA,035615.400,2500.8031556,N,12132.4296295,E,4,42,0.74,16.854,M,15.25,M,1,3335*47
$GNRMC,035615.400,A,2500.8031556,N,12132.4296295,E,0.02,279.90,090324,,,R,V*1D
$GPHDT,,T*1B
$GNACCURACY,6.7*17
$GNGGA,035615.500,2500.8031529,N,12132.4296277,E,4,42,0.74,16.846,M,15.25,M,1,3335*41
$GNRMC,035615.500,A,2500.8031529,N,12132.4296277,E,0.06,279.90,090324,,,R,V*1C
$GPHDT,,T*1B
$GNACCURACY,6.7*17
$GNGGA,035615.600,2500.8031545,N,12132.4296301,E,4,42,0.74,16.857,M,15.25,M,1,3335*48
$GNRMC,035615.600,A,2500.8031545,N,12132.4296301,E,0.08,279.90,090324,,,R,V*1B
$GPHDT,,T*1B
$GNACCURACY,6.7*17
$GNGGA,035615.700,2500.8031538,N,12132.4296310,E,4,42,0.74,16.860,M,15.25,M,1,3335*47
$GNRMC,035615.700,A,2500.8031538,N,12132.4296310,E,0.04,279.90,090324,,,R,V*1C
$GPHDT,,T*1B
$GNACCURACY,6.8*18
$GNGGA,035615.800,2500.8031528,N,12132.4296284,E,4,42,0.74,16.848,M,15.25,M,0,3335*4E
$GNRMC,035615.800,A,2500.8031528,N,12132.4296284,E,0.22,279.90,090324,,,R,V*1A
$GPHDT,,T*1B
$GNACCURACY,6.8*18
$GNGGA,035615.900,2500.8031529,N,12132.4296255,E,4,42,0.74,16.838,M,15.25,M,0,3335*45
$GNRMC,035615.900,A,2500.8031529,N,12132.4296255,E,0.21,279.90,090324,,,R,V*15
$GPHDT,,T*1B
$GNACCURACY,6.8*18
$GNGGA,035616.000,2500.8031515,N,12132.4296277,E,4,42,0.74,16.842,M,15.25,M,1,3335*4C
$GNRMC,035616.000,A,2500.8031515,N,12132.4296277,E,0.15,279.90,090324,,,R,V*17
$GPHDT,,T*1B
$GNACCURACY,6.8*18
$GNGGA,035616.100,2500.8031531,N,12132.4296278,E,4,42,0.74,16.838,M,15.25,M,1,3335*49
$GNRMC,035616.100,A,2500.8031531,N,12132.4296278,E,0.12,279.90,090324,,,R,V*18
$GPHDT,,T*1B
$GNGSA,A,3,08,194,195,199,21,27,07,16,26,,,,1.26,0.74,1.02,1*3E
$GNGSA,A,3,88,78,77,79,,,,,,,,,1.26,0.74,1.02,2*06
$GNGSA,A,3,13,21,27,,,,,,,,,,1.26,0.74,1.02,3*02
$GNGSA,A,3,09,16,23,43,40,07,39,10,25,37,34,,1.26,0.74,1.02,4*05
$GPGSV,3,1,12,08,66,343,45,194,64,050,43,195,62,117,36,50,60,167,27,1*69
$GPGSV,3,2,12,199,60,167,24,21,54,161,41,02,42,178,27,27,38,033,41,1*52
$GPGSV,3,3,12,07,36,319,30,16,30,069,41,196,20,170,19,26,11,095,25,1*5E
$GPGSV,2,1,06,08,66,343,45,194,64,050,45,195,62,117,43,199,60,167,31,8*53
$GPGSV,2,2,06,27,38,033,40,26,11,095,21,8*6A
$GLGSV,2,1,05,88,62,038,43,78,54,026,39,77,27,103,27,79,21,329,28,1*7B
$GLGSV,2,2,05,87,08,026,26,1*4A
$GAGSV,1,1,04,13,54,090,44,21,53,004,39,26,38,173,18,27,30,074,39,7*7A
$GAGSV,1,1,04,13,54,090,40,21,53,004,41,26,38,173,19,27,30,074,43,1*7B
$GBGSV,3,1,11,09,74,276,28,16,71,197,32,23,70,016,46,43,64,040,42,1*7C
$GBGSV,3,2,11,40,62,325,41,07,61,304,37,39,61,184,38,10,51,286,32,1*76
$GBGSV,3,3,11,25,41,111,47,37,26,320,21,34,16,039,28,1*44
$GBGSV,2,1,06,23,70,016,41,43,64,040,43,40,62,325,39,39,61,184,38,4*71
$GBGSV,2,2,06,25,41,111,43,34,16,039,25,4*7C
$GNACCURACY,6.8*18
$PAIRSAT,1,17,2,0,200,3,0,200,7,0,1,8,0,21,16,0,1,20,0,200,21,0,201,22,0,200,23,0,200,24,0,200,25,0,200,26,0,220,27,0,21,194,0,21,195,0,621,196,0,200,199,0,621*60
$PAIRSAT,2,15,70,0,200,71,0,200,73,0,200,74,0,200,75,0,200,76,0,200,77,0,1,78,0,201,79,0,201,80,0,200,84,0,200,85,0,200,86,0,200,87,0,201,88,0,201*5B
$PAIRSAT,3,14,2,0,1200,3,0,1200,4,0,1200,5,0,200,7,0,200,13,0,21,21,0,21,25,0,1000,26,0,1000,27,0,1021,30,0,1000,31,0,1000,33,0,200,36,0,200*4F
$PAIRSAT,4,36,3,0,400,7,0,1,9,0,201,10,0,201,11,0,200,12,0,200,13,0,200,14,0,200,16,0,201,19,0,400,20,0,400,21,0,400,22,0,400,23,0,421,24,0,400,25,0,421,26,0,400,27,0,400,28,0,400,29,0,400,30,0,400,32,0,400,33,0,400,34,0,421,35,0,400,36,0,400,37,0,421,38,0,400,39,0,421,40,0,421,41,0,400,42,0,400,43,0,421,44,0,400,45,0,400,46,0,400*4A
$PAIRDGP,0*45
$GNGGA,035616.200,2500.8031542,N,12132.4296297,E,4,42,0.74,16.841,M,15.25,M,1,3335*41
$GNRMC,035616.200,A,2500.8031542,N,12132.4296297,E,0.11,279.90,090324,,,R,V*1D
$GPHDT,,T*1B
$GNACCURACY,6.8*18
$GNGGA,035616.300,2500.8031505,N,12132.4296230,E,4,42,0.74,16.823,M,15.25,M,1,3335*4A
$GNRMC,035616.300,A,2500.8031505,N,12132.4296230,E,0.09,279.90,090324,,,R,V*1B
$GPHDT,,T*1B
$GNACCURACY,6.8*18
$GNGGA,035616.400,2500.8031537,N,12132.4296283,E,4,42,0.74,16.841,M,15.25,M,1,3335*40
$GNRMC,035616.400,A,2500.8031537,N,12132.4296283,E,0.10,279.90,090324,,,R,V*1D
$GPHDT,,T*1B
$GNACCURACY,6.8*18
$GNGGA,035616.500,2500.8031542,N,12132.4296274,E,4,42,0.74,16.844,M,15.25,M,0,3335*4F
$GNRMC,035616.500,A,2500.8031542,N,12132.4296274,E,0.10,279.90,090324,,,R,V*16
$GPHDT,,T*1B
$GNACCURACY,6.8*18
$GNGGA,035616.600,2500.8031521,N,12132.4296300,E,4,42,0.74,16.845,M,15.25,M,0,3335*4A
$GNRMC,035616.600,A,2500.8031521,N,12132.4296300,E,0.11,279.90,090324,,,R,V*13
$GPHDT,,T*1B
$GNACCURACY,6.9*19
$GNGGA,035616.700,2500.8031545,N,12132.4296304,E,4,42,0.74,16.850,M,15.25,M,0,3335*49
$GNRMC,035616.700,A,2500.8031545,N,12132.4296304,E,0.12,279.90,090324,,,R,V*17
$GPHDT,,T*1B
$GNACCURACY,6.8*18
$GNGGA,035616.800,2500.8031532,N,12132.4296249,E,4,41,0.77,16.834,M,15.25,M,0,3335*4C
$GNRMC,035616.800,A,2500.8031532,N,12132.4296249,E,0.12,279.90,090324,,,R,V*10
$GPHDT,,T*1B
$GNACCURACY,6.8*18
$GNGGA,035616.900,2500.8031535,N,12132.4296265,E,4,41,0.77,16.837,M,15.25,M,0,3335*47
$GNRMC,035616.900,A,2500.8031535,N,12132.4296265,E,0.27,279.90,090324,,,R,V*1E
$GPHDT,,T*1B
$GNACCURACY,6.8*18
$GNGGA,035617.000,2500.8031531,N,12132.4296273,E,4,41,0.77,16.837,M,15.25,M,1,3335*4D
$GNRMC,035617.000,A,2500.8031531,N,12132.4296273,E,0.15,279.90,090324,,,R,V*14
$GPHDT,,T*1B
$GNACCURACY,6.8*18
$GNGGA,035617.100,2500.8031521,N,12132.4296233,E,4,41,0.77,16.829,M,15.25,M,1,3335*46
$GNRMC,035617.100,A,2500.8031521,N,12132.4296233,E,0.10,279.90,090324,,,R,V*15
$GPHDT,,T*1B
$GNGSA,A,3,08,194,195,199,21,27,07,16,26,,,,1.34,0.77,1.10,1*3D
$GNGSA,A,3,88,78,77,79,,,,,,,,,1.34,0.77,1.10,2*05
$GNGSA,A,3,13,21,27,,,,,,,,,,1.34,0.77,1.10,3*01
$GNGSA,A,3,09,16,23,43,40,07,39,10,25,34,,,1.34,0.77,1.10,4*02
$GPGSV,3,1,12,08,66,343,45,194,64,050,43,195,62,117,36,50,60,167,27,1*69
$GPGSV,3,2,12,199,60,167,26,21,54,161,41,02,42,178,27,27,38,033,41,1*50
$GPGSV,3,3,12,07,36,319,30,16,30,069,41,196,20,170,19,26,11,095,26,1*5D
$GPGSV,2,1,06,08,66,343,45,194,64,050,45,195,62,117,43,199,60,167,31,8*53
$GPGSV,2,2,06,27,38,033,41,26,11,095,20,8*6A
$GLGSV,2,1,05,88,62,038,43,78,54,026,40,77,27,103,28,79,21,329,28,1*7A
$GLGSV,2,2,05,87,08,026,26,1*4A
$GAGSV,1,1,04,13,54,090,44,21,53,004,40,26,38,173,18,27,30,074,39,7*74
$GAGSV,1,1,04,13,54,090,40,21,53,004,41,26,38,173,20,27,30,074,43,1*71
$GBGSV,3,1,11,09,74,276,28,16,71,197,32,23,70,016,46,43,64,040,42,1*7C
$GBGSV,3,2,11,40,62,325,41,07,61,304,37,39,61,184,38,10,51,286,32,1*76
$GBGSV,3,3,11,25,41,111,47,37,26,320,19,34,16,039,28,1*4F
$GBGSV,2,1,06,23,70,016,41,43,64,040,42,40,62,325,39,39,61,184,38,4*70
$GBGSV,2,2,06,25,41,111,42,34,16,039,26,4*7E
$GNACCURACY,6.8*18
$PAIRSAT,1,17,2,0,200,3,0,200,7,0,1,8,0,21,16,0,1,20,0,200,21,0,201,22,0,200,23,0,200,24,0,200,25,0,200,26,0,220,27,0,21,194,0,21,195,0,621,196,0,200,199,0,621*60
$PAIRSAT,2,15,70,0,200,71,0,200,73,0,200,74,0,200,75,0,200,76,0,200,77,0,1,78,0,201,79,0,201,80,0,200,84,0,200,85,0,200,86,0,200,87,0,201,88,0,201*5B
$PAIRSAT,3,14,2,0,1200,3,0,1200,4,0,1200,5,0,200,7,0,200,13,0,21,21,0,21,25,0,1000,26,0,1000,27,0,1021,30,0,1000,31,0,1000,33,0,200,36,0,200*4F
$PAIRSAT,4,36,3,0,400,7,0,1,9,0,201,10,0,201,11,0,200,12,0,200,13,0,200,14,0,200,16,0,201,19,0,400,20,0,400,21,0,400,22,0,400,23,0,421,24,0,400,25,0,421,26,0,400,27,0,400,28,0,400,29,0,400,30,0,400,32,0,400,33,0,400,34,0,421,35,0,400,36,0,400,37,0,421,38,0,400,39,0,421,40,0,421,41,0,400,42,0,400,43,0,421,44,0,400,45,0,400,46,0,400*4A
$PAIRDGP,0*45
$GNGGA,035617.200,2500.8031536,N,12132.4296263,E,4,41,0.77,16.839,M,15.25,M,1,3335*47
$GNRMC,035617.200,A,2500.8031536,N,12132.4296263,E,0.09,279.90,090324,,,R,V*1D
$GPHDT,,T*1B
$GNACCURACY,6.8*18
$GNGGA,035617.300,2500.8031533,N,12132.4296249,E,4,41,0.77,16.825,M,15.25,M,1,3335*46
$GNRMC,035617.300,A,2500.8031533,N,12132.4296249,E,0.09,279.90,090324,,,R,V*11
$GPHDT,,T*1B
$GNACCURACY,6.8*18
$GNGGA,035617.400,2500.8031530,N,12132.4296236,E,4,41,0.77,16.827,M,15.25,M,1,3335*48
$GNRMC,035617.400,A,2500.8031530,N,12132.4296236,E,0.09,279.90,090324,,,R,V*1D
$GPHDT,,T*1B
$GNACCURACY,6.9*19
$GNGGA,035617.500,2500.8031530,N,12132.4296255,E,4,42,0.74,16.829,M,15.25,M,1,3335*42
$GNRMC,035617.500,A,2500.8031530,N,12132.4296255,E,0.10,279.90,090324,,,R,V*11
$GPHDT,,T*1B
$GNACCURACY,6.9*19
$GNGGA,035617.600,2500.8031530,N,12132.4296235,E,4,42,0.74,16.821,M,15.25,M,1,3335*4F
$GNRMC,035617.600,A,2500.8031530,N,12132.4296235,E,0.11,279.90,090324,,,R,V*15
$GPHDT,,T*1B
$GNACCURACY,6.9*19
$GNGGA,035617.700,2500.8031528,N,12132.4296224,E,4,42,0.74,16.845,M,15.25,M,0,3335*44
$GNRMC,035617.700,A,2500.8031528,N,12132.4296224,E,0.11,279.90,090324,,,R,V*1D
$GPHDT,,T*1B
$GNACCURACY,6.9*19
$GNGGA,035617.800,2500.8031541,N,12132.4296249,E,4,42,0.74,16.855,M,15.25,M,0,3335*4E
$GNRMC,035617.800,A,2500.8031541,N,12132.4296249,E,0.13,279.90,090324,,,R,V*14
$GPHDT,,T*1B
$GNACCURACY,6.9*19
$GNGGA,035617.900,2500.8031538,N,12132.4296231,E,4,42,0.74,16.852,M,15.25,M,0,3335*49
$GNRMC,035617.900,A,2500.8031538,N,12132.4296231,E,0.26,279.90,090324,,,R,V*12
$GPHDT,,T*1B
$GNACCURACY,6.9*19
$GNGGA,035618.000,2500.8031538,N,12132.4296201,E,4,40,0.74,16.837,M,15.25,M,1,3335*4C
$GNRMC,035618.000,A,2500.8031538,N,12132.4296201,E,0.14,279.90,090324,,,R,V*16
$GPHDT,,T*1B
$GNACCURACY,6.9*19
$GNGGA,035618.100,2500.8031533,N,12132.4296259,E,4,42,0.74,16.847,M,15.25,M,1,3335*4E
$GNRMC,035618.100,A,2500.8031533,N,12132.4296259,E,0.12,279.90,090324,,,R,V*17
$GPHDT,,T*1B
$GNGSA,A,3,08,194,195,199,21,27,07,16,26,,,,1.26,0.74,1.02,1*3E
$GNGSA,A,3,88,78,77,79,,,,,,,,,1.26,0.74,1.02,2*06
$GNGSA,A,3,13,21,27,,,,,,,,,,1.26,0.74,1.02,3*02
$GNGSA,A,3,09,16,23,43,40,07,39,10,25,37,34,,1.26,0.74,1.02,4*05
$GPGSV,3,1,12,08,66,343,45,194,64,050,43,195,62,117,36,50,60,167,27,1*69
$GPGSV,3,2,12,199,60,167,24,21,54,161,41,02,42,178,27,27,38,033,41,1*52
$GPGSV,3,3,12,07,36,319,30,16,30,069,41,196,20,170,19,26,11,095,25,1*5E
$GPGSV,2,1,06,08,66,343,45,194,64,050,45,195,62,117,43,199,60,167,32,8*50
$GPGSV,2,2,06,27,38,033,41,26,11,095,21,8*6B
$GLGSV,2,1,05,88,62,038,43,78,54,026,40,77,27,103,28,79,21,329,27,1*75
$GLGSV,2,2,05,87,08,026,27,1*4B
$GAGSV,1,1,04,13,54,090,44,21,53,004,40,26,38,173,18,27,30,074,39,7*74
$GAGSV,1,1,04,13,54,090,40,21,53,004,41,26,38,173,20,27,30,074,43,1*71
$GBGSV,3,1,11,09,74,276,28,16,71,197,32,23,70,017,46,43,64,040,42,1*7D
$GBGSV,3,2,11,40,62,325,41,07,61,304,37,39,61,184,38,10,51,286,32,1*76
$GBGSV,3,3,11,25,41,112,47,37,26,320,19,34,16,039,29,1*4D
$GBGSV,2,1,06,23,70,017,41,43,64,040,42,40,62,325,39,39,61,184,38,4*71
$GBGSV,2,2,06,25,41,112,43,34,16,039,25,4*7F
$GNACCURACY,6.9*19
$PAIRSAT,1,17,2,0,200,3,0,200,7,0,1,8,0,21,16,0,1,20,0,200,21,0,201,22,0,200,23,0,200,24,0,200,25,0,200,26,0,220,27,0,21,194,0,21,195,0,621,196,0,200,199,0,621*60
$PAIRSAT,2,15,70,0,200,71,0,200,73,0,200,74,0,200,75,0,200,76,0,200,77,0,1,78,0,201,79,0,201,80,0,200,84,0,200,85,0,200,86,0,200,87,0,201,88,0,201*5B
$PAIRSAT,3,14,2,0,1200,3,0,1200,4,0,1200,5,0,200,7,0,200,13,0,21,21,0,21,25,0,1000,26,0,1000,27,0,1021,30,0,1000,31,0,1000,33,0,200,36,0,200*4F
$PAIRSAT,4,36,3,0,400,7,0,1,9,0,201,10,0,201,11,0,200,12,0,200,13,0,200,14,0,200,16,0,201,19,0,400,20,0,400,21,0,400,22,0,400,23,0,421,24,0,400,25,0,421,26,0,400,27,0,400,28,0,400,29,0,400,30,0,400,32,0,400,33,0,400,34,0,421,35,0,400,36,0,400,37,0,421,38,0,400,39,0,421,40,0,421,41,0,400,42,0,400,43,0,421,44,0,400,45,0,400,46,0,400*4A
$PAIRDGP,0*45
$GNGGA,035618.200,2500.8031543,N,12132.4296227,E,4,42,0.74,16.844,M,15.25,M,1,3335*40
$GNRMC,035618.200,A,2500.8031543,N,12132.4296227,E,0.10,279.90,090324,,,R,V*18
$GPHDT,,T*1B
$GNACCURACY,6.9*19
$GNGGA,035618.300,2500.8031561,N,12132.4296265,E,4,40,0.77,16.861,M,15.25,M,1,3335*41
$GNRMC,035618.300,A,2500.8031561,N,12132.4296265,E,0.10,279.90,090324,,,R,V*1F
$GPHDT,,T*1B
$GNACCURACY,6.8*18
$GNGGA,035618.400,2500.8031529,N,12132.4296227,E,4,41,0.77,16.840,M,15.25,M,1,3335*4E
$GNRMC,035618.400,A,2500.8031529,N,12132.4296227,E,0.09,279.90,090324,,,R,V*1A
$GPHDT,,T*1B
$GNACCURACY,6.8*18
$GNGGA,035618.500,2500.8031545,N,12132.4296243,E,4,41,0.74,16.843,M,15.25,M,1,3335*47
$GNRMC,035618.500,A,2500.8031545,N,12132.4296243,E,0.12,279.90,090324,,,R,V*19
$GPHDT,,T*1B
$GNACCURACY,6.8*18
$GNGGA,035618.600,2500.8031571,N,12132.4296246,E,4,42,0.74,16.843,M,15.25,M,0,3335*44
$GNRMC,035618.600,A,2500.8031571,N,12132.4296246,E,0.13,279.90,090324,,,R,V*19
$GPHDT,,T*1B
$GNACCURACY,6.8*18
$GNGGA,035618.700,2500.8031558,N,12132.4296257,E,4,42,0.74,16.841,M,15.25,M,0,3335*4C
$GNRMC,035618.700,A,2500.8031558,N,12132.4296257,E,0.13,279.90,090324,,,R,V*13
$GPHDT,,T*1B
$GNACCURACY,6.8*18
$GNGGA,035618.800,2500.8031559,N,12132.4296230,E,4,42,0.74,16.837,M,15.25,M,0,3335*42
$GNRMC,035618.800,A,2500.8031559,N,12132.4296230,E,0.13,279.90,090324,,,R,V*1C
$GPHDT,,T*1B
$GNACCURACY,6.8*18
$GNGGA,035618.900,2500.8031578,N,12132.4296235,E,4,41,0.74,16.842,M,15.25,M,0,3335*44
$GNRMC,035618.900,A,2500.8031578,N,12132.4296235,E,0.14,279.90,090324,,,R,V*1C
$GPHDT,,T*1B
$GNACCURACY,6.7*17
$GNGGA,035619.000,2500.8031572,N,12132.4296246,E,4,42,0.74,16.843,M,15.25,M,1,3335*41
$GNRMC,035619.000,A,2500.8031572,N,12132.4296246,E,0.13,279.90,090324,,,R,V*1D
$GPHDT,,T*1B
$GNACCURACY,6.7*17
$GNGGA,035619.100,2500.8031556,N,12132.4296251,E,4,41,0.77,16.836,M,15.25,M,1,3335*42
$GNRMC,035619.100,A,2500.8031556,N,12132.4296251,E,0.12,279.90,090324,,,R,V*1D
$GPHDT,,T*1B
$GNGSA,A,3,08,194,195,199,21,27,07,16,26,,,,1.34,0.77,1.10,1*3D
$GNGSA,A,3,88,78,77,79,,,,,,,,,1.34,0.77,1.10,2*05
$GNGSA,A,3,13,21,27,,,,,,,,,,1.34,0.77,1.10,3*01
$GNGSA,A,3,09,16,23,43,40,07,39,10,25,34,,,1.34,0.77,1.10,4*02
$GPGSV,3,1,12,08,66,343,45,194,64,050,43,195,62,117,36,50,60,167,27,1*69
$GPGSV,3,2,12,199,60,167,24,21,54,161,41,02,42,178,24,27,38,033,41,1*51
$GPGSV,3,3,12,07,36,319,33,16,30,069,41,196,20,170,20,26,11,095,24,1*56
$GPGSV,2,1,06,08,66,343,44,194,64,050,45,195,62,117,43,199,60,167,33,8*50
$GPGSV,2,2,06,27,38,033,41,26,11,095,21,8*6B
$GLGSV,2,1,05,88,62,038,43,78,54,026,42,77,27,103,28,79,21,329,26,1*76
$GLGSV,2,2,05,87,08,026,27,1*4B
$GAGSV,1,1,04,13,54,090,44,21,53,004,40,26,38,173,20,27,30,074,39,7*7F
$GAGSV,1,1,04,13,54,090,40,21,53,004,41,26,38,173,20,27,30,074,43,1*71
$GBGSV,3,1,11,09,74,276,29,16,71,197,31,23,70,017,46,43,64,040,43,1*7E
$GBGSV,3,2,11,40,62,325,42,07,61,304,38,39,61,184,38,10,51,286,33,1*7B
$GBGSV,3,3,11,25,41,112,47,37,26,320,18,34,16,039,27,1*42
$GBGSV,2,1,06,23,70,017,41,43,64,040,43,40,62,325,38,39,61,184,39,4*70
$GBGSV,2,2,06,25,41,112,43,34,16,039,23,4*79
$GNACCURACY,6.7*17
$PAIRSAT,1,17,2,0,200,3,0,200,7,0,1,8,0,21,16,0,1,20,0,200,21,0,201,22,0,200,23,0,200,24,0,200,25,0,200,26,0,220,27,0,21,194,0,21,195,0,621,196,0,200,199,0,621*60
$PAIRSAT,2,15,70,0,200,71,0,200,73,0,200,74,0,200,75,0,200,76,0,200,77,0,1,78,0,201,79,0,201,80,0,200,84,0,200,85,0,200,86,0,200,87,0,201,88,0,201*5B
$PAIRSAT,3,14,2,0,1200,3,0,1200,4,0,1200,5,0,200,7,0,200,13,0,21,21,0,21,25,0,1000,26,0,1000,27,0,1021,30,0,1000,31,0,1000,33,0,200,36,0,200*4F
$PAIRSAT,4,36,3,0,400,7,0,1,9,0,201,10,0,201,11,0,200,12,0,200,13,0,200,14,0,200,16,0,201,19,0,400,20,0,400,21,0,400,22,0,400,23,0,421,24,0,400,25,0,421,26,0,400,27,0,400,28,0,400,29,0,400,30,0,400,32,0,400,33,0,400,34,0,421,35,0,400,36,0,400,37,0,421,38,0,400,39,0,421,40,0,421,41,0,400,42,0,400,43,0,421,44,0,400,45,0,400,46,0,400*4A
$PAIRDGP,0*45
$GNGGA,035619.200,2500.8031574,N,12132.4296260,E,4,41,0.77,16.852,M,15.25,M,1,3335*41
$GNRMC,035619.200,A,2500.8031574,N,12132.4296260,E,0.11,279.90,090324,,,R,V*1F
$GPHDT,,T*1B
$GNACCURACY,6.7*17
$GNGGA,035619.300,2500.8031605,N,12132.4296275,E,4,42,0.74,16.849,M,15.25,M,1,3335*4B
$GNRMC,035619.300,A,2500.8031605,N,12132.4296275,E,0.12,279.90,090324,,,R,V*1C
$GPHDT,,T*1B
$GNACCURACY,6.7*17
$GNGGA,035619.400,2500.8031538,N,12132.4296156,E,4,41,0.77,16.807,M,15.25,M,1,3335*49
$GNRMC,035619.400,A,2500.8031538,N,12132.4296156,E,0.11,279.90,090324,,,R,V*17
$GPHDT,,T*1B
$GNACCURACY,6.6*16
$GNGGA,035619.500,2500.8031526,N,12132.4296150,E,4,41,0.77,16.830,M,15.25,M,1,3335*45
$GNRMC,035619.500,A,2500.8031526,N,12132.4296150,E,0.11,279.90,090324,,,R,V*1F
$GPHDT,,T*1B
$GNACCURACY,6.6*16
$GNGGA,035619.600,2500.8031522,N,12132.4296175,E,4,41,0.77,16.836,M,15.25,M,1,3335*43
$GNRMC,035619.600,A,2500.8031522,N,12132.4296175,E,0.12,279.90,090324,,,R,V*1C
$GPHDT,,T*1B
$GNACCURACY,6.5*15
$GNGGA,035619.700,2500.8031535,N,12132.4296167,E,4,41,0.77,16.834,M,15.25,M,1,3335*45
$GNRMC,035619.700,A,2500.8031535,N,12132.4296167,E,0.12,279.90,090324,,,R,V*18
$GPHDT,,T*1B
$GNACCURACY,6.5*15
$GNGGA,035619.800,2500.8031539,N,12132.4296164,E,4,41,0.77,16.838,M,15.25,M,1,3335*49
$GNRMC,035619.800,A,2500.8031539,N,12132.4296164,E,0.18,279.90,090324,,,R,V*12
$GPHDT,,T*1B
$GNACCURACY,6.5*15
$GNGGA,035619.900,2500.8031543,N,12132.4296159,E,4,41,0.77,16.828,M,15.25,M,1,3335*4A
$GNRMC,035619.900,A,2500.8031543,N,12132.4296159,E,0.29,279.90,090324,,,R,V*12
$GPHDT,,T*1B
$GNACCURACY,6.4*14
$GNGGA,035620.000,2500.8031548,N,12132.4296173,E,4,41,0.77,16.848,M,15.25,M,1,3335*4C
$GNRMC,035620.000,A,2500.8031548,N,12132.4296173,E,0.19,279.90,090324,,,R,V*11
$GPHDT,,T*1B
$GNACCURACY,6.3*13
$GNGGA,035620.100,2500.8031547,N,12132.4296181,E,4,42,0.74,16.822,M,15.25,M,1,3335*43
$GNRMC,035620.100,A,2500.8031547,N,12132.4296181,E,0.16,279.90,090324,,,R,V*1D
$GPHDT,,T*1B
$GNGSA,A,3,08,194,195,199,21,27,07,16,26,,,,1.26,0.74,1.02,1*3E
$GNGSA,A,3,88,78,77,79,,,,,,,,,1.26,0.74,1.02,2*06
$GNGSA,A,3,13,21,27,,,,,,,,,,1.26,0.74,1.02,3*02
$GNGSA,A,3,09,16,23,43,40,07,39,10,25,37,34,,1.26,0.74,1.02,4*05
$GPGSV,3,1,12,08,66,343,44,194,64,050,43,195,62,117,39,50,60,167,28,1*68
$GPGSV,3,2,12,199,60,167,26,21,54,161,41,02,42,178,28,27,38,033,41,1*5F
$GPGSV,3,3,12,07,36,319,39,16,30,069,41,196,20,170,18,26,11,095,23,1*50
$GPGSV,2,1,06,08,66,343,44,194,64,050,45,195,62,117,43,199,60,167,30,8*53
$GPGSV,2,2,06,27,38,033,42,26,11,095,18,8*62
$GLGSV,2,1,05,88,62,038,43,78,54,026,40,77,27,103,29,79,21,329,27,1*74
$GLGSV,2,2,05,87,08,026,28,1*44
$GAGSV,1,1,04,13,54,090,44,21,53,004,38,26,38,173,18,27,30,074,40,7*75
$GAGSV,1,1,04,13,54,090,40,21,53,004,36,26,38,173,20,27,30,074,43,1*71
$GBGSV,3,1,11,09,74,276,28,16,71,197,33,23,70,017,45,43,64,040,44,1*79
$GBGSV,3,2,11,40,62,325,43,07,61,304,41,39,61,184,36,10,51,286,36,1*7F
$GBGSV,3,3,11,25,41,112,47,37,26,320,35,34,16,039,24,1*4E
$GBGSV,2,1,06,23,70,017,41,43,64,040,43,40,62,325,40,39,61,184,39,4*7F
$GBGSV,2,2,06,25,41,112,44,34,16,039,25,4*78
$GNACCURACY,6.3*13
$PAIRSAT,1,17,2,0,200,3,0,200,7,0,1,8,0,21,16,0,1,20,0,200,21,0,201,22,0,200,23,0,200,24,0,200,25,0,200,26,0,220,27,0,21,194,0,21,195,0,621,196,0,200,199,0,621*60
$PAIRSAT,2,15,70,0,200,71,0,200,73,0,200,74,0,200,75,0,200,76,0,200,77,0,1,78,0,201,79,0,201,80,0,200,84,0,200,85,0,200,86,0,200,87,0,201,88,0,201*5B
$PAIRSAT,3,14,2,0,1200,3,0,1200,4,0,1200,5,0,200,7,0,200,13,0,21,21,0,21,25,0,1000,26,0,1000,27,0,1021,30,0,1000,31,0,1000,33,0,200,36,0,200*4F
$PAIRSAT,4,36,3,0,400,7,0,1,9,0,201,10,0,201,11,0,200,12,0,200,13,0,200,14,0,200,16,0,201,19,0,400,20,0,400,21,0,400,22,0,400,23,0,421,24,0,400,25,0,421,26,0,400,27,0,400,28,0,400,29,0,400,30,0,400,32,0,400,33,0,400,34,0,421,35,0,400,36,0,400,37,0,421,38,0,400,39,0,421,40,0,421,41,0,400,42,0,400,43,0,421,44,0,400,45,0,400,46,0,400*4A
$PAIRDGP,0*45
$GNGGA,035620.200,2500.8031520,N,12132.4296154,E,4,42,0.74,16.828,M,15.25,M,1,3335*43
$GNRMC,035620.200,A,2500.8031520,N,12132.4296154,E,0.12,279.90,090324,,,R,V*13
$GPHDT,,T*1B
$GNACCURACY,6.3*13
$GNGGA,035620.300,2500.8031546,N,12132.4296168,E,4,42,0.74,16.830,M,15.25,M,1,3335*44
$GNRMC,035620.300,A,2500.8031546,N,12132.4296168,E,0.12,279.90,090324,,,R,V*1D
$GPHDT,,T*1B
$GNACCURACY,6.3*13
$GNGGA,035620.400,2500.8031542,N,12132.4296169,E,4,42,0.74,16.824,M,15.25,M,1,3335*43
$GNRMC,035620.400,A,2500.8031542,N,12132.4296169,E,0.11,279.90,090324,,,R,V*1C
$GPHDT,,T*1B
$GNACCURACY,6.2*12
$GNGGA,035620.500,2500.8031536,N,12132.4296157,E,4,42,0.74,16.832,M,15.25,M,1,3335*4B
$GNRMC,035620.500,A,2500.8031536,N,12132.4296157,E,0.11,279.90,090324,,,R,V*13
$GPHDT,,T*1B
$GNACCURACY,6.2*12
$GNGGA,035620.600,2500.8031551,N,12132.4296170,E,4,42,0.74,16.819,M,15.25,M,1,3335*45
$GNRMC,035620.600,A,2500.8031551,N,12132.4296170,E,0.13,279.90,090324,,,R,V*16
$GPHDT,,T*1B
$GNACCURACY,6.2*12
$GNGGA,035620.700,2500.8031550,N,12132.4296164,E,4,42,0.74,16.816,M,15.25,M,1,3335*4F
$GNRMC,035620.700,A,2500.8031550,N,12132.4296164,E,0.13,279.90,090324,,,R,V*13
$GPHDT,,T*1B
$GNACCURACY,6.2*12
$GNGGA,035620.800,2500.8031540,N,12132.4296148,E,4,42,0.74,16.827,M,15.25,M,0,3335*4C
$GNRMC,035620.800,A,2500.8031540,N,12132.4296148,E,0.14,279.90,090324,,,R,V*14
$GPHDT,,T*1B
$GNACCURACY,6.2*12
$GNGGA,035620.900,2500.8031549,N,12132.4296160,E,4,42,0.74,16.823,M,15.25,M,0,3335*4A
$GNRMC,035620.900,A,2500.8031549,N,12132.4296160,E,0.28,279.90,090324,,,R,V*19
$GPHDT,,T*1B
$GNACCURACY,6.2*12
$GNGGA,035621.000,2500.8031561,N,12132.4296171,E,4,42,0.74,16.821,M,15.25,M,1,3335*4B
$GNRMC,035621.000,A,2500.8031561,N,12132.4296171,E,0.20,279.90,090324,,,R,V*13
$GPHDT,,T*1B
$GNACCURACY,6.2*12
$GNGGA,035621.100,2500.8031552,N,12132.4296168,E,4,42,0.74,16.823,M,15.25,M,1,3335*40
$GNRMC,035621.100,A,2500.8031552,N,12132.4296168,E,0.15,279.90,090324,,,R,V*1C
$GPHDT,,T*1B
$GNGSA,A,3,08,194,195,199,21,27,07,16,26,,,,1.26,0.74,1.02,1*3E
$GNGSA,A,3,88,78,77,79,,,,,,,,,1.26,0.74,1.02,2*06
$GNGSA,A,3,13,21,27,,,,,,,,,,1.26,0.74,1.02,3*02
$GNGSA,A,3,09,16,23,43,40,07,39,10,25,37,34,,1.26,0.74,1.02,4*05
$GPGSV,3,1,12,08,66,343,44,194,64,050,43,195,62,117,40,50,60,167,29,1*67
$GPGSV,3,2,12,199,60,167,27,21,54,161,41,02,42,178,26,27,38,033,42,1*53
$GPGSV,3,3,12,07,36,319,39,16,30,069,41,196,20,170,16,26,11,095,22,1*5F
$GPGSV,2,1,06,08,66,343,44,194,64,050,46,195,62,117,43,199,60,167,31,8*51
$GPGSV,2,2,06,27,38,033,44,26,11,095,17,8*6B
$GLGSV,2,1,05,88,62,038,44,78,54,026,41,77,27,103,29,79,21,329,28,1*7D
$GLGSV,2,2,05,87,08,026,28,1*44
$GAGSV,1,1,04,13,54,090,44,21,53,004,36,26,38,173,18,27,30,074,40,7*7B
$GAGSV,1,1,04,13,54,090,40,21,53,004,36,26,38,173,21,27,30,074,44,1*77
$GBGSV,3,1,11,09,74,276,28,16,71,197,33,23,70,017,45,43,64,040,44,1*79
$GBGSV,3,2,11,40,62,325,43,07,61,304,41,39,61,184,36,10,51,286,37,1*7E
$GBGSV,3,3,11,25,41,112,47,37,26,320,36,34,16,039,22,1*4B
$GBGSV,2,1,06,23,70,017,42,43,64,040,44,40,62,325,41,39,61,184,39,4*7A
$GBGSV,2,2,06,25,41,112,45,34,16,039,26,4*7A
$GNACCURACY,6.2*12
$PAIRSAT,1,17,2,0,200,3,0,200,7,0,1,8,0,21,16,0,1,20,0,200,21,0,201,22,0,200,23,0,200,24,0,200,25,0,200,26,0,220,27,0,21,194,0,21,195,0,621,196,0,200,199,0,621*60
$PAIRSAT,2,15,70,0,200,71,0,200,73,0,200,74,0,200,75,0,200,76,0,200,77,0,1,78,0,201,79,0,201,80,0,200,84,0,200,85,0,200,86,0,200,87,0,201,88,0,201*5B
$PAIRSAT,3,15,2,0,1200,3,0,1200,4,0,1200,5,0,200,7,0,200,8,0,200,13,0,21,21,0,21,25,0,1000,26,0,1000,27,0,1021,30,0,1000,31,0,1000,33,0,200,36,0,200*58
$PAIRSAT,4,36,3,0,400,7,0,1,9,0,201,10,0,201,11,0,200,12,0,200,13,0,200,14,0,200,16,0,201,19,0,400,20,0,400,21,0,400,22,0,400,23,0,421,24,0,400,25,0,421,26,0,400,27,0,400,28,0,400,29,0,400,30,0,400,32,0,400,33,0,400,34,0,421,35,0,400,36,0,400,37,0,421,38,0,400,39,0,421,40,0,421,41,0,400,42,0,400,43,0,421,44,0,400,45,0,400,46,0,400*4A
$PAIRDGP,0*45
$GNGGA,035621.200,2500.8031522,N,12132.4296169,E,4,42,0.74,16.825,M,15.25,M,1,3335*43
$GNRMC,035621.200,A,2500.8031522,N,12132.4296169,E,0.11,279.90,090324,,,R,V*1D
$GPHDT,,T*1B
$GNACCURACY,6.2*12
$GNGGA,035621.300,2500.8031567,N,12132.4296180,E,4,42,0.74,16.831,M,15.25,M,1,3335*41
$GNRMC,035621.300,A,2500.8031567,N,12132.4296180,E,0.12,279.90,090324,,,R,V*19
$GPHDT,,T*1B
$GNACCURACY,6.2*12
$GNGGA,035621.400,2500.8031543,N,12132.4296145,E,4,42,0.74,16.824,M,15.25,M,1,3335*4D
$GNRMC,035621.400,A,2500.8031543,N,12132.4296145,E,0.11,279.90,090324,,,R,V*12
$GPHDT,,T*1B
$GNACCURACY,6.2*12
$GNGGA,035621.500,2500.8031525,N,12132.4296155,E,4,42,0.74,16.829,M,15.25,M,1,3335*40
$GNRMC,035621.500,A,2500.8031525,N,12132.4296155,E,0.10,279.90,090324,,,R,V*13
$GPHDT,,T*1B
$GNACCURACY,6.2*12
$GNGGA,035621.600,2500.8031525,N,12132.4296155,E,4,42,0.74,16.817,M,15.25,M,0,3335*4F
$GNRMC,035621.600,A,2500.8031525,N,12132.4296155,E,0.12,279.90,090324,,,R,V*12
$GPHDT,,T*1B
$GNACCURACY,6.2*12
$GNGGA,035621.700,2500.8031513,N,12132.4296152,E,4,42,0.74,16.815,M,15.25,M,0,3335*4E
$GNRMC,035621.700,A,2500.8031513,N,12132.4296152,E,0.12,279.90,090324,,,R,V*11
$GPHDT,,T*1B
