$FW : RTK35X,V1.1X0314AS,Lib20210517,1*54
$Tool : LOCOSYS , GNSS Firebird , v1.0.0.19*39
$---------------------------------------------------*2D
,4,41,0.72,16.809,M,15.25,M,0,3335*48
$GNRMC,035506.800,A,2500.8031582,N,12132.4295930,E,0.15,3.09,090324,,,R,V*17
$GPHDT,,T*1B
$GNACCURACY,5.6*15
$GNGGA,035506.900,2500.8031571,N,12132.4295936,E,4,41,0.72,16.812,M,15.25,M,0,3335*49
$GNRMC,035506.900,A,2500.8031571,N,12132.4295936,E,0.16,3.09,090324,,,R,V*1F
$GPHDT,,T*1B
$GNACCURACY,5.6*15
$GNGGA,035507.000,2500.8031572,N,12132.4295937,E,4,41,0.72,16.808,M,15.25,M,1,3335*49
$GNRMC,035507.000,A,2500.8031572,N,12132.4295937,E,0.13,3.09,090324,,,R,V*10
$GPHDT,,T*1B
$GNACCURACY,5.6*15
$GNGGA,035507.100,2500.8031599,N,12132.4295939,E,4,41,0.72,16.821,M,15.25,M,1,3335*48
$GNRMC,035507.100,A,2500.8031599,N,12132.4295939,E,0.11,3.09,090324,,,R,V*18
$GPHDT,,T*1B
$GNGSA,A,3,08,194,195,21,27,07,16,199,26,,,,1.03,0.72,0.74,1*3F
$GNGSA,A,3,88,78,77,,,,,,,,,,1.03,0.72,0.74,2*09
$GNGSA,A,3,13,21,27,,,,,,,,,,1.03,0.72,0.74,3*03
$GNGSA,A,3,09,16,23,43,40,39,07,10,25,37,34,,1.03,0.72,0.74,4*04
$GPGSV,3,1,11,08,67,342,45,194,64,050,44,195,62,118,44,50,60,167,27,1*67
$GPGSV,3,2,11,199,60,167,24,21,53,162,49,27,38,033,45,07,36,319,41,1*5A
$GPGSV,3,3,11,16,30,069,45,196,20,170,19,26,11,094,13,1*67
$GPGSV,2,1,06,08,67,342,46,194,64,050,47,195,62,118,45,199,60,167,37,8*5D
$GPGSV,2,2,06,27,38,033,44,26,11,094,20,8*6E
$GLGSV,1,1,04,88,62,039,45,78,53,025,45,77,27,103,28,87,09,026,27,1*76
$GAGSV,1,1,03,13,54,091,44,21,53,004,39,27,30,074,43,7*42
$GAGSV,1,1,03,13,54,091,42,21,53,004,40,27,30,074,43,1*4C
$GBGSV,3,1,11,09,74,277,32,16,72,197,36,23,70,015,45,43,64,040,45,1*76
$GBGSV,3,2,11,40,62,325,43,39,61,184,37,07,61,304,42,10,51,285,36,1*7E
$GBGSV,3,3,11,25,41,111,45,37,25,319,39,34,16,039,25,1*4B
$GBGSV,2,1,07,23,70,015,45,43,64,040,46,40,62,325,46,39,61,184,41,4*74
$GBGSV,2,2,07,25,41,111,46,37,25,319,38,34,16,039,25,4*4B
$GNACCURACY,5.6*15
$PAIRSAT,1,14,7,0,1,8,0,21,16,0,1,20,0,200,21,0,201,22,0,200,23,0,200,24,0,200,26,0,20,27,0,21,194,0,21,195,0,221,196,0,200,199,0,621*7D
$PAIRSAT,2,11,75,0,200,76,0,200,77,0,1,78,0,201,79,0,200,80,0,200,84,0,200,85,0,200,86,0,200,87,0,201,88,0,201*58
$PAIRSAT,3,10,2,0,200,3,0,200,4,0,200,13,0,21,21,0,1,25,0,1000,26,0,1000,27,0,1021,33,0,200,36,0,200*4B
$PAIRSAT,4,36,3,0,400,7,0,1,9,0,201,10,0,201,11,0,200,12,0,200,13,0,200,14,0,200,16,0,1,19,0,400,20,0,400,21,0,400,22,0,400,23,0,421,24,0,400,25,0,421,26,0,400,27,0,400,28,0,400,29,0,400,30,0,400,32,0,400,33,0,400,34,0,421,35,0,400,36,0,400,37,0,421,38,0,400,39,0,421,40,0,421,41,0,400,42,0,400,43,0,421,44,0,400,45,0,400,46,0,400*48
$PAIRDGP,0*45
$GNGGA,035507.200,2500.8031590,N,12132.4295924,E,4,40,0.72,16.823,M,15.25,M,1,3335*4D
$GNRMC,035507.200,A,2500.8031590,N,12132.4295924,E,0.08,3.09,090324,,,R,V*16
$GPHDT,,T*1B
$GNACCURACY,5.6*15
$GNGGA,035507.300,2500.8031596,N,12132.4295926,E,4,40,0.72,16.818,M,15.25,M,1,3335*40
$GNRMC,035507.300,A,2500.8031596,N,12132.4295926,E,0.08,3.09,090324,,,R,V*13
$GPHDT,,T*1B
$GNACCURACY,5.6*15
$GNGGA,035507.400,2500.8031589,N,12132.4295942,E,4,40,0.72,16.821,M,15.25,M,1,3335*41
$GNRMC,035507.400,A,2500.8031589,N,12132.4295942,E,0.08,3.09,090324,,,R,V*18
$GPHDT,,T*1B
$GNACCURACY,5.6*15
$GNGGA,035507.500,2500.8031584,N,12132.4295929,E,4,40,0.72,16.811,M,15.25,M,1,3335*43
$GNRMC,035507.500,A,2500.8031584,N,12132.4295929,E,0.08,3.09,090324,,,R,V*19
$GPHDT,,T*1B
$GNACCURACY,5.6*15
$GNGGA,035507.600,2500.8031596,N,12132.4295958,E,4,40,0.72,16.814,M,15.25,M,0,3335*41
$GNRMC,035507.600,A,2500.8031596,N,12132.4295958,E,0.11,3.09,090324,,,R,V*17
$GPHDT,,T*1B
$GNACCURACY,5.6*15
$GNGGA,035507.700,2500.8031570,N,12132.4295939,E,4,40,0.72,16.808,M,15.25,M,0,3335*42
$GNRMC,035507.700,A,2500.8031570,N,12132.4295939,E,0.12,3.09,090324,,,R,V*1A
$GPHDT,,T*1B
$GNACCURACY,5.6*15
$GNGGA,035507.800,2500.8031595,N,12132.4295941,E,4,40,0.72,16.808,M,15.25,M,0,3335*49
$GNRMC,035507.800,A,2500.8031595,N,12132.4295941,E,0.15,3.09,090324,,,R,V*16
$GPHDT,,T*1B
$GNACCURACY,5.6*15
$GNGGA,035507.900,2500.8031559,N,12132.4295919,E,4,40,0.72,16.819,M,15.25,M,0,3335*45
$GNRMC,035507.900,A,2500.8031559,N,12132.4295919,E,0.14,3.09,090324,,,R,V*1B
$GPHDT,,T*1B
$GNACCURACY,5.6*15
$GNGGA,035508.000,2500.8031541,N,12132.4295896,E,4,40,0.72,16.812,M,15.25,M,1,3335*46
$GNRMC,035508.000,A,2500.8031541,N,12132.4295896,E,0.11,3.09,090324,,,R,V*17
$GPHDT,,T*1B
$GNACCURACY,5.6*15
$GNGGA,035508.100,2500.8031591,N,12132.4295933,E,4,40,0.72,16.821,M,15.25,M,1,3335*44
$GNRMC,035508.100,A,2500.8031591,N,12132.4295933,E,0.09,3.09,090324,,,R,V*1C
$GPHDT,,T*1B
$GNGSA,A,3,08,194,195,21,27,07,16,199,26,,,,1.03,0.72,0.74,1*3F
$GNGSA,A,3,88,78,77,,,,,,,,,,1.03,0.72,0.74,2*09
$GNGSA,A,3,13,21,27,,,,,,,,,,1.03,0.72,0.74,3*03
$GNGSA,A,3,09,16,23,43,40,39,07,10,25,37,34,,1.03,0.72,0.74,4*04
$GPGSV,3,1,11,08,67,342,45,194,64,050,45,195,62,118,44,50,60,167,27,1*66
$GPGSV,3,2,11,199,60,167,23,21,53,162,48,27,38,033,45,07,36,319,41,1*5C
$GPGSV,3,3,11,16,30,069,45,196,20,170,19,26,11,094,15,1*61
$GPGSV,2,1,06,08,67,342,47,194,64,050,47,195,62,118,45,199,60,167,36,8*5D
$GPGSV,2,2,06,27,38,033,44,26,11,094,24,8*6A
$GLGSV,1,1,04,88,62,039,45,78,53,025,46,77,27,103,26,87,09,026,26,1*7A
$GAGSV,1,1,03,13,54,091,44,21,53,004,39,27,30,074,43,7*42
$GAGSV,1,1,03,13,54,091,43,21,53,004,40,27,30,074,43,1*4D
$GBGSV,3,1,11,09,74,277,33,16,72,197,36,23,70,015,45,43,64,040,45,1*77
$GBGSV,3,2,11,40,62,325,42,39,61,184,38,07,61,304,42,10,51,285,36,1*70
$GBGSV,3,3,11,25,41,111,44,37,25,319,39,34,16,039,29,1*46
$GBGSV,2,1,07,23,70,015,44,43,64,040,46,40,62,325,46,39,61,184,43,4*77
$GBGSV,2,2,07,25,41,111,46,37,25,319,38,34,16,039,25,4*4B
$GNACCURACY,5.6*15
$PAIRSAT,1,14,7,0,1,8,0,21,16,0,1,20,0,200,21,0,201,22,0,200,23,0,200,24,0,200,26,0,20,27,0,21,194,0,21,195,0,221,196,0,200,199,0,621*7D
$PAIRSAT,2,11,75,0,200,76,0,200,77,0,1,78,0,201,79,0,200,80,0,200,84,0,200,85,0,200,86,0,200,87,0,201,88,0,201*58
$PAIRSAT,3,10,2,0,200,3,0,200,4,0,200,13,0,21,21,0,1,25,0,1000,26,0,1000,27,0,1021,33,0,200,36,0,200*4B
$PAIRSAT,4,36,3,0,400,7,0,1,9,0,201,10,0,201,11,0,200,12,0,200,13,0,200,14,0,200,16,0,1,19,0,400,20,0,400,21,0,400,22,0,400,23,0,421,24,0,400,25,0,421,26,0,400,27,0,400,28,0,400,29,0,400,30,0,400,32,0,400,33,0,400,34,0,421,35,0,400,36,0,400,37,0,421,38,0,400,39,0,421,40,0,421,41,0,400,42,0,400,43,0,421,44,0,400,45,0,400,46,0,400*48
$PAIRDGP,0*45
$GNGGA,035508.200,2500.8031576,N,12132.4295917,E,4,40,0.72,16.811,M,15.25,M,1,3335*4B
$GNRMC,035508.200,A,2500.8031576,N,12132.4295917,E,0.07,3.09,090324,,,R,V*1E
$GPHDT,,T*1B
$GNACCURACY,5.6*15
$GNGGA,035508.300,2500.8031596,N,12132.4295955,E,4,40,0.72,16.829,M,15.25,M,1,3335*49
$GNRMC,035508.300,A,2500.8031596,N,12132.4295955,E,0.06,3.09,090324,,,R,V*16
$GPHDT,,T*1B
$GNACCURACY,5.6*15
$GNGGA,035508.400,2500.8031575,N,12132.4295924,E,4,40,0.72,16.820,M,15.25,M,1,3335*4C
$GNRMC,035508.400,A,2500.8031575,N,12132.4295924,E,0.06,3.09,090324,,,R,V*1A
$GPHDT,,T*1B
$GNACCURACY,5.6*15
$GNGGA,035508.500,2500.8031555,N,12132.4295904,E,4,40,0.72,16.821,M,15.25,M,1,3335*4C
$GNRMC,035508.500,A,2500.8031555,N,12132.4295904,E,0.07,3.09,090324,,,R,V*1A
$GPHDT,,T*1B
$GNACCURACY,5.6*15
$GNGGA,035508.600,2500.8031600,N,12132.4295957,E,4,40,0.72,16.822,M,15.25,M,1,3335*49
$GNRMC,035508.600,A,2500.8031600,N,12132.4295957,E,0.11,3.09,090324,,,R,V*1B
$GPHDT,,T*1B
$GNACCURACY,5.6*15
$GNGGA,035508.700,2500.8031577,N,12132.4295925,E,4,41,0.72,16.813,M,15.25,M,1,3335*4D
$GNRMC,035508.700,A,2500.8031577,N,12132.4295925,E,0.11,3.09,090324,,,R,V*1C
$GPHDT,,T*1B
$GNACCURACY,5.6*15
$GNGGA,035508.800,2500.8031563,N,12132.4295913,E,4,41,0.72,16.817,M,15.25,M,0,3335*47
$GNRMC,035508.800,A,2500.8031563,N,12132.4295913,E,0.13,3.09,090324,,,R,V*11
$GPHDT,,T*1B
$GNACCURACY,5.6*15
$GNGGA,035508.900,2500.8031557,N,12132.4295913,E,4,41,0.72,16.813,M,15.25,M,0,3335*45
$GNRMC,035508.900,A,2500.8031557,N,12132.4295913,E,0.24,3.09,090324,,,R,V*13
$GPHDT,,T*1B
$GNACCURACY,5.7*14
$GNGGA,035509.000,2500.8031580,N,12132.4295912,E,4,41,0.72,16.815,M,15.25,M,1,3335*41
$GNRMC,035509.000,A,2500.8031580,N,12132.4295912,E,0.15,3.09,090324,,,R,V*12
$GPHDT,,T*1B
$GNACCURACY,5.6*15
$GNGGA,035509.100,2500.8031574,N,12132.4295914,E,4,41,0.72,16.821,M,15.25,M,1,3335*4A
$GNRMC,035509.100,A,2500.8031574,N,12132.4295914,E,0.11,3.09,090324,,,R,V*1A
$GPHDT,,T*1B
$GNGSA,A,3,08,194,195,199,21,27,07,16,26,,,,1.03,0.72,0.74,1*3F
$GNGSA,A,3,88,78,77,,,,,,,,,,1.03,0.72,0.74,2*09
$GNGSA,A,3,13,21,27,,,,,,,,,,1.03,0.72,0.74,3*03
$GNGSA,A,3,09,16,23,43,40,39,07,10,25,37,34,,1.03,0.72,0.74,4*04
$GPGSV,3,1,11,08,67,342,45,194,64,050,45,195,62,118,43,50,60,167,29,1*6F
$GPGSV,3,2,11,199,60,167,25,21,53,162,48,27,38,033,44,07,36,319,41,1*5B
$GPGSV,3,3,11,16,30,069,45,196,20,170,20,26,11,094,15,1*6B
$GPGSV,2,1,06,08,67,342,47,194,64,050,47,195,62,118,46,199,60,167,36,8*5E
$GPGSV,2,2,06,27,38,033,44,26,11,094,21,8*6F
$GLGSV,1,1,04,88,62,039,44,78,53,025,46,77,27,103,27,87,09,026,26,1*7A
$GAGSV,1,1,03,13,54,091,44,21,53,004,39,27,30,074,43,7*42
$GAGSV,1,1,03,13,54,091,41,21,53,004,40,27,30,074,42,1*4E
$GBGSV,3,1,11,09,74,277,33,16,72,197,36,23,70,015,45,43,64,040,45,1*77
$GBGSV,3,2,11,40,62,325,42,39,61,184,37,07,61,304,42,10,51,285,36,1*7F
$GBGSV,3,3,11,25,41,111,44,37,25,319,39,34,16,039,20,1*4F
$GBGSV,2,1,07,23,70,015,44,43,64,040,47,40,62,325,45,39,61,184,42,4*74
$GBGSV,2,2,07,25,41,111,46,37,25,319,38,34,16,039,27,4*49
$GNACCURACY,5.6*15
$PAIRSAT,1,14,7,0,1,8,0,21,16,0,1,20,0,200,21,0,201,22,0,200,23,0,200,24,0,200,26,0,20,27,0,21,194,0,21,195,0,221,196,0,200,199,0,621*7D
$PAIRSAT,2,11,75,0,200,76,0,200,77,0,1,78,0,201,79,0,200,80,0,200,84,0,200,85,0,200,86,0,200,87,0,201,88,0,201*58
$PAIRSAT,3,10,2,0,200,3,0,200,4,0,200,13,0,21,21,0,1,25,0,1000,26,0,1000,27,0,1021,33,0,200,36,0,200*4B
$PAIRSAT,4,36,3,0,400,7,0,1,9,0,201,10,0,201,11,0,200,12,0,200,13,0,200,14,0,200,16,0,1,19,0,400,20,0,400,21,0,400,22,0,400,23,0,421,24,0,400,25,0,421,26,0,400,27,0,400,28,0,400,29,0,400,30,0,400,32,0,400,33,0,400,34,0,421,35,0,400,36,0,400,37,0,421,38,0,400,39,0,421,40,0,421,41,0,400,42,0,400,43,0,421,44,0,400,45,0,400,46,0,400*48
$PAIRDGP,0*45
$GNGGA,035509.200,2500.8031554,N,12132.4295916,E,4,41,0.72,16.809,M,15.25,M,1,3335*43
$GNRMC,035509.200,A,2500.8031554,N,12132.4295916,E,0.08,3.09,090324,,,R,V*11
$GPHDT,,T*1B
$GNACCURACY,5.7*14
$GNGGA,035509.300,2500.8031554,N,12132.4295901,E,4,41,0.72,16.810,M,15.25,M,1,3335*4C
$GNRMC,035509.300,A,2500.8031554,N,12132.4295901,E,0.07,3.09,090324,,,R,V*19
$GPHDT,,T*1B
$GNACCURACY,5.7*14
$GNGGA,035509.400,2500.8031567,N,12132.4295915,E,4,41,0.72,16.814,M,15.25,M,1,3335*4A
$GNRMC,035509.400,A,2500.8031567,N,12132.4295915,E,0.08,3.09,090324,,,R,V*14
$GPHDT,,T*1B
$GNACCURACY,5.7*14
$GNGGA,035509.500,2500.8031555,N,12132.4295918,E,4,41,0.72,16.809,M,15.25,M,1,3335*4B
$GNRMC,035509.500,A,2500.8031555,N,12132.4295918,E,0.07,3.09,090324,,,R,V*16
$GPHDT,,T*1B
$GNACCURACY,5.7*14
$GNGGA,035509.600,2500.8031572,N,12132.4295936,E,4,41,0.72,16.812,M,15.25,M,0,3335*4A
$GNRMC,035509.600,A,2500.8031572,N,12132.4295936,E,0.11,3.09,090324,,,R,V*1B
$GPHDT,,T*1B
$GNACCURACY,5.6*15
$GNGGA,035509.700,2500.8031546,N,12132.4295932,E,4,41,0.72,16.813,M,15.25,M,0,3335*49
$GNRMC,035509.700,A,2500.8031546,N,12132.4295932,E,0.17,3.09,090324,,,R,V*1F
$GPHDT,,T*1B
$GNACCURACY,5.7*14
$GNGGA,035509.800,2500.8031537,N,12132.4295910,E,4,41,0.72,16.806,M,15.25,M,0,3335*44
$GNRMC,035509.800,A,2500.8031537,N,12132.4295910,E,0.12,3.09,090324,,,R,V*13
$GPHDT,,T*1B
$GNACCURACY,5.7*14
$GNGGA,035509.900,2500.8031565,N,12132.4295934,E,4,41,0.72,16.811,M,15.25,M,0,3335*42
$GNRMC,035509.900,A,2500.8031565,N,12132.4295934,E,0.18,3.09,090324,,,R,V*19
$GPHDT,,T*1B
$GNACCURACY,5.7*14
$GNGGA,035510.000,2500.8031573,N,12132.4295931,E,4,41,0.72,16.815,M,15.25,M,1,3335*44
$GNRMC,035510.000,A,2500.8031573,N,12132.4295931,E,0.13,3.09,090324,,,R,V*11
$GPHDT,,T*1B
$GNACCURACY,5.7*14
$GNGGA,035510.100,2500.8031566,N,12132.4295930,E,4,41,0.72,16.814,M,15.25,M,1,3335*41
$GNRMC,035510.100,A,2500.8031566,N,12132.4295930,E,0.09,3.09,090324,,,R,V*1E
$GPHDT,,T*1B
$GNGSA,A,3,08,194,195,199,21,27,07,16,26,,,,1.03,0.72,0.74,1*3F
$GNGSA,A,3,88,78,77,,,,,,,,,,1.03,0.72,0.74,2*09
$GNGSA,A,3,13,21,27,,,,,,,,,,1.03,0.72,0.74,3*03
$GNGSA,A,3,09,16,23,43,40,07,39,10,25,37,34,,1.03,0.72,0.74,4*04
$GPGSV,3,1,11,08,67,342,45,194,64,050,45,195,62,118,43,50,60,167,30,1*67
$GPGSV,3,2,11,199,60,167,27,21,53,162,48,27,38,033,44,07,36,319,41,1*59
$GPGSV,3,3,11,16,30,069,45,196,20,170,20,26,11,094,14,1*6A
$GPGSV,2,1,06,08,67,342,47,194,64,050,47,195,62,118,46,199,60,167,36,8*5E
$GPGSV,2,2,06,27,38,033,44,26,11,094,21,8*6F
$GLGSV,2,1,05,88,62,039,44,78,53,025,45,77,27,103,26,79,21,329,,1*79
$GLGSV,2,2,05,87,09,026,26,1*4B
$GAGSV,1,1,04,13,54,091,44,21,53,004,39,27,30,074,43,04,12,304,,7*75
$GAGSV,1,1,03,13,54,091,41,21,53,004,40,27,30,074,42,1*4E
$GBGSV,3,1,11,09,74,277,33,16,72,197,36,23,70,015,45,43,64,040,45,1*77
$GBGSV,3,2,11,40,62,325,42,07,61,304,42,39,61,184,36,10,51,285,36,1*7E
$GBGSV,3,3,11,25,41,111,45,37,25,319,39,34,16,039,19,1*44
$GBGSV,2,1,07,23,70,015,44,43,64,040,47,40,62,325,45,39,61,184,42,4*74
$GBGSV,2,2,07,25,41,111,45,37,25,319,38,34,16,039,26,4*4B
$GNACCURACY,5.7*14
$PAIRSAT,1,14,7,0,1,8,0,21,16,0,1,20,0,200,21,0,201,22,0,200,23,0,200,24,0,200,26,0,20,27,0,21,194,0,21,195,0,221,196,0,200,199,0,621*7D
$PAIRSAT,2,11,75,0,200,76,0,200,77,0,1,78,0,201,79,0,200,80,0,200,84,0,200,85,0,200,86,0,200,87,0,201,88,0,201*58
$PAIRSAT,3,10,2,0,200,3,0,200,4,0,200,13,0,21,21,0,1,25,0,1000,26,0,1000,27,0,1021,33,0,200,36,0,200*4B
$PAIRSAT,4,36,3,0,400,7,0,1,9,0,201,10,0,201,11,0,200,12,0,200,13,0,200,14,0,200,16,0,1,19,0,400,20,0,400,21,0,400,22,0,400,23,0,421,24,0,400,25,0,421,26,0,400,27,0,400,28,0,400,29,0,400,30,0,400,32,0,400,33,0,400,34,0,421,35,0,400,36,0,400,37,0,421,38,0,400,39,0,421,40,0,421,41,0,400,42,0,400,43,0,421,44,0,400,45,0,400,46,0,400*48
$PAIRDGP,0*45
$GNGGA,035510.200,2500.8031553,N,12132.4295951,E,4,41,0.72,16.802,M,15.25,M,1,3335*44
$GNRMC,035510.200,A,2500.8031553,N,12132.4295951,E,0.08,3.09,090324,,,R,V*1D
$GPHDT,317.722,T*37
$GNACCURACY,5.7*14
$GNGGA,035510.300,2500.8031556,N,12132.4295941,E,4,41,0.72,16.810,M,15.25,M,1,3335*42
$GNRMC,035510.300,A,2500.8031556,N,12132.4295941,E,0.07,3.09,090324,,,R,V*17
$GPHDT,,T*1B
$GNACCURACY,5.7*14
$GNGGA,035510.400,2500.8031537,N,12132.4295935,E,4,41,0.72,16.805,M,15.25,M,1,3335*45
$GNRMC,035510.400,A,2500.8031537,N,12132.4295935,E,0.07,3.09,090324,,,R,V*14
$GPHDT,318.097,T*31
$GNACCURACY,5.7*14
$GNGGA,035510.500,2500.8031564,N,12132.4295933,E,4,41,0.72,16.821,M,15.25,M,0,3335*43
$GNRMC,035510.500,A,2500.8031564,N,12132.4295933,E,0.09,3.09,090324,,,R,V*1B
$GPHDT,,T*1B
$GNACCURACY,5.7*14
$GNGGA,035510.600,2500.8031552,N,12132.4295917,E,4,41,0.72,16.821,M,15.25,M,0,3335*43
$GNRMC,035510.600,A,2500.8031552,N,12132.4295917,E,0.10,3.09,090324,,,R,V*13
$GPHDT,317.779,T*39
$GNACCURACY,5.7*14
$GNGGA,035510.700,2500.8031547,N,12132.4295934,E,4,41,0.72,16.812,M,15.25,M,0,3335*47
$GNRMC,035510.700,A,2500.8031547,N,12132.4295934,E,0.12,3.09,090324,,,R,V*15
$GPHDT,,T*1B
$GNACCURACY,5.7*14
$GNGGA,035510.800,2500.8031569,N,12132.4295956,E,4,41,0.72,16.817,M,15.25,M,0,3335*45
$GNRMC,035510.800,A,2500.8031569,N,12132.4295956,E,0.20,3.09,090324,,,R,V*13
$GPHDT,316.956,T*3B
$GNACCURACY,5.7*14
$GNGGA,035510.900,2500.8031563,N,12132.4295936,E,4,41,0.72,16.816,M,15.25,M,0,3335*49
$GNRMC,035510.900,A,2500.8031563,N,12132.4295936,E,0.25,3.09,090324,,,R,V*1B
$GPHDT,,T*1B
$GNACCURACY,5.7*14
$GNGGA,035511.000,2500.8031565,N,12132.4295943,E,4,41,0.72,16.814,M,15.25,M,1,3335*46
$GNRMC,035511.000,A,2500.8031565,N,12132.4295943,E,0.14,3.09,090324,,,R,V*15
$GPHDT,317.464,T*36
$GNACCURACY,5.7*14
$GNGGA,035511.100,2500.8031545,N,12132.4295932,E,4,41,0.72,16.815,M,15.25,M,1,3335*42
$GNRMC,035511.100,A,2500.8031545,N,12132.4295932,E,0.10,3.09,090324,,,R,V*14
$GPHDT,,T*1B
$GNGSA,A,3,08,194,195,199,21,27,07,16,26,,,,1.03,0.72,0.74,1*3F
$GNGSA,A,3,88,78,77,,,,,,,,,,1.03,0.72,0.74,2*09
$GNGSA,A,3,13,21,27,,,,,,,,,,1.03,0.72,0.74,3*03
$GNGSA,A,3,09,16,23,43,40,39,07,10,25,37,34,,1.03,0.72,0.74,4*04
$GPGSV,3,1,11,08,67,342,45,194,64,050,45,195,62,118,43,50,60,167,30,1*67
$GPGSV,3,2,11,199,60,167,27,21,53,162,48,27,38,033,44,07,36,319,41,1*59
$GPGSV,3,3,11,16,30,069,45,196,20,170,20,26,11,094,15,1*6B
$GPGSV,2,1,06,08,67,342,47,194,64,050,47,195,62,118,46,199,60,167,37,8*5F
$GPGSV,2,2,06,27,38,033,44,26,11,094,21,8*6F
$GLGSV,1,1,04,88,62,039,44,78,53,025,45,77,27,103,24,87,09,026,27,1*7B
$GAGSV,2,1,05,13,54,091,43,21,53,004,38,26,38,173,,27,30,074,43,7*7B
$GAGSV,2,2,05,04,12,304,,7*46
$GAGSV,1,1,03,13,54,091,41,21,53,004,39,27,30,074,42,1*40
$GBGSV,3,1,12,09,74,277,33,16,72,197,36,23,70,015,45,43,64,040,45,1*74
$GBGSV,3,2,12,40,62,325,42,39,61,184,36,07,61,304,42,10,51,285,36,1*7D
$GBGSV,3,3,12,25,41,111,45,37,25,319,39,34,16,039,18,27,05,218,,1*7D
$GBGSV,2,1,07,23,70,015,44,43,64,040,46,40,62,325,45,39,61,184,42,4*75
$GBGSV,2,2,07,25,41,111,45,37,25,319,38,34,16,039,26,4*4B
$GNACCURACY,5.7*14
$PAIRSAT,1,14,7,0,1,8,0,21,16,0,1,20,0,200,21,0,201,22,0,200,23,0,200,24,0,200,26,0,20,27,0,21,194,0,21,195,0,221,196,0,200,199,0,621*7D
$PAIRSAT,2,11,75,0,200,76,0,200,77,0,1,78,0,201,79,0,200,80,0,200,84,0,200,85,0,200,86,0,200,87,0,201,88,0,201*58
$PAIRSAT,3,10,2,0,200,3,0,200,4,0,200,13,0,21,21,0,1,25,0,1000,26,0,1000,27,0,1021,33,0,200,36,0,200*4B
$PAIRSAT,4,36,3,0,400,7,0,1,9,0,201,10,0,201,11,0,200,12,0,200,13,0,200,14,0,200,16,0,1,19,0,400,20,0,400,21,0,400,22,0,400,23,0,421,24,0,400,25,0,421,26,0,400,27,0,400,28,0,400,29,0,400,30,0,400,32,0,400,33,0,400,34,0,421,35,0,400,36,0,400,37,0,421,38,0,400,39,0,421,40,0,421,41,0,400,42,0,400,43,0,421,44,0,400,45,0,400,46,0,400*48
$PAIRDGP,0*45
$GNGGA,035511.200,2500.8031578,N,12132.4295956,E,4,41,0.72,16.821,M,15.25,M,1,3335*4A
$GNRMC,035511.200,A,2500.8031578,N,12132.4295956,E,0.09,3.09,090324,,,R,V*13
$GPHDT,317.070,T*37
$GNACCURACY,5.7*14
$GNGGA,035511.300,2500.8031554,N,12132.4295948,E,4,41,0.72,16.810,M,15.25,M,1,3335*48
$GNRMC,035511.300,A,2500.8031554,N,12132.4295948,E,0.07,3.09,090324,,,R,V*1D
$GPHDT,,T*1B
$GNACCURACY,5.7*14
$GNGGA,035511.400,2500.8031567,N,12132.4295936,E,4,41,0.72,16.820,M,15.25,M,1,3335*45
$GNRMC,035511.400,A,2500.8031567,N,12132.4295936,E,0.08,3.09,090324,,,R,V*1C
$GPHDT,316.929,T*33
$GNACCURACY,5.7*14
$GNGGA,035511.500,2500.8031531,N,12132.4295915,E,4,41,0.72,16.808,M,15.25,M,1,3335*4C
$GNRMC,035511.500,A,2500.8031531,N,12132.4295915,E,0.08,3.09,090324,,,R,V*1F
$GPHDT,,T*1B
$GNACCURACY,5.7*14
$GNGGA,035511.600,2500.8031555,N,12132.4295937,E,4,41,0.72,16.817,M,15.25,M,1,3335*43
$GNRMC,035511.600,A,2500.8031555,N,12132.4295937,E,0.10,3.09,090324,,,R,V*17
$GPHDT,316.884,T*35
$GNACCURACY,5.7*14
$GNGGA,035511.700,2500.8031542,N,12132.4295936,E,4,41,0.72,16.812,M,15.25,M,1,3335*40
$GNRMC,035511.700,A,2500.8031542,N,12132.4295936,E,0.11,3.09,090324,,,R,V*10
$GPHDT,,T*1B
$GNACCURACY,5.7*14
$GNGGA,035511.800,2500.8031540,N,12132.4295915,E,4,41,0.72,16.805,M,15.25,M,0,3335*4B
$GNRMC,035511.800,A,2500.8031540,N,12132.4295915,E,0.17,3.09,090324,,,R,V*1A
$GPHDT,317.038,T*3B
$GNACCURACY,5.7*14
$GNGGA,035511.900,2500.8031564,N,12132.4295918,E,4,41,0.72,16.813,M,15.25,M,0,3335*46
$GNRMC,035511.900,A,2500.8031564,N,12132.4295918,E,0.16,3.09,090324,,,R,V*11
$GPHDT,,T*1B
$GNACCURACY,5.7*14
$GNGGA,035512.000,2500.8031540,N,12132.4295912,E,4,41,0.72,16.810,M,15.25,M,1,3335*42
$GNRMC,035512.000,A,2500.8031540,N,12132.4295912,E,0.15,3.09,090324,,,R,V*14
$GPHDT,317.442,T*32
$GNACCURACY,5.7*14
$GNGGA,035512.100,2500.8031576,N,12132.4295946,E,4,41,0.72,16.813,M,15.25,M,1,3335*44
$GNRMC,035512.100,A,2500.8031576,N,12132.4295946,E,0.12,3.09,090324,,,R,V*16
$GPHDT,,T*1B
$GNGSA,A,3,08,194,195,199,21,27,07,16,26,,,,1.03,0.72,0.74,1*3F
$GNGSA,A,3,88,78,77,,,,,,,,,,1.03,0.72,0.74,2*09
$GNGSA,A,3,13,21,27,,,,,,,,,,1.03,0.72,0.74,3*03
$GNGSA,A,3,09,16,23,43,40,07,39,10,25,37,34,,1.03,0.72,0.74,4*04
$GPGSV,3,1,11,08,67,342,45,194,64,050,45,195,62,118,43,50,60,167,30,1*67
$GPGSV,3,2,11,199,60,167,28,21,53,162,48,27,38,033,44,07,36,319,41,1*56
$GPGSV,3,3,11,16,30,069,45,196,20,170,22,26,11,094,15,1*69
$GPGSV,2,1,06,08,67,342,46,194,64,050,47,195,62,118,45,199,60,167,37,8*5D
$GPGSV,2,2,06,27,38,033,44,26,11,094,22,8*6C
$GLGSV,1,1,04,88,62,039,44,78,53,025,45,77,27,103,24,87,09,026,27,1*7B
$GAGSV,2,1,05,13,54,091,43,21,53,004,38,26,38,173,,27,30,074,43,7*7B
$GAGSV,2,2,05,04,12,304,,7*46
$GAGSV,1,1,03,13,54,091,41,21,53,004,39,27,30,074,41,1*43
$GBGSV,3,1,11,09,74,277,32,16,72,197,35,23,70,015,45,43,64,040,45,1*75
$GBGSV,3,2,11,40,62,325,42,07,61,304,42,39,61,184,36,10,51,285,36,1*7E
$GBGSV,3,3,11,25,41,111,45,37,25,319,39,34,16,039,18,1*45
$GBGSV,2,1,07,23,70,015,43,43,64,040,46,40,62,325,45,39,61,184,42,4*72
$GBGSV,2,2,07,25,41,111,44,37,25,319,38,34,16,039,26,4*4A
$GNACCURACY,5.7*14
$PAIRSAT,1,14,7,0,1,8,0,21,16,0,1,20,0,200,21,0,201,22,0,200,23,0,200,24,0,200,26,0,20,27,0,21,194,0,21,195,0,221,196,0,200,199,0,621*7D
$PAIRSAT,2,11,75,0,200,76,0,200,77,0,1,78,0,201,79,0,200,80,0,200,84,0,200,85,0,200,86,0,200,87,0,201,88,0,201*58
$PAIRSAT,3,10,2,0,200,3,0,200,4,0,200,13,0,21,21,0,1,25,0,1000,26,0,1000,27,0,1021,33,0,200,36,0,200*4B
$PAIRSAT,4,36,3,0,400,7,0,1,9,0,201,10,0,201,11,0,200,12,0,200,13,0,200,14,0,200,16,0,1,19,0,400,20,0,400,21,0,400,22,0,400,23,0,421,24,0,400,25,0,421,26,0,400,27,0,400,28,0,400,29,0,400,30,0,400,32,0,400,33,0,400,34,0,421,35,0,400,36,0,400,37,0,421,38,0,400,39,0,421,40,0,421,41,0,400,42,0,400,43,0,421,44,0,400,45,0,400,46,0,400*48
$PAIRDGP,0*45
$GNGGA,035512.200,2500.8031532,N,12132.4295895,E,4,41,0.72,16.808,M,15.25,M,1,3335*42
$GNRMC,035512.200,A,2500.8031532,N,12132.4295895,E,0.05,3.09,090324,,,R,V*1C
$GPHDT,317.274,T*31
$GNACCURACY,5.8*1B
$GNGGA,035512.300,2500.8031553,N,12132.4295917,E,4,41,0.72,16.813,M,15.25,M,1,3335*45
$GNRMC,035512.300,A,2500.8031553,N,12132.4295917,E,0.08,3.09,090324,,,R,V*1C
$GPHDT,,T*1B
$GNACCURACY,5.7*14
$GNGGA,035512.400,2500.8031554,N,12132.4295921,E,4,41,0.72,16.816,M,15.25,M,1,3335*45
$GNRMC,035512.400,A,2500.8031554,N,12132.4295921,E,0.08,3.09,090324,,,R,V*19
$GPHDT,317.640,T*32
$GNACCURACY,5.7*14
$GNGGA,035512.500,2500.8031578,N,12132.4295945,E,4,41,0.72,16.818,M,15.25,M,1,3335*46
$GNRMC,035512.500,A,2500.8031578,N,12132.4295945,E,0.10,3.09,090324,,,R,V*1D
$GPHDT,,T*1B
$GNACCURACY,5.7*14
$GNGGA,035512.600,2500.8031516,N,12132.4295908,E,4,41,0.72,16.799,M,15.25,M,1,3335*42
$GNRMC,035512.600,A,2500.8031516,N,12132.4295908,E,0.11,3.09,090324,,,R,V*1E
$GPHDT,317.667,T*37
$GNACCURACY,5.7*14
$GNGGA,035512.700,2500.8031558,N,12132.4295926,E,4,41,0.72,16.811,M,15.25,M,1,3335*4A
$GNRMC,035512.700,A,2500.8031558,N,12132.4295926,E,0.11,3.09,090324,,,R,V*19
$GPHDT,,T*1B
$GNACCURACY,5.7*14
$GNGGA,035512.800,2500.8031544,N,12132.4295892,E,4,41,0.72,16.814,M,15.25,M,0,3335*42
$GNRMC,035512.800,A,2500.8031544,N,12132.4295892,E,0.11,3.09,090324,,,R,V*15
$GPHDT,317.193,T*3B
$GNACCURACY,5.7*14
$GNGGA,035512.900,2500.8031548,N,12132.4295908,E,4,41,0.72,16.809,M,15.25,M,0,3335*41
$GNRMC,035512.900,A,2500.8031548,N,12132.4295908,E,0.32,3.09,090324,,,R,V*1B
$GPHDT,,T*1B
$GNACCURACY,5.7*14
$GNGGA,035513.000,2500.8031545,N,12132.4295915,E,4,41,0.72,16.814,M,15.25,M,1,3335*45
$GNRMC,035513.000,A,2500.8031545,N,12132.4295915,E,0.15,3.09,090324,,,R,V*17
$GPHDT,317.033,T*30
$GNACCURACY,5.7*14
$GNGGA,035513.100,2500.8031544,N,12132.4295892,E,4,41,0.72,16.820,M,15.25,M,1,3335*4C
$GNRMC,035513.100,A,2500.8031544,N,12132.4295892,E,0.09,3.09,090324,,,R,V*14
$GPHDT,,T*1B
$GNGSA,A,3,08,194,195,199,21,27,07,16,26,,,,1.03,0.72,0.74,1*3F
$GNGSA,A,3,88,78,77,,,,,,,,,,1.03,0.72,0.74,2*09
$GNGSA,A,3,13,21,27,,,,,,,,,,1.03,0.72,0.74,3*03
$GNGSA,A,3,09,16,23,43,40,07,39,10,25,37,34,,1.03,0.72,0.74,4*04
$GPGSV,3,1,11,08,67,342,45,194,64,050,45,195,62,118,43,50,60,167,31,1*66
$GPGSV,3,2,11,199,60,167,28,21,53,162,48,27,38,033,44,07,36,319,41,1*56
$GPGSV,3,3,11,16,30,069,45,196,20,170,21,26,11,094,15,1*6A
$GPGSV,2,1,06,08,67,342,46,194,64,050,47,195,62,118,45,199,60,167,37,8*5D
$GPGSV,2,2,06,27,38,033,44,26,11,094,22,8*6C
$GLGSV,1,1,04,88,62,039,44,78,53,025,45,77,27,103,24,87,09,026,27,1*7B
$GAGSV,2,1,05,13,54,091,43,21,53,004,38,26,38,173,,27,30,074,43,7*7B
$GAGSV,2,2,05,04,12,304,,7*46
$GAGSV,1,1,03,13,54,091,41,21,53,004,39,27,30,074,41,1*43
$GBGSV,3,1,11,09,74,277,31,16,72,197,35,23,70,016,45,43,64,040,46,1*76
$GBGSV,3,2,11,40,62,325,42,07,61,304,42,39,61,184,36,10,51,285,36,1*7E
$GBGSV,3,3,11,25,41,111,45,37,25,319,39,34,16,039,18,1*45
$GBGSV,2,1,07,23,70,016,43,43,64,040,46,40,62,325,45,39,61,184,42,4*71
$GBGSV,2,2,07,25,41,111,44,37,25,319,38,34,16,039,26,4*4A
$GNACCURACY,5.7*14
$PAIRSAT,1,14,7,0,1,8,0,21,16,0,1,20,0,200,21,0,201,22,0,200,23,0,200,24,0,200,26,0,20,27,0,21,194,0,21,195,0,221,196,0,200,199,0,621*7D
$PAIRSAT,2,11,75,0,200,76,0,200,77,0,1,78,0,201,79,0,200,80,0,200,84,0,200,85,0,200,86,0,200,87,0,201,88,0,201*58
$PAIRSAT,3,10,2,0,200,3,0,200,4,0,200,13,0,21,21,0,1,25,0,1000,26,0,1000,27,0,1021,33,0,200,36,0,200*4B
$PAIRSAT,4,36,3,0,400,7,0,1,9,0,201,10,0,201,11,0,200,12,0,200,13,0,200,14,0,200,16,0,1,19,0,400,20,0,400,21,0,400,22,0,400,23,0,421,24,0,400,25,0,421,26,0,400,27,0,400,28,0,400,29,0,400,30,0,400,32,0,400,33,0,400,34,0,421,35,0,400,36,0,400,37,0,421,38,0,400,39,0,421,40,0,421,41,0,400,42,0,400,43,0,421,44,0,400,45,0,400,46,0,400*48
$PAIRDGP,0*45
$GNGGA,035513.200,2500.8031546,N,12132.4295917,E,4,41,0.72,16.819,M,15.25,M,1,3335*4B
$GNRMC,035513.200,A,2500.8031546,N,12132.4295917,E,0.06,3.09,090324,,,R,V*16
$GPHDT,317.319,T*3B
$GNACCURACY,5.7*14
$GNGGA,035513.300,2500.8031585,N,12132.4295936,E,4,41,0.72,16.818,M,15.25,M,1,3335*47
$GNRMC,035513.300,A,2500.8031585,N,12132.4295936,E,0.08,3.09,090324,,,R,V*15
$GPHDT,,T*1B
$GNACCURACY,5.7*14
$GNGGA,035513.400,2500.8031568,N,12132.4295929,E,4,41,0.72,16.810,M,15.25,M,1,3335*45
$GNRMC,035513.400,A,2500.8031568,N,12132.4295929,E,0.07,3.09,090324,,,R,V*10
$GPHDT,316.852,T*3E
$GNACCURACY,5.8*1B
$GNGGA,035513.500,2500.8031563,N,12132.4295947,E,4,41,0.72,16.809,M,15.25,M,0,3335*4E
$GNRMC,035513.500,A,2500.8031563,N,12132.4295947,E,0.08,3.09,090324,,,R,V*1D
$GPHDT,,T*1B
$GNACCURACY,5.7*14
$GNGGA,035513.600,2500.8031572,N,12132.4295952,E,4,41,0.72,16.809,M,15.25,M,0,3335*49
$GNRMC,035513.600,A,2500.8031572,N,12132.4295952,E,0.10,3.09,090324,,,R,V*13
$GPHDT,316.305,T*37
$GNACCURACY,5.7*14
$GNGGA,035513.700,2500.8031560,N,12132.4295949,E,4,41,0.72,16.805,M,15.25,M,0,3335*4D
$GNRMC,035513.700,A,2500.8031560,N,12132.4295949,E,0.13,3.09,090324,,,R,V*18
$GPHDT,,T*1B
$GNACCURACY,5.7*14
$GNGGA,035513.800,2500.8031581,N,12132.4295949,E,4,41,0.72,16.811,M,15.25,M,0,3335*48
$GNRMC,035513.800,A,2500.8031581,N,12132.4295949,E,0.11,3.09,090324,,,R,V*1A
$GPHDT,316.239,T*39
$GNACCURACY,5.7*14
$GNGGA,035513.900,2500.8031557,N,12132.4295941,E,4,41,0.72,16.804,M,15.25,M,0,3335*4E
$GNRMC,035513.900,A,2500.8031557,N,12132.4295941,E,0.15,3.09,090324,,,R,V*1C
$GPHDT,,T*1B
$GNACCURACY,5.7*14
$GNGGA,035514.000,2500.8031554,N,12132.4295957,E,4,41,0.72,16.806,M,15.25,M,1,3335*47
$GNRMC,035514.000,A,2500.8031554,N,12132.4295957,E,0.18,3.09,090324,,,R,V*1B
$GPHDT,316.867,T*38
$GNACCURACY,5.7*14
$GNGGA,035514.100,2500.8031563,N,12132.4295950,E,4,41,0.72,16.808,M,15.25,M,1,3335*4B
$GNRMC,035514.100,A,2500.8031563,N,12132.4295950,E,0.08,3.09,090324,,,R,V*18
$GPHDT,,T*1B
$GNGSA,A,3,08,194,195,199,21,27,07,16,26,,,,1.03,0.72,0.74,1*3F
$GNGSA,A,3,88,78,77,,,,,,,,,,1.03,0.72,0.74,2*09
$GNGSA,A,3,13,21,27,,,,,,,,,,1.03,0.72,0.74,3*03
$GNGSA,A,3,09,16,23,43,40,07,39,10,25,37,34,,1.03,0.72,0.74,4*04
$GPGSV,3,1,11,08,67,342,45,194,64,050,45,195,62,118,43,50,60,167,31,1*66
$GPGSV,3,2,11,199,60,167,28,21,53,162,48,27,38,033,44,07,36,319,41,1*56
$GPGSV,3,3,11,16,30,069,45,196,20,170,22,26,11,094,15,1*69
$GPGSV,2,1,06,08,67,342,46,194,64,050,47,195,62,118,45,199,60,167,37,8*5D
$GPGSV,2,2,06,27,38,033,44,26,11,094,24,8*6A
$GLGSV,1,1,04,88,62,039,44,78,53,025,45,77,27,103,24,87,09,026,28,1*74
$GAGSV,2,1,05,13,54,091,43,21,53,004,38,26,38,173,,27,30,074,43,7*7B
$GAGSV,2,2,05,04,12,304,,7*46
$GAGSV,1,1,03,13,54,091,42,21,53,004,39,27,30,074,41,1*40
$GBGSV,3,1,11,09,74,277,31,16,72,197,35,23,70,016,45,43,64,040,46,1*76
$GBGSV,3,2,11,40,62,325,42,07,61,304,42,39,61,184,36,10,51,285,36,1*7E
$GBGSV,3,3,11,25,41,111,45,37,25,319,39,34,16,039,18,1*45
$GBGSV,2,1,07,23,70,016,43,43,64,040,46,40,62,325,45,39,61,184,42,4*71
$GBGSV,2,2,07,25,41,111,44,37,25,319,38,34,16,039,26,4*4A
$GNACCURACY,5.7*14
$PAIRSAT,1,14,7,0,1,8,0,21,16,0,1,20,0,200,21,0,201,22,0,200,23,0,200,24,0,200,26,0,20,27,0,21,194,0,21,195,0,221,196,0,200,199,0,621*7D
$PAIRSAT,2,11,75,0,200,76,0,200,77,0,1,78,0,201,79,0,200,80,0,200,84,0,200,85,0,200,86,0,200,87,0,201,88,0,201*58
$PAIRSAT,3,10,2,0,200,3,0,200,4,0,200,13,0,21,21,0,1,25,0,1000,26,0,1000,27,0,1021,33,0,200,36,0,200*4B
$PAIRSAT,4,36,3,0,400,7,0,1,9,0,201,10,0,201,11,0,200,12,0,200,13,0,200,14,0,200,16,0,1,19,0,400,20,0,400,21,0,400,22,0,400,23,0,421,24,0,400,25,0,421,26,0,400,27,0,400,28,0,400,29,0,400,30,0,400,32,0,400,33,0,400,34,0,421,35,0,400,36,0,400,37,0,421,38,0,400,39,0,421,40,0,421,41,0,400,42,0,400,43,0,421,44,0,400,45,0,400,46,0,400*48
$PAIRDGP,0*45
$GNGGA,035514.200,2500.8031551,N,12132.4295941,E,4,41,0.72,16.813,M,15.25,M,1,3335*43
$GNRMC,035514.200,A,2500.8031551,N,12132.4295941,E,0.08,3.09,090324,,,R,V*1A
$GPHDT,317.291,T*3A
$GNACCURACY,5.7*14
$GNGGA,035514.300,2500.8031537,N,12132.4295936,E,4,41,0.72,16.809,M,15.25,M,1,3335*49
$GNRMC,035514.300,A,2500.8031537,N,12132.4295936,E,0.08,3.09,090324,,,R,V*1B
$GPHDT,,T*1B
$GNACCURACY,5.7*14
$GNGGA,035514.400,2500.8031561,N,12132.4295952,E,4,41,0.72,16.800,M,15.25,M,1,3335*46
$GNRMC,035514.400,A,2500.8031561,N,12132.4295952,E,0.07,3.09,090324,,,R,V*12
$GPHDT,317.385,T*3E
$GNACCURACY,5.7*14
$GNGGA,035514.500,2500.8031566,N,12132.4295967,E,4,41,0.72,16.803,M,15.25,M,1,3335*45
$GNRMC,035514.500,A,2500.8031566,N,12132.4295967,E,0.05,3.09,090324,,,R,V*10
$GPHDT,,T*1B
$GNACCURACY,5.8*1B
$GNGGA,035514.600,2500.8031555,N,12132.4295939,E,4,41,0.72,16.804,M,15.25,M,1,3335*4A
$GNRMC,035514.600,A,2500.8031555,N,12132.4295939,E,0.07,3.09,090324,,,R,V*1A
$GPHDT,317.361,T*34
$GNACCURACY,5.7*14
$GNGGA,035514.700,2500.8031561,N,12132.4295934,E,4,41,0.72,16.805,M,15.25,M,0,3335*41
$GNRMC,035514.700,A,2500.8031561,N,12132.4295934,E,0.11,3.09,090324,,,R,V*16
$GPHDT,,T*1B
$GNACCURACY,5.7*14
$GNGGA,035514.800,2500.8031585,N,12132.4295962,E,4,41,0.72,16.814,M,15.25,M,0,3335*47
$GNRMC,035514.800,A,2500.8031585,N,12132.4295962,E,0.13,3.09,090324,,,R,V*12
$GPHDT,316.977,T*38
$GNACCURACY,5.7*14
$GNGGA,035514.900,2500.8031564,N,12132.4295958,E,4,41,0.72,16.804,M,15.25,M,0,3335*41
$GNRMC,035514.900,A,2500.8031564,N,12132.4295958,E,0.14,3.09,090324,,,R,V*12
$GPHDT,,T*1B
$GNACCURACY,5.8*1B
$GNGGA,035515.000,2500.8031554,N,12132.4295927,E,4,41,0.72,16.798,M,15.25,M,1,3335*49
$GNRMC,035515.000,A,2500.8031554,N,12132.4295927,E,0.06,3.09,090324,,,R,V*12
$GPHDT,317.243,T*35
$GNACCURACY,5.8*1B
$GNGGA,035515.100,2500.8031575,N,12132.4295960,E,4,41,0.72,16.807,M,15.25,M,1,3335*41
$GNRMC,035515.100,A,2500.8031575,N,12132.4295960,E,0.08,3.09,090324,,,R,V*1D
$GPHDT,,T*1B
$GNGSA,A,3,08,194,195,199,21,27,07,16,26,,,,1.35,0.77,1.11,1*3D
$GNGSA,A,3,88,78,77,,,,,,,,,,1.35,0.77,1.11,2*0B
$GNGSA,A,3,13,21,27,,,,,,,,,,1.35,0.77,1.11,3*01
$GNGSA,A,3,09,16,23,43,40,07,39,10,25,37,34,,1.35,0.77,1.11,4*06
$GPGSV,3,1,11,08,67,342,45,194,64,050,45,195,62,118,43,50,60,167,30,1*67
$GPGSV,3,2,11,199,60,167,28,21,53,162,48,27,38,033,44,07,36,319,41,1*56
$GPGSV,3,3,11,16,30,069,45,196,20,170,22,26,11,094,14,1*68
$GPGSV,2,1,06,08,67,342,46,194,64,050,47,195,62,118,45,199,60,167,36,8*5C
$GPGSV,2,2,06,27,38,033,44,26,11,094,22,8*6C
$GLGSV,1,1,04,88,62,039,44,78,53,025,44,77,27,103,24,87,09,026,28,1*75
$GAGSV,2,1,05,13,54,091,43,21,53,004,38,26,38,173,,27,30,074,43,7*7B
$GAGSV,2,2,05,04,12,304,,7*46
$GAGSV,1,1,03,13,54,091,42,21,53,004,39,27,30,074,41,1*40
$GBGSV,3,1,11,09,74,277,31,16,72,197,35,23,70,016,45,43,64,040,46,1*76
$GBGSV,3,2,11,40,62,325,42,07,61,304,42,39,61,184,36,10,51,285,36,1*7E
$GBGSV,3,3,11,25,41,111,45,37,25,319,39,34,16,039,16,1*4B
$GBGSV,2,1,07,23,70,016,43,43,64,040,46,40,62,325,45,39,61,184,42,4*71
$GBGSV,2,2,07,25,41,111,44,37,25,319,39,34,16,039,27,4*4A
$GNACCURACY,5.8*1B
$PAIRSAT,1,14,7,0,1,8,0,21,16,0,1,20,0,200,21,0,201,22,0,200,23,0,200,24,0,200,26,0,20,27,0,21,194,0,21,195,0,221,196,0,200,199,0,621*7D
$PAIRSAT,2,11,75,0,200,76,0,200,77,0,1,78,0,201,79,0,200,80,0,200,84,0,200,85,0,200,86,0,200,87,0,201,88,0,201*58
$PAIRSAT,3,10,2,0,200,3,0,200,4,0,200,13,0,21,21,0,1,25,0,1000,26,0,1000,27,0,1021,33,0,200,36,0,200*4B
$PAIRSAT,4,36,3,0,400,7,0,1,9,0,201,10,0,201,11,0,200,12,0,200,13,0,200,14,0,200,16,0,1,19,0,400,20,0,400,21,0,400,22,0,400,23,0,421,24,0,400,25,0,421,26,0,400,27,0,400,28,0,400,29,0,400,30,0,400,32,0,400,33,0,400,34,0,421,35,0,400,36,0,400,37,0,421,38,0,400,39,0,421,40,0,421,41,0,400,42,0,400,43,0,421,44,0,400,45,0,400,46,0,400*48
$PAIRDGP,0*45
$GNGGA,035515.200,2500.8031556,N,12132.4295923,E,4,41,0.77,16.805,M,15.25,M,1,3335*43
$GNRMC,035515.200,A,2500.8031556,N,12132.4295923,E,0.01,3.09,090324,,,R,V*11
$GPHDT,317.016,T*37
$GNACCURACY,5.8*1B
$GNGGA,035515.300,2500.8031568,N,12132.4295941,E,4,41,0.77,16.804,M,15.25,M,1,3335*4A
$GNRMC,035515.300,A,2500.8031568,N,12132.4295941,E,0.01,3.09,090324,,,R,V*19
$GPHDT,,T*1B
$GNACCURACY,5.8*1B
$GNGGA,035515.400,2500.8031548,N,12132.4295937,E,4,41,0.77,16.791,M,15.25,M,1,3335*4D
$GNRMC,035515.400,A,2500.8031548,N,12132.4295937,E,0.02,3.09,090324,,,R,V*1E
$GPHDT,316.573,T*30
$GNACCURACY,5.8*1B
$GNGGA,035515.500,2500.8031577,N,12132.4295931,E,4,41,0.77,16.829,M,15.25,M,0,3335*4B
$GNRMC,035515.500,A,2500.8031577,N,12132.4295931,E,0.01,3.09,090324,,,R,V*16
$GPHDT,,T*1B
$GNACCURACY,5.7*14
$GNGGA,035515.600,2500.8031518,N,12132.4295900,E,4,41,0.77,16.809,M,15.25,M,0,3335*41
$GNRMC,035515.600,A,2500.8031518,N,12132.4295900,E,0.01,3.09,090324,,,R,V*1E
$GPHDT,317.162,T*35
$GNACCURACY,5.8*1B
$GNGGA,035515.700,2500.8031539,N,12132.4295908,E,4,41,0.77,16.821,M,15.25,M,0,3335*41
$GNRMC,035515.700,A,2500.8031539,N,12132.4295908,E,0.02,3.09,090324,,,R,V*17
$GPHDT,,T*1B
$GNACCURACY,5.7*14
$GNGGA,035515.800,2500.8031549,N,12132.4295899,E,4,41,0.77,16.813,M,15.25,M,0,3335*41
$GNRMC,035515.800,A,2500.8031549,N,12132.4295899,E,0.19,3.09,090324,,,R,V*1C
$GPHDT,316.491,T*3D
$GNACCURACY,5.7*14
$GNGGA,035515.900,2500.8031547,N,12132.4295922,E,4,41,0.77,16.810,M,15.25,M,0,3335*4C
$GNRMC,035515.900,A,2500.8031547,N,12132.4295922,E,0.10,3.09,090324,,,R,V*1B
$GPHDT,,T*1B
$GNACCURACY,5.7*14
$GNGGA,035516.000,2500.8031550,N,12132.4295932,E,4,41,0.77,16.819,M,15.25,M,1,3335*49
$GNRMC,035516.000,A,2500.8031550,N,12132.4295932,E,0.03,3.09,090324,,,R,V*14
$GPHDT,316.307,T*35
$GNACCURACY,5.7*14
$GNGGA,035516.100,2500.8031529,N,12132.4295918,E,4,41,0.77,16.817,M,15.25,M,1,3335*40
$GNRMC,035516.100,A,2500.8031529,N,12132.4295918,E,0.01,3.09,090324,,,R,V*11
$GPHDT,,T*1B
$GNGSA,A,3,08,194,195,199,21,27,07,16,26,,,,1.35,0.77,1.11,1*3D
$GNGSA,A,3,88,78,77,,,,,,,,,,1.35,0.77,1.11,2*0B
$GNGSA,A,3,13,21,27,,,,,,,,,,1.35,0.77,1.11,3*01
$GNGSA,A,3,09,16,23,43,40,07,39,10,25,37,34,,1.35,0.77,1.11,4*06
$GPGSV,3,1,11,08,67,342,44,194,64,050,45,195,62,118,43,50,60,167,31,1*67
$GPGSV,3,2,11,199,60,167,28,21,53,162,49,27,38,033,44,07,36,319,41,1*57
$GPGSV,3,3,11,16,30,069,44,196,20,170,21,26,11,094,13,1*6D
$GPGSV,2,1,06,08,67,342,46,194,64,050,47,195,62,118,45,199,60,167,35,8*5F
$GPGSV,2,2,06,27,38,033,44,26,11,094,21,8*6F
$GLGSV,1,1,04,88,62,039,44,78,53,025,44,77,27,103,27,87,09,026,28,1*76
$GAGSV,1,1,04,13,54,091,44,21,53,004,38,27,30,074,43,04,12,304,,7*74
$GAGSV,1,1,03,13,54,091,42,21,53,004,37,27,30,074,41,1*4E
$GBGSV,3,1,11,09,74,277,31,16,72,197,36,23,70,016,45,43,64,040,46,1*75
$GBGSV,3,2,11,40,62,325,42,07,61,304,42,39,61,184,36,10,51,285,36,1*7E
$GBGSV,3,3,11,25,41,111,45,37,25,319,39,34,16,039,20,1*4E
$GBGSV,2,1,07,23,70,016,43,43,64,040,46,40,62,325,45,39,61,184,41,4*72
$GBGSV,2,2,07,25,41,111,44,37,25,319,39,34,16,039,27,4*4A
$GNACCURACY,5.8*1B
$PAIRSAT,1,14,7,0,1,8,0,21,16,0,1,20,0,200,21,0,201,22,0,200,23,0,200,24,0,200,26,0,20,27,0,21,194,0,21,195,0,221,196,0,200,199,0,621*7D
$PAIRSAT,2,11,75,0,200,76,0,200,77,0,1,78,0,201,79,0,200,80,0,200,84,0,200,85,0,200,86,0,200,87,0,201,88,0,201*58
$PAIRSAT,3,10,2,0,200,3,0,200,4,0,200,13,0,21,21,0,1,25,0,1000,26,0,1000,27,0,1021,33,0,200,36,0,200*4B
$PAIRSAT,4,36,3,0,400,7,0,1,9,0,201,10,0,201,11,0,200,12,0,200,13,0,200,14,0,200,16,0,1,19,0,400,20,0,400,21,0,400,22,0,400,23,0,421,24,0,400,25,0,421,26,0,400,27,0,400,28,0,400,29,0,400,30,0,400,32,0,400,33,0,400,34,0,421,35,0,400,36,0,400,37,0,421,38,0,400,39,0,421,40,0,421,41,0,400,42,0,400,43,0,421,44,0,400,45,0,400,46,0,400*48
$PAIRDGP,0*45
$GNGGA,035516.200,2500.8031533,N,12132.4295899,E,4,41,0.77,16.815,M,15.25,M,1,3335*42
$GNRMC,035516.200,A,2500.8031533,N,12132.4295899,E,0.01,3.09,090324,,,R,V*11
$GPHDT,316.838,T*32
$GNACCURACY,5.7*14
$GNGGA,035516.300,2500.8031548,N,12132.4295916,E,4,41,0.77,16.814,M,15.25,M,1,3335*48
$GNRMC,035516.300,A,2500.8031548,N,12132.4295916,E,0.02,3.09,090324,,,R,V*19
$GPHDT,,T*1B
$GNACCURACY,5.8*1B
$GNGGA,035516.400,2500.8031570,N,12132.4295934,E,4,41,0.77,16.823,M,15.25,M,1,3335*40
$GNRMC,035516.400,A,2500.8031570,N,12132.4295934,E,0.02,3.09,090324,,,R,V*15
$GPHDT,316.035,T*37
$GNACCURACY,5.8*1B
$GNGGA,035516.500,2500.8031540,N,12132.4295930,E,4,41,0.77,16.815,M,15.25,M,1,3335*43
$GNRMC,035516.500,A,2500.8031540,N,12132.4295930,E,0.01,3.09,090324,,,R,V*10
$GPHDT,,T*1B
$GNACCURACY,5.8*1B
$GNGGA,035516.600,2500.8031555,N,12132.4295931,E,4,41,0.77,16.816,M,15.25,M,0,3335*47
$GNRMC,035516.600,A,2500.8031555,N,12132.4295931,E,0.01,3.09,090324,,,R,V*16
$GPHDT,316.284,T*3F
$GNACCURACY,5.8*1B
$GNGGA,035516.700,2500.8031530,N,12132.4295912,E,4,41,0.77,16.808,M,15.25,M,0,3335*4B
$GNRMC,035516.700,A,2500.8031530,N,12132.4295912,E,0.01,3.09,090324,,,R,V*15
$GPHDT,,T*1B
$GNACCURACY,5.8*1B
$GNGGA,035516.800,2500.8031556,N,12132.4295940,E,4,41,0.77,16.809,M,15.25,M,0,3335*42
$GNRMC,035516.800,A,2500.8031556,N,12132.4295940,E,0.18,3.09,090324,,,R,V*15
$GPHDT,316.111,T*30
$GNACCURACY,5.8*1B
$GNGGA,035516.900,2500.8031541,N,12132.4295918,E,4,41,0.77,16.817,M,15.25,M,0,3335*47
$GNRMC,035516.900,A,2500.8031541,N,12132.4295918,E,0.10,3.09,090324,,,R,V*17
$GPHDT,,T*1B
$GNACCURACY,5.8*1B
$GNGGA,035517.000,2500.8031556,N,12132.4295935,E,4,41,0.77,16.809,M,15.25,M,1,3335*48
$GNRMC,035517.000,A,2500.8031556,N,12132.4295935,E,0.01,3.09,090324,,,R,V*16
$GPHDT,316.046,T*33
$GNACCURACY,5.8*1B
$GNGGA,035517.100,2500.8031546,N,12132.4295941,E,4,41,0.77,16.814,M,15.25,M,1,3335*47
$GNRMC,035517.100,A,2500.8031546,N,12132.4295941,E,0.02,3.09,090324,,,R,V*16
$GPHDT,,T*1B
