$FW : RTK35X,V1.1X0314AS,Lib20210517,1*54
$Tool : LOCOSYS , GNSS Firebird , v1.0.0.19*39
$---------------------------------------------------*2D
79
$GBGSV,4,2,15,16,66,256,41,06,65,252,39,46,59,113,42,09,49,237,22,1*74
$GBGSV,4,3,15,19,48,344,34,20,43,062,32,36,34,184,17,37,23,048,37,1*71
$GBGSV,4,4,15,35,21,270,31,29,19,212,28,22,11,301,31,1*48
$GBGSV,3,1,09,38,83,106,32,39,71,282,37,46,59,113,42,19,48,344,31,4*70
$GBGSV,3,2,09,20,43,062,25,36,34,184,28,37,23,048,29,35,21,270,35,4*7C
$GBGSV,3,3,09,22,11,301,29,4*43
$GNACCURACY,2.7*13
$PAIRSAT,1,35,1,0,200,2,0,200,3,0,200,4,0,200,5,0,201,6,0,200,7,0,200,8,0,200,9,0,200,10,0,221,11,0,200,12,0,201,13,0,201,14,0,200,15,0,201,16,0,200,17,0,200,18,0,221,19,0,200,20,0,200,21,0,200,23,0,221,24,0,221,25,0,200,26,0,200,27,0,200,28,0,200,29,0,200,30,0,200,31,0,200,32,0,221,194,0,621,195,0,621,196,0,620,199,0,621*68
$PAIRSAT,2,23,65,0,200,67,0,200,68,0,200,69,0,201,70,0,201,71,0,201,72,0,200,73,0,201,74,0,200,75,0,200,76,0,200,77,0,200,78,0,200,79,0,201,80,0,201,81,0,200,82,0,200,83,0,200,84,0,200,85,0,201,86,0,201,87,0,200,88,0,200*53
$PAIRSAT,3,23,2,0,1221,3,0,1221,4,0,1200,5,0,200,7,0,1221,8,0,1221,9,0,1200,10,0,1200,11,0,1200,12,0,1200,13,0,1221,15,0,1221,19,0,1200,21,0,1200,24,0,1200,25,0,1200,26,0,1221,27,0,1200,30,0,1221,31,0,1200,33,0,1200,34,0,1200,36,0,1200*6A
$PAIRSAT,4,50,1,0,200,2,0,200,3,0,200,4,0,200,5,0,200,6,0,201,7,0,200,8,0,201,9,0,201,10,0,200,11,0,200,12,0,200,13,0,201,14,0,200,15,0,200,16,0,201,19,0,621,20,0,621,21,0,600,22,0,621,23,0,600,24,0,600,25,0,600,26,0,600,27,0,600,28,0,600,29,0,621,30,0,600,31,0,200,32,0,600,33,0,600,34,0,600,35,0,621,36,0,621,37,0,621,38,0,621,39,0,621,40,0,600,41,0,600,42,0,600,43,0,600,44,0,600,45,0,600,46,0,621,56,0,200,57,0,200,58,0,200,59,0,600,60,0,600,61,0,600*41
$PAIRDGP,11,5,10,12,13,15,18,23,24,25,29,32*6B
$GNGGA,112431.200,2500.8135600,N,12132.4727600,E,2,64,0.42,19.65,M,15.25,M,4,3335*74
$GNRMC,112431.200,A,2500.8135600,N,12132.4727600,E,0.00,234.24,260623,,,D,V*04
$GPHDT,,T*1B
$GNACCURACY,2.7*13
$GNGGA,112431.300,2500.8135600,N,12132.4727500,E,2,63,0.42,19.64,M,15.25,M,4,3335*70
$GNRMC,112431.300,A,2500.8135600,N,12132.4727500,E,0.00,234.24,260623,,,D,V*06
$GPHDT,,T*1B
$GNACCURACY,2.7*13
$GNGGA,112431.400,2500.8135600,N,12132.4727400,E,2,64,0.42,19.64,M,15.25,M,4,3335*71
$GNRMC,112431.400,A,2500.8135600,N,12132.4727400,E,0.00,234.24,260623,,,D,V*00
$GPHDT,,T*1B
$GNACCURACY,2.7*13
$GNGGA,112431.500,2500.8135700,N,12132.4727400,E,2,65,0.42,19.63,M,15.25,M,4,3335*77
$GNRMC,112431.500,A,2500.8135700,N,12132.4727400,E,0.00,234.24,260623,,,D,V*00
$GPHDT,,T*1B
$GNACCURACY,2.7*13
$GNGGA,112431.600,2500.8135700,N,12132.4727300,E,2,65,0.42,19.62,M,15.25,M,4,3335*72
$GNRMC,112431.600,A,2500.8135700,N,12132.4727300,E,0.00,234.24,260623,,,D,V*04
$GPHDT,,T*1B
$GNACCURACY,2.7*13
$GNGGA,112431.700,2500.8135800,N,12132.4727200,E,2,64,0.42,19.61,M,15.25,M,4,3335*7F
$GNRMC,112431.700,A,2500.8135800,N,12132.4727200,E,0.00,234.24,260623,,,D,V*0B
$GPHDT,,T*1B
$GNACCURACY,2.7*13
$GNGGA,112431.800,2500.8135800,N,12132.4727200,E,2,64,0.42,19.60,M,15.25,M,4,3335*71
$GNRMC,112431.800,A,2500.8135800,N,12132.4727200,E,0.00,234.24,260623,,,D,V*04
$GPHDT,,T*1B
$GNACCURACY,2.7*13
$GNGGA,112431.900,2500.8135800,N,12132.4727100,E,2,64,0.42,19.60,M,15.25,M,4,3335*73
$GNRMC,112431.900,A,2500.8135800,N,12132.4727100,E,0.00,234.24,260623,,,D,V*06
$GPHDT,,T*1B
$GNACCURACY,2.5*11
$GNGGA,112432.000,2500.8135900,N,12132.4727100,E,2,64,0.42,19.59,M,15.25,M,5,3335*73
$GNRMC,112432.000,A,2500.8135900,N,12132.4727100,E,0.00,234.24,260623,,,D,V*0D
$GPHDT,,T*1B
$GNACCURACY,2.5*11
$GNGGA,112432.100,2500.8135900,N,12132.4727000,E,2,64,0.42,19.58,M,15.25,M,5,3335*72
$GNRMC,112432.100,A,2500.8135900,N,12132.4727000,E,0.00,234.24,260623,,,D,V*0D
$GPHDT,,T*1B
$GNGSA,A,3,196,24,199,18,23,15,195,194,05,12,10,,0.76,0.42,0.63,1*00
$GNGSA,A,3,80,73,85,86,71,69,79,,,,,,0.76,0.42,0.63,2*08
$GNGSA,A,3,13,08,07,26,30,02,15,03,,,,,0.76,0.42,0.63,3*0E
$GNGSA,A,3,38,08,39,13,16,06,46,09,19,20,37,35,0.76,0.42,0.63,4*0F
$GNGSA,A,3,29,22,36,,,,,,,,,,0.76,0.42,0.63,4*08
$GPGSV,4,1,16,196,75,064,41,24,75,045,47,199,60,167,19,18,59,248,31,1*6D
$GPGSV,4,2,16,23,50,338,27,41,38,241,38,15,37,046,45,195,34,180,28,1*54
$GPGSV,4,3,16,194,30,139,41,05,20,118,32,12,20,142,39,10,17,318,33,1*5A
$GPGSV,4,4,16,13,09,056,,32,09,268,36,25,08,177,,29,01,197,,1*61
$GPGSV,3,1,09,196,75,064,44,24,75,045,46,199,60,167,40,18,59,248,34,8*60
$GPGSV,3,2,09,23,50,338,38,195,34,180,23,194,30,139,39,10,17,318,35,8*65
$GPGSV,3,3,09,32,09,268,31,8*52
$GLGSV,2,1,08,80,48,078,45,70,40,009,13,73,37,159,25,85,36,247,38,1*79
$GLGSV,2,2,08,86,27,303,44,71,21,313,41,69,13,073,19,79,12,033,19,1*7E
$GAGSV,2,1,08,13,57,233,31,08,47,024,26,07,44,302,43,26,32,307,40,7*75
$GAGSV,2,2,08,30,25,144,38,02,25,086,36,15,24,174,20,03,11,064,19,7*70
$GAGSV,2,1,07,13,57,233,34,08,47,024,33,07,44,302,47,26,32,307,44,1*7D
$GAGSV,2,2,07,02,25,086,36,30,25,144,41,15,24,174,20,1*4E
$GBGSV,5,1,18,38,83,106,31,08,79,004,34,39,71,282,36,13,68,334,40,1*76
$GBGSV,5,2,18,16,66,256,41,06,65,252,39,46,59,113,42,09,49,237,22,1*78
$GBGSV,5,3,18,19,48,344,34,56,47,311,,20,43,062,32,31,36,209,,1*76
$GBGSV,5,4,18,36,34,184,18,37,23,048,37,35,21,270,31,29,19,212,28,1*7F
$GBGSV,5,5,18,22,11,301,31,32,02,098,,1*7D
$GBGSV,3,1,09,38,83,106,31,39,71,282,37,46,59,113,43,19,48,344,31,4*72
$GBGSV,3,2,09,20,43,062,25,36,34,184,26,37,23,048,29,35,21,270,35,4*72
$GBGSV,3,3,09,22,11,301,29,4*43
$GNACCURACY,2.5*11
$PAIRSAT,1,35,1,0,200,2,0,200,3,0,200,4,0,200,5,0,201,6,0,200,7,0,200,8,0,200,9,0,200,10,0,221,11,0,200,12,0,201,13,0,201,14,0,200,15,0,201,16,0,200,17,0,200,18,0,221,19,0,200,20,0,200,21,0,200,23,0,221,24,0,221,25,0,200,26,0,200,27,0,200,28,0,200,29,0,200,30,0,200,31,0,200,32,0,221,194,0,621,195,0,621,196,0,620,199,0,621*68
$PAIRSAT,2,23,65,0,200,67,0,200,68,0,200,69,0,201,70,0,201,71,0,201,72,0,200,73,0,201,74,0,200,75,0,200,76,0,200,77,0,200,78,0,200,79,0,201,80,0,201,81,0,200,82,0,200,83,0,200,84,0,200,85,0,201,86,0,201,87,0,200,88,0,200*53
$PAIRSAT,3,23,2,0,1221,3,0,1221,4,0,1200,5,0,200,7,0,1221,8,0,1221,9,0,1200,10,0,1200,11,0,1200,12,0,1200,13,0,1221,15,0,1221,19,0,1200,21,0,1200,24,0,1200,25,0,1200,26,0,1221,27,0,1200,30,0,1221,31,0,1200,33,0,1200,34,0,1200,36,0,1200*6A
$PAIRSAT,4,50,1,0,200,2,0,200,3,0,200,4,0,200,5,0,200,6,0,201,7,0,200,8,0,201,9,0,201,10,0,200,11,0,200,12,0,200,13,0,201,14,0,200,15,0,200,16,0,201,19,0,621,20,0,621,21,0,600,22,0,621,23,0,600,24,0,600,25,0,600,26,0,600,27,0,600,28,0,600,29,0,621,30,0,600,31,0,200,32,0,600,33,0,600,34,0,600,35,0,621,36,0,621,37,0,621,38,0,621,39,0,621,40,0,600,41,0,600,42,0,600,43,0,600,44,0,600,45,0,600,46,0,621,56,0,200,57,0,200,58,0,200,59,0,600,60,0,600,61,0,600*41
$PAIRDGP,11,5,10,12,13,15,18,23,24,25,29,32*6B
$GNGGA,112432.200,2500.8135900,N,12132.4727000,E,2,64,0.42,19.57,M,15.25,M,5,3335*7E
$GNRMC,112432.200,A,2500.8135900,N,12132.4727000,E,0.00,234.24,260623,,,D,V*0E
$GPHDT,,T*1B
$GNACCURACY,2.5*11
$GNGGA,112432.300,2500.8136000,N,12132.4726900,E,2,64,0.42,19.57,M,15.25,M,5,3335*7D
$GNRMC,112432.300,A,2500.8136000,N,12132.4726900,E,0.00,234.24,260623,,,D,V*0D
$GPHDT,,T*1B
$GNACCURACY,2.5*11
$GNGGA,112432.400,2500.8136100,N,12132.4726800,E,2,64,0.42,19.56,M,15.25,M,5,3335*7B
$GNRMC,112432.400,A,2500.8136100,N,12132.4726800,E,0.00,234.24,260623,,,D,V*0A
$GPHDT,,T*1B
$GNACCURACY,2.5*11
$GNGGA,112432.500,2500.8136100,N,12132.4726800,E,2,64,0.42,19.55,M,15.25,M,5,3335*79
$GNRMC,112432.500,A,2500.8136100,N,12132.4726800,E,0.00,234.24,260623,,,D,V*0B
$GPHDT,,T*1B
$GNACCURACY,2.5*11
$GNGGA,112432.600,2500.8136100,N,12132.4726800,E,2,64,0.42,19.55,M,15.25,M,5,3335*7A
$GNRMC,112432.600,A,2500.8136100,N,12132.4726800,E,0.00,234.24,260623,,,D,V*08
$GPHDT,,T*1B
$GNACCURACY,2.5*11
$GNGGA,112432.700,2500.8136200,N,12132.4726800,E,2,65,0.42,19.54,M,15.25,M,5,3335*78
$GNRMC,112432.700,A,2500.8136200,N,12132.4726800,E,0.00,234.24,260623,,,D,V*0A
$GPHDT,,T*1B
$GNACCURACY,2.5*11
$GNGGA,112432.800,2500.8136200,N,12132.4726700,E,2,65,0.42,19.53,M,15.25,M,5,3335*7F
$GNRMC,112432.800,A,2500.8136200,N,12132.4726700,E,0.00,234.24,260623,,,D,V*0A
$GPHDT,,T*1B
$GNACCURACY,2.5*11
$GNGGA,112432.900,2500.8136300,N,12132.4726700,E,2,65,0.42,19.52,M,15.25,M,5,3335*7E
$GNRMC,112432.900,A,2500.8136300,N,12132.4726700,E,0.00,234.24,260623,,,D,V*0A
$GPHDT,,T*1B
$GNACCURACY,2.5*11
$GNGGA,112433.000,2500.8136300,N,12132.4726700,E,2,65,0.42,19.52,M,15.25,M,6,3335*75
$GNRMC,112433.000,A,2500.8136300,N,12132.4726700,E,0.00,234.24,260623,,,D,V*02
$GPHDT,,T*1B
$GNACCURACY,2.5*11
$GNGGA,112433.100,2500.8136400,N,12132.4726600,E,2,65,0.42,19.51,M,15.25,M,6,3335*71
$GNRMC,112433.100,A,2500.8136400,N,12132.4726600,E,0.00,234.24,260623,,,D,V*05
$GPHDT,,T*1B
$GNGSA,A,3,196,24,199,18,23,15,195,194,05,12,10,,0.76,0.42,0.63,1*00
$GNGSA,A,3,80,73,85,86,71,69,79,,,,,,0.76,0.42,0.63,2*08
$GNGSA,A,3,13,08,07,26,30,02,15,03,,,,,0.76,0.42,0.63,3*0E
$GNGSA,A,3,38,08,39,13,16,06,46,09,19,20,37,35,0.76,0.42,0.63,4*0F
$GNGSA,A,3,29,22,36,,,,,,,,,,0.76,0.42,0.63,4*08
$GPGSV,4,1,16,196,75,064,41,24,75,045,47,199,60,167,19,18,59,248,31,1*6D
$GPGSV,4,2,16,23,50,338,27,41,38,241,38,15,37,046,45,195,34,180,29,1*55
$GPGSV,4,3,16,194,30,139,41,05,20,118,34,12,20,142,40,10,17,318,32,1*53
$GPGSV,4,4,16,13,09,056,,32,09,268,36,25,08,177,,29,01,197,,1*61
$GPGSV,3,1,09,196,75,064,44,24,75,045,46,199,60,167,40,18,59,248,34,8*60
$GPGSV,3,2,09,23,50,338,38,195,34,180,24,194,30,139,40,10,17,318,36,8*6F
$GPGSV,3,3,09,32,09,268,31,8*52
$GLGSV,3,1,09,80,48,078,44,70,40,009,15,73,37,159,25,85,36,247,38,1*7E
$GLGSV,3,2,09,86,27,303,44,71,21,313,41,69,13,073,20,79,12,033,20,1*7E
$GLGSV,3,3,09,84,09,190,,1*4C
$GAGSV,2,1,08,13,57,233,30,08,47,024,25,07,44,302,43,26,32,307,40,7*77
$GAGSV,2,2,08,30,25,144,38,02,25,086,29,15,24,174,20,03,11,064,19,7*7E
$GAGSV,2,1,08,13,57,233,35,08,47,024,33,07,44,302,47,26,32,307,44,1*73
$GAGSV,2,2,08,02,25,086,29,30,25,144,42,15,24,174,20,03,11,064,20,1*7F
$GBGSV,5,1,18,38,83,106,31,08,79,004,34,39,71,282,36,13,68,334,40,1*76
$GBGSV,5,2,18,16,66,256,41,06,65,252,39,46,59,113,42,09,49,237,23,1*79
$GBGSV,5,3,18,19,48,344,34,20,43,062,33,31,36,209,,36,34,184,16,1*7C
$GBGSV,5,4,18,37,23,048,39,35,21,270,31,29,19,212,28,22,11,301,31,1*77
$GBGSV,5,5,18,07,05,192,,32,02,098,,1*75
$GBGSV,3,1,09,38,83,106,32,39,71,282,37,46,59,113,43,19,48,344,31,4*71
$GBGSV,3,2,09,20,43,062,24,36,34,184,27,37,23,048,30,35,21,270,35,4*7A
$GBGSV,3,3,09,22,11,301,30,4*4B
$GNACCURACY,2.5*11
$PAIRSAT,1,35,1,0,200,2,0,200,3,0,200,4,0,200,5,0,201,6,0,200,7,0,200,8,0,200,9,0,200,10,0,221,11,0,200,12,0,201,13,0,201,14,0,200,15,0,201,16,0,200,17,0,200,18,0,221,19,0,200,20,0,200,21,0,200,23,0,221,24,0,221,25,0,200,26,0,200,27,0,200,28,0,200,29,0,200,30,0,200,31,0,200,32,0,221,194,0,621,195,0,621,196,0,620,199,0,621*68
$PAIRSAT,2,23,65,0,200,67,0,200,68,0,200,69,0,201,70,0,201,71,0,201,72,0,200,73,0,201,74,0,200,75,0,200,76,0,200,77,0,200,78,0,200,79,0,201,80,0,201,81,0,200,82,0,200,83,0,200,84,0,200,85,0,201,86,0,201,87,0,200,88,0,200*53
$PAIRSAT,3,23,2,0,1221,3,0,1221,4,0,1200,5,0,200,7,0,1221,8,0,1221,9,0,1200,10,0,1200,11,0,1200,12,0,1200,13,0,1221,15,0,1221,19,0,1200,21,0,1200,24,0,1200,25,0,1200,26,0,1221,27,0,1200,30,0,1221,31,0,1200,33,0,1200,34,0,1200,36,0,1200*6A
$PAIRSAT,4,50,1,0,200,2,0,200,3,0,200,4,0,200,5,0,200,6,0,201,7,0,200,8,0,201,9,0,201,10,0,200,11,0,200,12,0,200,13,0,201,14,0,200,15,0,200,16,0,201,19,0,621,20,0,621,21,0,600,22,0,621,23,0,600,24,0,600,25,0,600,26,0,600,27,0,600,28,0,600,29,0,621,30,0,600,31,0,200,32,0,600,33,0,600,34,0,600,35,0,621,36,0,621,37,0,621,38,0,621,39,0,621,40,0,600,41,0,600,42,0,600,43,0,600,44,0,600,45,0,600,46,0,621,56,0,200,57,0,200,58,0,200,59,0,600,60,0,600,61,0,600*41
$PAIRDGP,11,5,10,12,13,15,18,23,24,25,29,32*6B
$GNGGA,112433.200,2500.8136400,N,12132.4726500,E,2,65,0.42,19.50,M,15.25,M,6,3335*70
$GNRMC,112433.200,A,2500.8136400,N,12132.4726500,E,0.00,234.24,260623,,,D,V*05
$GPHDT,,T*1B
$GNACCURACY,2.7*13
$GNGGA,112433.300,2500.8136400,N,12132.4726500,E,2,65,0.42,19.50,M,15.25,M,6,3335*71
$GNRMC,112433.300,A,2500.8136400,N,12132.4726500,E,0.00,234.24,260623,,,D,V*04
$GPHDT,,T*1B
$GNACCURACY,2.7*13
$GNGGA,112433.400,2500.8136500,N,12132.4726500,E,2,65,0.42,19.49,M,15.25,M,6,3335*7F
$GNRMC,112433.400,A,2500.8136500,N,12132.4726500,E,0.01,234.24,260623,,,D,V*03
$GPHDT,,T*1B
$GNACCURACY,2.7*13
$GNGGA,112433.500,2500.8136600,N,12132.4726400,E,2,65,0.42,19.48,M,15.25,M,6,3335*7D
$GNRMC,112433.500,A,2500.8136600,N,12132.4726400,E,0.01,234.24,260623,,,D,V*00
$GPHDT,,T*1B
$GNACCURACY,2.7*13
$GNGGA,112433.600,2500.8136600,N,12132.4726400,E,2,65,0.42,19.47,M,15.25,M,6,3335*71
$GNRMC,112433.600,A,2500.8136600,N,12132.4726400,E,0.01,234.24,260623,,,D,V*03
$GPHDT,,T*1B
$GNACCURACY,2.7*13
$GNGGA,112433.700,2500.8136700,N,12132.4726200,E,2,64,0.42,19.46,M,15.25,M,6,3335*77
$GNRMC,112433.700,A,2500.8136700,N,12132.4726200,E,0.01,234.24,260623,,,D,V*05
$GPHDT,,T*1B
$GNACCURACY,2.7*13
$GNGGA,112433.800,2500.8136700,N,12132.4726200,E,2,64,0.42,19.46,M,15.25,M,6,3335*78
$GNRMC,112433.800,A,2500.8136700,N,12132.4726200,E,0.01,234.24,260623,,,D,V*0A
$GPHDT,,T*1B
$GNACCURACY,2.7*13
$GNGGA,112433.900,2500.8136700,N,12132.4726100,E,2,64,0.42,19.45,M,15.25,M,3,3335*7C
$GNRMC,112433.900,A,2500.8136700,N,12132.4726100,E,0.01,234.24,260623,,,D,V*08
$GPHDT,,T*1B
$GNACCURACY,2.7*13
$GNGGA,112434.000,2500.8136700,N,12132.4726100,E,2,64,0.42,19.45,M,15.25,M,4,3335*75
$GNRMC,112434.000,A,2500.8136700,N,12132.4726100,E,0.01,234.24,260623,,,D,V*06
$GPHDT,,T*1B
$GNACCURACY,2.6*12
$GNGGA,112434.100,2500.8136700,N,12132.4726000,E,2,65,0.42,19.44,M,15.25,M,4,3335*75
$GNRMC,112434.100,A,2500.8136700,N,12132.4726000,E,0.01,234.24,260623,,,D,V*06
$GPHDT,,T*1B
$GNGSA,A,3,196,24,199,18,23,15,195,194,05,12,10,,0.76,0.42,0.63,1*00
$GNGSA,A,3,80,73,85,86,71,69,79,,,,,,0.76,0.42,0.63,2*08
$GNGSA,A,3,13,08,07,26,30,02,15,03,,,,,0.76,0.42,0.63,3*0E
$GNGSA,A,3,38,08,39,13,16,06,46,09,19,20,37,35,0.76,0.42,0.63,4*0F
$GNGSA,A,3,29,22,36,,,,,,,,,,0.76,0.42,0.63,4*08
$GPGSV,4,1,16,196,75,064,41,24,75,045,47,199,60,167,18,18,59,248,30,1*6D
$GPGSV,4,2,16,23,50,338,24,41,38,241,38,15,37,046,38,195,34,180,28,1*5D
$GPGSV,4,3,16,194,30,139,41,05,20,118,33,12,20,142,39,10,17,318,32,1*5A
$GPGSV,4,4,16,13,09,056,,32,09,268,36,25,08,177,,29,01,197,,1*61
$GPGSV,3,1,09,196,75,064,44,24,75,045,47,199,60,167,40,18,59,248,34,8*61
$GPGSV,3,2,09,23,50,338,38,195,34,180,23,194,30,139,40,10,17,318,36,8*68
$GPGSV,3,3,09,32,09,268,31,8*52
$GLGSV,3,1,09,80,48,078,45,70,40,009,14,73,37,159,26,85,36,247,38,1*7D
$GLGSV,3,2,09,86,27,303,44,71,21,313,41,69,13,073,18,79,12,033,21,1*74
$GLGSV,3,3,09,84,09,190,,1*4C
$GAGSV,2,1,08,13,57,233,30,08,47,024,25,07,44,302,43,26,32,307,40,7*77
$GAGSV,2,2,08,30,25,144,38,02,25,086,36,15,24,174,21,03,11,064,19,7*71
$GAGSV,2,1,08,13,57,233,34,08,47,024,33,07,44,302,47,26,32,307,44,1*72
$GAGSV,2,2,08,02,25,086,37,30,25,144,42,15,24,174,19,03,11,064,19,1*70
$GBGSV,4,1,15,38,83,106,31,08,79,004,34,39,71,282,36,13,68,334,40,1*7A
$GBGSV,4,2,15,16,66,256,41,06,65,252,39,46,59,113,42,09,49,237,24,1*72
$GBGSV,4,3,15,19,48,344,35,20,43,062,33,36,34,184,15,37,23,048,34,1*70
$GBGSV,4,4,15,35,21,270,29,29,19,212,27,22,11,301,31,1*4E
$GBGSV,3,1,09,38,83,106,31,39,71,282,36,46,59,113,43,19,48,344,31,4*73
$GBGSV,3,2,09,20,43,062,22,36,34,184,28,37,23,048,27,35,21,270,35,4*75
$GBGSV,3,3,09,22,11,301,29,4*43
$GNACCURACY,2.7*13
$PAIRSAT,1,35,1,0,200,2,0,200,3,0,200,4,0,200,5,0,201,6,0,200,7,0,200,8,0,200,9,0,200,10,0,221,11,0,200,12,0,201,13,0,201,14,0,200,15,0,201,16,0,200,17,0,200,18,0,221,19,0,200,20,0,200,21,0,200,23,0,221,24,0,221,25,0,200,26,0,200,27,0,200,28,0,200,29,0,200,30,0,200,31,0,200,32,0,221,194,0,621,195,0,621,196,0,620,199,0,621*68
$PAIRSAT,2,23,65,0,200,67,0,200,68,0,200,69,0,201,70,0,201,71,0,201,72,0,200,73,0,201,74,0,200,75,0,200,76,0,200,77,0,200,78,0,200,79,0,201,80,0,201,81,0,200,82,0,200,83,0,200,84,0,200,85,0,201,86,0,201,87,0,200,88,0,200*53
$PAIRSAT,3,23,2,0,1221,3,0,1221,4,0,1200,5,0,200,7,0,1221,8,0,1221,9,0,1200,10,0,1200,11,0,1200,12,0,1200,13,0,1221,15,0,1221,19,0,1200,21,0,1200,24,0,1200,25,0,1200,26,0,1221,27,0,1200,30,0,1221,31,0,1200,33,0,1200,34,0,1200,36,0,1200*6A
$PAIRSAT,4,50,1,0,200,2,0,200,3,0,200,4,0,200,5,0,200,6,0,201,7,0,200,8,0,201,9,0,201,10,0,200,11,0,200,12,0,200,13,0,201,14,0,200,15,0,200,16,0,201,19,0,621,20,0,621,21,0,600,22,0,621,23,0,600,24,0,600,25,0,600,26,0,600,27,0,600,28,0,600,29,0,621,30,0,600,31,0,200,32,0,600,33,0,600,34,0,600,35,0,621,36,0,621,37,0,621,38,0,621,39,0,621,40,0,600,41,0,600,42,0,600,43,0,600,44,0,600,45,0,600,46,0,621,56,0,200,57,0,200,58,0,200,59,0,600,60,0,600,61,0,600*41
$PAIRDGP,11,5,10,12,13,15,18,23,24,25,29,32*6B
$GNGGA,112434.200,2500.8136700,N,12132.4725900,E,2,65,0.42,19.43,M,15.25,M,3,3335*7C
$GNRMC,112434.200,A,2500.8136700,N,12132.4725900,E,0.01,234.24,260623,,,D,V*0F
$GPHDT,,T*1B
$GNACCURACY,2.6*12
$GNGGA,112434.300,2500.8136800,N,12132.4725900,E,2,65,0.42,19.42,M,15.25,M,3,3335*73
$GNRMC,112434.300,A,2500.8136800,N,12132.4725900,E,0.01,234.24,260623,,,D,V*01
$GPHDT,,T*1B
$GNACCURACY,2.6*12
$GNGGA,112434.400,2500.8136800,N,12132.4725800,E,2,65,0.42,19.41,M,15.25,M,3,3335*76
$GNRMC,112434.400,A,2500.8136800,N,12132.4725800,E,0.01,234.24,260623,,,D,V*07
$GPHDT,,T*1B
$GNACCURACY,2.6*12
$GNGGA,112434.500,2500.8136800,N,12132.4725700,E,2,65,0.42,19.41,M,15.25,M,0,3335*7B
$GNRMC,112434.500,A,2500.8136800,N,12132.4725700,E,0.01,234.24,260623,,,D,V*09
$GPHDT,,T*1B
$GNACCURACY,2.6*12
$GNGGA,112434.600,2500.8136800,N,12132.4725600,E,2,65,0.42,19.40,M,15.25,M,0,3335*78
$GNRMC,112434.600,A,2500.8136800,N,12132.4725600,E,0.01,234.24,260623,,,D,V*0B
$GPHDT,,T*1B
$GNACCURACY,2.6*12
$GNGGA,112434.700,2500.8136900,N,12132.4725600,E,2,65,0.42,19.39,M,15.25,M,0,3335*76
$GNRMC,112434.700,A,2500.8136900,N,12132.4725600,E,0.01,234.24,260623,,,D,V*0B
$GPHDT,,T*1B
$GNACCURACY,2.6*12
$GNGGA,112434.800,2500.8137000,N,12132.4725500,E,2,65,0.42,19.39,M,15.25,M,0,3335*72
$GNRMC,112434.800,A,2500.8137000,N,12132.4725500,E,0.01,234.24,260623,,,D,V*0F
$GPHDT,,T*1B
$GNACCURACY,2.6*12
$GNGGA,112434.900,2500.8137000,N,12132.4725500,E,2,65,0.42,19.38,M,15.25,M,0,3335*72
$GNRMC,112434.900,A,2500.8137000,N,12132.4725500,E,0.01,234.24,260623,,,D,V*0E
$GPHDT,,T*1B
$GNACCURACY,2.6*12
$GNGGA,112435.000,2500.8137000,N,12132.4725400,E,2,65,0.42,19.38,M,15.25,M,1,3335*7A
$GNRMC,112435.000,A,2500.8137000,N,12132.4725400,E,0.01,234.24,260623,,,D,V*07
$GPHDT,,T*1B
$GNACCURACY,2.6*12
$GNGGA,112435.100,2500.8137100,N,12132.4725300,E,2,65,0.42,19.37,M,15.25,M,1,3335*72
$GNRMC,112435.100,A,2500.8137100,N,12132.4725300,E,0.01,234.24,260623,,,D,V*00
$GPHDT,,T*1B
$GNGSA,A,3,196,24,199,18,23,15,195,194,05,12,10,,0.76,0.42,0.63,1*00
$GNGSA,A,3,80,73,85,86,71,69,79,,,,,,0.76,0.42,0.63,2*08
$GNGSA,A,3,13,08,07,26,30,02,15,03,,,,,0.76,0.42,0.63,3*0E
$GNGSA,A,3,38,08,39,13,16,06,46,09,19,20,37,35,0.76,0.42,0.63,4*0F
$GNGSA,A,3,29,22,36,,,,,,,,,,0.76,0.42,0.63,4*08
$GPGSV,4,1,16,196,75,064,41,24,75,045,47,199,60,167,18,18,59,248,32,1*6F
$GPGSV,4,2,16,23,50,338,27,41,38,241,38,15,37,046,44,195,34,180,28,1*55
$GPGSV,4,3,16,194,30,139,41,05,20,118,33,12,20,142,39,10,17,318,33,1*5B
$GPGSV,4,4,16,13,09,056,18,32,09,268,36,25,08,177,,29,01,197,,1*68
$GPGSV,3,1,09,196,75,064,44,24,75,045,47,199,60,167,40,18,59,248,35,8*60
$GPGSV,3,2,09,23,50,338,38,195,34,180,23,194,30,139,40,10,17,318,36,8*68
$GPGSV,3,3,09,32,09,268,31,8*52
$GLGSV,3,1,10,80,48,078,45,70,40,009,11,73,37,159,24,85,36,247,39,1*73
$GLGSV,3,2,10,86,27,303,43,71,21,313,42,69,13,073,18,79,12,033,22,1*7B
$GLGSV,3,3,10,84,09,190,,74,02,187,,1*7B
$GAGSV,3,1,09,13,57,233,32,08,47,024,27,07,44,302,43,26,32,307,41,7*76
$GAGSV,3,2,09,30,25,144,38,02,25,086,36,15,24,174,19,03,11,064,19,7*7A
$GAGSV,3,3,09,25,03,043,,7*49
$GAGSV,2,1,08,13,57,233,35,08,47,024,34,07,44,302,47,26,32,307,44,1*74
$GAGSV,2,2,08,02,25,086,36,30,25,144,42,15,24,174,20,03,11,064,21,1*70
$GBGSV,5,1,17,38,83,106,30,08,79,004,34,39,71,282,36,13,68,334,40,1*78
$GBGSV,5,2,17,16,66,256,41,06,65,252,39,46,59,113,42,09,49,237,24,1*71
$GBGSV,5,3,17,19,48,344,32,56,47,311,,20,43,062,33,36,34,184,17,1*7B
$GBGSV,5,4,17,37,23,048,38,35,21,270,31,29,19,212,27,22,11,301,31,1*76
$GBGSV,5,5,17,44,02,312,,1*42
$GBGSV,3,1,09,38,83,106,32,39,71,282,37,46,59,113,43,19,48,344,27,4*76
$GBGSV,3,2,09,20,43,062,25,36,34,184,25,37,23,048,28,35,21,270,36,4*73
$GBGSV,3,3,09,22,11,301,30,4*4B
$GNACCURACY,2.6*12
$PAIRSAT,1,35,1,0,200,2,0,200,3,0,200,4,0,200,5,0,201,6,0,200,7,0,200,8,0,200,9,0,200,10,0,221,11,0,200,12,0,201,13,0,201,14,0,200,15,0,201,16,0,200,17,0,200,18,0,221,19,0,200,20,0,200,21,0,200,23,0,221,24,0,221,25,0,200,26,0,200,27,0,200,28,0,200,29,0,200,30,0,200,31,0,200,32,0,221,194,0,621,195,0,621,196,0,620,199,0,621*68
$PAIRSAT,2,23,65,0,200,67,0,200,68,0,200,69,0,201,70,0,201,71,0,201,72,0,200,73,0,201,74,0,200,75,0,200,76,0,200,77,0,200,78,0,200,79,0,201,80,0,201,81,0,200,82,0,200,83,0,200,84,0,200,85,0,201,86,0,201,87,0,200,88,0,200*53
$PAIRSAT,3,23,2,0,1221,3,0,1221,4,0,1200,5,0,200,7,0,1221,8,0,1221,9,0,1200,10,0,1200,11,0,1200,12,0,1200,13,0,1221,15,0,1221,19,0,1200,21,0,1200,24,0,1200,25,0,1200,26,0,1221,27,0,1200,30,0,1221,31,0,1200,33,0,1200,34,0,1200,36,0,1200*6A
$PAIRSAT,4,50,1,0,200,2,0,200,3,0,200,4,0,200,5,0,200,6,0,201,7,0,200,8,0,201,9,0,201,10,0,200,11,0,200,12,0,200,13,0,201,14,0,200,15,0,200,16,0,201,19,0,621,20,0,621,21,0,600,22,0,621,23,0,600,24,0,600,25,0,600,26,0,600,27,0,600,28,0,600,29,0,621,30,0,600,31,0,200,32,0,600,33,0,600,34,0,600,35,0,621,36,0,621,37,0,621,38,0,621,39,0,621,40,0,600,41,0,600,42,0,600,43,0,600,44,0,600,45,0,600,46,0,621,56,0,200,57,0,200,58,0,200,59,0,600,60,0,600,61,0,600*41
$PAIRDGP,11,5,10,12,13,15,18,23,24,25,29,32*6B
$GNGGA,112435.200,2500.8137100,N,12132.4725300,E,2,65,0.42,19.37,M,15.25,M,1,3335*71
$GNRMC,112435.200,A,2500.8137100,N,12132.4725300,E,0.01,234.24,260623,,,D,V*03
$GPHDT,,T*1B
$GNACCURACY,2.6*12
$GNGGA,112435.300,2500.8137200,N,12132.4725200,E,2,65,0.42,19.37,M,15.25,M,1,3335*72
$GNRMC,112435.300,A,2500.8137200,N,12132.4725200,E,0.01,234.24,260623,,,D,V*00
$GPHDT,,T*1B
$GNACCURACY,2.6*12
$GNGGA,112435.400,2500.8137200,N,12132.4725200,E,2,65,0.42,19.36,M,15.25,M,1,3335*74
$GNRMC,112435.400,A,2500.8137200,N,12132.4725200,E,0.01,234.24,260623,,,D,V*07
$GPHDT,,T*1B
$GNACCURACY,2.6*12
$GNGGA,112435.500,2500.8137300,N,12132.4725100,E,2,65,0.42,19.36,M,15.25,M,1,3335*77
$GNRMC,112435.500,A,2500.8137300,N,12132.4725100,E,0.01,234.24,260623,,,D,V*04
$GPHDT,,T*1B
$GNACCURACY,2.6*12
$GNGGA,112435.600,2500.8137300,N,12132.4725000,E,2,65,0.42,19.35,M,15.25,M,1,3335*76
$GNRMC,112435.600,A,2500.8137300,N,12132.4725000,E,0.01,234.24,260623,,,D,V*06
$GPHDT,,T*1B
$GNACCURACY,2.6*12
$GNGGA,112435.700,2500.8137300,N,12132.4725000,E,2,65,0.42,19.35,M,15.25,M,1,3335*77
$GNRMC,112435.700,A,2500.8137300,N,12132.4725000,E,0.01,234.24,260623,,,D,V*07
$GPHDT,,T*1B
$GNACCURACY,2.6*12
$GNGGA,112435.800,2500.8137400,N,12132.4724900,E,2,65,0.42,19.34,M,15.25,M,1,3335*76
$GNRMC,112435.800,A,2500.8137400,N,12132.4724900,E,0.01,234.24,260623,,,D,V*07
$GPHDT,,T*1B
$GNACCURACY,2.6*12
$GNGGA,112435.900,2500.8137400,N,12132.4724900,E,2,65,0.42,19.34,M,15.25,M,1,3335*77
$GNRMC,112435.900,A,2500.8137400,N,12132.4724900,E,0.01,234.24,260623,,,D,V*06
$GPHDT,,T*1B
$GNACCURACY,2.6*12
$GNGGA,112436.000,2500.8137400,N,12132.4724800,E,2,65,0.42,19.34,M,15.25,M,2,3335*7F
$GNRMC,112436.000,A,2500.8137400,N,12132.4724800,E,0.01,234.24,260623,,,D,V*0D
$GPHDT,,T*1B
$GNACCURACY,2.6*12
$GNGGA,112436.100,2500.8137500,N,12132.4724700,E,2,65,0.42,19.33,M,15.25,M,2,3335*77
$GNRMC,112436.100,A,2500.8137500,N,12132.4724700,E,0.01,234.24,260623,,,D,V*02
$GPHDT,,T*1B
$GNGSA,A,3,196,24,199,18,23,15,195,194,05,12,10,,0.76,0.42,0.63,1*00
$GNGSA,A,3,80,73,85,86,71,69,79,,,,,,0.76,0.42,0.63,2*08
$GNGSA,A,3,13,08,07,26,02,30,15,03,,,,,0.76,0.42,0.63,3*0E
$GNGSA,A,3,38,08,39,13,16,06,46,09,19,20,37,35,0.76,0.42,0.63,4*0F
$GNGSA,A,3,29,22,36,,,,,,,,,,0.76,0.42,0.63,4*08
$GPGSV,4,1,16,196,75,064,41,24,75,045,47,199,60,167,18,18,59,248,33,1*6E
$GPGSV,4,2,16,23,50,338,26,41,38,241,38,15,37,046,44,195,34,180,28,1*54
$GPGSV,4,3,16,194,30,139,41,05,20,118,33,12,20,142,39,10,17,318,27,1*5E
$GPGSV,4,4,16,13,09,056,18,32,09,268,36,25,08,177,,29,01,197,,1*68
$GPGSV,3,1,09,196,75,064,44,24,75,045,47,199,60,167,40,18,59,248,35,8*60
$GPGSV,3,2,09,23,50,338,38,195,34,180,24,194,30,139,40,10,17,318,32,8*6B
$GPGSV,3,3,09,32,09,268,30,8*53
$GLGSV,3,1,09,80,48,078,45,70,40,009,13,73,37,159,26,85,36,247,38,1*7A
$GLGSV,3,2,09,86,27,303,43,71,21,313,30,69,13,073,18,79,12,033,23,1*77
$GLGSV,3,3,09,84,09,190,,1*4C
$GAGSV,3,1,09,13,57,233,32,08,47,024,27,07,44,302,43,26,32,307,40,7*77
$GAGSV,3,2,09,02,25,086,36,30,25,144,38,15,24,174,19,03,11,064,19,7*7A
$GAGSV,3,3,09,25,03,043,,7*49
$GAGSV,2,1,08,13,57,233,35,08,47,024,34,07,44,302,47,26,32,307,43,1*73
$GAGSV,2,2,08,02,25,086,36,30,25,144,42,15,24,174,20,03,11,064,20,1*71
$GBGSV,4,1,15,38,83,106,31,08,79,004,35,39,71,282,37,13,68,334,40,1*7A
$GBGSV,4,2,15,16,66,256,41,06,65,252,39,46,59,113,42,09,49,237,24,1*72
$GBGSV,4,3,15,19,48,344,33,20,43,062,32,36,34,184,17,37,23,048,38,1*79
$GBGSV,4,4,15,35,21,270,32,29,19,212,27,22,11,301,30,1*45
$GBGSV,3,1,09,38,83,106,33,39,71,282,37,46,59,113,43,19,48,344,30,4*71
$GBGSV,3,2,09,20,43,062,25,36,34,184,26,37,23,048,28,35,21,270,36,4*70
$GBGSV,3,3,09,22,11,301,29,4*43
$GNACCURACY,2.6*12
$PAIRSAT,1,35,1,0,200,2,0,200,3,0,200,4,0,200,5,0,201,6,0,200,7,0,200,8,0,200,9,0,200,10,0,221,11,0,200,12,0,201,13,0,201,14,0,200,15,0,201,16,0,200,17,0,200,18,0,221,19,0,200,20,0,200,21,0,200,23,0,221,24,0,221,25,0,200,26,0,200,27,0,200,28,0,200,29,0,200,30,0,200,31,0,200,32,0,221,194,0,621,195,0,621,196,0,620,199,0,621*68
$PAIRSAT,2,23,65,0,200,67,0,200,68,0,200,69,0,201,70,0,201,71,0,201,72,0,200,73,0,201,74,0,200,75,0,200,76,0,200,77,0,200,78,0,200,79,0,201,80,0,201,81,0,200,82,0,200,83,0,200,84,0,200,85,0,201,86,0,201,87,0,200,88,0,200*53
$PAIRSAT,3,23,2,0,1221,3,0,1221,4,0,1200,5,0,200,7,0,1221,8,0,1221,9,0,1200,10,0,1200,11,0,1200,12,0,1200,13,0,1221,15,0,1221,19,0,1200,21,0,1200,24,0,1200,25,0,1200,26,0,1221,27,0,1200,30,0,1221,31,0,1200,33,0,1200,34,0,1200,36,0,1200*6A
$PAIRSAT,4,50,1,0,200,2,0,200,3,0,200,4,0,200,5,0,200,6,0,201,7,0,200,8,0,201,9,0,201,10,0,200,11,0,200,12,0,200,13,0,201,14,0,200,15,0,200,16,0,201,19,0,621,20,0,621,21,0,600,22,0,621,23,0,600,24,0,600,25,0,600,26,0,600,27,0,600,28,0,600,29,0,621,30,0,600,31,0,200,32,0,600,33,0,600,34,0,600,35,0,621,36,0,621,37,0,621,38,0,621,39,0,621,40,0,600,41,0,600,42,0,600,43,0,600,44,0,600,45,0,600,46,0,621,56,0,200,57,0,200,58,0,200,59,0,600,60,0,600,61,0,600*41
$PAIRDGP,11,5,10,12,13,15,18,23,24,25,29,32*6B
$GNGGA,112436.200,2500.8137600,N,12132.4724700,E,2,65,0.42,19.33,M,15.25,M,2,3335*77
$GNRMC,112436.200,A,2500.8137600,N,12132.4724700,E,0.01,234.24,260623,,,D,V*02
$GPHDT,,T*1B
$GNACCURACY,2.6*12
$GNGGA,112436.300,2500.8137600,N,12132.4724600,E,2,65,0.42,19.32,M,15.25,M,2,3335*76
$GNRMC,112436.300,A,2500.8137600,N,12132.4724600,E,0.01,234.24,260623,,,D,V*02
$GPHDT,,T*1B
$GNACCURACY,2.6*12
$GNGGA,112436.400,2500.8137600,N,12132.4724600,E,2,65,0.42,19.31,M,15.25,M,2,3335*72
$GNRMC,112436.400,A,2500.8137600,N,12132.4724600,E,0.01,234.24,260623,,,D,V*05
$GPHDT,,T*1B
$GNACCURACY,2.6*12
$GNGGA,112436.500,2500.8137600,N,12132.4724500,E,2,65,0.42,19.31,M,15.25,M,2,3335*70
$GNRMC,112436.500,A,2500.8137600,N,12132.4724500,E,0.01,234.24,260623,,,D,V*07
$GPHDT,,T*1B
$GNACCURACY,2.6*12
$GNGGA,112436.600,2500.8137700,N,12132.4724400,E,2,64,0.42,19.30,M,15.25,M,2,3335*73
$GNRMC,112436.600,A,2500.8137700,N,12132.4724400,E,0.01,234.24,260623,,,D,V*04
$GPHDT,,T*1B
$GNACCURACY,2.6*12
$GNGGA,112436.700,2500.8137700,N,12132.4724400,E,2,64,0.42,19.30,M,15.25,M,2,3335*72
$GNRMC,112436.700,A,2500.8137700,N,12132.4724400,E,0.01,234.24,260623,,,D,V*05
$GPHDT,,T*1B
$GNACCURACY,2.6*12
$GNGGA,112436.800,2500.8137700,N,12132.4724300,E,2,65,0.42,19.29,M,15.25,M,2,3335*73
$GNRMC,112436.800,A,2500.8137700,N,12132.4724300,E,0.01,234.24,260623,,,D,V*0D
$GPHDT,,T*1B
$GNACCURACY,2.6*12
$GNGGA,112436.900,2500.8137800,N,12132.4724200,E,2,65,0.42,19.28,M,15.25,M,2,3335*7D
$GNRMC,112436.900,A,2500.8137800,N,12132.4724200,E,0.02,234.24,260623,,,D,V*01
$GPHDT,,T*1B
$GNACCURACY,2.6*12
$GNGGA,112437.000,2500.8137800,N,12132.4724100,E,2,65,0.42,19.28,M,15.25,M,3,3335*77
$GNRMC,112437.000,A,2500.8137800,N,12132.4724100,E,0.02,234.24,260623,,,D,V*0A
$GPHDT,,T*1B
$GNACCURACY,2.6*12
$GNGGA,112437.100,2500.8137900,N,12132.4724100,E,2,65,0.42,19.27,M,15.25,M,3,3335*78
$GNRMC,112437.100,A,2500.8137900,N,12132.4724100,E,0.02,234.24,260623,,,D,V*0A
$GPHDT,,T*1B
$GNGSA,A,3,196,24,199,18,23,15,195,194,05,12,10,,0.76,0.42,0.63,1*00
$GNGSA,A,3,80,73,85,86,71,69,79,,,,,,0.76,0.42,0.63,2*08
$GNGSA,A,3,13,08,07,26,30,02,15,03,,,,,0.76,0.42,0.63,3*0E
$GNGSA,A,3,38,08,39,13,16,06,46,09,19,20,37,35,0.76,0.42,0.63,4*0F
$GNGSA,A,3,29,22,36,,,,,,,,,,0.76,0.42,0.63,4*08
$GPGSV,4,1,16,196,75,064,41,24,75,045,47,199,60,167,19,18,59,248,33,1*6F
$GPGSV,4,2,16,23,50,338,26,41,38,241,38,15,37,046,45,195,34,180,29,1*54
$GPGSV,4,3,16,194,30,139,41,05,20,118,33,12,20,142,39,10,17,318,25,1*5C
$GPGSV,4,4,16,13,09,056,18,32,09,268,36,25,08,177,,29,01,197,,1*68
$GPGSV,3,1,09,196,75,064,44,24,75,045,47,199,60,167,40,18,59,248,34,8*61
$GPGSV,3,2,09,23,50,338,38,195,34,180,25,194,30,139,39,10,17,318,27,8*60
$GPGSV,3,3,09,32,09,268,30,8*53
$GLGSV,2,1,08,80,48,078,44,70,40,009,13,73,37,159,26,85,36,247,39,1*7A
$GLGSV,2,2,08,86,27,303,42,71,21,313,32,69,13,073,18,79,12,033,23,1*74
$GAGSV,3,1,09,13,57,233,31,08,47,024,28,07,44,302,43,26,32,307,40,7*7B
$GAGSV,3,2,09,30,25,144,38,02,25,086,36,15,24,174,19,03,11,064,19,7*7A
$GAGSV,3,3,09,25,03,043,,7*49
$GAGSV,2,1,08,13,57,233,35,08,47,024,34,07,44,302,46,26,32,307,42,1*73
$GAGSV,2,2,08,02,25,086,36,30,25,144,42,15,24,174,20,03,11,064,19,1*7B
$GBGSV,4,1,15,38,83,106,31,08,79,004,35,39,71,282,37,13,68,334,40,1*7A
$GBGSV,4,2,15,16,66,256,41,06,65,252,39,46,59,113,42,09,49,237,23,1*75
$GBGSV,4,3,15,19,48,344,33,20,43,062,31,36,34,184,15,37,23,048,38,1*78
$GBGSV,4,4,15,35,21,270,31,29,19,212,27,22,11,301,35,1*43
$GBGSV,3,1,09,38,83,106,32,39,71,282,36,46,59,113,42,19,48,344,29,4*78
$GBGSV,3,2,09,20,43,062,24,36,34,184,26,37,23,048,28,35,21,270,35,4*72
$GBGSV,3,3,09,22,11,301,25,4*4F
$GNACCURACY,2.6*12
$PAIRSAT,1,35,1,0,200,2,0,200,3,0,200,4,0,200,5,0,201,6,0,200,7,0,200,8,0,200,9,0,200,10,0,221,11,0,200,12,0,201,13,0,201,14,0,200,15,0,201,16,0,200,17,0,200,18,0,221,19,0,200,20,0,200,21,0,200,23,0,221,24,0,221,25,0,200,26,0,200,27,0,200,28,0,200,29,0,200,30,0,200,31,0,200,32,0,221,194,0,621,195,0,621,196,0,620,199,0,621*68
$PAIRSAT,2,23,65,0,200,67,0,200,68,0,200,69,0,201,70,0,201,71,0,201,72,0,200,73,0,201,74,0,200,75,0,200,76,0,200,77,0,200,78,0,200,79,0,201,80,0,201,81,0,200,82,0,200,83,0,200,84,0,200,85,0,201,86,0,201,87,0,200,88,0,200*53
$PAIRSAT,3,23,2,0,1221,3,0,1221,4,0,1200,5,0,200,7,0,1221,8,0,1221,9,0,1200,10,0,1200,11,0,1200,12,0,1200,13,0,1221,15,0,1221,19,0,1200,21,0,1200,24,0,1200,25,0,1200,26,0,1221,27,0,1200,30,0,1221,31,0,1200,33,0,1200,34,0,1200,36,0,1200*6A
$PAIRSAT,4,50,1,0,200,2,0,200,3,0,200,4,0,200,5,0,200,6,0,201,7,0,200,8,0,201,9,0,201,10,0,200,11,0,200,12,0,200,13,0,201,14,0,200,15,0,200,16,0,201,19,0,621,20,0,621,21,0,600,22,0,621,23,0,600,24,0,600,25,0,600,26,0,600,27,0,600,28,0,600,29,0,621,30,0,600,31,0,200,32,0,600,33,0,600,34,0,600,35,0,621,36,0,621,37,0,621,38,0,621,39,0,621,40,0,600,41,0,600,42,0,600,43,0,600,44,0,600,45,0,600,46,0,621,56,0,200,57,0,200,58,0,200,59,0,600,60,0,600,61,0,600*41
$PAIRDGP,11,5,10,12,13,15,18,23,24,25,29,32*6B
$GNGGA,112437.200,2500.8137900,N,12132.4724100,E,2,65,0.42,19.26,M,15.25,M,3,3335*7A
$GNRMC,112437.200,A,2500.8137900,N,12132.4724100,E,0.01,234.24,260623,,,D,V*0A
$GPHDT,,T*1B
$GNACCURACY,2.6*12
$GNGGA,112437.300,2500.8137900,N,12132.4724000,E,2,65,0.42,19.26,M,15.25,M,3,3335*7A
$GNRMC,112437.300,A,2500.8137900,N,12132.4724000,E,0.02,234.24,260623,,,D,V*09
$GPHDT,,T*1B
$GNACCURACY,2.6*12
$GNGGA,112437.400,2500.8138000,N,12132.4724000,E,2,65,0.42,19.25,M,15.25,M,3,3335*78
$GNRMC,112437.400,A,2500.8138000,N,12132.4724000,E,0.02,234.24,260623,,,D,V*08
$GPHDT,,T*1B
$GNACCURACY,2.6*12
$GNGGA,112437.500,2500.8138000,N,12132.4723900,E,2,65,0.42,19.24,M,15.25,M,3,3335*76
$GNRMC,112437.500,A,2500.8138000,N,12132.4723900,E,0.02,234.24,260623,,,D,V*07
$GPHDT,,T*1B
$GNACCURACY,2.6*12
$GNGGA,112437.600,2500.8138100,N,12132.4723800,E,2,65,0.42,19.23,M,15.25,M,3,3335*72
$GNRMC,112437.600,A,2500.8138100,N,12132.4723800,E,0.02,234.24,260623,,,D,V*04
$GPHDT,,T*1B
$GNACCURACY,2.6*12
$GNGGA,112437.700,2500.8138100,N,12132.4723700,E,2,65,0.42,19.22,M,15.25,M,3,3335*7D
$GNRMC,112437.700,A,2500.8138100,N,12132.4723700,E,0.02,234.24,260623,,,D,V*0A
$GPHDT,,T*1B
$GNACCURACY,2.6*12
$GNGGA,112437.800,2500.8138100,N,12132.4723700,E,2,65,0.42,19.21,M,15.25,M,3,3335*71
$GNRMC,112437.800,A,2500.8138100,N,12132.4723700,E,0.02,234.24,260623,,,D,V*05
$GPHDT,,T*1B
