$FW : RTK35X,V1.1X0314AS,Lib20210517,1*54
$Tool : LOCOSYS , GNSS Firebird , v1.0.0.19*39
$---------------------------------------------------*2D
,35,32,09,268,35,8*57
$GLGSV,2,1,08,80,48,079,46,70,40,008,,73,36,160,20,85,36,248,38,1*79
$GLGSV,2,2,08,86,27,304,37,71,21,312,38,69,13,072,14,79,12,033,20,1*74
$GAGSV,3,1,09,13,57,233,31,08,47,024,32,07,44,302,38,26,31,308,38,7*7F
$GAGSV,3,2,09,02,25,087,36,30,25,144,34,15,24,174,22,03,11,063,,7*70
$GAGSV,3,3,09,25,03,044,,7*4E
$GAGSV,2,1,07,13,57,233,33,08,47,024,31,07,44,302,44,26,31,308,32,1*76
$GAGSV,2,2,07,02,25,087,39,30,25,144,41,15,24,174,22,1*42
$GBGSV,4,1,15,38,83,104,26,08,78,005,35,39,71,281,36,13,68,335,38,1*72
$GBGSV,4,2,15,16,66,256,40,06,65,252,37,46,59,114,41,09,49,237,19,1*77
$GBGSV,4,3,15,19,48,343,30,20,43,061,33,36,34,184,29,37,23,048,37,1*7D
$GBGSV,4,4,15,35,22,270,40,29,20,213,26,22,11,300,23,1*4A
$GBGSV,3,1,09,38,83,104,28,39,71,281,37,46,59,114,40,19,48,343,29,4*71
$GBGSV,3,2,09,20,43,061,30,36,34,184,26,37,23,048,29,35,22,270,33,4*70
$GBGSV,3,3,09,22,11,300,26,4*4D
$GNACCURACY,2.7*13
$PAIRSAT,1,35,1,0,200,2,0,200,3,0,200,4,0,200,5,0,201,6,0,200,7,0,200,8,0,200,9,0,200,10,0,221,11,0,200,12,0,201,13,0,201,14,0,200,15,0,201,16,0,200,17,0,200,18,0,221,19,0,200,20,0,200,21,0,200,23,0,221,24,0,221,25,0,200,26,0,200,27,0,200,28,0,200,29,0,200,30,0,200,31,0,200,32,0,221,194,0,621,195,0,621,196,0,620,199,0,621*68
$PAIRSAT,2,23,65,0,200,67,0,200,68,0,200,69,0,201,70,0,201,71,0,201,72,0,200,73,0,201,74,0,200,75,0,200,76,0,200,77,0,200,78,0,200,79,0,201,80,0,201,81,0,200,82,0,200,83,0,200,84,0,200,85,0,201,86,0,201,87,0,200,88,0,200*53
$PAIRSAT,3,23,2,0,1221,3,0,1221,4,0,1200,5,0,200,7,0,1221,8,0,1221,9,0,1200,10,0,1200,11,0,1200,12,0,1200,13,0,1221,15,0,1221,19,0,1200,21,0,1200,24,0,1200,25,0,1200,26,0,1221,27,0,1200,30,0,1221,31,0,1200,33,0,1200,34,0,1200,36,0,1200*6A
$PAIRSAT,4,50,1,0,200,2,0,200,3,0,200,4,0,200,5,0,200,6,0,201,7,0,200,8,0,201,9,0,201,10,0,200,11,0,200,12,0,200,13,0,201,14,0,200,15,0,200,16,0,201,19,0,621,20,0,621,21,0,600,22,0,621,23,0,600,24,0,600,25,0,600,26,0,600,27,0,600,28,0,600,29,0,621,30,0,600,31,0,200,32,0,600,33,0,600,34,0,600,35,0,621,36,0,621,37,0,621,38,0,621,39,0,621,40,0,600,41,0,600,42,0,600,43,0,600,44,0,600,45,0,600,46,0,621,56,0,200,57,0,200,58,0,200,59,0,600,60,0,600,61,0,600*41
$PAIRDGP,8,5,10,12,13,15,23,24,32*7A
$GNGGA,112335.200,2500.8135600,N,12132.4731900,E,2,61,0.43,23.70,M,15.25,M,2,3335*70
$GNRMC,112335.200,A,2500.8135600,N,12132.4731900,E,0.02,234.24,260623,,,D,V*0D
$GPHDT,,T*1B
$GNACCURACY,2.7*13
$GNGGA,112335.300,2500.8135600,N,12132.4731900,E,2,62,0.43,23.71,M,15.25,M,2,3335*73
$GNRMC,112335.300,A,2500.8135600,N,12132.4731900,E,0.02,234.24,260623,,,D,V*0C
$GPHDT,,T*1B
$GNACCURACY,2.7*13
$GNGGA,112335.400,2500.8135600,N,12132.4731900,E,2,62,0.43,23.72,M,15.25,M,2,3335*77
$GNRMC,112335.400,A,2500.8135600,N,12132.4731900,E,0.01,234.24,260623,,,D,V*08
$GPHDT,,T*1B
$GNACCURACY,2.7*13
$GNGGA,112335.500,2500.8135500,N,12132.4731800,E,2,62,0.43,23.72,M,15.25,M,1,3335*77
$GNRMC,112335.500,A,2500.8135500,N,12132.4731800,E,0.02,234.24,260623,,,D,V*08
$GPHDT,,T*1B
$GNACCURACY,2.7*13
$GNGGA,112335.600,2500.8135500,N,12132.4731700,E,2,62,0.43,23.72,M,15.25,M,1,3335*7B
$GNRMC,112335.600,A,2500.8135500,N,12132.4731700,E,0.02,234.24,260623,,,D,V*04
$GPHDT,,T*1B
$GNACCURACY,2.7*13
$GNGGA,112335.700,2500.8135400,N,12132.4731600,E,2,62,0.43,23.73,M,15.25,M,0,3335*7A
$GNRMC,112335.700,A,2500.8135400,N,12132.4731600,E,0.02,234.24,260623,,,D,V*05
$GPHDT,,T*1B
$GNACCURACY,2.7*13
$GNGGA,112335.800,2500.8135300,N,12132.4731500,E,2,62,0.43,23.74,M,15.25,M,0,3335*76
$GNRMC,112335.800,A,2500.8135300,N,12132.4731500,E,0.02,234.24,260623,,,D,V*0E
$GPHDT,,T*1B
$GNACCURACY,2.7*13
$GNGGA,112335.900,2500.8135300,N,12132.4731300,E,2,62,0.43,23.74,M,15.25,M,0,3335*71
$GNRMC,112335.900,A,2500.8135300,N,12132.4731300,E,0.02,234.24,260623,,,D,V*09
$GPHDT,,T*1B
$GNACCURACY,2.7*13
$GNGGA,112336.000,2500.8135300,N,12132.4731200,E,2,62,0.43,23.75,M,15.25,M,1,3335*7A
$GNRMC,112336.000,A,2500.8135300,N,12132.4731200,E,0.02,234.24,260623,,,D,V*02
$GPHDT,,T*1B
$GNACCURACY,2.7*13
$GNGGA,112336.100,2500.8135200,N,12132.4731200,E,2,62,0.43,23.76,M,15.25,M,1,3335*79
$GNRMC,112336.100,A,2500.8135200,N,12132.4731200,E,0.02,234.24,260623,,,D,V*02
$GPHDT,,T*1B
$GNGSA,A,3,196,24,199,23,15,195,194,05,12,10,18,,0.80,0.44,0.67,1*0B
$GNGSA,A,3,80,73,85,86,71,79,,,,,,,0.80,0.44,0.67,2*0C
$GNGSA,A,3,13,08,07,26,02,30,15,,,,,,0.80,0.44,0.67,3*06
$GNGSA,A,3,38,08,39,13,16,06,46,09,19,20,36,37,0.80,0.44,0.67,4*07
$GNGSA,A,3,35,29,22,,,,,,,,,,0.80,0.44,0.67,4*00
$GPGSV,4,1,14,196,75,064,41,24,75,045,44,199,60,167,22,18,59,249,,1*67
$GPGSV,4,2,14,23,49,337,32,41,38,241,38,15,38,045,45,195,34,180,30,1*50
$GPGSV,4,3,14,194,30,139,41,05,20,117,20,12,19,142,37,10,17,318,33,1*50
$GPGSV,4,4,14,13,09,056,,32,09,268,32,1*6C
$GPGSV,3,1,09,196,75,064,43,24,75,045,47,199,60,167,40,18,59,249,38,8*6B
$GPGSV,3,2,09,23,49,337,24,195,34,180,19,194,30,139,36,10,17,318,36,8*6A
$GPGSV,3,3,09,32,09,268,35,8*56
$GLGSV,2,1,08,80,48,079,46,70,40,008,,73,37,160,20,85,36,248,38,1*78
$GLGSV,2,2,08,86,27,304,39,71,21,313,37,69,13,072,14,79,12,033,22,1*76
$GAGSV,2,1,08,13,57,233,32,08,47,024,32,07,44,302,38,26,31,308,40,7*73
$GAGSV,2,2,08,02,25,087,36,30,25,144,34,15,24,174,23,03,11,063,,7*71
$GAGSV,2,1,07,13,57,233,33,08,47,024,30,07,44,302,45,26,31,308,38,1*7C
$GAGSV,2,2,07,02,25,087,39,30,25,144,41,15,24,174,22,1*42
$GBGSV,4,1,15,38,83,104,27,08,78,005,35,39,71,281,36,13,68,335,39,1*72
$GBGSV,4,2,15,16,66,256,40,06,65,252,37,46,59,114,41,09,49,237,18,1*76
$GBGSV,4,3,15,19,48,343,30,20,43,061,33,36,34,184,29,37,23,048,37,1*7D
$GBGSV,4,4,15,35,22,270,39,29,20,213,26,22,11,300,28,1*4F
$GBGSV,3,1,09,38,83,104,29,39,71,281,35,46,59,114,40,19,48,343,29,4*72
$GBGSV,3,2,09,20,43,061,30,36,34,184,26,37,23,048,26,35,22,270,33,4*7F
$GBGSV,3,3,09,22,11,300,28,4*43
$GNACCURACY,2.7*13
$PAIRSAT,1,35,1,0,200,2,0,200,3,0,200,4,0,200,5,0,201,6,0,200,7,0,200,8,0,200,9,0,200,10,0,221,11,0,200,12,0,201,13,0,201,14,0,200,15,0,201,16,0,200,17,0,200,18,0,221,19,0,200,20,0,200,21,0,200,23,0,221,24,0,221,25,0,200,26,0,200,27,0,200,28,0,200,29,0,200,30,0,200,31,0,200,32,0,221,194,0,621,195,0,621,196,0,620,199,0,621*68
$PAIRSAT,2,23,65,0,200,67,0,200,68,0,200,69,0,201,70,0,201,71,0,201,72,0,200,73,0,201,74,0,200,75,0,200,76,0,200,77,0,200,78,0,200,79,0,201,80,0,201,81,0,200,82,0,200,83,0,200,84,0,200,85,0,201,86,0,201,87,0,200,88,0,200*53
$PAIRSAT,3,23,2,0,1221,3,0,1221,4,0,1200,5,0,200,7,0,1221,8,0,1221,9,0,1200,10,0,1200,11,0,1200,12,0,1200,13,0,1221,15,0,1221,19,0,1200,21,0,1200,24,0,1200,25,0,1200,26,0,1221,27,0,1200,30,0,1221,31,0,1200,33,0,1200,34,0,1200,36,0,1200*6A
$PAIRSAT,4,50,1,0,200,2,0,200,3,0,200,4,0,200,5,0,200,6,0,201,7,0,200,8,0,201,9,0,201,10,0,200,11,0,200,12,0,200,13,0,201,14,0,200,15,0,200,16,0,201,19,0,621,20,0,621,21,0,600,22,0,621,23,0,600,24,0,600,25,0,600,26,0,600,27,0,600,28,0,600,29,0,621,30,0,600,31,0,200,32,0,600,33,0,600,34,0,600,35,0,621,36,0,621,37,0,621,38,0,621,39,0,621,40,0,600,41,0,600,42,0,600,43,0,600,44,0,600,45,0,600,46,0,621,56,0,200,57,0,200,58,0,200,59,0,600,60,0,600,61,0,600*41
$PAIRDGP,9,5,10,12,13,15,18,23,24,32*5E
$GNGGA,112336.200,2500.8135200,N,12132.4731000,E,2,61,0.44,23.76,M,15.25,M,1,3335*7C
$GNRMC,112336.200,A,2500.8135200,N,12132.4731000,E,0.02,234.24,260623,,,D,V*03
$GPHDT,,T*1B
$GNACCURACY,2.7*13
$GNGGA,112336.300,2500.8135100,N,12132.4731000,E,2,61,0.44,23.77,M,15.25,M,1,3335*7F
$GNRMC,112336.300,A,2500.8135100,N,12132.4731000,E,0.02,234.24,260623,,,D,V*01
$GPHDT,,T*1B
$GNACCURACY,2.7*13
$GNGGA,112336.400,2500.8135000,N,12132.4731000,E,2,61,0.44,23.78,M,15.25,M,1,3335*76
$GNRMC,112336.400,A,2500.8135000,N,12132.4731000,E,0.02,234.24,260623,,,D,V*07
$GPHDT,,T*1B
$GNACCURACY,2.7*13
$GNGGA,112336.500,2500.8135000,N,12132.4730900,E,2,62,0.44,23.78,M,15.25,M,1,3335*7C
$GNRMC,112336.500,A,2500.8135000,N,12132.4730900,E,0.02,234.24,260623,,,D,V*0E
$GPHDT,,T*1B
$GNACCURACY,2.7*13
$GNGGA,112336.600,2500.8134900,N,12132.4731000,E,2,62,0.44,23.80,M,15.25,M,1,3335*78
$GNRMC,112336.600,A,2500.8134900,N,12132.4731000,E,0.02,234.24,260623,,,D,V*0D
$GPHDT,,T*1B
$GNACCURACY,2.7*13
$GNGGA,112336.700,2500.8134900,N,12132.4731000,E,2,63,0.44,23.81,M,15.25,M,0,3335*78
$GNRMC,112336.700,A,2500.8134900,N,12132.4731000,E,0.02,234.24,260623,,,D,V*0C
$GPHDT,,T*1B
$GNACCURACY,2.7*13
$GNGGA,112336.800,2500.8134900,N,12132.4730900,E,2,63,0.44,23.82,M,15.25,M,0,3335*7C
$GNRMC,112336.800,A,2500.8134900,N,12132.4730900,E,0.02,234.24,260623,,,D,V*0B
$GPHDT,,T*1B
$GNACCURACY,2.7*13
$GNGGA,112336.900,2500.8134900,N,12132.4730900,E,2,63,0.44,23.83,M,15.25,M,0,3335*7C
$GNRMC,112336.900,A,2500.8134900,N,12132.4730900,E,0.02,234.24,260623,,,D,V*0A
$GPHDT,,T*1B
$GNACCURACY,2.7*13
$GNGGA,112337.000,2500.8134800,N,12132.4730900,E,2,63,0.44,23.84,M,15.25,M,1,3335*73
$GNRMC,112337.000,A,2500.8134800,N,12132.4730900,E,0.01,234.24,260623,,,D,V*00
$GPHDT,,T*1B
$GNACCURACY,2.7*13
$GNGGA,112337.100,2500.8134800,N,12132.4731000,E,2,63,0.44,23.85,M,15.25,M,1,3335*7B
$GNRMC,112337.100,A,2500.8134800,N,12132.4731000,E,0.01,234.24,260623,,,D,V*09
$GPHDT,,T*1B
$GNGSA,A,3,24,196,199,18,23,15,195,194,05,12,10,,0.80,0.44,0.67,1*0B
$GNGSA,A,3,80,73,85,86,71,79,,,,,,,0.80,0.44,0.67,2*0C
$GNGSA,A,3,13,08,07,26,30,02,15,,,,,,0.80,0.44,0.67,3*06
$GNGSA,A,3,38,08,39,13,16,06,46,09,19,20,36,37,0.80,0.44,0.67,4*07
$GNGSA,A,3,35,29,22,,,,,,,,,,0.80,0.44,0.67,4*00
$GPGSV,4,1,16,24,75,045,44,196,75,064,41,199,60,167,23,18,59,249,31,1*66
$GPGSV,4,2,16,23,49,337,33,15,38,045,45,41,38,241,38,195,34,180,30,1*53
$GPGSV,4,3,16,194,30,139,41,05,20,117,19,12,19,142,37,10,17,318,32,1*59
$GPGSV,4,4,16,13,09,056,,32,09,268,29,25,08,177,,29,02,197,,1*6C
$GPGSV,3,1,09,196,75,064,43,24,75,045,47,199,60,167,40,18,59,249,38,8*6B
$GPGSV,3,2,09,23,49,337,24,195,34,180,19,194,30,139,36,10,17,318,36,8*6A
$GPGSV,3,3,09,32,09,268,32,8*51
$GLGSV,2,1,08,80,48,079,46,70,40,008,,73,37,160,18,85,36,248,38,1*73
$GLGSV,2,2,08,86,27,304,42,71,21,313,34,69,13,072,14,79,12,033,23,1*78
$GAGSV,2,1,08,13,57,233,33,08,47,024,32,07,44,302,41,26,31,308,40,7*7C
$GAGSV,2,2,08,30,25,144,34,02,25,087,36,15,24,174,23,03,11,063,,7*71
$GAGSV,2,1,07,13,57,233,33,08,47,024,30,07,44,302,48,26,31,308,40,1*7E
$GAGSV,2,2,07,02,25,087,39,30,25,144,41,15,24,174,22,1*42
$GBGSV,4,1,15,38,83,104,27,08,78,005,35,39,71,281,36,13,68,335,38,1*73
$GBGSV,4,2,15,16,66,256,40,06,65,252,38,46,59,114,41,09,49,237,18,1*79
$GBGSV,4,3,15,19,48,343,30,20,43,061,33,36,34,184,29,37,23,048,37,1*7D
$GBGSV,4,4,15,35,22,270,32,29,20,213,26,22,11,300,31,1*4C
$GBGSV,3,1,10,38,83,104,29,39,71,281,37,46,59,114,40,19,48,343,29,4*78
$GBGSV,3,2,10,20,43,061,31,36,34,184,28,37,23,048,27,35,22,270,34,4*7E
$GBGSV,3,3,10,29,20,213,25,22,11,300,29,4*74
$GNACCURACY,2.7*13
$PAIRSAT,1,35,1,0,200,2,0,200,3,0,200,4,0,200,5,0,201,6,0,200,7,0,200,8,0,200,9,0,200,10,0,221,11,0,200,12,0,201,13,0,201,14,0,200,15,0,201,16,0,200,17,0,200,18,0,221,19,0,200,20,0,200,21,0,200,23,0,221,24,0,221,25,0,200,26,0,200,27,0,200,28,0,200,29,0,200,30,0,200,31,0,200,32,0,221,194,0,621,195,0,621,196,0,620,199,0,621*68
$PAIRSAT,2,23,65,0,200,67,0,200,68,0,200,69,0,201,70,0,201,71,0,201,72,0,200,73,0,201,74,0,200,75,0,200,76,0,200,77,0,200,78,0,200,79,0,201,80,0,201,81,0,200,82,0,200,83,0,200,84,0,200,85,0,201,86,0,201,87,0,200,88,0,200*53
$PAIRSAT,3,23,2,0,1221,3,0,1221,4,0,1200,5,0,200,7,0,1221,8,0,1221,9,0,1200,10,0,1200,11,0,1200,12,0,1200,13,0,1221,15,0,1221,19,0,1200,21,0,1200,24,0,1200,25,0,1200,26,0,1221,27,0,1200,30,0,1221,31,0,1200,33,0,1200,34,0,1200,36,0,1200*6A
$PAIRSAT,4,50,1,0,200,2,0,200,3,0,200,4,0,200,5,0,200,6,0,201,7,0,200,8,0,201,9,0,201,10,0,200,11,0,200,12,0,200,13,0,201,14,0,200,15,0,200,16,0,201,19,0,621,20,0,621,21,0,600,22,0,621,23,0,600,24,0,600,25,0,600,26,0,600,27,0,600,28,0,600,29,0,621,30,0,600,31,0,200,32,0,600,33,0,600,34,0,600,35,0,621,36,0,621,37,0,621,38,0,621,39,0,621,40,0,600,41,0,600,42,0,600,43,0,600,44,0,600,45,0,600,46,0,621,56,0,200,57,0,200,58,0,200,59,0,600,60,0,600,61,0,600*41
$PAIRDGP,9,5,10,12,13,15,18,23,24,32*5E
$GNGGA,112337.200,2500.8134800,N,12132.4731000,E,2,63,0.44,23.86,M,15.25,M,1,3335*7B
$GNRMC,112337.200,A,2500.8134800,N,12132.4731000,E,0.01,234.24,260623,,,D,V*0A
$GPHDT,,T*1B
$GNACCURACY,2.7*13
$GNGGA,112337.300,2500.8134700,N,12132.4730900,E,2,63,0.44,23.86,M,15.25,M,1,3335*7D
$GNRMC,112337.300,A,2500.8134700,N,12132.4730900,E,0.01,234.24,260623,,,D,V*0C
$GPHDT,,T*1B
$GNACCURACY,2.7*13
$GNGGA,112337.400,2500.8134700,N,12132.4730900,E,2,63,0.44,23.87,M,15.25,M,1,3335*7B
$GNRMC,112337.400,A,2500.8134700,N,12132.4730900,E,0.01,234.24,260623,,,D,V*0B
$GPHDT,,T*1B
$GNACCURACY,2.7*13
$GNGGA,112337.500,2500.8134700,N,12132.4730900,E,2,63,0.44,23.88,M,15.25,M,1,3335*75
$GNRMC,112337.500,A,2500.8134700,N,12132.4730900,E,0.01,234.24,260623,,,D,V*0A
$GPHDT,,T*1B
$GNACCURACY,2.7*13
$GNGGA,112337.600,2500.8134600,N,12132.4730800,E,2,63,0.44,23.89,M,15.25,M,1,3335*77
$GNRMC,112337.600,A,2500.8134600,N,12132.4730800,E,0.01,234.24,260623,,,D,V*09
$GPHDT,,T*1B
$GNACCURACY,2.7*13
$GNGGA,112337.700,2500.8134600,N,12132.4730700,E,2,63,0.44,23.90,M,15.25,M,1,3335*71
$GNRMC,112337.700,A,2500.8134600,N,12132.4730700,E,0.01,234.24,260623,,,D,V*07
$GPHDT,,T*1B
$GNACCURACY,2.7*13
$GNGGA,112337.800,2500.8134600,N,12132.4730700,E,2,63,0.44,23.90,M,15.25,M,1,3335*7E
$GNRMC,112337.800,A,2500.8134600,N,12132.4730700,E,0.01,234.24,260623,,,D,V*08
$GPHDT,,T*1B
$GNACCURACY,2.7*13
$GNGGA,112337.900,2500.8134500,N,12132.4730700,E,2,63,0.44,23.91,M,15.25,M,1,3335*7D
$GNRMC,112337.900,A,2500.8134500,N,12132.4730700,E,0.01,234.24,260623,,,D,V*0A
$GPHDT,,T*1B
$GNACCURACY,2.7*13
$GNGGA,112338.000,2500.8134400,N,12132.4730600,E,2,63,0.44,23.92,M,15.25,M,2,3335*7B
$GNRMC,112338.000,A,2500.8134400,N,12132.4730600,E,0.01,234.24,260623,,,D,V*0C
$GPHDT,,T*1B
$GNACCURACY,2.7*13
$GNGGA,112338.100,2500.8134400,N,12132.4730700,E,2,64,0.44,23.93,M,15.25,M,2,3335*7D
$GNRMC,112338.100,A,2500.8134400,N,12132.4730700,E,0.01,234.24,260623,,,D,V*0C
$GPHDT,,T*1B
$GNGSA,A,3,24,196,199,18,23,15,195,194,05,12,10,,0.80,0.44,0.67,1*0B
$GNGSA,A,3,80,73,85,86,71,79,,,,,,,0.80,0.44,0.67,2*0C
$GNGSA,A,3,13,08,07,26,30,02,15,,,,,,0.80,0.44,0.67,3*06
$GNGSA,A,3,38,08,39,13,16,06,46,09,19,20,36,37,0.80,0.44,0.67,4*07
$GNGSA,A,3,35,29,22,,,,,,,,,,0.80,0.44,0.67,4*00
$GPGSV,4,1,16,24,75,045,44,196,75,064,41,199,60,167,21,18,59,249,32,1*67
$GPGSV,4,2,16,23,49,337,33,15,38,045,45,41,38,241,38,195,34,180,30,1*53
$GPGSV,4,3,16,194,30,139,41,05,20,117,19,12,19,142,37,10,17,318,31,1*5A
$GPGSV,4,4,16,13,09,056,,32,09,268,27,25,08,177,,29,02,197,,1*62
$GPGSV,3,1,09,196,75,064,44,24,75,045,47,199,60,167,40,18,59,249,38,8*6C
$GPGSV,3,2,09,23,49,337,24,195,34,180,18,194,30,139,36,10,17,318,34,8*69
$GPGSV,3,3,09,32,09,268,30,8*53
$GLGSV,3,1,09,80,48,079,46,70,40,008,,73,37,160,18,85,36,248,39,1*72
$GLGSV,3,2,09,86,27,304,42,71,21,313,35,69,13,072,15,79,12,033,23,1*78
$GLGSV,3,3,09,84,10,190,,1*44
$GAGSV,2,1,08,13,57,233,32,08,47,024,32,07,44,302,40,26,31,308,40,7*7C
$GAGSV,2,2,08,30,25,144,34,02,25,087,36,15,24,174,23,03,11,063,,7*71
$GAGSV,2,1,07,13,57,233,34,08,47,024,30,07,44,302,48,26,31,308,41,1*78
$GAGSV,2,2,07,02,25,087,39,30,25,144,41,15,24,174,22,1*42
$GBGSV,4,1,16,38,83,104,27,08,78,005,35,39,71,281,36,13,68,335,38,1*70
$GBGSV,4,2,16,16,66,256,40,06,65,252,38,46,59,114,41,09,49,237,18,1*7A
$GBGSV,4,3,16,19,48,343,30,56,47,311,,20,43,061,33,36,34,184,29,1*70
$GBGSV,4,4,16,37,23,048,37,35,22,270,35,29,20,213,26,22,11,300,32,1*76
$GBGSV,3,1,10,38,83,104,29,39,71,281,37,46,59,114,40,19,48,343,29,4*78
$GBGSV,3,2,10,20,43,061,31,36,34,184,27,37,23,048,28,35,22,270,34,4*7E
$GBGSV,3,3,10,29,20,213,24,22,11,300,26,4*7A
$GNACCURACY,2.7*13
$PAIRSAT,1,35,1,0,200,2,0,200,3,0,200,4,0,200,5,0,201,6,0,200,7,0,200,8,0,200,9,0,200,10,0,221,11,0,200,12,0,201,13,0,201,14,0,200,15,0,201,16,0,200,17,0,200,18,0,221,19,0,200,20,0,200,21,0,200,23,0,221,24,0,221,25,0,200,26,0,200,27,0,200,28,0,200,29,0,200,30,0,200,31,0,200,32,0,221,194,0,621,195,0,621,196,0,620,199,0,621*68
$PAIRSAT,2,23,65,0,200,67,0,200,68,0,200,69,0,201,70,0,201,71,0,201,72,0,200,73,0,201,74,0,200,75,0,200,76,0,200,77,0,200,78,0,200,79,0,201,80,0,201,81,0,200,82,0,200,83,0,200,84,0,200,85,0,201,86,0,201,87,0,200,88,0,200*53
$PAIRSAT,3,23,2,0,1221,3,0,1221,4,0,1200,5,0,200,7,0,1221,8,0,1221,9,0,1200,10,0,1200,11,0,1200,12,0,1200,13,0,1221,15,0,1221,19,0,1200,21,0,1200,24,0,1200,25,0,1200,26,0,1221,27,0,1200,30,0,1221,31,0,1200,33,0,1200,34,0,1200,36,0,1200*6A
$PAIRSAT,4,50,1,0,200,2,0,200,3,0,200,4,0,200,5,0,200,6,0,201,7,0,200,8,0,201,9,0,201,10,0,200,11,0,200,12,0,200,13,0,201,14,0,200,15,0,200,16,0,201,19,0,621,20,0,621,21,0,600,22,0,621,23,0,600,24,0,600,25,0,600,26,0,600,27,0,600,28,0,600,29,0,621,30,0,600,31,0,200,32,0,600,33,0,600,34,0,600,35,0,621,36,0,621,37,0,621,38,0,621,39,0,621,40,0,600,41,0,600,42,0,600,43,0,600,44,0,600,45,0,600,46,0,621,56,0,200,57,0,200,58,0,200,59,0,600,60,0,600,61,0,600*41
$PAIRDGP,9,5,10,12,13,15,18,23,24,32*5E
$GNGGA,112338.200,2500.8134400,N,12132.4730700,E,2,64,0.44,23.94,M,15.25,M,2,3335*79
$GNRMC,112338.200,A,2500.8134400,N,12132.4730700,E,0.01,234.24,260623,,,D,V*0F
$GPHDT,,T*1B
$GNACCURACY,2.7*13
$GNGGA,112338.300,2500.8134300,N,12132.4730700,E,2,64,0.44,23.95,M,15.25,M,2,3335*7E
$GNRMC,112338.300,A,2500.8134300,N,12132.4730700,E,0.01,234.24,260623,,,D,V*09
$GPHDT,,T*1B
$GNACCURACY,2.7*13
$GNGGA,112338.400,2500.8134300,N,12132.4730700,E,2,64,0.44,23.96,M,15.25,M,2,3335*7A
$GNRMC,112338.400,A,2500.8134300,N,12132.4730700,E,0.01,234.24,260623,,,D,V*0E
$GPHDT,,T*1B
$GNACCURACY,2.7*13
$GNGGA,112338.500,2500.8134300,N,12132.4730700,E,2,64,0.44,23.98,M,15.25,M,2,3335*75
$GNRMC,112338.500,A,2500.8134300,N,12132.4730700,E,0.01,234.24,260623,,,D,V*0F
$GPHDT,,T*1B
$GNACCURACY,2.7*13
$GNGGA,112338.600,2500.8134300,N,12132.4730700,E,2,64,0.44,23.99,M,15.25,M,2,3335*77
$GNRMC,112338.600,A,2500.8134300,N,12132.4730700,E,0.01,234.24,260623,,,D,V*0C
$GPHDT,,T*1B
$GNACCURACY,2.7*13
$GNGGA,112338.700,2500.8134300,N,12132.4730700,E,2,64,0.44,24.01,M,15.25,M,2,3335*70
$GNRMC,112338.700,A,2500.8134300,N,12132.4730700,E,0.01,234.24,260623,,,D,V*0D
$GPHDT,,T*1B
$GNACCURACY,2.8*1C
$GNGGA,112338.800,2500.8134200,N,12132.4730700,E,2,64,0.44,24.02,M,15.25,M,2,3335*7D
$GNRMC,112338.800,A,2500.8134200,N,12132.4730700,E,0.01,234.24,260623,,,D,V*03
$GPHDT,,T*1B
$GNACCURACY,2.8*1C
$GNGGA,112338.900,2500.8134200,N,12132.4730700,E,2,64,0.44,24.03,M,15.25,M,2,3335*7D
$GNRMC,112338.900,A,2500.8134200,N,12132.4730700,E,0.00,234.24,260623,,,D,V*03
$GPHDT,,T*1B
$GNACCURACY,2.8*1C
$GNGGA,112339.000,2500.8134200,N,12132.4730700,E,2,64,0.44,24.04,M,15.25,M,3,3335*73
$GNRMC,112339.000,A,2500.8134200,N,12132.4730700,E,0.00,234.24,260623,,,D,V*0B
$GPHDT,,T*1B
$GNACCURACY,2.8*1C
$GNGGA,112339.100,2500.8134100,N,12132.4730700,E,2,64,0.44,24.05,M,15.25,M,3,3335*70
$GNRMC,112339.100,A,2500.8134100,N,12132.4730700,E,0.00,234.24,260623,,,D,V*09
$GPHDT,,T*1B
$GNGSA,A,3,24,196,199,18,23,15,195,194,05,12,10,,0.80,0.44,0.67,1*0B
$GNGSA,A,3,80,73,85,86,71,79,,,,,,,0.80,0.44,0.67,2*0C
$GNGSA,A,3,13,08,07,26,30,02,15,,,,,,0.80,0.44,0.67,3*06
$GNGSA,A,3,38,08,39,13,16,06,46,09,19,20,36,37,0.80,0.44,0.67,4*07
$GNGSA,A,3,35,29,22,,,,,,,,,,0.80,0.44,0.67,4*00
$GPGSV,4,1,16,24,75,045,44,196,75,064,41,199,60,167,20,18,59,249,31,1*65
$GPGSV,4,2,16,23,49,337,33,15,38,045,45,41,38,241,40,195,34,180,29,1*54
$GPGSV,4,3,16,194,30,139,41,05,20,117,18,12,19,142,37,10,17,318,31,1*5B
$GPGSV,4,4,16,13,09,056,,32,09,268,26,25,08,177,,29,02,197,,1*63
$GPGSV,3,1,09,196,75,064,44,24,75,045,47,199,60,167,41,18,59,249,38,8*6D
$GPGSV,3,2,09,23,49,337,25,195,34,180,18,194,30,139,36,10,17,318,34,8*68
$GPGSV,3,3,09,32,09,268,30,8*53
$GLGSV,3,1,10,80,48,079,46,70,40,008,,73,37,160,18,85,36,248,36,1*75
$GLGSV,3,2,10,86,27,304,42,71,21,313,33,69,13,072,17,79,12,033,24,1*73
$GLGSV,3,3,10,84,10,190,,74,01,187,,1*70
$GAGSV,3,1,09,13,57,233,32,08,47,024,32,07,44,302,40,26,31,308,40,7*7C
$GAGSV,3,2,09,30,25,144,34,02,25,087,36,15,24,174,23,03,11,063,,7*71
$GAGSV,3,3,09,25,03,044,,7*4E
$GAGSV,2,1,07,13,57,233,34,08,47,024,30,07,44,302,48,26,31,308,41,1*78
$GAGSV,2,2,07,02,25,087,39,30,25,144,41,15,24,174,22,1*42
$GBGSV,5,1,18,38,83,104,26,08,78,005,35,39,71,281,36,13,68,335,38,1*7E
$GBGSV,5,2,18,16,66,256,40,06,65,252,38,46,59,114,41,09,49,237,18,1*75
$GBGSV,5,3,18,19,48,343,30,20,43,061,33,36,34,184,29,37,23,048,37,1*71
$GBGSV,5,4,18,35,22,270,35,29,20,213,26,22,11,300,32,07,05,192,,1*7C
$GBGSV,5,5,18,10,03,202,,44,02,313,,1*7E
$GBGSV,3,1,10,38,83,104,30,39,71,281,37,46,59,114,41,19,48,343,29,4*71
$GBGSV,3,2,10,20,43,061,31,36,34,184,27,37,23,048,28,35,22,270,34,4*7E
$GBGSV,3,3,10,29,20,213,24,22,11,300,28,4*74
$GNACCURACY,2.8*1C
$PAIRSAT,1,35,1,0,200,2,0,200,3,0,200,4,0,200,5,0,201,6,0,200,7,0,200,8,0,200,9,0,200,10,0,221,11,0,200,12,0,201,13,0,201,14,0,200,15,0,201,16,0,200,17,0,200,18,0,221,19,0,200,20,0,200,21,0,200,23,0,221,24,0,221,25,0,200,26,0,200,27,0,200,28,0,200,29,0,200,30,0,200,31,0,200,32,0,221,194,0,621,195,0,621,196,0,620,199,0,621*68
$PAIRSAT,2,23,65,0,200,67,0,200,68,0,200,69,0,201,70,0,201,71,0,201,72,0,200,73,0,201,74,0,200,75,0,200,76,0,200,77,0,200,78,0,200,79,0,201,80,0,201,81,0,200,82,0,200,83,0,200,84,0,200,85,0,201,86,0,201,87,0,200,88,0,200*53
$PAIRSAT,3,23,2,0,1221,3,0,1221,4,0,1200,5,0,200,7,0,1221,8,0,1221,9,0,1200,10,0,1200,11,0,1200,12,0,1200,13,0,1221,15,0,1221,19,0,1200,21,0,1200,24,0,1200,25,0,1200,26,0,1221,27,0,1200,30,0,1221,31,0,1200,33,0,1200,34,0,1200,36,0,1200*6A
$PAIRSAT,4,50,1,0,200,2,0,200,3,0,200,4,0,200,5,0,200,6,0,201,7,0,200,8,0,201,9,0,201,10,0,200,11,0,200,12,0,200,13,0,201,14,0,200,15,0,200,16,0,201,19,0,621,20,0,621,21,0,600,22,0,621,23,0,600,24,0,600,25,0,600,26,0,600,27,0,600,28,0,600,29,0,621,30,0,600,31,0,200,32,0,600,33,0,600,34,0,600,35,0,621,36,0,621,37,0,621,38,0,621,39,0,621,40,0,600,41,0,600,42,0,600,43,0,600,44,0,600,45,0,600,46,0,621,56,0,200,57,0,200,58,0,200,59,0,600,60,0,600,61,0,600*41
$PAIRDGP,9,5,10,12,13,15,18,23,24,32*5E
$GNGGA,112339.200,2500.8134100,N,12132.4730700,E,2,64,0.44,24.06,M,15.25,M,3,3335*70
$GNRMC,112339.200,A,2500.8134100,N,12132.4730700,E,0.00,234.24,260623,,,D,V*0A
$GPHDT,,T*1B
$GNACCURACY,2.8*1C
$GNGGA,112339.300,2500.8134100,N,12132.4730700,E,2,64,0.44,24.07,M,15.25,M,3,3335*70
$GNRMC,112339.300,A,2500.8134100,N,12132.4730700,E,0.00,234.24,260623,,,D,V*0B
$GPHDT,,T*1B
$GNACCURACY,2.8*1C
$GNGGA,112339.400,2500.8134100,N,12132.4730700,E,2,64,0.44,24.09,M,15.25,M,3,3335*79
$GNRMC,112339.400,A,2500.8134100,N,12132.4730700,E,0.00,234.24,260623,,,D,V*0C
$GPHDT,,T*1B
$GNACCURACY,2.8*1C
$GNGGA,112339.500,2500.8134000,N,12132.4730700,E,2,64,0.44,24.10,M,15.25,M,3,3335*71
$GNRMC,112339.500,A,2500.8134000,N,12132.4730700,E,0.00,234.24,260623,,,D,V*0C
$GPHDT,,T*1B
$GNACCURACY,2.9*1D
$GNGGA,112339.600,2500.8134000,N,12132.4730700,E,2,64,0.44,24.11,M,15.25,M,3,3335*73
$GNRMC,112339.600,A,2500.8134000,N,12132.4730700,E,0.00,234.24,260623,,,D,V*0F
$GPHDT,,T*1B
$GNACCURACY,2.9*1D
$GNGGA,112339.700,2500.8134000,N,12132.4730600,E,2,63,0.45,24.12,M,15.25,M,3,3335*76
$GNRMC,112339.700,A,2500.8134000,N,12132.4730600,E,0.00,234.24,260623,,,D,V*0F
$GPHDT,,T*1B
$GNACCURACY,2.9*1D
$GNGGA,112339.800,2500.8134000,N,12132.4730600,E,2,63,0.45,24.13,M,15.25,M,3,3335*78
$GNRMC,112339.800,A,2500.8134000,N,12132.4730600,E,0.00,234.24,260623,,,D,V*00
$GPHDT,,T*1B
$GNACCURACY,2.9*1D
$GNGGA,112339.900,2500.8133900,N,12132.4730600,E,2,63,0.45,24.15,M,15.25,M,3,3335*71
$GNRMC,112339.900,A,2500.8133900,N,12132.4730600,E,0.00,234.24,260623,,,D,V*0F
$GPHDT,,T*1B
$GNACCURACY,2.9*1D
$GNGGA,112340.000,2500.8133800,N,12132.4730600,E,2,63,0.45,24.16,M,15.25,M,4,3335*73
$GNRMC,112340.000,A,2500.8133800,N,12132.4730600,E,0.00,234.24,260623,,,D,V*09
$GPHDT,,T*1B
$GNACCURACY,2.9*1D
$GNGGA,112340.100,2500.8133800,N,12132.4730700,E,2,64,0.43,24.17,M,15.25,M,4,3335*73
$GNRMC,112340.100,A,2500.8133800,N,12132.4730700,E,0.00,234.24,260623,,,D,V*09
$GPHDT,,T*1B
$GNGSA,A,3,196,24,199,18,23,15,195,194,05,12,10,,0.78,0.43,0.65,1*09
$GNGSA,A,3,80,73,85,86,71,69,79,,,,,,0.78,0.43,0.65,2*01
$GNGSA,A,3,13,08,07,26,30,02,15,,,,,,0.78,0.43,0.65,3*04
$GNGSA,A,3,38,08,39,13,16,06,46,19,20,36,37,35,0.78,0.43,0.65,4*0A
$GNGSA,A,3,29,22,,,,,,,,,,,0.78,0.43,0.65,4*04
$GPGSV,4,1,14,196,75,064,41,24,75,045,44,199,60,167,20,18,59,249,28,1*6F
$GPGSV,4,2,14,23,49,337,31,41,38,241,40,15,38,045,45,195,34,180,29,1*54
$GPGSV,4,3,14,194,30,139,41,05,20,117,17,12,19,142,37,10,17,318,32,1*55
$GPGSV,4,4,14,32,09,268,27,25,08,177,,1*6E
$GPGSV,3,1,09,196,75,064,44,24,75,045,47,199,60,167,41,18,59,249,37,8*62
$GPGSV,3,2,09,23,49,337,27,195,34,180,18,194,30,139,36,10,17,318,35,8*6B
$GPGSV,3,3,09,32,09,268,30,8*53
$GLGSV,3,1,10,80,48,079,47,70,40,008,,73,37,160,18,85,36,248,30,1*72
$GLGSV,3,2,10,86,27,304,42,71,21,313,31,69,13,072,18,79,12,033,24,1*7E
$GLGSV,3,3,10,84,10,190,,74,01,187,,1*70
$GAGSV,3,1,09,13,57,233,31,08,47,024,32,07,44,302,41,26,31,308,39,7*70
$GAGSV,3,2,09,30,25,144,34,02,25,087,36,15,24,174,24,03,11,063,,7*76
$GAGSV,3,3,09,25,03,044,,7*4E
$GAGSV,2,1,07,13,57,233,34,08,47,024,30,07,44,302,48,26,31,308,42,1*7B
$GAGSV,2,2,07,02,25,087,39,30,25,144,41,15,24,174,22,1*42
$GBGSV,4,1,15,38,83,104,27,08,78,005,35,39,71,281,34,13,68,335,38,1*71
$GBGSV,4,2,15,16,66,256,39,06,65,252,38,46,59,114,41,09,49,237,,1*7E
$GBGSV,4,3,15,19,48,343,29,20,43,061,32,36,34,184,30,37,23,048,37,1*7C
$GBGSV,4,4,15,35,22,270,34,29,20,213,28,22,11,300,34,1*41
$GBGSV,3,1,10,38,83,104,30,39,71,281,37,46,59,114,41,19,48,343,28,4*70
$GBGSV,3,2,10,20,43,061,30,36,34,184,26,37,23,048,28,35,22,270,33,4*79
$GBGSV,3,3,10,29,20,213,24,22,11,300,29,4*75
$GNACCURACY,2.9*1D
$PAIRSAT,1,35,1,0,200,2,0,200,3,0,200,4,0,200,5,0,201,6,0,200,7,0,200,8,0,200,9,0,200,10,0,221,11,0,200,12,0,201,13,0,201,14,0,200,15,0,201,16,0,200,17,0,200,18,0,221,19,0,200,20,0,200,21,0,200,23,0,221,24,0,221,25,0,200,26,0,200,27,0,200,28,0,200,29,0,200,30,0,200,31,0,200,32,0,221,194,0,621,195,0,621,196,0,620,199,0,621*68
$PAIRSAT,2,23,65,0,200,67,0,200,68,0,200,69,0,201,70,0,201,71,0,201,72,0,200,73,0,201,74,0,200,75,0,200,76,0,200,77,0,200,78,0,200,79,0,201,80,0,201,81,0,200,82,0,200,83,0,200,84,0,200,85,0,201,86,0,201,87,0,200,88,0,200*53
$PAIRSAT,3,23,2,0,1221,3,0,1221,4,0,1200,5,0,200,7,0,1221,8,0,1221,9,0,1200,10,0,1200,11,0,1200,12,0,1200,13,0,1221,15,0,1221,19,0,1200,21,0,1200,24,0,1200,25,0,1200,26,0,1221,27,0,1200,30,0,1221,31,0,1200,33,0,1200,34,0,1200,36,0,1200*6A
$PAIRSAT,4,50,1,0,200,2,0,200,3,0,200,4,0,200,5,0,200,6,0,201,7,0,200,8,0,201,9,0,201,10,0,200,11,0,200,12,0,200,13,0,201,14,0,200,15,0,200,16,0,201,19,0,621,20,0,621,21,0,600,22,0,621,23,0,600,24,0,600,25,0,600,26,0,600,27,0,600,28,0,600,29,0,621,30,0,600,31,0,200,32,0,600,33,0,600,34,0,600,35,0,621,36,0,621,37,0,621,38,0,621,39,0,621,40,0,600,41,0,600,42,0,600,43,0,600,44,0,600,45,0,600,46,0,621,56,0,200,57,0,200,58,0,200,59,0,600,60,0,600,61,0,600*41
$PAIRDGP,8,5,10,12,15,18,23,24,32*71
$GNGGA,112340.200,2500.8133800,N,12132.4730700,E,2,64,0.43,24.18,M,15.25,M,4,3335*7F
$GNRMC,112340.200,A,2500.8133800,N,12132.4730700,E,0.00,234.24,260623,,,D,V*0A
$GPHDT,,T*1B
$GNACCURACY,2.8*1C
$GNGGA,112340.300,2500.8133700,N,12132.4730700,E,2,64,0.43,24.20,M,15.25,M,4,3335*7A
$GNRMC,112340.300,A,2500.8133700,N,12132.4730700,E,0.00,234.24,260623,,,D,V*04
$GPHDT,,T*1B
$GNACCURACY,2.8*1C
$GNGGA,112340.400,2500.8133700,N,12132.4730700,E,2,64,0.43,24.21,M,15.25,M,4,3335*7C
$GNRMC,112340.400,A,2500.8133700,N,12132.4730700,E,0.00,234.24,260623,,,D,V*03
$GPHDT,,T*1B
$GNACCURACY,2.8*1C
$GNGGA,112340.500,2500.8133700,N,12132.4730700,E,2,64,0.43,24.22,M,15.25,M,4,3335*7E
$GNRMC,112340.500,A,2500.8133700,N,12132.4730700,E,0.00,234.24,260623,,,D,V*02
$GPHDT,,T*1B
$GNACCURACY,2.8*1C
$GNGGA,112340.600,2500.8133600,N,12132.4730700,E,2,64,0.43,24.24,M,15.25,M,1,3335*7F
$GNRMC,112340.600,A,2500.8133600,N,12132.4730700,E,0.00,234.24,260623,,,D,V*00
$GPHDT,,T*1B
