$FW : RTK35X,V1.1X0314AS,Lib20210517,1*54
$Tool : LOCOSYS , GNSS Firebird , v1.0.0.19*39
$---------------------------------------------------*2D
,17.94,M,15.25,M,5,3335*77
$GNRMC,112450.000,A,2500.8139800,N,12132.4717100,E,0.03,234.24,260623,,,D,V*04
$GPHDT,,T*1B
$GNACCURACY,2.2*16
$GNGGA,112450.100,2500.8139800,N,12132.4717100,E,2,65,0.42,17.93,M,15.25,M,5,3335*71
$GNRMC,112450.100,A,2500.8139800,N,12132.4717100,E,0.03,234.24,260623,,,D,V*05
$GPHDT,,T*1B
$GNGSA,A,3,24,196,199,18,23,15,195,194,12,05,10,,0.77,0.42,0.64,1*06
$GNGSA,A,3,80,70,73,85,86,71,79,,,,,,0.77,0.42,0.64,2*06
$GNGSA,A,3,13,08,07,26,02,30,15,03,,,,,0.77,0.42,0.64,3*08
$GNGSA,A,3,38,08,39,13,16,06,46,09,19,20,37,35,0.77,0.42,0.64,4*09
$GNGSA,A,3,29,22,36,,,,,,,,,,0.77,0.42,0.64,4*0E
$GPGSV,4,1,16,24,75,045,48,196,75,064,39,199,60,167,22,18,59,248,33,1*67
$GPGSV,4,2,16,23,50,338,25,41,38,241,39,15,37,046,47,195,34,180,24,1*59
$GPGSV,4,3,16,194,30,139,35,12,20,142,39,05,19,118,30,10,17,318,34,1*56
$GPGSV,4,4,16,13,09,056,15,32,09,268,35,25,08,177,,29,01,197,,1*66
$GPGSV,3,1,09,196,75,064,43,24,75,045,48,199,60,167,41,18,59,248,36,8*6A
$GPGSV,3,2,09,23,50,338,38,195,34,180,23,194,30,139,31,10,17,318,35,8*6D
$GPGSV,3,3,09,32,09,268,29,8*5B
$GLGSV,3,1,09,80,48,078,39,70,40,009,19,73,37,159,27,85,36,247,41,1*74
$GLGSV,3,2,09,86,27,303,40,71,21,313,43,69,13,073,12,79,12,033,24,1*7D
$GLGSV,3,3,09,84,09,190,,1*4C
$GAGSV,3,1,09,13,57,233,33,08,47,024,29,07,44,302,44,26,32,307,42,7*7D
$GAGSV,3,2,09,02,25,086,32,30,25,144,34,15,23,174,21,03,11,064,19,7*7E
$GAGSV,3,3,09,25,03,043,,7*49
$GAGSV,2,1,07,13,57,233,37,08,47,024,37,07,44,302,46,26,32,307,44,1*7B
$GAGSV,2,2,07,02,25,086,35,30,25,144,40,03,11,064,14,1*4A
$GBGSV,4,1,15,38,83,107,29,08,79,004,31,39,71,282,37,13,68,334,39,1*78
$GBGSV,4,2,15,16,66,257,42,06,65,252,39,46,59,113,40,09,49,238,21,1*78
$GBGSV,4,3,15,19,48,344,36,20,43,062,26,36,34,184,,37,23,048,36,1*71
$GBGSV,4,4,15,35,21,269,33,29,19,212,16,22,11,301,32,1*4C
$GBGSV,3,1,10,38,83,107,35,39,71,282,35,46,59,113,36,19,48,344,27,4*78
$GBGSV,3,2,10,20,43,062,25,36,34,184,23,37,23,048,26,35,21,269,37,4*7A
$GBGSV,3,3,10,29,19,212,23,22,11,301,32,4*72
$GNACCURACY,2.2*16
$PAIRSAT,1,35,1,0,200,2,0,200,3,0,200,4,0,200,5,0,201,6,0,200,7,0,200,8,0,200,9,0,200,10,0,221,11,0,200,12,0,201,13,0,201,14,0,200,15,0,201,16,0,200,17,0,200,18,0,221,19,0,200,20,0,200,21,0,200,23,0,221,24,0,221,25,0,200,26,0,200,27,0,200,28,0,200,29,0,200,30,0,200,31,0,200,32,0,221,194,0,621,195,0,621,196,0,620,199,0,621*68
$PAIRSAT,2,23,65,0,200,67,0,200,68,0,200,69,0,201,70,0,201,71,0,201,72,0,200,73,0,201,74,0,200,75,0,200,76,0,200,77,0,200,78,0,200,79,0,201,80,0,201,81,0,200,82,0,200,83,0,200,84,0,200,85,0,201,86,0,201,87,0,200,88,0,200*53
$PAIRSAT,3,23,2,0,1221,3,0,1221,4,0,1200,5,0,200,7,0,1221,8,0,1221,9,0,1200,10,0,1200,11,0,1200,12,0,1200,13,0,1221,15,0,1221,19,0,1200,21,0,1200,24,0,1200,25,0,1200,26,0,1221,27,0,1200,30,0,1221,31,0,1200,33,0,1200,34,0,1200,36,0,1200*6A
$PAIRSAT,4,50,1,0,200,2,0,200,3,0,200,4,0,200,5,0,200,6,0,201,7,0,200,8,0,201,9,0,201,10,0,200,11,0,200,12,0,200,13,0,201,14,0,200,15,0,200,16,0,201,19,0,621,20,0,621,21,0,600,22,0,621,23,0,600,24,0,600,25,0,600,26,0,600,27,0,600,28,0,600,29,0,621,30,0,600,31,0,200,32,0,600,33,0,600,34,0,600,35,0,621,36,0,621,37,0,621,38,0,621,39,0,621,40,0,600,41,0,600,42,0,600,43,0,600,44,0,600,45,0,600,46,0,621,56,0,200,57,0,200,58,0,200,59,0,600,60,0,600,61,0,600*41
$PAIRDGP,11,5,10,12,13,15,18,23,24,25,29,32*6B
$GNGGA,112450.200,2500.8139800,N,12132.4717200,E,2,64,0.42,17.92,M,15.25,M,5,3335*71
$GNRMC,112450.200,A,2500.8139800,N,12132.4717200,E,0.03,234.24,260623,,,D,V*05
$GPHDT,,T*1B
$GNACCURACY,2.2*16
$GNGGA,112450.300,2500.8139800,N,12132.4717200,E,2,64,0.42,17.91,M,15.25,M,5,3335*73
$GNRMC,112450.300,A,2500.8139800,N,12132.4717200,E,0.03,234.24,260623,,,D,V*04
$GPHDT,,T*1B
$GNACCURACY,2.2*16
$GNGGA,112450.400,2500.8139700,N,12132.4717200,E,2,64,0.42,17.89,M,15.25,M,5,3335*72
$GNRMC,112450.400,A,2500.8139700,N,12132.4717200,E,0.03,234.24,260623,,,D,V*0C
$GPHDT,,T*1B
$GNACCURACY,2.2*16
$GNGGA,112450.500,2500.8139700,N,12132.4717300,E,2,64,0.42,17.88,M,15.25,M,5,3335*73
$GNRMC,112450.500,A,2500.8139700,N,12132.4717300,E,0.03,234.24,260623,,,D,V*0C
$GPHDT,,T*1B
$GNACCURACY,2.2*16
$GNGGA,112450.600,2500.8139700,N,12132.4717300,E,2,64,0.42,17.87,M,15.25,M,5,3335*7F
$GNRMC,112450.600,A,2500.8139700,N,12132.4717300,E,0.02,234.24,260623,,,D,V*0E
$GPHDT,,T*1B
$GNACCURACY,2.2*16
$GNGGA,112450.700,2500.8139700,N,12132.4717400,E,2,64,0.42,17.86,M,15.25,M,5,3335*78
$GNRMC,112450.700,A,2500.8139700,N,12132.4717400,E,0.02,234.24,260623,,,D,V*08
$GPHDT,,T*1B
$GNACCURACY,2.2*16
$GNGGA,112450.800,2500.8139700,N,12132.4717400,E,2,64,0.42,17.85,M,15.25,M,5,3335*74
$GNRMC,112450.800,A,2500.8139700,N,12132.4717400,E,0.02,234.24,260623,,,D,V*07
$GPHDT,,T*1B
$GNACCURACY,2.8*1C
$GNGGA,112450.900,2500.8139700,N,12132.4717500,E,2,64,0.42,17.84,M,15.25,M,5,3335*75
$GNRMC,112450.900,A,2500.8139700,N,12132.4717500,E,0.02,234.24,260623,,,D,V*07
$GPHDT,,T*1B
$GNACCURACY,2.2*16
$GNGGA,112451.000,2500.8139600,N,12132.4717500,E,2,64,0.42,17.84,M,15.25,M,6,3335*7F
$GNRMC,112451.000,A,2500.8139600,N,12132.4717500,E,0.02,234.24,260623,,,D,V*0E
$GPHDT,,T*1B
$GNACCURACY,2.2*16
$GNGGA,112451.100,2500.8139600,N,12132.4717600,E,2,64,0.42,17.83,M,15.25,M,6,3335*7A
$GNRMC,112451.100,A,2500.8139600,N,12132.4717600,E,0.02,234.24,260623,,,D,V*0C
$GPHDT,,T*1B
$GNGSA,A,3,24,196,199,18,23,15,195,194,12,05,10,,0.77,0.42,0.64,1*06
$GNGSA,A,3,80,70,73,85,86,71,79,,,,,,0.77,0.42,0.64,2*06
$GNGSA,A,3,13,08,07,26,02,30,15,03,,,,,0.77,0.42,0.64,3*08
$GNGSA,A,3,38,08,39,13,16,06,46,09,19,20,37,35,0.77,0.42,0.64,4*09
$GNGSA,A,3,29,22,36,,,,,,,,,,0.77,0.42,0.64,4*0E
$GPGSV,4,1,16,24,75,044,48,196,75,064,39,199,60,167,23,18,59,248,34,1*60
$GPGSV,4,2,16,23,50,338,25,41,38,241,39,15,37,046,47,195,34,180,24,1*59
$GPGSV,4,3,16,194,30,139,37,12,20,142,37,05,19,118,30,10,17,318,34,1*5A
$GPGSV,4,4,16,13,09,056,17,32,09,268,34,25,08,177,,29,01,197,,1*65
$GPGSV,3,1,09,196,75,064,43,24,75,044,48,199,60,167,41,18,59,248,36,8*6B
$GPGSV,3,2,09,23,50,338,38,195,34,180,23,194,30,139,32,10,17,318,35,8*6E
$GPGSV,3,3,09,32,09,268,28,8*5A
$GLGSV,3,1,09,80,48,078,39,70,40,009,19,73,37,159,28,85,36,247,41,1*7B
$GLGSV,3,2,09,86,27,303,40,71,21,313,43,69,13,073,15,79,12,033,24,1*7A
$GLGSV,3,3,09,84,09,190,,1*4C
$GAGSV,3,1,09,13,57,233,33,08,47,024,28,07,44,302,44,26,32,307,42,7*7C
$GAGSV,3,2,09,02,25,086,32,30,25,144,37,15,23,174,21,03,11,064,19,7*7D
$GAGSV,3,3,09,25,03,043,,7*49
$GAGSV,2,1,07,13,57,233,37,08,47,024,37,07,44,302,46,26,32,307,44,1*7B
$GAGSV,2,2,07,02,25,086,34,30,25,144,42,03,11,064,13,1*4E
$GBGSV,4,1,15,38,83,107,30,08,79,004,31,39,71,282,37,13,68,334,39,1*70
$GBGSV,4,2,15,16,66,257,42,06,65,252,38,46,59,113,40,09,49,238,21,1*79
$GBGSV,4,3,15,19,48,344,36,20,43,062,26,36,34,184,,37,23,048,36,1*71
$GBGSV,4,4,15,35,21,269,33,29,19,212,16,22,11,301,32,1*4C
$GBGSV,3,1,10,38,83,107,35,39,71,282,35,46,59,113,36,19,48,344,27,4*78
$GBGSV,3,2,10,20,43,062,24,36,34,184,24,37,23,048,27,35,21,269,37,4*7D
$GBGSV,3,3,10,29,19,212,24,22,11,301,31,4*76
$GNACCURACY,2.2*16
$PAIRSAT,1,35,1,0,200,2,0,200,3,0,200,4,0,200,5,0,201,6,0,200,7,0,200,8,0,200,9,0,200,10,0,221,11,0,200,12,0,201,13,0,201,14,0,200,15,0,201,16,0,200,17,0,200,18,0,221,19,0,200,20,0,200,21,0,200,23,0,221,24,0,221,25,0,200,26,0,200,27,0,200,28,0,200,29,0,200,30,0,200,31,0,200,32,0,221,194,0,621,195,0,621,196,0,620,199,0,621*68
$PAIRSAT,2,23,65,0,200,67,0,200,68,0,200,69,0,201,70,0,201,71,0,201,72,0,200,73,0,201,74,0,200,75,0,200,76,0,200,77,0,200,78,0,200,79,0,201,80,0,201,81,0,200,82,0,200,83,0,200,84,0,200,85,0,201,86,0,201,87,0,200,88,0,200*53
$PAIRSAT,3,23,2,0,1221,3,0,1221,4,0,1200,5,0,200,7,0,1221,8,0,1221,9,0,1200,10,0,1200,11,0,1200,12,0,1200,13,0,1221,15,0,1221,19,0,1200,21,0,1200,24,0,1200,25,0,1200,26,0,1221,27,0,1200,30,0,1221,31,0,1200,33,0,1200,34,0,1200,36,0,1200*6A
$PAIRSAT,4,50,1,0,200,2,0,200,3,0,200,4,0,200,5,0,200,6,0,201,7,0,200,8,0,201,9,0,201,10,0,200,11,0,200,12,0,200,13,0,201,14,0,200,15,0,200,16,0,201,19,0,621,20,0,621,21,0,600,22,0,621,23,0,600,24,0,600,25,0,600,26,0,600,27,0,600,28,0,600,29,0,621,30,0,600,31,0,200,32,0,600,33,0,600,34,0,600,35,0,621,36,0,621,37,0,621,38,0,621,39,0,621,40,0,600,41,0,600,42,0,600,43,0,600,44,0,600,45,0,600,46,0,621,56,0,200,57,0,200,58,0,200,59,0,600,60,0,600,61,0,600*41
$PAIRDGP,11,5,10,12,13,15,18,23,24,25,29,32*6B
$GNGGA,112451.200,2500.8139500,N,12132.4717700,E,2,64,0.42,17.82,M,15.25,M,6,3335*7A
$GNRMC,112451.200,A,2500.8139500,N,12132.4717700,E,0.02,234.24,260623,,,D,V*0D
$GPHDT,,T*1B
$GNACCURACY,2.2*16
$GNGGA,112451.300,2500.8139500,N,12132.4717700,E,2,64,0.42,17.81,M,15.25,M,6,3335*78
$GNRMC,112451.300,A,2500.8139500,N,12132.4717700,E,0.02,234.24,260623,,,D,V*0C
$GPHDT,,T*1B
$GNACCURACY,2.2*16
$GNGGA,112451.400,2500.8139500,N,12132.4717800,E,2,64,0.42,17.80,M,15.25,M,6,3335*71
$GNRMC,112451.400,A,2500.8139500,N,12132.4717800,E,0.02,234.24,260623,,,D,V*04
$GPHDT,,T*1B
$GNACCURACY,2.2*16
$GNGGA,112451.500,2500.8139500,N,12132.4717900,E,2,64,0.42,17.80,M,15.25,M,5,3335*72
$GNRMC,112451.500,A,2500.8139500,N,12132.4717900,E,0.02,234.24,260623,,,D,V*04
$GPHDT,,T*1B
$GNACCURACY,2.2*16
$GNGGA,112451.600,2500.8139400,N,12132.4717900,E,2,64,0.42,17.79,M,15.25,M,5,3335*76
$GNRMC,112451.600,A,2500.8139400,N,12132.4717900,E,0.02,234.24,260623,,,D,V*06
$GPHDT,,T*1B
$GNACCURACY,2.2*16
$GNGGA,112451.700,2500.8139400,N,12132.4718000,E,2,64,0.42,17.78,M,15.25,M,5,3335*70
$GNRMC,112451.700,A,2500.8139400,N,12132.4718000,E,0.02,234.24,260623,,,D,V*01
$GPHDT,,T*1B
$GNACCURACY,2.2*16
$GNGGA,112451.800,2500.8139400,N,12132.4718000,E,2,62,0.43,17.77,M,15.25,M,5,3335*77
$GNRMC,112451.800,A,2500.8139400,N,12132.4718000,E,0.02,234.24,260623,,,D,V*0E
$GPHDT,,T*1B
$GNACCURACY,2.2*16
$GNGGA,112451.900,2500.8139400,N,12132.4718100,E,2,62,0.43,17.76,M,15.25,M,5,3335*76
$GNRMC,112451.900,A,2500.8139400,N,12132.4718100,E,0.02,234.24,260623,,,D,V*0E
$GPHDT,,T*1B
$GNACCURACY,2.2*16
$GNGGA,112452.000,2500.8139400,N,12132.4718100,E,2,62,0.43,17.75,M,15.25,M,6,3335*7C
$GNRMC,112452.000,A,2500.8139400,N,12132.4718100,E,0.02,234.24,260623,,,D,V*04
$GPHDT,,T*1B
$GNACCURACY,2.2*16
$GNGGA,112452.100,2500.8139400,N,12132.4718200,E,2,62,0.43,17.75,M,15.25,M,6,3335*7E
$GNRMC,112452.100,A,2500.8139400,N,12132.4718200,E,0.02,234.24,260623,,,D,V*06
$GPHDT,,T*1B
$GNGSA,A,3,24,196,199,18,23,15,195,194,12,05,10,,0.80,0.43,0.67,1*0C
$GNGSA,A,3,80,70,73,85,86,71,79,,,,,,0.80,0.43,0.67,2*0C
$GNGSA,A,3,13,08,07,26,02,30,15,,,,,,0.80,0.43,0.67,3*01
$GNGSA,A,3,38,08,39,13,16,06,46,09,19,20,37,35,0.80,0.43,0.67,4*03
$GNGSA,A,3,29,22,36,,,,,,,,,,0.80,0.43,0.67,4*04
$GPGSV,4,1,15,24,75,044,48,196,75,064,40,199,60,167,24,18,59,248,34,1*6A
$GPGSV,4,2,15,23,50,338,27,41,38,241,39,15,37,046,47,195,34,180,24,1*58
$GPGSV,4,3,15,194,30,139,38,12,20,142,34,05,19,118,30,10,17,318,34,1*55
$GPGSV,4,4,15,13,09,056,17,32,09,268,34,25,08,177,,1*53
$GPGSV,3,1,09,196,75,064,43,24,75,044,48,199,60,167,40,18,59,248,35,8*69
$GPGSV,3,2,09,23,50,338,38,195,34,180,23,194,30,139,29,10,17,318,35,8*64
$GPGSV,3,3,09,32,09,268,28,8*5A
$GLGSV,2,1,08,80,48,078,36,70,40,009,18,73,37,159,27,85,36,247,41,1*7A
$GLGSV,2,2,08,86,27,303,40,71,21,313,43,69,13,073,12,79,12,033,24,1*7D
$GAGSV,3,1,09,13,57,233,34,08,47,024,26,07,44,302,45,26,32,307,42,7*74
$GAGSV,3,2,09,02,25,086,30,30,25,144,36,15,23,174,21,03,11,064,,7*76
$GAGSV,3,3,09,25,03,043,,7*49
$GAGSV,2,1,06,13,57,233,37,08,47,024,36,07,44,302,46,26,32,307,44,1*7B
$GAGSV,2,2,06,02,25,086,31,30,25,144,40,1*7B
$GBGSV,4,1,15,38,83,107,30,08,79,004,32,39,71,282,37,13,68,334,39,1*73
$GBGSV,4,2,15,16,66,257,42,06,65,252,38,46,59,113,38,09,49,238,24,1*73
$GBGSV,4,3,15,19,48,344,36,20,43,062,24,36,34,184,26,37,23,048,36,1*77
$GBGSV,4,4,15,35,21,269,31,29,19,212,16,22,11,301,33,1*4F
$GBGSV,3,1,10,38,83,107,34,39,71,282,35,46,59,113,35,19,48,344,25,4*78
$GBGSV,3,2,10,20,43,062,28,36,34,184,21,37,23,048,22,35,21,269,38,4*7E
$GBGSV,3,3,10,29,19,212,22,22,11,301,31,4*70
$GNACCURACY,2.7*13
$PAIRSAT,1,35,1,0,200,2,0,200,3,0,200,4,0,200,5,0,201,6,0,200,7,0,200,8,0,200,9,0,200,10,0,221,11,0,200,12,0,201,13,0,201,14,0,200,15,0,201,16,0,200,17,0,200,18,0,221,19,0,200,20,0,200,21,0,200,23,0,221,24,0,221,25,0,200,26,0,200,27,0,200,28,0,200,29,0,200,30,0,200,31,0,200,32,0,221,194,0,621,195,0,621,196,0,620,199,0,621*68
$PAIRSAT,2,23,65,0,200,67,0,200,68,0,200,69,0,201,70,0,201,71,0,201,72,0,200,73,0,201,74,0,200,75,0,200,76,0,200,77,0,200,78,0,200,79,0,201,80,0,201,81,0,200,82,0,200,83,0,200,84,0,200,85,0,201,86,0,201,87,0,200,88,0,200*53
$PAIRSAT,3,23,2,0,1221,3,0,1221,4,0,1200,5,0,200,7,0,1221,8,0,1221,9,0,1200,10,0,1200,11,0,1200,12,0,1200,13,0,1221,15,0,1221,19,0,1200,21,0,1200,24,0,1200,25,0,1200,26,0,1221,27,0,1200,30,0,1221,31,0,1200,33,0,1200,34,0,1200,36,0,1200*6A
$PAIRSAT,4,50,1,0,200,2,0,200,3,0,200,4,0,200,5,0,200,6,0,201,7,0,200,8,0,201,9,0,201,10,0,200,11,0,200,12,0,200,13,0,201,14,0,200,15,0,200,16,0,201,19,0,621,20,0,621,21,0,600,22,0,621,23,0,600,24,0,600,25,0,600,26,0,600,27,0,600,28,0,600,29,0,621,30,0,600,31,0,200,32,0,600,33,0,600,34,0,600,35,0,621,36,0,621,37,0,621,38,0,621,39,0,621,40,0,600,41,0,600,42,0,600,43,0,600,44,0,600,45,0,600,46,0,621,56,0,200,57,0,200,58,0,200,59,0,600,60,0,600,61,0,600*41
$PAIRDGP,10,5,10,12,13,15,18,23,24,25,32*4D
$GNGGA,112452.200,2500.8139300,N,12132.4718200,E,2,62,0.43,17.74,M,15.25,M,6,3335*7B
$GNRMC,112452.200,A,2500.8139300,N,12132.4718200,E,0.02,234.24,260623,,,D,V*02
$GPHDT,,T*1B
$GNACCURACY,2.2*16
$GNGGA,112452.300,2500.8139200,N,12132.4718200,E,2,61,0.43,17.74,M,15.25,M,6,3335*78
$GNRMC,112452.300,A,2500.8139200,N,12132.4718200,E,0.02,234.24,260623,,,D,V*02
$GPHDT,,T*1B
$GNACCURACY,2.2*16
$GNGGA,112452.400,2500.8139200,N,12132.4718200,E,2,62,0.42,17.73,M,15.25,M,6,3335*7A
$GNRMC,112452.400,A,2500.8139200,N,12132.4718200,E,0.02,234.24,260623,,,D,V*05
$GPHDT,,T*1B
$GNACCURACY,2.2*16
$GNGGA,112452.500,2500.8139100,N,12132.4718200,E,2,62,0.42,17.73,M,15.25,M,6,3335*78
$GNRMC,112452.500,A,2500.8139100,N,12132.4718200,E,0.02,234.24,260623,,,D,V*07
$GPHDT,,T*1B
$GNACCURACY,2.2*16
$GNGGA,112452.600,2500.8139100,N,12132.4718200,E,2,63,0.42,17.72,M,15.25,M,6,3335*7B
$GNRMC,112452.600,A,2500.8139100,N,12132.4718200,E,0.02,234.24,260623,,,D,V*04
$GPHDT,,T*1B
$GNACCURACY,2.2*16
$GNGGA,112452.700,2500.8139100,N,12132.4718300,E,2,63,0.42,17.71,M,15.25,M,6,3335*78
$GNRMC,112452.700,A,2500.8139100,N,12132.4718300,E,0.02,234.24,260623,,,D,V*04
$GPHDT,,T*1B
$GNACCURACY,2.2*16
$GNGGA,112452.800,2500.8139000,N,12132.4718300,E,2,63,0.42,17.71,M,15.25,M,6,3335*76
$GNRMC,112452.800,A,2500.8139000,N,12132.4718300,E,0.02,234.24,260623,,,D,V*0A
$GPHDT,,T*1B
$GNACCURACY,2.2*16
$GNGGA,112452.900,2500.8139000,N,12132.4718300,E,2,63,0.42,17.70,M,15.25,M,6,3335*76
$GNRMC,112452.900,A,2500.8139000,N,12132.4718300,E,0.02,234.24,260623,,,D,V*0B
$GPHDT,,T*1B
$GNACCURACY,2.2*16
$GNGGA,112453.000,2500.8138900,N,12132.4718300,E,2,63,0.42,17.70,M,15.25,M,7,3335*77
$GNRMC,112453.000,A,2500.8138900,N,12132.4718300,E,0.02,234.24,260623,,,D,V*0B
$GPHDT,,T*1B
$GNACCURACY,2.2*16
$GNGGA,112453.100,2500.8138900,N,12132.4718300,E,2,63,0.42,17.69,M,15.25,M,7,3335*7E
$GNRMC,112453.100,A,2500.8138900,N,12132.4718300,E,0.02,234.24,260623,,,D,V*0A
$GPHDT,,T*1B
$GNGSA,A,3,24,196,199,18,23,15,195,194,12,05,10,,0.77,0.42,0.64,1*06
$GNGSA,A,3,80,70,73,85,86,71,79,,,,,,0.77,0.42,0.64,2*06
$GNGSA,A,3,13,08,07,26,02,30,15,03,,,,,0.77,0.42,0.64,3*08
$GNGSA,A,3,38,08,39,13,16,06,46,09,19,20,37,35,0.77,0.42,0.64,4*09
$GNGSA,A,3,29,22,36,,,,,,,,,,0.77,0.42,0.64,4*0E
$GPGSV,4,1,16,24,75,044,48,196,75,064,40,199,60,167,23,18,59,248,35,1*6F
$GPGSV,4,2,16,23,50,338,27,41,38,241,39,15,37,046,47,195,34,180,26,1*59
$GPGSV,4,3,16,194,30,139,36,12,20,142,31,05,19,118,32,10,17,318,35,1*5E
$GPGSV,4,4,16,13,09,056,16,32,09,268,34,25,08,177,,29,01,197,,1*64
$GPGSV,3,1,09,196,75,064,43,24,75,044,48,199,60,167,40,18,59,248,35,8*69
$GPGSV,3,2,09,23,50,338,37,195,34,180,24,194,30,139,28,10,17,318,35,8*6D
$GPGSV,3,3,09,32,09,268,28,8*5A
$GLGSV,2,1,08,80,48,078,36,70,40,009,18,73,37,159,26,85,36,247,41,1*7B
$GLGSV,2,2,08,86,27,303,40,71,21,313,43,69,13,073,12,79,12,033,24,1*7D
$GAGSV,3,1,10,13,57,233,34,08,47,024,26,07,44,302,45,26,32,307,42,7*7C
$GAGSV,3,2,10,02,25,086,30,30,25,144,34,15,23,174,23,03,11,064,20,7*7C
$GAGSV,3,3,10,25,03,043,,27,01,189,,7*75
$GAGSV,2,1,06,13,57,233,37,08,47,024,36,07,44,302,46,26,32,307,44,1*7B
$GAGSV,2,2,06,02,25,086,30,30,25,144,39,1*74
$GBGSV,4,1,15,38,83,107,31,08,79,004,32,39,71,282,37,13,68,334,39,1*72
$GBGSV,4,2,15,16,66,257,42,06,65,252,38,46,59,113,36,09,49,238,24,1*7D
$GBGSV,4,3,15,19,48,344,36,20,43,062,27,36,34,184,17,37,23,048,35,1*75
$GBGSV,4,4,15,35,21,269,32,29,19,212,16,22,11,301,32,1*4D
$GBGSV,3,1,10,38,83,107,34,39,71,282,36,46,59,113,35,19,48,344,25,4*7B
$GBGSV,3,2,10,20,43,062,29,36,34,184,20,37,23,048,20,35,21,269,38,4*7C
$GBGSV,3,3,10,29,19,212,23,22,11,301,33,4*73
$GNACCURACY,2.2*16
$PAIRSAT,1,35,1,0,200,2,0,200,3,0,200,4,0,200,5,0,201,6,0,200,7,0,200,8,0,200,9,0,200,10,0,221,11,0,200,12,0,201,13,0,201,14,0,200,15,0,201,16,0,200,17,0,200,18,0,221,19,0,200,20,0,200,21,0,200,23,0,221,24,0,221,25,0,200,26,0,200,27,0,200,28,0,200,29,0,200,30,0,200,31,0,200,32,0,221,194,0,621,195,0,621,196,0,620,199,0,621*68
$PAIRSAT,2,23,65,0,200,67,0,200,68,0,200,69,0,201,70,0,201,71,0,201,72,0,200,73,0,201,74,0,200,75,0,200,76,0,200,77,0,200,78,0,200,79,0,201,80,0,201,81,0,200,82,0,200,83,0,200,84,0,200,85,0,201,86,0,201,87,0,200,88,0,200*53
$PAIRSAT,3,23,2,0,1221,3,0,1221,4,0,1200,5,0,200,7,0,1221,8,0,1221,9,0,1200,10,0,1200,11,0,1200,12,0,1200,13,0,1221,15,0,1221,19,0,1200,21,0,1200,24,0,1200,25,0,1200,26,0,1221,27,0,1200,30,0,1221,31,0,1200,33,0,1200,34,0,1200,36,0,1200*6A
$PAIRSAT,4,50,1,0,200,2,0,200,3,0,200,4,0,200,5,0,200,6,0,201,7,0,200,8,0,201,9,0,201,10,0,200,11,0,200,12,0,200,13,0,201,14,0,200,15,0,200,16,0,201,19,0,621,20,0,621,21,0,600,22,0,621,23,0,600,24,0,600,25,0,600,26,0,600,27,0,600,28,0,600,29,0,621,30,0,600,31,0,200,32,0,600,33,0,600,34,0,600,35,0,621,36,0,621,37,0,621,38,0,621,39,0,621,40,0,600,41,0,600,42,0,600,43,0,600,44,0,600,45,0,600,46,0,621,56,0,200,57,0,200,58,0,200,59,0,600,60,0,600,61,0,600*41
$PAIRDGP,11,5,10,12,13,15,18,23,24,25,29,32*6B
$GNGGA,112453.200,2500.8138800,N,12132.4718300,E,2,64,0.42,17.68,M,15.25,M,7,3335*7A
$GNRMC,112453.200,A,2500.8138800,N,12132.4718300,E,0.01,234.24,260623,,,D,V*0B
$GPHDT,,T*1B
$GNACCURACY,2.2*16
$GNGGA,112453.300,2500.8138800,N,12132.4718300,E,2,64,0.42,17.67,M,15.25,M,7,3335*74
$GNRMC,112453.300,A,2500.8138800,N,12132.4718300,E,0.01,234.24,260623,,,D,V*0A
$GPHDT,,T*1B
$GNACCURACY,2.2*16
$GNGGA,112453.400,2500.8138800,N,12132.4718300,E,2,64,0.42,17.65,M,15.25,M,7,3335*71
$GNRMC,112453.400,A,2500.8138800,N,12132.4718300,E,0.01,234.24,260623,,,D,V*0D
$GPHDT,,T*1B
$GNACCURACY,2.2*16
$GNGGA,112453.500,2500.8138800,N,12132.4718300,E,2,64,0.42,17.63,M,15.25,M,7,3335*76
$GNRMC,112453.500,A,2500.8138800,N,12132.4718300,E,0.01,234.24,260623,,,D,V*0C
$GPHDT,,T*1B
$GNACCURACY,2.2*16
$GNGGA,112453.600,2500.8138800,N,12132.4718300,E,2,64,0.42,17.61,M,15.25,M,7,3335*77
$GNRMC,112453.600,A,2500.8138800,N,12132.4718300,E,0.01,234.24,260623,,,D,V*0F
$GPHDT,,T*1B
$GNACCURACY,2.2*16
$GNGGA,112453.700,2500.8138800,N,12132.4718300,E,2,64,0.42,17.60,M,15.25,M,7,3335*77
$GNRMC,112453.700,A,2500.8138800,N,12132.4718300,E,0.01,234.24,260623,,,D,V*0E
$GPHDT,,T*1B
$GNACCURACY,2.2*16
$GNGGA,112453.800,2500.8138800,N,12132.4718300,E,2,64,0.42,17.58,M,15.25,M,7,3335*73
$GNRMC,112453.800,A,2500.8138800,N,12132.4718300,E,0.01,234.24,260623,,,D,V*01
$GPHDT,,T*1B
$GNACCURACY,2.2*16
$GNGGA,112453.900,2500.8138800,N,12132.4718300,E,2,65,0.42,17.56,M,15.25,M,7,3335*7D
$GNRMC,112453.900,A,2500.8138800,N,12132.4718300,E,0.01,234.24,260623,,,D,V*00
$GPHDT,,T*1B
$GNACCURACY,2.2*16
$GNGGA,112454.000,2500.8138800,N,12132.4718300,E,2,65,0.42,17.55,M,15.25,M,8,3335*7F
$GNRMC,112454.000,A,2500.8138800,N,12132.4718300,E,0.01,234.24,260623,,,D,V*0E
$GPHDT,,T*1B
$GNACCURACY,2.2*16
$GNGGA,112454.100,2500.8138800,N,12132.4718300,E,2,65,0.42,17.53,M,15.25,M,8,3335*78
$GNRMC,112454.100,A,2500.8138800,N,12132.4718300,E,0.01,234.24,260623,,,D,V*0F
$GPHDT,,T*1B
$GNGSA,A,3,24,196,199,18,23,15,195,194,12,05,10,,0.77,0.42,0.64,1*06
$GNGSA,A,3,80,70,73,85,86,71,79,,,,,,0.77,0.42,0.64,2*06
$GNGSA,A,3,13,08,07,26,02,30,15,03,,,,,0.77,0.42,0.64,3*08
$GNGSA,A,3,38,08,39,13,16,06,46,09,19,20,36,37,0.77,0.42,0.64,4*0A
$GNGSA,A,3,35,29,22,,,,,,,,,,0.77,0.42,0.64,4*0D
$GPGSV,4,1,16,24,75,044,48,196,75,064,39,199,60,167,21,18,59,248,33,1*65
$GPGSV,4,2,16,23,50,338,25,41,38,241,39,15,37,046,47,195,34,180,27,1*5A
$GPGSV,4,3,16,194,30,139,36,12,20,142,35,05,19,118,34,10,17,318,35,1*5C
$GPGSV,4,4,16,13,09,056,18,32,09,268,35,25,08,177,,29,01,197,,1*6B
$GPGSV,3,1,09,196,75,064,42,24,75,044,47,199,60,167,40,18,59,248,34,8*66
$GPGSV,3,2,09,23,50,338,37,195,34,180,25,194,30,139,32,10,17,318,35,8*67
$GPGSV,3,3,09,32,09,268,30,8*53
$GLGSV,2,1,08,80,48,078,31,70,40,009,17,73,37,159,27,85,36,247,41,1*72
$GLGSV,2,2,08,86,27,303,41,71,21,313,43,69,13,073,13,79,12,033,24,1*7D
$GAGSV,3,1,10,13,57,233,33,08,47,024,27,07,44,302,45,26,32,307,42,7*7A
$GAGSV,3,2,10,02,25,086,29,30,25,144,35,15,23,174,21,03,11,064,20,7*77
$GAGSV,3,3,10,25,03,043,,27,01,189,,7*75
$GAGSV,2,1,06,13,57,233,38,08,47,024,37,07,44,302,46,26,32,307,44,1*75
$GAGSV,2,2,06,02,25,086,31,30,25,144,36,1*7A
$GBGSV,4,1,15,38,83,107,31,08,79,004,35,39,71,282,36,13,68,334,39,1*74
$GBGSV,4,2,15,16,66,257,42,06,65,252,38,46,59,113,29,09,49,238,21,1*76
$GBGSV,4,3,15,19,48,344,36,20,43,062,28,36,34,184,28,37,23,048,37,1*74
$GBGSV,4,4,15,35,21,269,33,29,19,212,18,22,11,301,32,1*42
$GBGSV,3,1,10,38,83,107,28,39,71,282,36,46,59,113,31,19,48,344,25,4*72
$GBGSV,3,2,10,20,43,062,27,36,34,184,21,37,23,048,29,35,21,269,38,4*7A
$GBGSV,3,3,10,29,19,212,23,22,11,301,33,4*73
$GNACCURACY,2.2*16
$PAIRSAT,1,35,1,0,200,2,0,200,3,0,200,4,0,200,5,0,201,6,0,200,7,0,200,8,0,200,9,0,200,10,0,221,11,0,200,12,0,201,13,0,201,14,0,200,15,0,201,16,0,200,17,0,200,18,0,221,19,0,200,20,0,200,21,0,200,23,0,221,24,0,221,25,0,200,26,0,200,27,0,200,28,0,200,29,0,200,30,0,200,31,0,200,32,0,221,194,0,621,195,0,621,196,0,620,199,0,621*68
$PAIRSAT,2,23,65,0,200,67,0,200,68,0,200,69,0,201,70,0,201,71,0,201,72,0,200,73,0,201,74,0,200,75,0,200,76,0,200,77,0,200,78,0,200,79,0,201,80,0,201,81,0,200,82,0,200,83,0,200,84,0,200,85,0,201,86,0,201,87,0,200,88,0,200*53
$PAIRSAT,3,23,2,0,1221,3,0,1221,4,0,1200,5,0,200,7,0,1221,8,0,1221,9,0,1200,10,0,1200,11,0,1200,12,0,1200,13,0,1221,15,0,1221,19,0,1200,21,0,1200,24,0,1200,25,0,1200,26,0,1221,27,0,1200,30,0,1221,31,0,1200,33,0,1200,34,0,1200,36,0,1200*6A
$PAIRSAT,4,50,1,0,200,2,0,200,3,0,200,4,0,200,5,0,200,6,0,201,7,0,200,8,0,201,9,0,201,10,0,200,11,0,200,12,0,200,13,0,201,14,0,200,15,0,200,16,0,201,19,0,621,20,0,621,21,0,600,22,0,621,23,0,600,24,0,600,25,0,600,26,0,600,27,0,600,28,0,600,29,0,621,30,0,600,31,0,200,32,0,600,33,0,600,34,0,600,35,0,621,36,0,621,37,0,621,38,0,621,39,0,621,40,0,600,41,0,600,42,0,600,43,0,600,44,0,600,45,0,600,46,0,621,56,0,200,57,0,200,58,0,200,59,0,600,60,0,600,61,0,600*41
$PAIRDGP,11,5,10,12,13,15,18,23,24,25,29,32*6B
$GNGGA,112454.200,2500.8138800,N,12132.4718300,E,2,65,0.42,17.52,M,15.25,M,8,3335*7A
$GNRMC,112454.200,A,2500.8138800,N,12132.4718300,E,0.01,234.24,260623,,,D,V*0C
$GPHDT,,T*1B
$GNACCURACY,2.2*16
$GNGGA,112454.300,2500.8138800,N,12132.4718300,E,2,65,0.42,17.50,M,15.25,M,8,3335*79
$GNRMC,112454.300,A,2500.8138800,N,12132.4718300,E,0.01,234.24,260623,,,D,V*0D
$GPHDT,,T*1B
$GNACCURACY,2.2*16
$GNGGA,112454.400,2500.8138800,N,12132.4718400,E,2,65,0.42,17.48,M,15.25,M,8,3335*70
$GNRMC,112454.400,A,2500.8138800,N,12132.4718400,E,0.01,234.24,260623,,,D,V*0D
$GPHDT,,T*1B
$GNACCURACY,2.2*16
$GNGGA,112454.500,2500.8138800,N,12132.4718400,E,2,64,0.42,17.46,M,15.25,M,8,3335*7E
$GNRMC,112454.500,A,2500.8138800,N,12132.4718400,E,0.01,234.24,260623,,,D,V*0C
$GPHDT,,T*1B
$GNACCURACY,2.2*16
$GNGGA,112454.600,2500.8138800,N,12132.4718400,E,2,64,0.42,17.45,M,15.25,M,8,3335*7E
$GNRMC,112454.600,A,2500.8138800,N,12132.4718400,E,0.01,234.24,260623,,,D,V*0F
$GPHDT,,T*1B
$GNACCURACY,2.2*16
$GNGGA,112454.700,2500.8138800,N,12132.4718400,E,2,64,0.42,17.43,M,15.25,M,8,3335*79
$GNRMC,112454.700,A,2500.8138800,N,12132.4718400,E,0.01,234.24,260623,,,D,V*0E
$GPHDT,,T*1B
$GNACCURACY,2.2*16
$GNGGA,112454.800,2500.8138800,N,12132.4718400,E,2,64,0.42,17.40,M,15.25,M,8,3335*75
$GNRMC,112454.800,A,2500.8138800,N,12132.4718400,E,0.01,234.24,260623,,,D,V*01
$GPHDT,,T*1B
$GNACCURACY,2.2*16
$GNGGA,112454.900,2500.8138800,N,12132.4718400,E,2,64,0.42,17.39,M,15.25,M,8,3335*7A
$GNRMC,112454.900,A,2500.8138800,N,12132.4718400,E,0.01,234.24,260623,,,D,V*00
$GPHDT,,T*1B
$GNACCURACY,2.2*16
$GNGGA,112455.000,2500.8138800,N,12132.4718500,E,2,64,0.42,17.37,M,15.25,M,9,3335*7C
$GNRMC,112455.000,A,2500.8138800,N,12132.4718500,E,0.01,234.24,260623,,,D,V*09
$GPHDT,,T*1B
$GNACCURACY,2.2*16
$GNGGA,112455.100,2500.8138800,N,12132.4718500,E,2,65,0.42,17.35,M,15.25,M,9,3335*7E
$GNRMC,112455.100,A,2500.8138800,N,12132.4718500,E,0.01,234.24,260623,,,D,V*08
$GPHDT,,T*1B
$GNGSA,A,3,24,196,199,18,23,15,195,194,12,05,10,,0.77,0.42,0.64,1*06
$GNGSA,A,3,80,70,73,85,86,71,79,,,,,,0.77,0.42,0.64,2*06
$GNGSA,A,3,13,08,07,26,02,30,15,03,,,,,0.77,0.42,0.64,3*08
$GNGSA,A,3,38,08,39,13,16,06,46,09,19,20,36,37,0.77,0.42,0.64,4*0A
$GNGSA,A,3,35,29,22,,,,,,,,,,0.77,0.42,0.64,4*0D
$GPGSV,4,1,16,24,75,044,48,196,75,064,37,199,60,167,22,18,59,248,33,1*68
$GPGSV,4,2,16,23,50,338,29,41,38,241,39,15,37,046,47,195,34,180,26,1*57
$GPGSV,4,3,16,194,30,139,31,12,20,142,38,05,19,118,33,10,17,318,31,1*55
$GPGSV,4,4,16,13,09,056,18,32,09,268,37,25,08,177,,29,01,197,,1*69
$GPGSV,3,1,09,196,75,064,39,24,75,044,45,199,60,167,41,18,59,248,36,8*6B
$GPGSV,3,2,09,23,50,338,36,195,34,180,25,194,30,139,33,10,17,318,35,8*67
$GPGSV,3,3,09,32,09,268,32,8*51
$GLGSV,2,1,08,80,48,078,31,70,40,009,17,73,37,159,28,85,36,247,41,1*7D
$GLGSV,2,2,08,86,27,303,42,71,21,313,44,69,13,073,14,79,12,033,24,1*7E
$GAGSV,3,1,10,13,57,233,33,08,47,024,29,07,44,302,44,26,32,307,42,7*75
$GAGSV,3,2,10,02,25,086,30,30,25,144,33,15,23,174,21,03,11,064,20,7*79
$GAGSV,3,3,10,25,03,043,,27,01,189,,7*75
$GAGSV,2,1,07,13,57,233,38,08,47,024,37,07,44,302,46,26,32,307,44,1*74
$GAGSV,2,2,07,02,25,086,31,30,25,144,38,15,23,174,23,1*43
$GBGSV,4,1,15,38,83,107,26,08,79,004,36,39,71,282,36,13,68,334,39,1*71
$GBGSV,4,2,15,16,66,257,42,06,65,252,38,46,59,113,29,09,49,238,18,1*7C
$GBGSV,4,3,15,19,48,344,37,20,43,062,28,36,34,184,27,37,23,048,37,1*7A
$GBGSV,4,4,15,35,21,269,34,29,19,212,18,22,11,301,33,1*44
$GBGSV,3,1,10,38,83,107,23,39,71,282,31,46,59,113,26,19,48,344,25,4*78
$GBGSV,3,2,10,20,43,062,26,36,34,184,23,37,23,048,25,35,21,269,38,4*75
$GBGSV,3,3,10,29,19,212,25,22,11,301,32,4*74
$GNACCURACY,2.2*16
$PAIRSAT,1,35,1,0,200,2,0,200,3,0,200,4,0,200,5,0,201,6,0,200,7,0,200,8,0,200,9,0,200,10,0,221,11,0,200,12,0,201,13,0,201,14,0,200,15,0,201,16,0,200,17,0,200,18,0,221,19,0,200,20,0,200,21,0,200,23,0,221,24,0,221,25,0,200,26,0,200,27,0,200,28,0,200,29,0,200,30,0,200,31,0,200,32,0,221,194,0,621,195,0,621,196,0,620,199,0,621*68
$PAIRSAT,2,23,65,0,200,67,0,200,68,0,200,69,0,201,70,0,201,71,0,201,72,0,200,73,0,201,74,0,200,75,0,200,76,0,200,77,0,200,78,0,200,79,0,201,80,0,201,81,0,200,82,0,200,83,0,200,84,0,200,85,0,201,86,0,201,87,0,200,88,0,200*53
$PAIRSAT,3,23,2,0,1221,3,0,1221,4,0,1200,5,0,200,7,0,1221,8,0,1221,9,0,1200,10,0,1200,11,0,1200,12,0,1200,13,0,1221,15,0,1221,19,0,1200,21,0,1200,24,0,1200,25,0,1200,26,0,1221,27,0,1200,30,0,1221,31,0,1200,33,0,1200,34,0,1200,36,0,1200*6A
$PAIRSAT,4,50,1,0,200,2,0,200,3,0,200,4,0,200,5,0,200,6,0,201,7,0,200,8,0,201,9,0,201,10,0,200,11,0,200,12,0,200,13,0,201,14,0,200,15,0,200,16,0,201,19,0,621,20,0,621,21,0,600,22,0,621,23,0,600,24,0,600,25,0,600,26,0,600,27,0,600,28,0,600,29,0,621,30,0,600,31,0,200,32,0,600,33,0,600,34,0,600,35,0,621,36,0,621,37,0,621,38,0,621,39,0,621,40,0,600,41,0,600,42,0,600,43,0,600,44,0,600,45,0,600,46,0,621,56,0,200,57,0,200,58,0,200,59,0,600,60,0,600,61,0,600*41
$PAIRDGP,11,5,10,12,13,15,18,23,24,25,29,32*6B
$GNGGA,112455.200,2500.8138700,N,12132.4718600,E,2,66,0.42,17.33,M,15.25,M,9,3335*74
$GNRMC,112455.200,A,2500.8138700,N,12132.4718600,E,0.01,234.24,260623,,,D,V*07
$GPHDT,,T*1B
$GNACCURACY,2.2*16
$GNGGA,112455.300,2500.8138700,N,12132.4718600,E,2,66,0.42,17.31,M,15.25,M,9,3335*77
$GNRMC,112455.300,A,2500.8138700,N,12132.4718600,E,0.01,234.24,260623,,,D,V*06
$GPHDT,,T*1B
$GNACCURACY,2.2*16
$GNGGA,112455.400,2500.8138600,N,12132.4718600,E,2,66,0.42,17.30,M,15.25,M,9,3335*70
$GNRMC,112455.400,A,2500.8138600,N,12132.4718600,E,0.01,234.24,260623,,,D,V*00
$GPHDT,,T*1B
$GNACCURACY,2.2*16
$GNGGA,112455.500,2500.8138600,N,12132.4718600,E,2,66,0.42,17.28,M,15.25,M,9,3335*78
$GNRMC,112455.500,A,2500.8138600,N,12132.4718600,E,0.01,234.24,260623,,,D,V*01
$GPHDT,,T*1B
$GNACCURACY,2.2*16
$GNGGA,112455.600,2500.8138600,N,12132.4718700,E,2,65,0.42,17.26,M,15.25,M,9,3335*77
$GNRMC,112455.600,A,2500.8138600,N,12132.4718700,E,0.01,234.24,260623,,,D,V*03
$GPHDT,,T*1B
$GNACCURACY,2.2*16
$GNGGA,112455.700,2500.8138600,N,12132.4718700,E,2,66,0.42,17.24,M,15.25,M,9,3335*77
$GNRMC,112455.700,A,2500.8138600,N,12132.4718700,E,0.00,234.24,260623,,,D,V*03
$GPHDT,,T*1B
$GNACCURACY,2.2*16
$GNGGA,112455.800,2500.8138500,N,12132.4718700,E,2,66,0.42,17.22,M,15.25,M,9,3335*7D
$GNRMC,112455.800,A,2500.8138500,N,12132.4718700,E,0.00,234.24,260623,,,D,V*0F
$GPHDT,,T*1B
$GNACCURACY,2.2*16
$GNGGA,112455.900,2500.8138500,N,12132.4718700,E,2,65,0.42,17.20,M,15.25,M,9,3335*7D
$GNRMC,112455.900,A,2500.8138500,N,12132.4718700,E,0.00,234.24,260623,,,D,V*0E
$GPHDT,,T*1B
$GNACCURACY,2.2*16
$GNGGA,112456.000,2500.8138500,N,12132.4718700,E,2,65,0.42,17.18,M,15.25,M,10,3335*44
$GNRMC,112456.000,A,2500.8138500,N,12132.4718700,E,0.00,234.24,260623,,,D,V*04
$GPHDT,,T*1B
$GNACCURACY,2.2*16
$GNGGA,112456.100,2500.8138500,N,12132.4718800,E,2,66,0.42,17.17,M,15.25,M,10,3335*46
$GNRMC,112456.100,A,2500.8138500,N,12132.4718800,E,0.00,234.24,260623,,,D,V*0A
$GPHDT,,T*1B
$GNGSA,A,3,24,196,199,18,23,15,195,194,12,05,10,,0.77,0.42,0.64,1*06
$GNGSA,A,3,80,70,73,85,86,71,79,,,,,,0.77,0.42,0.64,2*06
$GNGSA,A,3,13,08,07,26,02,30,15,03,,,,,0.77,0.42,0.64,3*08
$GNGSA,A,3,38,08,39,13,16,06,46,09,19,20,36,37,0.77,0.42,0.64,4*0A
$GNGSA,A,3,35,29,22,,,,,,,,,,0.77,0.42,0.64,4*0D
$GPGSV,4,1,16,24,75,044,47,196,75,064,38,199,60,167,21,18,59,248,33,1*6B
$GPGSV,4,2,16,23,50,338,29,41,38,241,39,15,37,046,47,195,34,180,26,1*57
$GPGSV,4,3,16,194,30,139,32,12,20,142,38,05,19,118,33,10,17,318,33,1*54
$GPGSV,4,4,16,13,09,056,19,32,09,268,37,25,08,177,,29,01,197,,1*68
$GPGSV,3,1,09,196,75,064,39,24,75,044,45,199,60,167,41,18,59,248,34,8*69
$GPGSV,3,2,09,23,50,338,36,195,34,180,25,194,30,139,26,10,17,318,35,8*63
$GPGSV,3,3,09,32,09,268,30,8*53
$GLGSV,2,1,08,80,48,078,33,70,40,009,17,73,37,159,28,85,36,247,41,1*7F
$GLGSV,2,2,08,86,27,303,42,71,21,313,44,69,13,073,,79,12,033,24,1*7B
$GAGSV,3,1,10,13,57,233,33,08,47,024,29,07,44,302,44,26,32,307,42,7*75
$GAGSV,3,2,10,02,25,086,30,30,25,144,32,15,23,174,23,03,11,064,19,7*70
$GAGSV,3,3,10,25,03,043,,27,01,189,,7*75
$GAGSV,2,1,07,13,57,233,38,08,47,024,37,07,44,302,46,26,32,307,44,1*74
$GAGSV,2,2,07,02,25,086,33,30,25,144,39,15,23,174,23,1*40
$GBGSV,4,1,15,38,83,107,25,08,79,004,35,39,71,282,36,13,68,334,39,1*71
$GBGSV,4,2,15,16,66,257,42,06,65,252,38,46,59,113,25,09,49,238,16,1*7E
$GBGSV,4,3,15,19,48,344,37,20,43,062,28,36,34,184,28,37,23,048,38,1*7A
$GBGSV,4,4,15,35,21,269,35,29,19,212,15,22,11,301,35,1*4E
$GBGSV,3,1,10,38,83,107,24,39,71,282,33,46,59,113,23,19,48,344,26,4*7B
$GBGSV,3,2,10,20,43,062,26,36,34,184,24,37,23,048,25,35,21,269,38,4*72
$GBGSV,3,3,10,29,19,212,26,22,11,301,32,4*77
$GNACCURACY,2.8*1C
$PAIRSAT,1,35,1,0,200,2,0,200,3,0,200,4,0,200,5,0,201,6,0,200,7,0,200,8,0,200,9,0,200,10,0,221,11,0,200,12,0,201,13,0,201,14,0,200,15,0,201,16,0,200,17,0,200,18,0,221,19,0,200,20,0,200,21,0,200,23,0,221,24,0,221,25,0,200,26,0,200,27,0,200,28,0,200,29,0,200,30,0,200,31,0,200,32,0,221,194,0,621,195,0,621,196,0,620,199,0,621*68
$PAIRSAT,2,23,65,0,200,67,0,200,68,0,200,69,0,201,70,0,201,71,0,201,72,0,200,73,0,201,74,0,200,75,0,200,76,0,200,77,0,200,78,0,200,79,0,201,80,0,201,81,0,200,82,0,200,83,0,200,84,0,200,85,0,201,86,0,201,87,0,200,88,0,200*53
$PAIRSAT,3,23,2,0,1221,3,0,1221,4,0,1200,5,0,200,7,0,1221,8,0,1221,9,0,1200,10,0,1200,11,0,1200,12,0,1200,13,0,1221,15,0,1221,19,0,1200,21,0,1200,24,0,1200,25,0,1200,26,0,1221,27,0,1200,30,0,1221,31,0,1200,33,0,1200,34,0,1200,36,0,1200*6A
$PAIRSAT,4,50,1,0,200,2,0,200,3,0,200,4,0,200,5,0,200,6,0,201,7,0,200,8,0,201,9,0,201,10,0,200,11,0,200,12,0,200,13,0,201,14,0,200,15,0,200,16,0,201,19,0,621,20,0,621,21,0,600,22,0,621,23,0,600,24,0,600,25,0,600,26,0,600,27,0,600,28,0,600,29,0,621,30,0,600,31,0,200,32,0,600,33,0,600,34,0,600,35,0,621,36,0,621,37,0,621,38,0,621,39,0,621,40,0,600,41,0,600,42,0,600,43,0,600,44,0,600,45,0,600,46,0,621,56,0,200,57,0,200,58,0,200,59,0,600,60,0,600,61,0,600*41
$PAIRDGP,11,5,10,12,13,15,18,23,24,25,29,32*6B
$GNGGA,112456.200,2500.8138500,N,12132.4718900,E,2,65,0.42,17.16,M,15.25,M,10,3335*46
$GNRMC,112456.200,A,2500.8138500,N,12132.4718900,E,0.00,234.24,260623,,,D,V*08
$GPHDT,,T*1B
$GNACCURACY,2.8*1C
$GNGGA,112456.300,2500.8138500,N,12132.4719000,E,2,64,0.42,17.15,M,15.25,M,10,3335*4D
$GNRMC,112456.300,A,2500.8138500,N,12132.4719000,E,0.00,234.24,260623,,,D,V*01
$GPHDT,,T*1B
$GNACCURACY,2.8*1C
$GNGGA,112456.400,2500.8138500,N,12132.4719000,E,2,64,0.42,17.15,M,15.25,M,10,3335*4A
$GNRMC,112456.400,A,2500.8138500,N,12132.4719000,E,0.00,234.24,260623,,,D,V*06
$GPHDT,,T*1B
$GNACCURACY,2.8*1C
$GNGGA,112456.500,2500.8138400,N,12132.4719200,E,2,65,0.42,17.14,M,15.25,M,10,3335*48
$GNRMC,112456.500,A,2500.8138400,N,12132.4719200,E,0.00,234.24,260623,,,D,V*04
$GPHDT,,T*1B
$GNACCURACY,2.8*1C
$GNGGA,112456.600,2500.8138400,N,12132.4719200,E,2,65,0.42,17.13,M,15.25,M,10,3335*4C
$GNRMC,112456.600,A,2500.8138400,N,12132.4719200,E,0.00,234.24,260623,,,D,V*07
$GPHDT,,T*1B
$GNACCURACY,2.8*1C
$GNGGA,112456.700,2500.8138300,N,12132.4719300,E,2,65,0.42,17.12,M,15.25,M,10,3335*4A
$GNRMC,112456.700,A,2500.8138300,N,12132.4719300,E,0.00,234.24,260623,,,D,V*00
$GPHDT,,T*1B
$GNACCURACY,2.8*1C
$GNGGA,112456.800,2500.8138300,N,12132.4719300,E,2,65,0.42,17.11,M,15.25,M,10,3335*46
$GNRMC,112456.800,A,2500.8138300,N,12132.4719300,E,0.00,234.24,260623,,,D,V*0F
$GPHDT,,T*1B
$GNACCURACY,2.8*1C
$GNGGA,112456.900,2500.8138300,N,12132.4719400,E,2,65,0.42,17.10,M,15.25,M,10,3335*41
$GNRMC,112456.900,A,2500.8138300,N,12132.4719400,E,0.00,234.24,260623,,,D,V*09
$GPHDT,,T*1B
$GNACCURACY,2.8*1C
$GNGGA,112457.000,2500.8138300,N,12132.4719500,E,2,65,0.42,17.09,M,15.25,M,11,3335*41
$GNRMC,112457.000,A,2500.8138300,N,12132.4719500,E,0.00,234.24,260623,,,D,V*00
$GPHDT,,T*1B
$GNACCURACY,2.7*13
$GNGGA,112457.100,2500.8138300,N,12132.4719500,E,2,65,0.42,17.08,M,15.25,M,11,3335*41
$GNRMC,112457.100,A,2500.8138300,N,12132.4719500,E,0.00,234.24,260623,,,D,V*01
$GPHDT,,T*1B
$GNGSA,A,3,24,196,199,18,23,15,195,194,12,05,10,,0.77,0.42,0.64,1*06
$GNGSA,A,3,80,70,73,85,86,71,79,,,,,,0.77,0.42,0.64,2*06
$GNGSA,A,3,13,08,07,26,02,30,15,03,,,,,0.77,0.42,0.64,3*08
$GNGSA,A,3,38,08,39,13,16,06,46,09,19,20,36,37,0.77,0.42,0.64,4*0A
$GNGSA,A,3,35,29,22,,,,,,,,,,0.77,0.42,0.64,4*0D
$GPGSV,4,1,16,24,75,044,47,196,75,064,38,199,60,167,23,18,59,248,34,1*6E
$GPGSV,4,2,16,23,50,338,27,41,38,241,39,15,37,046,48,195,34,180,27,1*57
$GPGSV,4,3,16,194,30,139,32,12,20,142,38,05,19,118,33,10,17,318,36,1*51
$GPGSV,4,4,16,13,09,056,19,32,09,268,37,25,08,177,,29,01,197,,1*68
$GPGSV,3,1,09,196,75,064,41,24,75,044,47,199,60,167,41,18,59,248,35,8*65
$GPGSV,3,2,09,23,50,338,36,195,34,180,25,194,30,139,27,10,17,318,35,8*62
$GPGSV,3,3,09,32,09,268,30,8*53
$GLGSV,2,1,08,80,48,078,32,70,40,009,17,73,37,159,28,85,36,247,41,1*7E
$GLGSV,2,2,08,86,27,303,42,71,21,313,44,69,13,073,,79,12,033,23,1*7C
$GAGSV,3,1,10,13,57,233,33,08,47,024,29,07,44,302,44,26,32,307,42,7*75
$GAGSV,3,2,10,02,25,086,30,30,25,144,33,15,23,174,21,03,11,064,19,7*73
$GAGSV,3,3,10,25,03,043,,27,01,189,,7*75
$GAGSV,2,1,07,13,57,233,38,08,47,024,37,07,44,302,46,26,32,307,44,1*74
$GAGSV,2,2,07,02,25,086,35,30,25,144,39,15,23,174,24,1*41
$GBGSV,4,1,15,38,83,107,31,08,79,004,35,39,71,282,37,13,68,334,40,1*7B
$GBGSV,4,2,15,16,66,257,42,06,65,252,38,46,59,113,29,09,49,238,18,1*7C
$GBGSV,4,3,15,19,48,344,36,20,43,062,29,36,34,184,29,37,23,048,39,1*7A
$GBGSV,4,4,15,35,21,269,35,29,19,212,16,22,11,301,35,1*4D
$GBGSV,3,1,10,38,83,107,27,39,71,282,35,46,59,113,26,19,48,344,26,4*7B
$GBGSV,3,2,10,20,43,062,26,36,34,184,22,37,23,048,23,35,21,269,38,4*72
$GBGSV,3,3,10,29,19,212,28,22,11,301,33,4*78
$GNACCURACY,2.7*13
$PAIRSAT,1,35,1,0,200,2,0,200,3,0,200,4,0,200,5,0,201,6,0,200,7,0,200,8,0,200,9,0,200,10,0,221,11,0,200,12,0,201,13,0,201,14,0,200,15,0,201,16,0,200,17,0,200,18,0,221,19,0,200,20,0,200,21,0,200,23,0,221,24,0,221,25,0,200,26,0,200,27,0,200,28,0,200,29,0,200,30,0,200,31,0,200,32,0,221,194,0,621,195,0,621,196,0,620,199,0,621*68
$PAIRSAT,2,23,65,0,200,67,0,200,68,0,200,69,0,201,70,0,201,71,0,201,72,0,200,73,0,201,74,0,200,75,0,200,76,0,200,77,0,200,78,0,200,79,0,201,80,0,201,81,0,200,82,0,200,83,0,200,84,0,200,85,0,201,86,0,201,87,0,200,88,0,200*53
$PAIRSAT,3,23,2,0,1221,3,0,1221,4,0,1200,5,0,200,7,0,1221,8,0,1221,9,0,1200,10,0,1200,11,0,1200,12,0,1200,13,0,1221,15,0,1221,19,0,1200,21,0,1200,24,0,1200,25,0,1200,26,0,1221,27,0,1200,30,0,1221,31,0,1200,33,0,1200,34,0,1200,36,0,1200*6A
$PAIRSAT,4,50,1,0,200,2,0,200,3,0,200,4,0,200,5,0,200,6,0,201,7,0,200,8,0,201,9,0,201,10,0,200,11,0,200,12,0,200,13,0,201,14,0,200,15,0,200,16,0,201,19,0,621,20,0,621,21,0,600,22,0,621,23,0,600,24,0,600,25,0,600,26,0,600,27,0,600,28,0,600,29,0,621,30,0,600,31,0,200,32,0,600