$FW : RTK35X,V1.1X0314AS,Lib20210517,1*54
$Tool : LOCOSYS , GNSS Firebird , v1.0.0.19*39
$---------------------------------------------------*2D
$GNACCURACY,2.6*12
$GNGGA,112313.000,2500.8139400,N,12132.4739100,E,2,63,0.43,22.62,M,15.25,M,1,3335*7B
$GNRMC,112313.000,A,2500.8139400,N,12132.4739100,E,0.02,234.24,260623,,,D,V*05
$GPHDT,,T*1B
$GNACCURACY,2.6*12
$GNGGA,112313.100,2500.8139400,N,12132.4739000,E,2,63,0.43,22.62,M,15.25,M,1,3335*7B
$GNRMC,112313.100,A,2500.8139400,N,12132.4739000,E,0.02,234.24,260623,,,D,V*05
$GPHDT,,T*1B
$GNGSA,A,3,196,24,199,18,23,15,195,194,05,12,10,,0.78,0.43,0.65,1*09
$GNGSA,A,3,80,73,85,86,71,69,79,,,,,,0.78,0.43,0.65,2*01
$GNGSA,A,3,13,08,07,26,30,02,15,,,,,,0.78,0.43,0.65,3*04
$GNGSA,A,3,38,08,39,13,16,06,46,09,19,20,36,37,0.78,0.43,0.65,4*05
$GNGSA,A,3,35,29,22,,,,,,,,,,0.78,0.43,0.65,4*02
$GPGSV,4,1,14,196,75,064,40,24,75,046,41,199,60,167,22,18,59,249,35,1*66
$GPGSV,4,2,14,23,49,337,32,41,38,241,,15,38,045,42,195,34,180,27,1*5A
$GPGSV,4,3,14,194,30,139,39,05,20,117,28,12,19,142,39,10,17,318,35,1*5F
$GPGSV,4,4,14,25,08,177,,32,08,268,32,1*6B
$GPGSV,3,1,09,196,75,064,43,24,75,046,46,199,60,167,42,18,59,249,39,8*6A
$GPGSV,3,2,09,23,49,337,20,195,34,180,23,194,30,139,37,10,17,318,35,8*65
$GPGSV,3,3,09,32,08,268,28,8*5B
$GLGSV,3,1,09,80,48,080,46,70,40,008,,73,36,160,28,85,36,248,42,1*7A
$GLGSV,3,2,09,86,27,304,43,71,21,312,38,69,13,072,18,79,12,033,18,1*70
$GLGSV,3,3,09,84,10,191,,1*45
$GAGSV,2,1,08,13,57,234,32,08,47,024,33,07,44,301,41,26,31,308,40,7*78
$GAGSV,2,2,08,30,25,144,35,02,25,087,34,15,24,174,17,03,11,063,,7*75
$GAGSV,2,1,07,13,57,234,31,08,47,024,31,07,44,301,46,26,31,308,39,1*79
$GAGSV,2,2,07,02,25,087,36,30,25,144,41,15,24,174,23,1*4C
$GBGSV,4,1,15,38,83,103,31,08,78,005,37,39,71,281,31,13,68,335,38,1*76
$GBGSV,4,2,15,16,66,256,41,06,65,251,38,46,59,114,43,09,49,237,18,1*79
$GBGSV,4,3,15,19,48,343,30,20,43,061,35,36,33,184,22,37,23,048,37,1*77
$GBGSV,4,4,15,35,22,270,37,29,20,213,18,22,11,300,35,1*40
$GBGSV,3,1,09,38,83,103,28,39,71,281,36,46,59,114,41,19,48,343,28,4*77
$GBGSV,3,2,09,20,43,061,32,36,33,184,23,35,22,270,35,29,20,213,24,4*7B
$GBGSV,3,3,09,22,11,300,21,4*4A
$GNACCURACY,2.6*12
$PAIRSAT,1,35,1,0,200,2,0,200,3,0,200,4,0,200,5,0,201,6,0,200,7,0,200,8,0,200,9,0,200,10,0,221,11,0,200,12,0,201,13,0,201,14,0,200,15,0,201,16,0,200,17,0,200,18,0,221,19,0,200,20,0,200,21,0,200,23,0,221,24,0,221,25,0,200,26,0,200,27,0,200,28,0,200,29,0,200,30,0,200,31,0,200,32,0,221,194,0,621,195,0,621,196,0,620,199,0,621*68
$PAIRSAT,2,23,65,0,200,67,0,200,68,0,200,69,0,201,70,0,201,71,0,201,72,0,200,73,0,201,74,0,200,75,0,200,76,0,200,77,0,200,78,0,200,79,0,201,80,0,201,81,0,200,82,0,200,83,0,200,84,0,200,85,0,201,86,0,201,87,0,200,88,0,200*53
$PAIRSAT,3,23,2,0,1221,3,0,1221,4,0,1200,5,0,200,7,0,1221,8,0,1221,9,0,1200,10,0,1200,11,0,1200,12,0,1200,13,0,1221,15,0,1221,19,0,1200,21,0,1200,24,0,1200,25,0,1200,26,0,1221,27,0,1200,30,0,1221,31,0,1200,33,0,1200,34,0,1200,36,0,1200*6A
$PAIRSAT,4,50,1,0,200,2,0,200,3,0,200,4,0,200,5,0,200,6,0,201,7,0,200,8,0,201,9,0,201,10,0,200,11,0,200,12,0,200,13,0,201,14,0,200,15,0,200,16,0,201,19,0,621,20,0,621,21,0,600,22,0,621,23,0,600,24,0,600,25,0,600,26,0,600,27,0,600,28,0,600,29,0,621,30,0,600,31,0,200,32,0,600,33,0,600,34,0,600,35,0,621,36,0,621,37,0,621,38,0,621,39,0,621,40,0,600,41,0,600,42,0,600,43,0,600,44,0,600,45,0,600,46,0,621,56,0,200,57,0,200,58,0,200,59,0,600,60,0,600,61,0,600*41
$PAIRDGP,7,5,10,12,15,18,23,24*53
$GNGGA,112313.200,2500.8139400,N,12132.4739000,E,2,63,0.43,22.62,M,15.25,M,1,3335*78
$GNRMC,112313.200,A,2500.8139400,N,12132.4739000,E,0.02,234.24,260623,,,D,V*06
$GPHDT,,T*1B
$GNACCURACY,2.6*12
$GNGGA,112313.300,2500.8139400,N,12132.4738900,E,2,63,0.43,22.62,M,15.25,M,1,3335*71
$GNRMC,112313.300,A,2500.8139400,N,12132.4738900,E,0.00,234.24,260623,,,D,V*0D
$GPHDT,,T*1B
$GNACCURACY,2.6*12
$GNGGA,112313.400,2500.8139400,N,12132.4738800,E,2,63,0.43,22.63,M,15.25,M,1,3335*76
$GNRMC,112313.400,A,2500.8139400,N,12132.4738800,E,0.00,234.24,260623,,,D,V*0B
$GPHDT,,T*1B
$GNACCURACY,2.6*12
$GNGGA,112313.500,2500.8139500,N,12132.4738800,E,2,63,0.43,22.63,M,15.25,M,1,3335*76
$GNRMC,112313.500,A,2500.8139500,N,12132.4738800,E,0.00,234.24,260623,,,D,V*0B
$GPHDT,,T*1B
$GNACCURACY,2.6*12
$GNGGA,112313.600,2500.8139500,N,12132.4738700,E,2,63,0.43,22.63,M,15.25,M,1,3335*7A
$GNRMC,112313.600,A,2500.8139500,N,12132.4738700,E,0.00,234.24,260623,,,D,V*07
$GPHDT,,T*1B
$GNACCURACY,2.6*12
$GNGGA,112313.700,2500.8139500,N,12132.4738700,E,2,63,0.43,22.63,M,15.25,M,1,3335*7B
$GNRMC,112313.700,A,2500.8139500,N,12132.4738700,E,0.00,234.24,260623,,,D,V*06
$GPHDT,,T*1B
$GNACCURACY,2.6*12
$GNGGA,112313.800,2500.8139500,N,12132.4738500,E,2,63,0.43,22.63,M,15.25,M,1,3335*76
$GNRMC,112313.800,A,2500.8139500,N,12132.4738500,E,0.00,234.24,260623,,,D,V*0B
$GPHDT,,T*1B
$GNACCURACY,2.5*11
$GNGGA,112313.900,2500.8139500,N,12132.4738500,E,2,63,0.43,22.64,M,15.25,M,1,3335*70
$GNRMC,112313.900,A,2500.8139500,N,12132.4738500,E,0.00,234.24,260623,,,D,V*0A
$GPHDT,,T*1B
$GNACCURACY,2.5*11
$GNGGA,112314.000,2500.8139500,N,12132.4738400,E,2,63,0.43,22.64,M,15.25,M,2,3335*7C
$GNRMC,112314.000,A,2500.8139500,N,12132.4738400,E,0.00,234.24,260623,,,D,V*05
$GPHDT,,T*1B
$GNACCURACY,2.5*11
$GNGGA,112314.100,2500.8139600,N,12132.4738400,E,2,63,0.43,22.64,M,15.25,M,2,3335*7E
$GNRMC,112314.100,A,2500.8139600,N,12132.4738400,E,0.00,234.24,260623,,,D,V*07
$GPHDT,,T*1B
$GNGSA,A,3,24,196,199,18,23,15,195,194,05,12,10,,0.78,0.43,0.65,1*09
$GNGSA,A,3,80,73,85,86,71,69,79,,,,,,0.78,0.43,0.65,2*01
$GNGSA,A,3,13,08,07,26,02,30,15,,,,,,0.78,0.43,0.65,3*04
$GNGSA,A,3,38,08,39,13,16,06,46,09,19,20,36,37,0.78,0.43,0.65,4*05
$GNGSA,A,3,35,29,22,,,,,,,,,,0.78,0.43,0.65,4*02
$GPGSV,4,1,16,24,75,046,41,196,75,064,41,199,60,167,21,18,59,249,35,1*66
$GPGSV,4,2,16,23,49,337,27,15,38,045,43,41,38,241,40,195,34,180,27,1*59
$GPGSV,4,3,16,194,30,139,39,05,20,117,28,12,19,142,39,10,17,318,31,1*59
$GPGSV,4,4,16,13,09,056,,32,09,268,29,25,08,177,,29,02,197,,1*6C
$GPGSV,3,1,09,196,75,064,43,24,75,046,46,199,60,167,42,18,59,249,38,8*6B
$GPGSV,3,2,09,23,49,337,25,195,34,180,23,194,30,139,36,10,17,318,33,8*67
$GPGSV,3,3,09,32,09,268,30,8*53
$GLGSV,3,1,09,80,48,080,46,70,40,008,,73,36,160,28,85,36,248,42,1*7A
$GLGSV,3,2,09,86,27,304,40,71,21,312,28,69,13,072,18,79,12,033,18,1*72
$GLGSV,3,3,09,84,10,191,,1*45
$GAGSV,3,1,09,13,57,234,32,08,47,024,33,07,44,301,37,26,31,308,37,7*79
$GAGSV,3,2,09,02,25,087,34,30,25,144,36,15,24,174,17,03,11,063,,7*76
$GAGSV,3,3,09,25,03,044,,7*4E
$GAGSV,2,1,07,13,57,234,31,08,47,024,30,07,44,301,44,26,31,308,38,1*7B
$GAGSV,2,2,07,02,25,087,36,30,25,144,42,15,24,174,22,1*4E
$GBGSV,4,1,15,38,83,103,33,08,78,005,37,39,71,281,35,13,68,335,37,1*7F
$GBGSV,4,2,15,16,66,256,40,06,65,251,38,46,59,114,43,09,49,237,18,1*78
$GBGSV,4,3,15,19,48,343,30,20,43,061,34,36,33,184,22,37,23,048,37,1*76
$GBGSV,4,4,15,35,22,270,38,29,20,213,18,22,11,300,30,1*4A
$GBGSV,3,1,09,38,83,103,24,39,71,281,37,46,59,114,41,19,48,343,28,4*7A
$GBGSV,3,2,09,20,43,061,33,36,33,184,24,35,22,270,33,29,20,213,24,4*7B
$GBGSV,3,3,09,22,11,300,27,4*4C
$GNACCURACY,2.5*11
$PAIRSAT,1,35,1,0,200,2,0,200,3,0,200,4,0,200,5,0,201,6,0,200,7,0,200,8,0,200,9,0,200,10,0,221,11,0,200,12,0,201,13,0,201,14,0,200,15,0,201,16,0,200,17,0,200,18,0,221,19,0,200,20,0,200,21,0,200,23,0,221,24,0,221,25,0,200,26,0,200,27,0,200,28,0,200,29,0,200,30,0,200,31,0,200,32,0,221,194,0,621,195,0,621,196,0,620,199,0,621*68
$PAIRSAT,2,23,65,0,200,67,0,200,68,0,200,69,0,201,70,0,201,71,0,201,72,0,200,73,0,201,74,0,200,75,0,200,76,0,200,77,0,200,78,0,200,79,0,201,80,0,201,81,0,200,82,0,200,83,0,200,84,0,200,85,0,201,86,0,201,87,0,200,88,0,200*53
$PAIRSAT,3,23,2,0,1221,3,0,1221,4,0,1200,5,0,200,7,0,1221,8,0,1221,9,0,1200,10,0,1200,11,0,1200,12,0,1200,13,0,1221,15,0,1221,19,0,1200,21,0,1200,24,0,1200,25,0,1200,26,0,1221,27,0,1200,30,0,1221,31,0,1200,33,0,1200,34,0,1200,36,0,1200*6A
$PAIRSAT,4,50,1,0,200,2,0,200,3,0,200,4,0,200,5,0,200,6,0,201,7,0,200,8,0,201,9,0,201,10,0,200,11,0,200,12,0,200,13,0,201,14,0,200,15,0,200,16,0,201,19,0,621,20,0,621,21,0,600,22,0,621,23,0,600,24,0,600,25,0,600,26,0,600,27,0,600,28,0,600,29,0,621,30,0,600,31,0,200,32,0,600,33,0,600,34,0,600,35,0,621,36,0,621,37,0,621,38,0,621,39,0,621,40,0,600,41,0,600,42,0,600,43,0,600,44,0,600,45,0,600,46,0,621,56,0,200,57,0,200,58,0,200,59,0,600,60,0,600,61,0,600*41
$PAIRDGP,8,5,10,12,13,15,18,23,24*72
$GNGGA,112314.200,2500.8139600,N,12132.4738300,E,2,64,0.43,22.65,M,15.25,M,2,3335*7C
$GNRMC,112314.200,A,2500.8139600,N,12132.4738300,E,0.00,234.24,260623,,,D,V*03
$GPHDT,,T*1B
$GNACCURACY,2.5*11
$GNGGA,112314.300,2500.8139600,N,12132.4738300,E,2,64,0.43,22.66,M,15.25,M,2,3335*7E
$GNRMC,112314.300,A,2500.8139600,N,12132.4738300,E,0.00,234.24,260623,,,D,V*02
$GPHDT,,T*1B
$GNACCURACY,2.6*12
$GNGGA,112314.400,2500.8139600,N,12132.4738200,E,2,64,0.43,22.67,M,15.25,M,2,3335*79
$GNRMC,112314.400,A,2500.8139600,N,12132.4738200,E,0.00,234.24,260623,,,D,V*04
$GPHDT,,T*1B
$GNACCURACY,2.6*12
$GNGGA,112314.500,2500.8139600,N,12132.4738200,E,2,64,0.43,22.67,M,15.25,M,2,3335*78
$GNRMC,112314.500,A,2500.8139600,N,12132.4738200,E,0.00,234.24,260623,,,D,V*05
$GPHDT,,T*1B
$GNACCURACY,2.6*12
$GNGGA,112314.600,2500.8139700,N,12132.4738100,E,2,64,0.43,22.68,M,15.25,M,2,3335*76
$GNRMC,112314.600,A,2500.8139700,N,12132.4738100,E,0.00,234.24,260623,,,D,V*04
$GPHDT,,T*1B
$GNACCURACY,2.6*12
$GNGGA,112314.700,2500.8139700,N,12132.4738100,E,2,64,0.43,22.68,M,15.25,M,2,3335*77
$GNRMC,112314.700,A,2500.8139700,N,12132.4738100,E,0.00,234.24,260623,,,D,V*05
$GPHDT,,T*1B
$GNACCURACY,2.6*12
$GNGGA,112314.800,2500.8139700,N,12132.4738000,E,2,64,0.43,22.68,M,15.25,M,2,3335*79
$GNRMC,112314.800,A,2500.8139700,N,12132.4738000,E,0.00,234.24,260623,,,D,V*0B
$GPHDT,,T*1B
$GNACCURACY,2.6*12
$GNGGA,112314.900,2500.8139700,N,12132.4738000,E,2,64,0.43,22.69,M,15.25,M,2,3335*79
$GNRMC,112314.900,A,2500.8139700,N,12132.4738000,E,0.00,234.24,260623,,,D,V*0A
$GPHDT,,T*1B
$GNACCURACY,2.6*12
$GNGGA,112315.000,2500.8139700,N,12132.4738000,E,2,64,0.43,22.70,M,15.25,M,3,3335*78
$GNRMC,112315.000,A,2500.8139700,N,12132.4738000,E,0.00,234.24,260623,,,D,V*02
$GPHDT,,T*1B
$GNACCURACY,2.5*11
$GNGGA,112315.100,2500.8139700,N,12132.4737900,E,2,64,0.43,22.69,M,15.25,M,3,3335*77
$GNRMC,112315.100,A,2500.8139700,N,12132.4737900,E,0.00,234.24,260623,,,D,V*05
$GPHDT,,T*1B
$GNGSA,A,3,24,196,199,18,23,15,195,194,05,12,10,,0.78,0.43,0.65,1*09
$GNGSA,A,3,80,73,85,86,71,69,79,,,,,,0.78,0.43,0.65,2*01
$GNGSA,A,3,13,08,07,26,02,30,15,,,,,,0.78,0.43,0.65,3*04
$GNGSA,A,3,38,08,39,13,16,06,46,09,19,20,36,37,0.78,0.43,0.65,4*05
$GNGSA,A,3,35,29,22,,,,,,,,,,0.78,0.43,0.65,4*02
$GPGSV,4,1,16,24,75,046,42,196,75,064,41,199,60,167,23,18,59,249,34,1*66
$GPGSV,4,2,16,23,49,337,33,15,38,045,43,41,38,241,40,195,34,180,28,1*53
$GPGSV,4,3,16,194,30,139,39,05,20,117,27,12,19,142,39,10,17,318,35,1*52
$GPGSV,4,4,16,13,09,056,,32,09,268,32,25,08,177,,29,02,197,,1*66
$GPGSV,3,1,09,196,75,064,44,24,75,046,46,199,60,167,41,18,59,249,39,8*6E
$GPGSV,3,2,09,23,49,337,24,195,34,180,21,194,30,139,37,10,17,318,36,8*60
$GPGSV,3,3,09,32,09,268,30,8*53
$GLGSV,3,1,09,80,48,080,46,70,40,008,,73,36,160,28,85,36,248,42,1*7A
$GLGSV,3,2,09,86,27,304,40,71,21,312,40,69,13,072,18,79,12,033,18,1*7C
$GLGSV,3,3,09,84,10,191,,1*45
$GAGSV,3,1,09,13,57,234,33,08,47,024,33,07,44,301,38,26,31,308,39,7*79
$GAGSV,3,2,09,02,25,087,34,30,25,144,36,15,24,174,17,03,11,063,,7*76
$GAGSV,3,3,09,25,03,044,,7*4E
$GAGSV,2,1,07,13,57,234,31,08,47,024,28,07,44,301,46,26,31,308,35,1*7D
$GAGSV,2,2,07,02,25,087,36,30,25,144,41,15,24,174,21,1*4E
$GBGSV,4,1,15,38,83,103,30,08,78,005,36,39,71,281,35,13,68,335,38,1*72
$GBGSV,4,2,15,16,66,256,40,06,65,251,38,46,59,114,43,09,49,237,19,1*79
$GBGSV,4,3,15,19,48,343,34,20,43,061,34,36,33,184,25,37,23,048,36,1*74
$GBGSV,4,4,15,35,22,270,41,29,20,213,19,22,11,300,34,1*41
$GBGSV,3,1,09,38,83,103,28,39,71,281,36,46,59,114,41,19,48,343,31,4*7F
$GBGSV,3,2,09,20,43,061,32,36,33,184,27,35,22,270,35,29,20,213,23,4*78
$GBGSV,3,3,09,22,11,300,22,4*49
$GNACCURACY,2.6*12
$PAIRSAT,1,35,1,0,200,2,0,200,3,0,200,4,0,200,5,0,201,6,0,200,7,0,200,8,0,200,9,0,200,10,0,221,11,0,200,12,0,201,13,0,201,14,0,200,15,0,201,16,0,200,17,0,200,18,0,221,19,0,200,20,0,200,21,0,200,23,0,221,24,0,221,25,0,200,26,0,200,27,0,200,28,0,200,29,0,200,30,0,200,31,0,200,32,0,221,194,0,621,195,0,621,196,0,620,199,0,621*68
$PAIRSAT,2,23,65,0,200,67,0,200,68,0,200,69,0,201,70,0,201,71,0,201,72,0,200,73,0,201,74,0,200,75,0,200,76,0,200,77,0,200,78,0,200,79,0,201,80,0,201,81,0,200,82,0,200,83,0,200,84,0,200,85,0,201,86,0,201,87,0,200,88,0,200*53
$PAIRSAT,3,23,2,0,1221,3,0,1221,4,0,1200,5,0,200,7,0,1221,8,0,1221,9,0,1200,10,0,1200,11,0,1200,12,0,1200,13,0,1221,15,0,1221,19,0,1200,21,0,1200,24,0,1200,25,0,1200,26,0,1221,27,0,1200,30,0,1221,31,0,1200,33,0,1200,34,0,1200,36,0,1200*6A
$PAIRSAT,4,50,1,0,200,2,0,200,3,0,200,4,0,200,5,0,200,6,0,201,7,0,200,8,0,201,9,0,201,10,0,200,11,0,200,12,0,200,13,0,201,14,0,200,15,0,200,16,0,201,19,0,621,20,0,621,21,0,600,22,0,621,23,0,600,24,0,600,25,0,600,26,0,600,27,0,600,28,0,600,29,0,621,30,0,600,31,0,200,32,0,600,33,0,600,34,0,600,35,0,621,36,0,621,37,0,621,38,0,621,39,0,621,40,0,600,41,0,600,42,0,600,43,0,600,44,0,600,45,0,600,46,0,621,56,0,200,57,0,200,58,0,200,59,0,600,60,0,600,61,0,600*41
$PAIRDGP,8,5,10,12,13,15,18,23,24*72
$GNGGA,112315.200,2500.8139700,N,12132.4737900,E,2,64,0.43,22.70,M,15.25,M,3,3335*7C
$GNRMC,112315.200,A,2500.8139700,N,12132.4737900,E,0.00,234.24,260623,,,D,V*06
$GPHDT,,T*1B
$GNACCURACY,2.6*12
$GNGGA,112315.300,2500.8139700,N,12132.4737900,E,2,64,0.43,22.70,M,15.25,M,3,3335*7D
$GNRMC,112315.300,A,2500.8139700,N,12132.4737900,E,0.00,234.24,260623,,,D,V*07
$GPHDT,,T*1B
$GNACCURACY,2.6*12
$GNGGA,112315.400,2500.8139700,N,12132.4737900,E,2,64,0.43,22.71,M,15.25,M,3,3335*7B
$GNRMC,112315.400,A,2500.8139700,N,12132.4737900,E,0.00,234.24,260623,,,D,V*00
$GPHDT,,T*1B
$GNACCURACY,2.6*12
$GNGGA,112315.500,2500.8139800,N,12132.4737900,E,2,64,0.43,22.71,M,15.25,M,3,3335*75
$GNRMC,112315.500,A,2500.8139800,N,12132.4737900,E,0.00,234.24,260623,,,D,V*0E
$GPHDT,,T*1B
$GNACCURACY,2.5*11
$GNGGA,112315.600,2500.8139800,N,12132.4737800,E,2,64,0.43,22.72,M,15.25,M,3,3335*74
$GNRMC,112315.600,A,2500.8139800,N,12132.4737800,E,0.00,234.24,260623,,,D,V*0C
$GPHDT,,T*1B
$GNACCURACY,2.6*12
$GNGGA,112315.700,2500.8139800,N,12132.4737800,E,2,64,0.43,22.72,M,15.25,M,3,3335*75
$GNRMC,112315.700,A,2500.8139800,N,12132.4737800,E,0.00,234.24,260623,,,D,V*0D
$GPHDT,,T*1B
$GNACCURACY,2.6*12
$GNGGA,112315.800,2500.8139800,N,12132.4737800,E,2,65,0.42,22.73,M,15.25,M,3,3335*7B
$GNRMC,112315.800,A,2500.8139800,N,12132.4737800,E,0.00,234.24,260623,,,D,V*02
$GPHDT,,T*1B
$GNACCURACY,2.6*12
$GNGGA,112315.900,2500.8139800,N,12132.4737700,E,2,65,0.42,22.73,M,15.25,M,3,3335*75
$GNRMC,112315.900,A,2500.8139800,N,12132.4737700,E,0.00,234.24,260623,,,D,V*0C
$GPHDT,,T*1B
$GNACCURACY,2.6*12
$GNGGA,112316.000,2500.8139800,N,12132.4737700,E,2,65,0.42,22.74,M,15.25,M,4,3335*7F
$GNRMC,112316.000,A,2500.8139800,N,12132.4737700,E,0.00,234.24,260623,,,D,V*06
$GPHDT,,T*1B
$GNACCURACY,2.6*12
$GNGGA,112316.100,2500.8139800,N,12132.4737600,E,2,65,0.42,22.74,M,15.25,M,4,3335*7F
$GNRMC,112316.100,A,2500.8139800,N,12132.4737600,E,0.00,234.24,260623,,,D,V*06
$GPHDT,,T*1B
$GNGSA,A,3,24,196,199,18,23,15,195,194,05,12,10,,0.76,0.42,0.63,1*00
$GNGSA,A,3,80,73,85,86,71,69,79,,,,,,0.76,0.42,0.63,2*08
$GNGSA,A,3,13,08,07,26,02,30,15,03,,,,,0.76,0.42,0.63,3*0E
$GNGSA,A,3,38,08,39,13,16,06,46,09,19,20,36,37,0.76,0.42,0.63,4*0C
$GNGSA,A,3,35,29,22,,,,,,,,,,0.76,0.42,0.63,4*0B
$GPGSV,4,1,16,24,75,046,42,196,75,064,41,199,60,167,23,18,59,249,35,1*67
$GPGSV,4,2,16,23,49,337,33,15,38,045,43,41,38,241,39,195,34,180,29,1*5C
$GPGSV,4,3,16,194,30,139,39,05,20,117,28,12,19,142,39,10,17,318,34,1*5C
$GPGSV,4,4,16,13,09,056,23,32,09,268,32,25,08,177,,29,02,197,,1*67
$GPGSV,3,1,09,196,75,064,44,24,75,046,46,199,60,167,41,18,59,249,38,8*6F
$GPGSV,3,2,09,23,49,337,19,195,34,180,20,194,30,139,37,10,17,318,33,8*6A
$GPGSV,3,3,09,32,09,268,29,8*5B
$GLGSV,3,1,09,80,48,080,46,70,40,008,,73,36,160,28,85,36,248,42,1*7A
$GLGSV,3,2,09,86,27,304,40,71,21,312,37,69,13,072,21,79,12,033,18,1*76
$GLGSV,3,3,09,84,10,191,,1*45
$GAGSV,3,1,09,13,57,233,33,08,47,024,33,07,44,301,39,26,31,308,37,7*71
$GAGSV,3,2,09,02,25,087,34,30,25,144,36,15,24,174,16,03,11,063,19,7*7F
$GAGSV,3,3,09,25,03,044,,7*4E
$GAGSV,2,1,07,13,57,233,32,08,47,024,28,07,44,301,46,26,31,308,32,1*7E
$GAGSV,2,2,07,02,25,087,36,30,25,144,41,15,24,174,23,1*4C
$GBGSV,4,1,15,38,83,103,28,08,78,005,36,39,71,281,34,13,68,335,37,1*75
$GBGSV,4,2,15,16,66,256,40,06,65,251,38,46,59,114,43,09,49,237,22,1*71
$GBGSV,4,3,15,19,48,343,33,20,43,061,34,36,33,184,25,37,23,048,37,1*72
$GBGSV,4,4,15,35,22,270,40,29,20,213,24,22,11,300,33,1*49
$GBGSV,3,1,09,38,83,103,28,39,71,281,36,46,59,114,41,19,48,343,32,4*7C
$GBGSV,3,2,09,20,43,061,32,36,33,184,25,35,22,270,36,29,20,213,23,4*79
$GBGSV,3,3,09,22,11,300,25,4*4E
$GNACCURACY,2.6*12
$PAIRSAT,1,35,1,0,200,2,0,200,3,0,200,4,0,200,5,0,201,6,0,200,7,0,200,8,0,200,9,0,200,10,0,221,11,0,200,12,0,201,13,0,201,14,0,200,15,0,201,16,0,200,17,0,200,18,0,221,19,0,200,20,0,200,21,0,200,23,0,221,24,0,221,25,0,200,26,0,200,27,0,200,28,0,200,29,0,200,30,0,200,31,0,200,32,0,221,194,0,621,195,0,621,196,0,620,199,0,621*68
$PAIRSAT,2,23,65,0,200,67,0,200,68,0,200,69,0,201,70,0,201,71,0,201,72,0,200,73,0,201,74,0,200,75,0,200,76,0,200,77,0,200,78,0,200,79,0,201,80,0,201,81,0,200,82,0,200,83,0,200,84,0,200,85,0,201,86,0,201,87,0,200,88,0,200*53
$PAIRSAT,3,23,2,0,1221,3,0,1221,4,0,1200,5,0,200,7,0,1221,8,0,1221,9,0,1200,10,0,1200,11,0,1200,12,0,1200,13,0,1221,15,0,1221,19,0,1200,21,0,1200,24,0,1200,25,0,1200,26,0,1221,27,0,1200,30,0,1221,31,0,1200,33,0,1200,34,0,1200,36,0,1200*6A
$PAIRSAT,4,50,1,0,200,2,0,200,3,0,200,4,0,200,5,0,200,6,0,201,7,0,200,8,0,201,9,0,201,10,0,200,11,0,200,12,0,200,13,0,201,14,0,200,15,0,200,16,0,201,19,0,621,20,0,621,21,0,600,22,0,621,23,0,600,24,0,600,25,0,600,26,0,600,27,0,600,28,0,600,29,0,621,30,0,600,31,0,200,32,0,600,33,0,600,34,0,600,35,0,621,36,0,621,37,0,621,38,0,621,39,0,621,40,0,600,41,0,600,42,0,600,43,0,600,44,0,600,45,0,600,46,0,621,56,0,200,57,0,200,58,0,200,59,0,600,60,0,600,61,0,600*41
$PAIRDGP,8,5,10,12,13,15,18,23,24*72
$GNGGA,112316.200,2500.8139800,N,12132.4737600,E,2,65,0.42,22.75,M,15.25,M,4,3335*7D
$GNRMC,112316.200,A,2500.8139800,N,12132.4737600,E,0.00,234.24,260623,,,D,V*05
$GPHDT,,T*1B
$GNACCURACY,2.6*12
$GNGGA,112316.300,2500.8139900,N,12132.4737500,E,2,65,0.42,22.75,M,15.25,M,4,3335*7E
$GNRMC,112316.300,A,2500.8139900,N,12132.4737500,E,0.00,234.24,260623,,,D,V*06
$GPHDT,,T*1B
$GNACCURACY,2.6*12
$GNGGA,112316.400,2500.8140000,N,12132.4737500,E,2,65,0.42,22.75,M,15.25,M,4,3335*7E
$GNRMC,112316.400,A,2500.8140000,N,12132.4737500,E,0.00,234.24,260623,,,D,V*06
$GPHDT,,T*1B
$GNACCURACY,2.6*12
$GNGGA,112316.500,2500.8140000,N,12132.4737400,E,2,65,0.42,22.75,M,15.25,M,4,3335*7E
$GNRMC,112316.500,A,2500.8140000,N,12132.4737400,E,0.00,234.24,260623,,,D,V*06
$GPHDT,,T*1B
$GNACCURACY,2.6*12
$GNGGA,112316.600,2500.8140000,N,12132.4737300,E,2,65,0.42,22.75,M,15.25,M,4,3335*7A
$GNRMC,112316.600,A,2500.8140000,N,12132.4737300,E,0.00,234.24,260623,,,D,V*02
$GPHDT,,T*1B
$GNACCURACY,2.6*12
$GNGGA,112316.700,2500.8140000,N,12132.4737300,E,2,65,0.42,22.75,M,15.25,M,4,3335*7B
$GNRMC,112316.700,A,2500.8140000,N,12132.4737300,E,0.00,234.24,260623,,,D,V*03
$GPHDT,,T*1B
$GNACCURACY,2.6*12
$GNGGA,112316.800,2500.8140100,N,12132.4737300,E,2,65,0.42,22.75,M,15.25,M,4,3335*75
$GNRMC,112316.800,A,2500.8140100,N,12132.4737300,E,0.00,234.24,260623,,,D,V*0D
$GPHDT,,T*1B
$GNACCURACY,2.6*12
$GNGGA,112316.900,2500.8140100,N,12132.4737300,E,2,65,0.42,22.75,M,15.25,M,4,3335*74
$GNRMC,112316.900,A,2500.8140100,N,12132.4737300,E,0.00,234.24,260623,,,D,V*0C
$GPHDT,,T*1B
$GNACCURACY,2.6*12
$GNGGA,112317.000,2500.8140100,N,12132.4737200,E,2,65,0.42,22.75,M,15.25,M,5,3335*7C
$GNRMC,112317.000,A,2500.8140100,N,12132.4737200,E,0.00,234.24,260623,,,D,V*05
$GPHDT,,T*1B
$GNACCURACY,2.6*12
$GNGGA,112317.100,2500.8140100,N,12132.4737200,E,2,65,0.42,22.75,M,15.25,M,5,3335*7D
$GNRMC,112317.100,A,2500.8140100,N,12132.4737200,E,0.01,234.24,260623,,,D,V*05
$GPHDT,,T*1B
$GNGSA,A,3,24,196,199,18,23,15,195,194,05,12,10,,0.76,0.42,0.63,1*00
$GNGSA,A,3,80,73,85,86,71,69,79,,,,,,0.76,0.42,0.63,2*08
$GNGSA,A,3,13,08,07,26,30,02,15,03,,,,,0.76,0.42,0.63,3*0E
$GNGSA,A,3,38,08,39,13,16,06,46,09,19,20,36,37,0.76,0.42,0.63,4*0C
$GNGSA,A,3,35,29,22,,,,,,,,,,0.76,0.42,0.63,4*0B
$GPGSV,4,1,16,24,75,046,42,196,75,064,41,199,60,167,22,18,59,249,34,1*67
$GPGSV,4,2,16,23,49,337,33,15,38,045,43,41,38,241,39,195,34,180,29,1*5C
$GPGSV,4,3,16,194,30,139,40,05,20,117,28,12,19,142,39,10,17,318,33,1*55
$GPGSV,4,4,16,13,09,056,25,32,09,268,32,25,08,177,,29,02,197,,1*61
$GPGSV,3,1,09,196,75,064,44,24,75,046,47,199,60,167,41,18,59,249,40,8*61
$GPGSV,3,2,09,23,49,337,20,195,34,180,20,194,30,139,37,10,17,318,33,8*60
$GPGSV,3,3,09,32,09,268,28,8*5A
$GLGSV,2,1,08,80,48,080,46,70,40,008,,73,36,160,29,85,36,248,42,1*7B
$GLGSV,2,2,08,86,27,304,40,71,21,312,37,69,13,072,22,79,12,033,18,1*75
$GAGSV,3,1,09,13,57,233,33,08,47,024,33,07,44,301,35,26,31,308,38,7*72
$GAGSV,3,2,09,30,25,144,36,02,25,087,34,15,24,174,18,03,11,063,21,7*7A
$GAGSV,3,3,09,25,03,044,,7*4E
$GAGSV,2,1,07,13,57,233,32,08,47,024,28,07,44,301,46,26,31,308,35,1*79
$GAGSV,2,2,07,02,25,087,35,30,25,144,41,15,24,174,22,1*4E
$GBGSV,4,1,15,38,83,103,28,08,78,005,36,39,71,281,34,13,68,335,38,1*7A
$GBGSV,4,2,15,16,66,256,40,06,65,251,38,46,59,114,43,09,49,237,21,1*72
$GBGSV,4,3,15,19,48,343,34,20,43,061,34,36,33,184,25,37,23,048,37,1*75
$GBGSV,4,4,15,35,22,270,36,29,20,213,24,22,11,300,34,1*4F
$GBGSV,3,1,09,38,83,103,30,39,71,281,35,46,59,114,41,19,48,343,32,4*76
$GBGSV,3,2,09,20,43,061,32,36,33,184,26,35,22,270,31,29,20,213,21,4*7F
$GBGSV,3,3,09,22,11,300,25,4*4E
$GNACCURACY,2.6*12
$PAIRSAT,1,35,1,0,200,2,0,200,3,0,200,4,0,200,5,0,201,6,0,200,7,0,200,8,0,200,9,0,200,10,0,221,11,0,200,12,0,201,13,0,201,14,0,200,15,0,201,16,0,200,17,0,200,18,0,221,19,0,200,20,0,200,21,0,200,23,0,221,24,0,221,25,0,200,26,0,200,27,0,200,28,0,200,29,0,200,30,0,200,31,0,200,32,0,221,194,0,621,195,0,621,196,0,620,199,0,621*68
$PAIRSAT,2,23,65,0,200,67,0,200,68,0,200,69,0,201,70,0,201,71,0,201,72,0,200,73,0,201,74,0,200,75,0,200,76,0,200,77,0,200,78,0,200,79,0,201,80,0,201,81,0,200,82,0,200,83,0,200,84,0,200,85,0,201,86,0,201,87,0,200,88,0,200*53
$PAIRSAT,3,23,2,0,1221,3,0,1221,4,0,1200,5,0,200,7,0,1221,8,0,1221,9,0,1200,10,0,1200,11,0,1200,12,0,1200,13,0,1221,15,0,1221,19,0,1200,21,0,1200,24,0,1200,25,0,1200,26,0,1221,27,0,1200,30,0,1221,31,0,1200,33,0,1200,34,0,1200,36,0,1200*6A
$PAIRSAT,4,50,1,0,200,2,0,200,3,0,200,4,0,200,5,0,200,6,0,201,7,0,200,8,0,201,9,0,201,10,0,200,11,0,200,12,0,200,13,0,201,14,0,200,15,0,200,16,0,201,19,0,621,20,0,621,21,0,600,22,0,621,23,0,600,24,0,600,25,0,600,26,0,600,27,0,600,28,0,600,29,0,621,30,0,600,31,0,200,32,0,600,33,0,600,34,0,600,35,0,621,36,0,621,37,0,621,38,0,621,39,0,621,40,0,600,41,0,600,42,0,600,43,0,600,44,0,600,45,0,600,46,0,621,56,0,200,57,0,200,58,0,200,59,0,600,60,0,600,61,0,600*41
$PAIRDGP,8,5,10,12,13,15,18,23,24*72
$GNGGA,112317.200,2500.8140100,N,12132.4737200,E,2,65,0.42,22.76,M,15.25,M,5,3335*7D
$GNRMC,112317.200,A,2500.8140100,N,12132.4737200,E,0.00,234.24,260623,,,D,V*07
$GPHDT,,T*1B
$GNACCURACY,2.6*12
$GNGGA,112317.300,2500.8140200,N,12132.4737200,E,2,65,0.42,22.76,M,15.25,M,5,3335*7F
$GNRMC,112317.300,A,2500.8140200,N,12132.4737200,E,0.00,234.24,260623,,,D,V*05
$GPHDT,,T*1B
$GNACCURACY,2.6*12
$GNGGA,112317.400,2500.8140200,N,12132.4737200,E,2,65,0.42,22.77,M,15.25,M,5,3335*79
$GNRMC,112317.400,A,2500.8140200,N,12132.4737200,E,0.00,234.24,260623,,,D,V*02
$GPHDT,,T*1B
$GNACCURACY,2.6*12
$GNGGA,112317.500,2500.8140200,N,12132.4737200,E,2,65,0.42,22.77,M,15.25,M,5,3335*78
$GNRMC,112317.500,A,2500.8140200,N,12132.4737200,E,0.00,234.24,260623,,,D,V*03
$GPHDT,,T*1B
$GNACCURACY,2.6*12
$GNGGA,112317.600,2500.8140200,N,12132.4737200,E,2,65,0.42,22.78,M,15.25,M,5,3335*74
$GNRMC,112317.600,A,2500.8140200,N,12132.4737200,E,0.01,234.24,260623,,,D,V*01
$GPHDT,,T*1B
$GNACCURACY,2.6*12
$GNGGA,112317.700,2500.8140200,N,12132.4737200,E,2,65,0.42,22.78,M,15.25,M,5,3335*75
$GNRMC,112317.700,A,2500.8140200,N,12132.4737200,E,0.01,234.24,260623,,,D,V*00
$GPHDT,,T*1B
$GNACCURACY,2.6*12
$GNGGA,112317.800,2500.8140200,N,12132.4737200,E,2,65,0.42,22.79,M,15.25,M,5,3335*7B
$GNRMC,112317.800,A,2500.8140200,N,12132.4737200,E,0.01,234.24,260623,,,D,V*0F
$GPHDT,,T*1B
$GNACCURACY,2.6*12
$GNGGA,112317.900,2500.8140200,N,12132.4737200,E,2,65,0.42,22.79,M,15.25,M,5,3335*7A
$GNRMC,112317.900,A,2500.8140200,N,12132.4737200,E,0.01,234.24,260623,,,D,V*0E
$GPHDT,,T*1B
$GNACCURACY,2.6*12
$GNGGA,112318.000,2500.8140200,N,12132.4737200,E,2,65,0.42,22.79,M,15.25,M,6,3335*7F
$GNRMC,112318.000,A,2500.8140200,N,12132.4737200,E,0.00,234.24,260623,,,D,V*09
$GPHDT,,T*1B
$GNACCURACY,2.6*12
$GNGGA,112318.100,2500.8140200,N,12132.4737200,E,2,65,0.42,22.79,M,15.25,M,6,3335*7E
$GNRMC,112318.100,A,2500.8140200,N,12132.4737200,E,0.01,234.24,260623,,,D,V*09
$GPHDT,,T*1B
$GNGSA,A,3,24,196,199,18,23,15,195,194,05,12,10,,0.76,0.42,0.63,1*00
$GNGSA,A,3,80,73,85,86,71,69,79,,,,,,0.76,0.42,0.63,2*08
$GNGSA,A,3,13,08,07,26,30,02,15,03,,,,,0.76,0.42,0.63,3*0E
$GNGSA,A,3,38,08,39,13,16,06,46,09,19,20,36,37,0.76,0.42,0.63,4*0C
$GNGSA,A,3,35,29,22,,,,,,,,,,0.76,0.42,0.63,4*0B
$GPGSV,4,1,16,24,75,046,42,196,75,064,41,199,60,167,22,18,59,249,34,1*67
$GPGSV,4,2,16,23,49,337,33,15,38,045,43,41,38,241,38,195,34,180,29,1*5D
$GPGSV,4,3,16,194,30,139,40,05,20,117,28,12,19,142,39,10,17,318,35,1*53
$GPGSV,4,4,16,13,09,056,24,32,09,268,32,25,08,177,,29,02,197,,1*60
$GPGSV,3,1,09,196,75,064,44,24,75,046,47,199,60,167,41,18,59,249,38,8*6E
$GPGSV,3,2,09,23,49,337,18,195,34,180,19,194,30,139,37,10,17,318,33,8*61
$GPGSV,3,3,09,32,09,268,29,8*5B
$GLGSV,2,1,08,80,48,080,46,70,40,008,,73,36,160,29,85,36,248,42,1*7B
$GLGSV,2,2,08,86,27,304,40,71,21,312,35,69,13,072,23,79,12,033,19,1*77
$GAGSV,3,1,09,13,57,233,33,08,47,024,33,07,44,301,37,26,31,308,39,7*71
$GAGSV,3,2,09,30,25,144,36,02,25,087,34,15,24,174,18,03,11,063,20,7*7B
$GAGSV,3,3,09,25,03,044,,7*4E
$GAGSV,2,1,07,13,57,233,31,08,47,024,28,07,44,301,46,26,31,308,40,1*78
$GAGSV,2,2,07,02,25,087,36,30,25,144,41,15,24,174,21,1*4E
$GBGSV,4,1,15,38,83,103,29,08,78,005,36,39,71,281,34,13,68,335,38,1*7B
$GBGSV,4,2,15,16,66,256,40,06,65,251,38,46,59,114,43,09,49,237,22,1*71
$GBGSV,4,3,15,19,48,343,34,20,43,061,34,36,33,184,26,37,23,048,37,1*76
$GBGSV,4,4,15,35,22,270,38,29,20,213,23,22,11,300,29,1*4A
$GBGSV,3,1,09,38,83,103,27,39,71,281,35,46,59,114,41,19,48,343,32,4*70
$GBGSV,3,2,09,20,43,061,32,36,33,184,26,35,22,270,34,29,20,213,22,4*79
$GBGSV,3,3,09,22,11,300,32,4*48
$GNACCURACY,2.6*12
$PAIRSAT,1,35,1,0,200,2,0,200,3,0,200,4,0,200,5,0,201,6,0,200,7,0,200,8,0,200,9,0,200,10,0,221,11,0,200,12,0,201,13,0,201,14,0,200,15,0,201,16,0,200,17,0,200,18,0,221,19,0,200,20,0,200,21,0,200,23,0,221,24,0,221,25,0,200,26,0,200,27,0,200,28,0,200,29,0,200,30,0,200,31,0,200,32,0,221,194,0,621,195,0,621,196,0,620,199,0,621*68
$PAIRSAT,2,23,65,0,200,67,0,200,68,0,200,69,0,201,70,0,201,71,0,201,72,0,200,73,0,201,74,0,200,75,0,200,76,0,200,77,0,200,78,0,200,79,0,201,80,0,201,81,0,200,82,0,200,83,0,200,84,0,200,85,0,201,86,0,201,87,0,200,88,0,200*53
$PAIRSAT,3,23,2,0,1221,3,0,1221,4,0,1200,5,0,200,7,0,1221,8,0,1221,9,0,1200,10,0,1200,11,0,1200,12,0,1200,13,0,1221,15,0,1221,19,0,1200,21,0,1200,24,0,1200,25,0,1200,26,0,1221,27,0,1200,30,0,1221,31,0,1200,33,0,1200,34,0,1200,36,0,1200*6A
$PAIRSAT,4,50,1,0,200,2,0,200,3,0,200,4,0,200,5,0,200,6,0,201,7,0,200,8,0,201,9,0,201,10,0,200,11,0,200,12,0,200,13,0,201,14,0,200,15,0,200,16,0,201,19,0,621,20,0,621,21,0,600,22,0,621,23,0,600,24,0,600,25,0,600,26,0,600,27,0,600,28,0,600,29,0,621,30,0,600,31,0,200,32,0,600,33,0,600,34,0,600,35,0,621,36,0,621,37,0,621,38,0,621,39,0,621,40,0,600,41,0,600,42,0,600,43,0,600,44,0,600,45,0,600,46,0,621,56,0,200,57,0,200,58,0,200,59,0,600,60,0,600,61,0,600*41
$PAIRDGP,8,5,10,12,13,15,18,23,24*72
$GNGGA,112318.200,2500.8140200,N,12132.4737100,E,2,65,0.42,22.79,M,15.25,M,6,3335*7E
$GNRMC,112318.200,A,2500.8140200,N,12132.4737100,E,0.01,234.24,260623,,,D,V*09
$GPHDT,,T*1B
$GNACCURACY,2.6*12
$GNGGA,112318.300,2500.8140300,N,12132.4737100,E,2,65,0.42,22.80,M,15.25,M,6,3335*78
$GNRMC,112318.300,A,2500.8140300,N,12132.4737100,E,0.01,234.24,260623,,,D,V*09
$GPHDT,,T*1B
$GNACCURACY,2.6*12
$GNGGA,112318.400,2500.8140300,N,12132.4737000,E,2,65,0.42,22.80,M,15.25,M,6,3335*7E
$GNRMC,112318.400,A,2500.8140300,N,12132.4737000,E,0.01,234.24,260623,,,D,V*0F
$GPHDT,,T*1B
$GNACCURACY,2.6*12
$GNGGA,112318.500,2500.8140300,N,12132.4737000,E,2,65,0.42,22.80,M,15.25,M,6,3335*7F
$GNRMC,112318.500,A,2500.8140300,N,12132.4737000,E,0.01,234.24,260623,,,D,V*0E
$GPHDT,,T*1B
$GNACCURACY,2.6*12
$GNGGA,112318.600,2500.8140300,N,12132.4737000,E,2,65,0.42,22.80,M,15.25,M,6,3335*7C
$GNRMC,112318.600,A,2500.8140300,N,12132.4737000,E,0.01,234.24,260623,,,D,V*0D
$GPHDT,,T*1B
$GNACCURACY,2.6*12
$GNGGA,112318.700,2500.8140300,N,12132.4737000,E,2,65,0.42,22.80,M,15.25,M,6,3335*7D
$GNRMC,112318.700,A,2500.8140300,N,12132.4737000,E,0.01,234.24,260623,,,D,V*0C
$GPHDT,,T*1B
$GNACCURACY,2.6*12
$GNGGA,112318.800,2500.8140300,N,12132.4737000,E,2,65,0.42,22.80,M,15.25,M,6,3335*72
$GNRMC,112318.800,A,2500.8140300,N,12132.4737000,E,0.01,234.24,260623,,,D,V*03
$GPHDT,,T*1B
$GNACCURACY,2.6*12
$GNGGA,112318.900,2500.8140300,N,12132.4737000,E,2,65,0.42,22.81,M,15.25,M,6,3335*72
$GNRMC,112318.900,A,2500.8140300,N,12132.4737000,E,0.01,234.24,260623,,,D,V*02
$GPHDT,,T*1B
$GNACCURACY,2.6*12
$GNGGA,112319.000,2500.8140300,N,12132.4737000,E,2,65,0.42,22.81,M,15.25,M,7,3335*7B
$GNRMC,112319.000,A,2500.8140300,N,12132.4737000,E,0.01,234.24,260623,,,D,V*0A
$GPHDT,,T*1B
$GNACCURACY,2.6*12
$GNGGA,112319.100,2500.8140400,N,12132.4737000,E,2,65,0.42,22.81,M,15.25,M,7,3335*7D
$GNRMC,112319.100,A,2500.8140400,N,12132.4737000,E,0.01,234.24,260623,,,D,V*0C
$GPHDT,,T*1B
$GNGSA,A,3,24,196,199,18,23,15,195,194,05,12,10,,0.76,0.42,0.63,1*00
$GNGSA,A,3,80,73,85,86,71,69,79,,,,,,0.76,0.42,0.63,2*08
$GNGSA,A,3,13,08,07,26,02,30,15,03,,,,,0.76,0.42,0.63,3*0E
$GNGSA,A,3,38,08,39,13,16,06,46,09,19,20,36,37,0.76,0.42,0.63,4*0C
$GNGSA,A,3,35,29,22,,,,,,,,,,0.76,0.42,0.63,4*0B
$GPGSV,4,1,16,24,75,046,42,196,75,064,41,199,60,167,22,18,59,249,34,1*67
$GPGSV,4,2,16,23,49,337,33,15,38,045,43,41,38,241,38,195,34,180,29,1*5D
$GPGSV,4,3,16,194,30,139,40,05,20,117,28,12,19,142,39,10,17,318,32,1*54
$GPGSV,4,4,16,13,09,056,23,32,09,268,31,25,08,177,,29,02,197,,1*64
$GPGSV,3,1,09,196,75,064,44,24,75,046,47,199,60,167,41,18,59,249,38,8*6E
$GPGSV,3,2,09,23,49,337,19,195,34,180,20,194,30,139,37,10,17,318,32,8*6B
$GPGSV,3,3,09,32,09,268,30,8*53
$GLGSV,2,1,08,80,48,080,46,70,40,008,,73,36,160,29,85,36,248,42,1*7B
$GLGSV,2,2,08,86,27,304,39,71,21,312,33,69,13,072,23,79,12,033,19,1*7F
$GAGSV,3,1,09,13,57,233,32,08,47,024,33,07,44,301,38,26,31,308,40,7*71
$GAGSV,3,2,09,02,25,087,34,30,25,144,36,15,24,174,18,03,11,063,20,7*7B
$GAGSV,3,3,09,25,03,044,,7*4E
$GAGSV,2,1,07,13,57,233,32,08,47,024,29,07,44,301,46,26,31,308,40,1*7A
$GAGSV,2,2,07,02,25,087,37,30,25,144,41,15,24,174,21,1*4F
$GBGSV,4,1,16,38,83,103,29,08,78,005,36,39,71,281,34,13,68,335,39,1*79
$GBGSV,4,2,16,16,66,256,40,06,65,251,38,46,59,114,43,09,49,237,22,1*72
$GBGSV,4,3,16,19,48,343,33,20,43,061,34,36,33,184,26,37,23,048,37,1*72
$GBGSV,4,4,16,35,22,270,36,29,20,213,26,22,11,300,31,32,03,098,,1*78
$GBGSV,3,1,09,38,83,103,30,39,71,281,35,46,59,114,41,19,48,343,33,4*77
$GBGSV,3,2,09,20,43,061,33,36,33,184,26,35,22,270,35,29,20,213,23,4*78
$GBGSV,3,3,09,22,11,300,26,4*4D
$GNACCURACY,2.6*12
$PAIRSAT,1,35,1,0,200,2,0,200,3,0,200,4,0,200,5,0,201,6,0,200,7,0,200,8,0,200,9,0,200,10,0,221,11,0,200,12,0,201,13,0,201,14,0,200,15,0,201,16,0,200,17,0,200,18,0,221,19,0,200,20,0,200,21,0,200,23,0,221,24,0,221,25,0,200,26,0,200,27,0,200,28,0,200,29,0,200,30,0,200,31,0,200,32,0,221,194,0,621,195,0,621,196,0,620,199,0,621*68
$PAIRSAT,2,23,65,0,200,67,0,200,68,0,200,69,0,201,70,0,201,71,0,201,72,0,200,73,0,201,74,0,200,75,0,200,76,0,200,77,0,200,78,0,200,79,0,201,80,0,201,81,0,200,82,0,200,83,0,200,84,0,200,85,0,201,86,0,201,87,0,200,88,0,200*53
$PAIRSAT,3,23,2,0,1221,3,0,1221,4,0,1200,5,0,200,7,0,1221,8,0,1221,9,0,1200,10,0,1200,11,0,1200,12,0,1200,13,0,1221,15,0,1221,19,0,1200,21,0,1200,24,0,1200,25,0,1200,26,0,1221,27,0,1200,30,0,1221,31,0,1200,33,0,1200,34,0,1200,36,0,1200*6A
$PAIRSAT,4,50,1,0,200,2,0,200,3,0,200,4,0,200,5,0,200,6,0,201,7,0,200,8,0,201,9,0,201,10,0,200,11,0,200,12,0,200,13,0,201,14,0,200,15,0,200,16,0,201,19,0,621,20,0,621,21,0,600,22,0,621,23,0,600,24,0,600,25,0,600,26,0,600,27,0,600,28,0,600,29,0,621,30,0,600,31,0,200,32,0,600,33,0,600,34,0,600,35,0,621,36,0,621,37,0,621,38,0,621,39,0,621,40,0,600,41,0,600,42,0,600,43,0,600,44,0,600,45,0,600,46,0,621,56,0,200,57,0,200,58,0,200,59,0,600,60,0,600,61,0,600*41
$PAIRDGP,8,5,10,12,13,15,18,23,24*72
$GNGGA,112319.200,2500.8140400,N,12132.4736900,E,2,65,0.42,22.81,M,15.25,M,7,3335*76
$GNRMC,112319.200,A,2500.8140400,N,12132.4736900,E,0.01,234.24,260623,,,D,V*07
$GPHDT,,T*1B
$GNACCURACY,2.6*12
$GNGGA,112319.300,2500.8140400,N,12132.4736900,E,2,65,0.42,22.82,M,15.25,M,7,3335*74
$GNRMC,112319.300,A,2500.8140400,N,12132.4736900,E,0.01,234.24,260623,,,D,V*06
$GPHDT,,T*1B
$GNACCURACY,2.6*12
$GNGGA,112319.400,2500.8140400,N,12132.4736900,E,2,65,0.42,22.82,M,15.25,M,7,3335*73
$GNRMC,112319.400,A,2500.8140400,N,12132.4736900,E,0.01,234.24,260623,,,D,V*01
$GPHDT,,T*1B
$GNACCURACY,2.6*12
$GNGGA,112319.500,2500.8140400,N,12132.4736900,E,2,65,0.42,22.82,M,15.25,M,7,3335*72
$GNRMC,112319.500,A,2500.8140400,N,12132.4736900,E,0.01,234.24,260623,,,D,V*00
$GPHDT,,T*1B
$GNACCURACY,2.6*12
$GNGGA,112319.600,2500.8140400,N,12132.4736900,E,2,65,0.42,22.82,M,15.25,M,7,3335*71
$GNRMC,112319.600,A,2500.8140400,N,12132.4736900,E,0.01,234.24,260623,,,D,V*03
$GPHDT,,T*1B
$GNACCURACY,2.6*12
$GNGGA,112319.700,2500.8140500,N,12132.4736800,E,2,65,0.42,22.82,M,15.25,M,7,3335*70
$GNRMC,112319.700,A,2500.8140500,N,12132.4736800,E,0.01,234.24,260623,,,D,V*02
$GPHDT,,T*1B
$GNACCURACY,2.6*12
$GNGGA,112319.800,2500.8140400,N,12132.4736800,E,2,65,0.42,22.83,M,15.25,M,7,3335*7F
$GNRMC,112319.800,A,2500.8140400,N,12132.4736800,E,0.01,234.24,260623,,,D,V*0C
$GPHDT,,T*1B
$GNACCURACY,2.6*12
$GNGGA,112319.900,2500.8140400,N,12132.4736800,E,2,65,0.42,22.83,M,15.25,M,7,3335*7E
$GNRMC,112319.900,A,2500.8140400,N,12132.4736800,E,0.01,234.24,260623,,,D,V*0D
$GPHDT,,T*1B
$GNACCURACY,2.6*12
$GNGGA,112320.000,2500.8140400,N,12132.4736800,E,2,65,0.42,22.84,M,15.25,M,8,3335*75
$GNRMC,112320.000,A,2500.8140400,N,12132.4736800,E,0.01,234.24,260623,,,D,V*0E
$GPHDT,,T*1B
$GNACCURACY,2.5*11
$GNGGA,112320.100,2500.8140400,N,12132.4736800,E,2,64,0.42,22.84,M,15.25,M,8,3335*75
$GNRMC,112320.100,A,2500.8140400,N,12132.4736800,E,0.01,234.24,260623,,,D,V*0F
$GPHDT,,T*1B
$GNGSA,A,3,24,196,199,18,23,15,195,194,05,12,10,,0.76,0.42,0.63,1*00
$GNGSA,A,3,80,73,85,86,71,69,79,,,,,,0.76,0.42,0.63,2*08
$GNGSA,A,3,13,08,07,26,30,02,15,03,,,,,0.76,0.42,0.63,3*0E
$GNGSA,A,3,38,08,39,13,16,06,46,09,19,20,36,37,0.76,0.42,0.63,4*0C
$GNGSA,A,3,35,29,22,,,,,,,,,,0.76,0.42,0.63,4*0B
$GPGSV,4,1,16,24,75,046,42,196,75,064,41,199,60,167,21,18,59,249,34,1*64
$GPGSV,4,2,16,23,49,337,32,15,38,045,43,41,38,241,38,195,34,180,29,1*5C
$GPGSV,4,3,16,194,30,139,40,05,20,117,28,12,19,142,39,10,17,318,36,1*50
$GPGSV,4,4,16,13,09,056,23,32,09,268,30,25,08,177,,29,02,197,,1*65
$GPGSV,3,1,09,196,75,064,43,24,75,046,47,199,60,167,41,18,59,249,38,8*69
$GPGSV,3,2,09,23,49,337,20,195,34,180,20,194,30,139,37,10,17,318,32,8*61
$GPGSV,3,3,09,32,09,268,31,8*52
$GLGSV,2,1,08,80,48,079,46,70,40,008,,73,36,160,29,85,36,248,42,1*7D
$GLGSV,2,2,08,86,27,304,40,71,21,312,35,69,13,072,23,79,12,033,21,1*7C
$GAGSV,3,1,09,13,57,233,32,08,47,024,31,07,44,301,38,26,31,308,39,7*7D
$GAGSV,3,2,09,30,25,144,35,02,25,087,34,15,24,174,19,03,11,063,20,7*79
$GAGSV,3,3,09,25,03,044,,7*4E
$GAGSV,2,1,07,13,57,233,32,08,47,024,29,07,44,301,45,26,31,308,40,1*79
$GAGSV,2,2,07,02,25,087,36,30,25,144,41,15,24,174,21,1*4E
$GBGSV,4,1,15,38,83,103,29,08,78,005,36,39,71,281,35,13,68,335,39,1*7B
$GBGSV,4,2,15,16,66,256,40,06,65,251,38,46,59,114,43,09,49,237,24,1*77
$GBGSV,4,3,15,19,48,343,34,20,43,061,34,36,33,184,26,37,23,048,37,1*76
$GBGSV,4,4,15,35,22,270,37,29,20,213,26,22,11,300,28,1*41
$GBGSV,3,1,09,38,83,103,30,39,71,281,35,46,59,114,41,19,48,343,32,4*76
$GBGSV,3,2,09,20,43,061,32,36,33,184,26,35,22,270,33,29,20,213,22,4*7E
$GBGSV,3,3,09,22,11,300,28,4*43
$GNACCURACY,2.6*12
$PAIRSAT,1,35,1,0,200,2,0,200,3,0,200,4,0,200,5,0,201,6,0,200,7,0,200,8,0,200,9,0,200,10,0,221,11,0,200,12,0,201,13,0,201,14,0,200,15,0,201,16,0,200,17,0,200,18,0,221,19,0,200,20,0,200,21,0,200,23,0,221,24,0,221,25,0,200,26,0,200,27,0,200,28,0,200,29,0,200,30,0,200,31,0,200,32,0,221,194,0,621,195,0,621,196,0,620,199,0,621*68
$PAIRSAT,2,23,65,0,200,67,0,200,68,0,200,69,0,201,70,0,201,71,0,201,72,0,200,73,0,201,74,0,200,75,0,200,76,0,200,77,0,200,78,0,200,79,0,201,80,0,201,81,0,200,82,0,200,83,0,200,84,0,200,85,0,201,86,0,201,87,0,200,88,0,200*53
$PAIRSAT,3,23,2,0,1221,3,0,1221,4,0,1200,5,0,200,7,0,1221,8,0,1221,9,0,1200,10,0,1200,11,0,1200,12,0,1200,13,0,1221,15,0,1221,19,0,1200,21,0,1200,24,0,1200,25,0,1200,26,0,1221,27,0,1200,30,0,1221,31,0,1200,33,0,1200,34,0,1200,36,0,1200*6A
$PAIRSAT,4,50,1,0,200,2,0,200,3,0,200,4,0,200,5,0,200,6,0,201,7,0,200,8,0,201,9,0,201,10,0,200,11,0,200,12,0,200,13,0,201,14,0,200,15,0,200,16,0,201,19,0,621,20,0,621,21,0,600,22,0,621,23,0,600,24,0,600,25,0,600,26,0,600,27,0,600,28,0,600,29,0,621,30,0,600,31,0,200,32,0,600,33,0,600,34,0,600,35,0,621,36,0,621,37,0,621,38,0,621,39,0,621,40,0,600,41,0,600,42,0,600,43,0,600,44,0,600,45,0,600,46,0,621,56,0,200,57,0,200,58,0,200,59,0,600,60,0,600,61,0,600*41
$PAIRDGP,8,5,10,12,13,15,18,23,24*72
$GNGGA,112320.200,2500.8140400,N,12132.4736800,E,2,64,0.42,22.85,M,15.25,M,8,3335*77
$GNRMC,112320.200,A,2500.8140400,N,12132.4736800,E,0.01,234.24,260623,,,D,V*0C
$GPHDT,,T*1B
$GNACCURACY,2.6*12
$GNGGA,112320.300,2500.8140400,N,12132.4736800,E,2,64,0.42,22.86,M,15.25,M,8,3335*75
$GNRMC,112320.300,A,2500.8140400,N,12132.4736800,E,0.01,234.24,260623,,,D,V*0D
$GPHDT,,T*1B
$GNACCURACY,2.6*12
$GNGGA,112320.400,2500.8140400,N,12132.4736800,E,2,64,0.42,22.86,M,15.25,M,8,3335*72
$GNRMC,112320.400,A,2500.8140400,N,12132.4736800,E,0.01,234.24,260623,,,D,V*0A
$GPHDT,,T*1B
$GNACCURACY,2.6*12
$GNGGA,112320.500,2500.8140400,N,12132.4736800,E,2,64,0.42,22.87,M,15.25,M,8,3335*72
$GNRMC,112320.500,A,2500.8140400,N,12132.4736800,E,0.01,234.24,260623,,,D,V*0B
$GPHDT,,T*1B
$GNACCURACY,2.6*12
$GNGGA,112320.600,2500.8140400,N,12132.4736800,E,2,64,0.42,22.87,M,15.25,M,8,3335*71
$GNRMC,112320.600,A,2500.8140400,N,12132.4736800,E,0.01,234.24,260623,,,D,V*08
$GPHDT,,T*1B
$GNACCURACY,2.6*12
$GNGGA,112320.700,2500.8140400,N,12132.4736800,E,2,64,0.42,22.88,M,15.25,M,8,3335*7F
$GNRMC,112320.700,A,2500.8140400,N,12132.4736800,E,0.01,234.24,260623,,,D,V*09
$GPHDT,,T*1B
$GNACCURACY,2.5*11
$GNGGA,112320.800,2500.8140300,N,12132.4736800,E,2,64,0.42,22.89,M,15.25,M,8,3335*76
$GNRMC,112320.800,A,2500.8140300,N,12132.4736800,E,0.01,234.24,260623,,,D,V*01
$GPHDT,,T*1B
$GNACCURACY,2.5*11
$GNGGA,112320.900,2500.8140300,N,12132.4736800,E,2,64,0.42,22.89,M,15.25,M,8,3335*77
$GNRMC,112320.900,A,2500.8140300,N,12132.4736800,E,0.01,234.24,260623,,,D,V*00
$GPHDT,,T*1B
$GNACCURACY,2.5*11
$GNGGA,112321.000,2500.8140400,N,12132.4736800,E,2,64,0.42,22.90,M,15.25,M,9,3335*71
$GNRMC,112321.000,A,2500.8140400,N,12132.4736800,E,0.01,234.24,260623,,,D,V*0F
$GPHDT,,T*1B
