$FW : RTK35X,V1.1X0314AS,Lib20210517,1*54
$Tool : LOCOSYS , GNSS Firebird , v1.0.0.19*39
$---------------------------------------------------*2D
$GNACCURACY,2.8*1C
$GNGGA,112530.600,2500.8128600,N,12132.4725000,E,2,66,0.42,17.41,M,15.25,M,40,3335*42
$GNRMC,112530.600,A,2500.8128600,N,12132.4725000,E,0.01,234.24,260623,,,D,V*09
$GPHDT,,T*1B
$GNACCURACY,2.8*1C
$GNGGA,112530.700,2500.8128500,N,12132.4725200,E,2,66,0.42,17.41,M,15.25,M,40,3335*42
$GNRMC,112530.700,A,2500.8128500,N,12132.4725200,E,0.01,234.24,260623,,,D,V*09
$GPHDT,,T*1B
$GNACCURACY,2.9*1D
$GNGGA,112530.800,2500.8128400,N,12132.4725300,E,2,65,0.42,17.41,M,15.25,M,40,3335*4E
$GNRMC,112530.800,A,2500.8128400,N,12132.4725300,E,0.01,234.24,260623,,,D,V*06
$GPHDT,,T*1B
$GNACCURACY,2.7*13
$GNGGA,112530.900,2500.8128400,N,12132.4725500,E,2,65,0.42,17.42,M,15.25,M,40,3335*4A
$GNRMC,112530.900,A,2500.8128400,N,12132.4725500,E,0.01,234.24,260623,,,D,V*01
$GPHDT,,T*1B
$GNACCURACY,2.7*13
$GNGGA,112531.000,2500.8128300,N,12132.4725600,E,2,65,0.42,17.42,M,15.25,M,41,3335*47
$GNRMC,112531.000,A,2500.8128300,N,12132.4725600,E,0.01,234.24,260623,,,D,V*0D
$GPHDT,,T*1B
$GNACCURACY,2.7*13
$GNGGA,112531.100,2500.8128300,N,12132.4725700,E,2,65,0.42,17.42,M,15.25,M,41,3335*47
$GNRMC,112531.100,A,2500.8128300,N,12132.4725700,E,0.01,234.24,260623,,,D,V*0D
$GPHDT,,T*1B
$GNGSA,A,3,196,24,199,18,23,15,195,194,12,05,10,,0.76,0.42,0.63,1*00
$GNGSA,A,3,80,73,85,86,71,69,79,,,,,,0.76,0.42,0.63,2*08
$GNGSA,A,3,13,08,07,26,02,30,15,03,,,,,0.76,0.42,0.63,3*0E
$GNGSA,A,3,38,08,39,13,16,06,46,09,19,36,37,35,0.76,0.42,0.63,4*08
$GNGSA,A,3,29,22,20,,,,,,,,,,0.76,0.42,0.63,4*0F
$GPGSV,4,1,16,196,75,064,41,24,74,044,46,199,60,167,24,18,59,247,33,1*6F
$GPGSV,4,2,16,23,50,338,29,41,38,242,38,15,37,046,42,195,34,180,20,1*56
$GPGSV,4,3,16,194,30,139,41,12,20,142,40,05,19,118,34,10,18,318,33,1*57
$GPGSV,4,4,16,25,09,176,,13,09,056,16,32,09,269,36,29,01,197,,1*67
$GPGSV,3,1,09,196,75,064,45,24,74,044,50,199,60,167,42,18,59,247,36,8*69
$GPGSV,3,2,09,23,50,338,35,195,34,180,27,194,30,139,33,10,18,318,32,8*6E
$GPGSV,3,3,09,32,09,269,32,8*50
$GLGSV,2,1,08,80,48,077,44,70,40,009,,73,38,159,29,85,36,247,37,1*79
$GLGSV,2,2,08,86,27,302,36,71,21,313,45,69,13,073,24,79,12,032,18,1*70
$GAGSV,3,1,09,13,57,232,34,08,47,025,17,07,44,303,42,26,32,307,44,7*76
$GAGSV,3,2,09,02,26,086,37,30,25,144,37,15,23,174,19,03,10,064,18,7*70
$GAGSV,3,3,09,25,03,043,,7*49
$GAGSV,2,1,08,13,57,232,36,08,47,025,34,07,44,303,43,26,32,307,39,1*78
$GAGSV,2,2,08,02,26,086,36,30,25,144,40,15,23,174,21,03,10,064,14,1*70
$GBGSV,4,1,15,38,83,108,29,08,79,004,37,39,71,282,33,13,68,334,40,1*7B
$GBGSV,4,2,15,16,66,257,39,06,65,253,33,46,59,113,44,09,49,238,20,1*7A
$GBGSV,4,3,15,19,49,344,32,20,43,062,,36,34,184,26,37,23,048,28,1*7B
$GBGSV,4,4,15,35,21,269,36,29,19,212,29,22,11,301,37,1*40
$GBGSV,3,1,09,38,83,108,33,39,71,282,37,46,59,113,40,19,49,344,26,4*7A
$GBGSV,3,2,09,20,43,062,30,36,34,184,23,35,21,269,36,29,19,212,24,4*7E
$GBGSV,3,3,09,22,11,301,30,4*4B
$GNACCURACY,2.7*13
$PAIRSAT,1,35,1,0,200,2,0,200,3,0,200,4,0,200,5,0,201,6,0,200,7,0,200,8,0,200,9,0,200,10,0,221,11,0,200,12,0,201,13,0,201,14,0,200,15,0,201,16,0,200,17,0,200,18,0,221,19,0,200,20,0,200,21,0,200,23,0,221,24,0,221,25,0,200,26,0,200,27,0,200,28,0,200,29,0,200,30,0,200,31,0,200,32,0,221,194,0,621,195,0,621,196,0,620,199,0,621*68
$PAIRSAT,2,23,65,0,200,67,0,200,68,0,200,69,0,201,70,0,201,71,0,201,72,0,200,73,0,201,74,0,200,75,0,200,76,0,200,77,0,200,78,0,200,79,0,201,80,0,201,81,0,200,82,0,200,83,0,200,84,0,200,85,0,201,86,0,201,87,0,200,88,0,200*53
$PAIRSAT,3,23,2,0,1221,3,0,1221,4,0,1200,5,0,200,7,0,1221,8,0,1221,9,0,1200,10,0,1200,11,0,1200,12,0,1200,13,0,1221,15,0,1221,19,0,1200,21,0,1200,24,0,1200,25,0,1200,26,0,1221,27,0,1200,30,0,1221,31,0,1200,33,0,1200,34,0,1200,36,0,1200*6A
$PAIRSAT,4,50,1,0,200,2,0,200,3,0,200,4,0,200,5,0,200,6,0,201,7,0,200,8,0,201,9,0,201,10,0,200,11,0,200,12,0,200,13,0,201,14,0,200,15,0,200,16,0,201,19,0,621,20,0,621,21,0,600,22,0,621,23,0,600,24,0,600,25,0,600,26,0,600,27,0,600,28,0,600,29,0,621,30,0,600,31,0,200,32,0,600,33,0,600,34,0,600,35,0,621,36,0,621,37,0,621,38,0,621,39,0,621,40,0,600,41,0,600,42,0,600,43,0,600,44,0,600,45,0,600,46,0,621,56,0,200,57,0,200,58,0,200,59,0,600,60,0,600,61,0,600*41
$PAIRDGP,11,5,10,12,13,15,18,23,24,25,29,32*6B
$GNGGA,112531.200,2500.8128200,N,12132.4725800,E,2,65,0.42,17.42,M,15.25,M,41,3335*4A
$GNRMC,112531.200,A,2500.8128200,N,12132.4725800,E,0.01,234.24,260623,,,D,V*00
$GPHDT,,T*1B
$GNACCURACY,2.7*13
$GNGGA,112531.300,2500.8128200,N,12132.4725900,E,2,65,0.42,17.42,M,15.25,M,41,3335*4A
$GNRMC,112531.300,A,2500.8128200,N,12132.4725900,E,0.02,234.24,260623,,,D,V*03
$GPHDT,,T*1B
$GNACCURACY,2.7*13
$GNGGA,112531.400,2500.8128200,N,12132.4726000,E,2,65,0.42,17.42,M,15.25,M,41,3335*47
$GNRMC,112531.400,A,2500.8128200,N,12132.4726000,E,0.02,234.24,260623,,,D,V*0E
$GPHDT,,T*1B
$GNACCURACY,2.7*13
$GNGGA,112531.500,2500.8128200,N,12132.4726100,E,2,65,0.42,17.42,M,15.25,M,41,3335*47
$GNRMC,112531.500,A,2500.8128200,N,12132.4726100,E,0.02,234.24,260623,,,D,V*0E
$GPHDT,,T*1B
$GNACCURACY,2.7*13
$GNGGA,112531.600,2500.8128200,N,12132.4726200,E,2,65,0.42,17.42,M,15.25,M,41,3335*47
$GNRMC,112531.600,A,2500.8128200,N,12132.4726200,E,0.02,234.24,260623,,,D,V*0E
$GPHDT,,T*1B
$GNACCURACY,2.7*13
$GNGGA,112531.700,2500.8128200,N,12132.4726200,E,2,65,0.42,17.42,M,15.25,M,41,3335*46
$GNRMC,112531.700,A,2500.8128200,N,12132.4726200,E,0.02,234.24,260623,,,D,V*0F
$GPHDT,,T*1B
$GNACCURACY,2.7*13
$GNGGA,112531.800,2500.8128200,N,12132.4726400,E,2,65,0.42,17.42,M,15.25,M,41,3335*4F
$GNRMC,112531.800,A,2500.8128200,N,12132.4726400,E,0.02,234.24,260623,,,D,V*06
$GPHDT,,T*1B
$GNACCURACY,2.7*13
$GNGGA,112531.900,2500.8128200,N,12132.4726400,E,2,65,0.42,17.42,M,15.25,M,41,3335*4E
$GNRMC,112531.900,A,2500.8128200,N,12132.4726400,E,0.02,234.24,260623,,,D,V*07
$GPHDT,,T*1B
$GNACCURACY,2.7*13
$GNGGA,112532.000,2500.8128200,N,12132.4726500,E,2,65,0.42,17.42,M,15.25,M,42,3335*46
$GNRMC,112532.000,A,2500.8128200,N,12132.4726500,E,0.02,234.24,260623,,,D,V*0C
$GPHDT,,T*1B
$GNACCURACY,2.9*1D
$GNGGA,112532.100,2500.8128200,N,12132.4726600,E,2,65,0.42,17.43,M,15.25,M,42,3335*45
$GNRMC,112532.100,A,2500.8128200,N,12132.4726600,E,0.02,234.24,260623,,,D,V*0E
$GPHDT,,T*1B
$GNGSA,A,3,196,24,199,18,23,15,195,194,12,05,10,,0.76,0.42,0.63,1*00
$GNGSA,A,3,80,73,85,86,71,69,79,,,,,,0.76,0.42,0.63,2*08
$GNGSA,A,3,13,08,07,26,02,30,15,03,,,,,0.76,0.42,0.63,3*0E
$GNGSA,A,3,38,08,39,13,16,06,46,09,19,36,37,35,0.76,0.42,0.63,4*08
$GNGSA,A,3,29,22,20,,,,,,,,,,0.76,0.42,0.63,4*0F
$GPGSV,4,1,16,196,75,064,41,24,74,044,46,199,60,167,25,18,59,247,35,1*68
$GPGSV,4,2,16,23,50,338,30,41,38,242,38,15,37,046,43,195,34,180,22,1*5D
$GPGSV,4,3,16,194,30,139,41,12,20,142,40,05,19,118,34,10,18,318,35,1*51
$GPGSV,4,4,16,25,09,176,,13,09,056,17,32,09,269,35,29,01,197,,1*65
$GPGSV,3,1,09,196,75,064,45,24,74,044,50,199,60,167,42,18,59,247,35,8*6A
$GPGSV,3,2,09,23,50,338,36,195,34,180,27,194,30,139,30,10,18,318,31,8*6D
$GPGSV,3,3,09,32,09,269,29,8*5A
$GLGSV,3,1,09,80,48,077,44,70,40,009,,73,38,159,31,85,36,247,37,1*70
$GLGSV,3,2,09,86,27,302,36,71,21,313,45,69,13,073,24,79,12,032,18,1*70
$GLGSV,3,3,09,84,09,190,,1*4C
$GAGSV,2,1,08,13,57,232,34,08,47,025,18,07,44,303,43,26,32,307,43,7*7F
$GAGSV,2,2,08,02,26,086,37,30,25,144,36,15,23,174,19,03,10,064,17,7*7E
$GAGSV,2,1,08,13,57,232,35,08,47,025,36,07,44,303,43,26,32,307,40,1*77
$GAGSV,2,2,08,02,26,086,36,30,25,144,40,15,23,174,19,03,10,064,12,1*7D
$GBGSV,4,1,15,38,83,108,26,08,79,004,36,39,71,282,33,13,68,334,40,1*75
$GBGSV,4,2,15,16,66,257,39,06,65,253,33,46,59,113,44,09,50,238,20,1*72
$GBGSV,4,3,15,19,49,344,31,20,43,062,,36,34,184,28,37,23,048,29,1*77
$GBGSV,4,4,15,35,21,269,36,29,19,212,28,22,11,301,36,1*40
$GBGSV,3,1,09,38,83,108,33,39,71,282,37,46,59,113,41,19,49,344,24,4*79
$GBGSV,3,2,09,20,43,062,30,36,34,184,25,35,21,269,37,29,19,212,23,4*7E
$GBGSV,3,3,09,22,11,301,26,4*4C
$GNACCURACY,2.7*13
$PAIRSAT,1,35,1,0,200,2,0,200,3,0,200,4,0,200,5,0,201,6,0,200,7,0,200,8,0,200,9,0,200,10,0,221,11,0,200,12,0,201,13,0,201,14,0,200,15,0,201,16,0,200,17,0,200,18,0,221,19,0,200,20,0,200,21,0,200,23,0,221,24,0,221,25,0,200,26,0,200,27,0,200,28,0,200,29,0,200,30,0,200,31,0,200,32,0,221,194,0,621,195,0,621,196,0,620,199,0,621*68
$PAIRSAT,2,23,65,0,200,67,0,200,68,0,200,69,0,201,70,0,201,71,0,201,72,0,200,73,0,201,74,0,200,75,0,200,76,0,200,77,0,200,78,0,200,79,0,201,80,0,201,81,0,200,82,0,200,83,0,200,84,0,200,85,0,201,86,0,201,87,0,200,88,0,200*53
$PAIRSAT,3,23,2,0,1221,3,0,1221,4,0,1200,5,0,200,7,0,1221,8,0,1221,9,0,1200,10,0,1200,11,0,1200,12,0,1200,13,0,1221,15,0,1221,19,0,1200,21,0,1200,24,0,1200,25,0,1200,26,0,1221,27,0,1200,30,0,1221,31,0,1200,33,0,1200,34,0,1200,36,0,1200*6A
$PAIRSAT,4,50,1,0,200,2,0,200,3,0,200,4,0,200,5,0,200,6,0,201,7,0,200,8,0,201,9,0,201,10,0,200,11,0,200,12,0,200,13,0,201,14,0,200,15,0,200,16,0,201,19,0,621,20,0,621,21,0,600,22,0,621,23,0,600,24,0,600,25,0,600,26,0,600,27,0,600,28,0,600,29,0,621,30,0,600,31,0,200,32,0,600,33,0,600,34,0,600,35,0,621,36,0,621,37,0,621,38,0,621,39,0,621,40,0,600,41,0,600,42,0,600,43,0,600,44,0,600,45,0,600,46,0,621,56,0,200,57,0,200,58,0,200,59,0,600,60,0,600,61,0,600*41
$PAIRDGP,11,5,10,12,13,15,18,23,24,25,29,32*6B
$GNGGA,112532.200,2500.8128200,N,12132.4726700,E,2,65,0.42,17.42,M,15.25,M,42,3335*46
$GNRMC,112532.200,A,2500.8128200,N,12132.4726700,E,0.02,234.24,260623,,,D,V*0C
$GPHDT,,T*1B
$GNACCURACY,2.7*13
$GNGGA,112532.300,2500.8128300,N,12132.4726800,E,2,65,0.42,17.42,M,15.25,M,42,3335*49
$GNRMC,112532.300,A,2500.8128300,N,12132.4726800,E,0.02,234.24,260623,,,D,V*03
$GPHDT,,T*1B
$GNACCURACY,2.7*13
$GNGGA,112532.400,2500.8128300,N,12132.4726900,E,2,65,0.42,17.42,M,15.25,M,42,3335*4F
$GNRMC,112532.400,A,2500.8128300,N,12132.4726900,E,0.02,234.24,260623,,,D,V*05
$GPHDT,,T*1B
$GNACCURACY,2.7*13
$GNGGA,112532.500,2500.8128300,N,12132.4727000,E,2,65,0.42,17.42,M,15.25,M,42,3335*46
$GNRMC,112532.500,A,2500.8128300,N,12132.4727000,E,0.02,234.24,260623,,,D,V*0C
$GPHDT,,T*1B
$GNACCURACY,2.7*13
$GNGGA,112532.600,2500.8128300,N,12132.4727100,E,2,65,0.42,17.42,M,15.25,M,42,3335*44
$GNRMC,112532.600,A,2500.8128300,N,12132.4727100,E,0.02,234.24,260623,,,D,V*0E
$GPHDT,,T*1B
$GNACCURACY,2.7*13
$GNGGA,112532.700,2500.8128300,N,12132.4727300,E,2,65,0.42,17.41,M,15.25,M,42,3335*44
$GNRMC,112532.700,A,2500.8128300,N,12132.4727300,E,0.02,234.24,260623,,,D,V*0D
$GPHDT,,T*1B
$GNACCURACY,2.7*13
$GNGGA,112532.800,2500.8128300,N,12132.4727300,E,2,65,0.42,17.42,M,15.25,M,42,3335*48
$GNRMC,112532.800,A,2500.8128300,N,12132.4727300,E,0.02,234.24,260623,,,D,V*02
$GPHDT,,T*1B
$GNACCURACY,2.7*13
$GNGGA,112532.900,2500.8128300,N,12132.4727400,E,2,65,0.42,17.42,M,15.25,M,42,3335*4E
$GNRMC,112532.900,A,2500.8128300,N,12132.4727400,E,0.02,234.24,260623,,,D,V*04
$GPHDT,,T*1B
$GNACCURACY,2.7*13
$GNGGA,112533.000,2500.8128300,N,12132.4727500,E,2,65,0.42,17.42,M,15.25,M,43,3335*46
$GNRMC,112533.000,A,2500.8128300,N,12132.4727500,E,0.02,234.24,260623,,,D,V*0D
$GPHDT,,T*1B
$GNACCURACY,2.7*13
$GNGGA,112533.100,2500.8128400,N,12132.4727600,E,2,65,0.42,17.42,M,15.25,M,43,3335*43
$GNRMC,112533.100,A,2500.8128400,N,12132.4727600,E,0.02,234.24,260623,,,D,V*08
$GPHDT,,T*1B
$GNGSA,A,3,196,24,199,18,23,15,195,194,12,05,10,,0.76,0.42,0.63,1*00
$GNGSA,A,3,80,73,85,86,71,69,79,,,,,,0.76,0.42,0.63,2*08
$GNGSA,A,3,13,08,07,26,02,30,15,03,,,,,0.76,0.42,0.63,3*0E
$GNGSA,A,3,38,08,39,13,16,06,46,09,19,36,37,35,0.76,0.42,0.63,4*08
$GNGSA,A,3,29,22,20,,,,,,,,,,0.76,0.42,0.63,4*0F
$GPGSV,4,1,16,196,75,064,41,24,74,044,46,199,60,167,23,18,59,247,33,1*68
$GPGSV,4,2,16,23,50,338,29,41,38,242,38,15,37,046,43,195,34,180,22,1*55
$GPGSV,4,3,16,194,30,139,41,12,20,142,40,05,19,118,34,10,18,318,35,1*51
$GPGSV,4,4,16,25,09,176,,13,09,056,15,32,09,269,35,29,01,197,,1*67
$GPGSV,3,1,09,196,75,064,45,24,74,044,50,199,60,167,42,18,59,247,35,8*6A
$GPGSV,3,2,09,23,50,338,36,195,34,180,29,194,30,139,32,10,18,318,32,8*62
$GPGSV,3,3,09,32,09,269,29,8*5A
$GLGSV,3,1,10,80,48,077,44,70,40,009,,73,38,159,31,85,36,247,37,1*78
$GLGSV,3,2,10,86,27,302,35,71,21,313,45,69,13,073,24,79,12,032,19,1*7A
$GLGSV,3,3,10,84,09,190,,74,02,187,,1*7B
$GAGSV,3,1,09,13,57,232,35,08,47,025,24,07,44,303,43,26,32,307,43,7*71
$GAGSV,3,2,09,02,26,086,37,30,25,144,36,15,23,174,20,03,10,064,17,7*74
$GAGSV,3,3,09,25,03,043,,7*49
$GAGSV,2,1,08,13,57,232,35,08,47,025,37,07,44,303,44,26,32,307,40,1*71
$GAGSV,2,2,08,02,26,086,36,30,25,144,40,15,23,174,19,03,10,064,12,1*7D
$GBGSV,4,1,15,38,83,108,26,08,79,004,36,39,71,282,33,13,68,334,40,1*75
$GBGSV,4,2,15,16,66,257,39,06,65,253,33,46,59,113,44,09,50,238,20,1*72
$GBGSV,4,3,15,19,49,344,31,20,43,062,,36,34,184,29,37,23,048,28,1*77
$GBGSV,4,4,15,35,21,269,36,29,19,212,28,22,11,301,36,1*40
$GBGSV,3,1,09,38,83,108,35,39,71,282,37,46,59,113,41,19,49,344,22,4*79
$GBGSV,3,2,09,20,43,062,30,36,34,184,25,35,21,269,37,29,19,212,22,4*7F
$GBGSV,3,3,09,22,11,301,29,4*43
$GNACCURACY,2.7*13
$PAIRSAT,1,35,1,0,200,2,0,200,3,0,200,4,0,200,5,0,201,6,0,200,7,0,200,8,0,200,9,0,200,10,0,221,11,0,200,12,0,201,13,0,201,14,0,200,15,0,201,16,0,200,17,0,200,18,0,221,19,0,200,20,0,200,21,0,200,23,0,221,24,0,221,25,0,200,26,0,200,27,0,200,28,0,200,29,0,200,30,0,200,31,0,200,32,0,221,194,0,621,195,0,621,196,0,620,199,0,621*68
$PAIRSAT,2,23,65,0,200,67,0,200,68,0,200,69,0,201,70,0,201,71,0,201,72,0,200,73,0,201,74,0,200,75,0,200,76,0,200,77,0,200,78,0,200,79,0,201,80,0,201,81,0,200,82,0,200,83,0,200,84,0,200,85,0,201,86,0,201,87,0,200,88,0,200*53
$PAIRSAT,3,23,2,0,1221,3,0,1221,4,0,1200,5,0,200,7,0,1221,8,0,1221,9,0,1200,10,0,1200,11,0,1200,12,0,1200,13,0,1221,15,0,1221,19,0,1200,21,0,1200,24,0,1200,25,0,1200,26,0,1221,27,0,1200,30,0,1221,31,0,1200,33,0,1200,34,0,1200,36,0,1200*6A
$PAIRSAT,4,50,1,0,200,2,0,200,3,0,200,4,0,200,5,0,200,6,0,201,7,0,200,8,0,201,9,0,201,10,0,200,11,0,200,12,0,200,13,0,201,14,0,200,15,0,200,16,0,201,19,0,621,20,0,621,21,0,600,22,0,621,23,0,600,24,0,600,25,0,600,26,0,600,27,0,600,28,0,600,29,0,621,30,0,600,31,0,200,32,0,600,33,0,600,34,0,600,35,0,621,36,0,621,37,0,621,38,0,621,39,0,621,40,0,600,41,0,600,42,0,600,43,0,600,44,0,600,45,0,600,46,0,621,56,0,200,57,0,200,58,0,200,59,0,600,60,0,600,61,0,600*41
$PAIRDGP,11,5,10,12,13,15,18,23,24,25,29,32*6B
$GNGGA,112533.200,2500.8128400,N,12132.4727700,E,2,65,0.42,17.42,M,15.25,M,43,3335*41
$GNRMC,112533.200,A,2500.8128400,N,12132.4727700,E,0.02,234.24,260623,,,D,V*0A
$GPHDT,,T*1B
$GNACCURACY,2.7*13
$GNGGA,112533.300,2500.8128400,N,12132.4727900,E,2,65,0.42,17.42,M,15.25,M,1,3335*78
$GNRMC,112533.300,A,2500.8128400,N,12132.4727900,E,0.02,234.24,260623,,,D,V*05
$GPHDT,,T*1B
$GNACCURACY,2.9*1D
$GNGGA,112533.400,2500.8128500,N,12132.4727900,E,2,65,0.42,17.43,M,15.25,M,1,3335*7F
$GNRMC,112533.400,A,2500.8128500,N,12132.4727900,E,0.02,234.24,260623,,,D,V*03
$GPHDT,,T*1B
$GNACCURACY,2.7*13
$GNGGA,112533.500,2500.8128600,N,12132.4728000,E,2,65,0.42,17.43,M,15.25,M,1,3335*7B
$GNRMC,112533.500,A,2500.8128600,N,12132.4728000,E,0.02,234.24,260623,,,D,V*07
$GPHDT,,T*1B
$GNACCURACY,2.7*13
$GNGGA,112533.600,2500.8128600,N,12132.4728100,E,2,65,0.42,17.43,M,15.25,M,1,3335*79
$GNRMC,112533.600,A,2500.8128600,N,12132.4728100,E,0.02,234.24,260623,,,D,V*05
$GPHDT,,T*1B
$GNACCURACY,2.7*13
$GNGGA,112533.700,2500.8128600,N,12132.4728200,E,2,65,0.42,17.43,M,15.25,M,1,3335*7B
$GNRMC,112533.700,A,2500.8128600,N,12132.4728200,E,0.02,234.24,260623,,,D,V*07
$GPHDT,,T*1B
$GNACCURACY,2.7*13
$GNGGA,112533.800,2500.8128600,N,12132.4728300,E,2,65,0.42,17.44,M,15.25,M,1,3335*72
$GNRMC,112533.800,A,2500.8128600,N,12132.4728300,E,0.02,234.24,260623,,,D,V*09
$GPHDT,,T*1B
$GNACCURACY,2.7*13
$GNGGA,112533.900,2500.8128700,N,12132.4728500,E,2,65,0.42,17.44,M,15.25,M,1,3335*74
$GNRMC,112533.900,A,2500.8128700,N,12132.4728500,E,0.02,234.24,260623,,,D,V*0F
$GPHDT,,T*1B
$GNACCURACY,2.7*13
$GNGGA,112534.000,2500.8128700,N,12132.4728600,E,2,65,0.42,17.45,M,15.25,M,2,3335*7B
$GNRMC,112534.000,A,2500.8128700,N,12132.4728600,E,0.02,234.24,260623,,,D,V*02
$GPHDT,,T*1B
$GNACCURACY,2.7*13
$GNGGA,112534.100,2500.8128700,N,12132.4728700,E,2,65,0.42,17.45,M,15.25,M,2,3335*7B
$GNRMC,112534.100,A,2500.8128700,N,12132.4728700,E,0.02,234.24,260623,,,D,V*02
$GPHDT,,T*1B
$GNGSA,A,3,196,24,199,18,23,15,195,194,12,05,10,,0.76,0.42,0.63,1*00
$GNGSA,A,3,80,73,85,86,71,69,79,,,,,,0.76,0.42,0.63,2*08
$GNGSA,A,3,13,08,07,26,02,30,15,03,,,,,0.76,0.42,0.63,3*0E
$GNGSA,A,3,38,08,39,13,16,06,46,09,19,36,37,35,0.76,0.42,0.63,4*08
$GNGSA,A,3,29,22,20,,,,,,,,,,0.76,0.42,0.63,4*0F
$GPGSV,4,1,16,196,75,064,41,24,74,044,46,199,60,167,23,18,59,247,33,1*68
$GPGSV,4,2,16,23,50,338,28,41,38,242,39,15,37,046,43,195,34,180,22,1*55
$GPGSV,4,3,16,194,30,139,41,12,20,142,40,05,19,118,33,10,18,318,35,1*56
$GPGSV,4,4,16,25,09,176,,13,09,056,17,32,09,269,35,29,01,197,,1*65
$GPGSV,3,1,09,196,75,064,44,24,74,044,50,199,60,167,42,18,59,247,35,8*6B
$GPGSV,3,2,09,23,50,338,34,195,34,180,29,194,30,139,32,10,18,318,31,8*63
$GPGSV,3,3,09,32,09,269,29,8*5A
$GLGSV,3,1,09,80,48,077,44,70,40,009,,73,38,159,32,85,36,247,37,1*73
$GLGSV,3,2,09,86,27,302,35,71,21,313,45,69,13,073,25,79,12,032,20,1*79
$GLGSV,3,3,09,84,09,190,,1*4C
$GAGSV,3,1,09,13,57,232,34,08,47,025,24,07,44,303,43,26,32,307,43,7*70
$GAGSV,3,2,09,02,26,086,37,30,25,144,36,15,23,174,21,03,10,064,18,7*7A
$GAGSV,3,3,09,25,03,043,,7*49
$GAGSV,2,1,08,13,57,232,36,08,47,025,37,07,44,303,44,26,32,307,40,1*72
$GAGSV,2,2,08,02,26,086,35,30,25,144,40,15,23,174,18,03,10,064,12,1*7F
$GBGSV,4,1,15,38,83,108,27,08,79,004,36,39,71,282,33,13,68,334,40,1*74
$GBGSV,4,2,15,16,66,257,39,06,65,253,34,46,59,113,44,09,50,238,21,1*74
$GBGSV,4,3,15,19,49,344,31,20,43,062,,36,35,184,29,37,23,048,27,1*79
$GBGSV,4,4,15,35,21,269,33,29,19,212,27,22,11,301,37,1*4B
$GBGSV,3,1,09,38,83,108,35,39,71,282,37,46,59,113,41,19,49,344,18,4*70
$GBGSV,3,2,09,20,43,062,30,36,35,184,24,35,21,269,37,29,19,212,22,4*7F
$GBGSV,3,3,09,22,11,301,26,4*4C
$GNACCURACY,2.7*13
$PAIRSAT,1,35,1,0,200,2,0,200,3,0,200,4,0,200,5,0,201,6,0,200,7,0,200,8,0,200,9,0,200,10,0,221,11,0,200,12,0,201,13,0,201,14,0,200,15,0,201,16,0,200,17,0,200,18,0,221,19,0,200,20,0,200,21,0,200,23,0,221,24,0,221,25,0,200,26,0,200,27,0,200,28,0,200,29,0,200,30,0,200,31,0,200,32,0,221,194,0,621,195,0,621,196,0,620,199,0,621*68
$PAIRSAT,2,23,65,0,200,67,0,200,68,0,200,69,0,201,70,0,201,71,0,201,72,0,200,73,0,201,74,0,200,75,0,200,76,0,200,77,0,200,78,0,200,79,0,201,80,0,201,81,0,200,82,0,200,83,0,200,84,0,200,85,0,201,86,0,201,87,0,200,88,0,200*53
$PAIRSAT,3,23,2,0,1221,3,0,1221,4,0,1200,5,0,200,7,0,1221,8,0,1221,9,0,1200,10,0,1200,11,0,1200,12,0,1200,13,0,1221,15,0,1221,19,0,1200,21,0,1200,24,0,1200,25,0,1200,26,0,1221,27,0,1200,30,0,1221,31,0,1200,33,0,1200,34,0,1200,36,0,1200*6A
$PAIRSAT,4,50,1,0,200,2,0,200,3,0,200,4,0,200,5,0,200,6,0,201,7,0,200,8,0,201,9,0,201,10,0,200,11,0,200,12,0,200,13,0,201,14,0,200,15,0,200,16,0,201,19,0,621,20,0,621,21,0,600,22,0,621,23,0,600,24,0,600,25,0,600,26,0,600,27,0,600,28,0,600,29,0,621,30,0,600,31,0,200,32,0,600,33,0,600,34,0,600,35,0,621,36,0,621,37,0,621,38,0,621,39,0,621,40,0,600,41,0,600,42,0,600,43,0,600,44,0,600,45,0,600,46,0,621,56,0,200,57,0,200,58,0,200,59,0,600,60,0,600,61,0,600*41
$PAIRDGP,11,5,10,12,13,15,18,23,24,25,29,32*6B
$GNGGA,112534.200,2500.8128800,N,12132.4728800,E,2,65,0.42,17.46,M,15.25,M,2,3335*7B
$GNRMC,112534.200,A,2500.8128800,N,12132.4728800,E,0.02,234.24,260623,,,D,V*01
$GPHDT,,T*1B
$GNACCURACY,2.7*13
$GNGGA,112534.300,2500.8128900,N,12132.4728900,E,2,64,0.42,17.46,M,15.25,M,2,3335*7B
$GNRMC,112534.300,A,2500.8128900,N,12132.4728900,E,0.02,234.24,260623,,,D,V*00
$GPHDT,,T*1B
$GNACCURACY,2.7*13
$GNGGA,112534.400,2500.8128900,N,12132.4729000,E,2,64,0.42,17.46,M,15.25,M,2,3335*74
$GNRMC,112534.400,A,2500.8128900,N,12132.4729000,E,0.02,234.24,260623,,,D,V*0F
$GPHDT,,T*1B
$GNACCURACY,2.7*13
$GNGGA,112534.500,2500.8129000,N,12132.4729100,E,2,64,0.42,17.46,M,15.25,M,2,3335*7C
$GNRMC,112534.500,A,2500.8129000,N,12132.4729100,E,0.02,234.24,260623,,,D,V*07
$GPHDT,,T*1B
$GNACCURACY,2.7*13
$GNGGA,112534.600,2500.8129000,N,12132.4729200,E,2,64,0.42,17.47,M,15.25,M,2,3335*7D
$GNRMC,112534.600,A,2500.8129000,N,12132.4729200,E,0.02,234.24,260623,,,D,V*07
$GPHDT,,T*1B
$GNACCURACY,2.9*1D
$GNGGA,112534.700,2500.8129200,N,12132.4729300,E,2,64,0.42,17.47,M,15.25,M,2,3335*7F
$GNRMC,112534.700,A,2500.8129200,N,12132.4729300,E,0.02,234.24,260623,,,D,V*05
$GPHDT,,T*1B
$GNACCURACY,2.7*13
$GNGGA,112534.800,2500.8129200,N,12132.4729400,E,2,64,0.42,17.48,M,15.25,M,2,3335*78
$GNRMC,112534.800,A,2500.8129200,N,12132.4729400,E,0.02,234.24,260623,,,D,V*0D
$GPHDT,,T*1B
$GNACCURACY,2.7*13
$GNGGA,112534.900,2500.8129300,N,12132.4729500,E,2,64,0.42,17.48,M,15.25,M,2,3335*79
$GNRMC,112534.900,A,2500.8129300,N,12132.4729500,E,0.02,234.24,260623,,,D,V*0C
$GPHDT,,T*1B
$GNACCURACY,2.7*13
$GNGGA,112535.000,2500.8129300,N,12132.4729600,E,2,64,0.42,17.48,M,15.25,M,3,3335*73
$GNRMC,112535.000,A,2500.8129300,N,12132.4729600,E,0.02,234.24,260623,,,D,V*07
$GPHDT,,T*1B
$GNACCURACY,2.7*13
$GNGGA,112535.100,2500.8129300,N,12132.4729700,E,2,64,0.42,17.49,M,15.25,M,3,3335*72
$GNRMC,112535.100,A,2500.8129300,N,12132.4729700,E,0.02,234.24,260623,,,D,V*07
$GPHDT,,T*1B
$GNGSA,A,3,196,24,199,18,23,15,195,194,12,05,10,,0.76,0.42,0.63,1*00
$GNGSA,A,3,80,73,85,86,71,69,79,,,,,,0.76,0.42,0.63,2*08
$GNGSA,A,3,13,08,07,26,02,30,15,03,,,,,0.76,0.42,0.63,3*0E
$GNGSA,A,3,38,08,39,13,16,06,46,09,19,36,37,35,0.76,0.42,0.63,4*08
$GNGSA,A,3,29,22,20,,,,,,,,,,0.76,0.42,0.63,4*0F
$GPGSV,4,1,16,196,75,064,41,24,74,044,46,199,60,167,23,18,59,247,33,1*68
$GPGSV,4,2,16,23,50,338,28,41,38,242,39,15,37,046,43,195,34,180,22,1*55
$GPGSV,4,3,16,194,30,139,41,12,20,142,40,05,19,118,33,10,18,318,36,1*55
$GPGSV,4,4,16,25,09,176,,13,09,056,17,32,09,269,35,29,01,197,,1*65
$GPGSV,3,1,09,196,75,064,44,24,74,044,50,199,60,167,42,18,59,247,35,8*6B
$GPGSV,3,2,09,23,50,338,34,195,34,180,29,194,30,139,32,10,18,318,32,8*60
$GPGSV,3,3,09,32,09,269,29,8*5A
$GLGSV,3,1,09,80,48,077,44,70,40,009,,73,38,159,32,85,36,247,37,1*73
$GLGSV,3,2,09,86,27,302,35,71,21,313,45,69,13,073,25,79,12,032,20,1*79
$GLGSV,3,3,09,84,09,190,,1*4C
$GAGSV,3,1,09,13,57,232,34,08,47,025,25,07,44,303,43,26,32,307,43,7*71
$GAGSV,3,2,09,02,26,086,37,30,25,144,36,15,23,174,21,03,10,064,17,7*75
$GAGSV,3,3,09,25,03,043,,7*49
$GAGSV,2,1,07,13,57,232,35,08,47,025,37,07,44,303,44,26,32,307,40,1*7E
$GAGSV,2,2,07,02,26,086,35,30,25,144,40,15,23,174,18,1*43
$GBGSV,4,1,15,38,83,108,27,08,79,004,36,39,71,282,33,13,68,334,40,1*74
$GBGSV,4,2,15,16,66,257,39,06,65,253,34,46,60,112,44,09,50,238,21,1*7F
$GBGSV,4,3,15,19,49,344,31,20,43,062,,36,35,184,29,37,23,048,27,1*79
$GBGSV,4,4,15,35,21,269,34,29,19,212,27,22,11,301,37,1*4C
$GBGSV,3,1,09,38,83,108,35,39,71,282,35,46,60,112,41,19,49,344,15,4*74
$GBGSV,3,2,09,20,43,062,30,36,35,184,25,35,21,269,38,29,19,212,23,4*70
$GBGSV,3,3,09,22,11,301,27,4*4D
$GNACCURACY,2.8*1C
$PAIRSAT,1,35,1,0,200,2,0,200,3,0,200,4,0,200,5,0,201,6,0,200,7,0,200,8,0,200,9,0,200,10,0,221,11,0,200,12,0,201,13,0,201,14,0,200,15,0,201,16,0,200,17,0,200,18,0,221,19,0,200,20,0,200,21,0,200,23,0,221,24,0,221,25,0,200,26,0,200,27,0,200,28,0,200,29,0,200,30,0,200,31,0,200,32,0,221,194,0,621,195,0,621,196,0,620,199,0,621*68
$PAIRSAT,2,23,65,0,200,67,0,200,68,0,200,69,0,201,70,0,201,71,0,201,72,0,200,73,0,201,74,0,200,75,0,200,76,0,200,77,0,200,78,0,200,79,0,201,80,0,201,81,0,200,82,0,200,83,0,200,84,0,200,85,0,201,86,0,201,87,0,200,88,0,200*53
$PAIRSAT,3,23,2,0,1221,3,0,1221,4,0,1200,5,0,200,7,0,1221,8,0,1221,9,0,1200,10,0,1200,11,0,1200,12,0,1200,13,0,1221,15,0,1221,19,0,1200,21,0,1200,24,0,1200,25,0,1200,26,0,1221,27,0,1200,30,0,1221,31,0,1200,33,0,1200,34,0,1200,36,0,1200*6A
$PAIRSAT,4,50,1,0,200,2,0,200,3,0,200,4,0,200,5,0,200,6,0,201,7,0,200,8,0,201,9,0,201,10,0,200,11,0,200,12,0,200,13,0,201,14,0,200,15,0,200,16,0,201,19,0,621,20,0,621,21,0,600,22,0,621,23,0,600,24,0,600,25,0,600,26,0,600,27,0,600,28,0,600,29,0,621,30,0,600,31,0,200,32,0,600,33,0,600,34,0,600,35,0,621,36,0,621,37,0,621,38,0,621,39,0,621,40,0,600,41,0,600,42,0,600,43,0,600,44,0,600,45,0,600,46,0,621,56,0,200,57,0,200,58,0,200,59,0,600,60,0,600,61,0,600*41
$PAIRDGP,11,5,10,12,13,15,18,23,24,25,29,32*6B
$GNGGA,112535.200,2500.8129400,N,12132.4729800,E,2,64,0.42,17.49,M,15.25,M,3,3335*79
$GNRMC,112535.200,A,2500.8129400,N,12132.4729800,E,0.02,234.24,260623,,,D,V*0C
$GPHDT,,T*1B
$GNACCURACY,2.7*13
$GNGGA,112535.300,2500.8129500,N,12132.4730000,E,2,64,0.42,17.49,M,15.25,M,3,3335*79
$GNRMC,112535.300,A,2500.8129500,N,12132.4730000,E,0.02,234.24,260623,,,D,V*0C
$GPHDT,,T*1B
$GNACCURACY,2.7*13
$GNGGA,112535.400,2500.8129500,N,12132.4730100,E,2,64,0.42,17.50,M,15.25,M,3,3335*77
$GNRMC,112535.400,A,2500.8129500,N,12132.4730100,E,0.02,234.24,260623,,,D,V*0A
$GPHDT,,T*1B
$GNACCURACY,2.7*13
$GNGGA,112535.500,2500.8129600,N,12132.4730200,E,2,64,0.42,17.50,M,15.25,M,3,3335*76
$GNRMC,112535.500,A,2500.8129600,N,12132.4730200,E,0.03,234.24,260623,,,D,V*0A
$GPHDT,,T*1B
$GNACCURACY,2.7*13
$GNGGA,112535.600,2500.8129600,N,12132.4730300,E,2,64,0.42,17.50,M,15.25,M,3,3335*74
$GNRMC,112535.600,A,2500.8129600,N,12132.4730300,E,0.03,234.24,260623,,,D,V*08
$GPHDT,,T*1B
$GNACCURACY,2.7*13
$GNGGA,112535.700,2500.8129700,N,12132.4730400,E,2,64,0.42,17.50,M,15.25,M,3,3335*73
$GNRMC,112535.700,A,2500.8129700,N,12132.4730400,E,0.03,234.24,260623,,,D,V*0F
$GPHDT,,T*1B
$GNACCURACY,2.7*13
$GNGGA,112535.800,2500.8129800,N,12132.4730600,E,2,63,0.42,17.50,M,15.25,M,3,3335*76
$GNRMC,112535.800,A,2500.8129800,N,12132.4730600,E,0.03,234.24,260623,,,D,V*0D
$GPHDT,,T*1B
$GNACCURACY,2.7*13
$GNGGA,112535.900,2500.8129800,N,12132.4730700,E,2,63,0.42,17.51,M,15.25,M,3,3335*77
$GNRMC,112535.900,A,2500.8129800,N,12132.4730700,E,0.03,234.24,260623,,,D,V*0D
$GPHDT,,T*1B
$GNACCURACY,2.7*13
$GNGGA,112536.000,2500.8129900,N,12132.4730800,E,2,63,0.42,17.51,M,15.25,M,4,3335*74
$GNRMC,112536.000,A,2500.8129900,N,12132.4730800,E,0.03,234.24,260623,,,D,V*09
$GPHDT,,T*1B
$GNACCURACY,2.9*1D
$GNGGA,112536.100,2500.8129900,N,12132.4730900,E,2,63,0.42,17.51,M,15.25,M,4,3335*74
$GNRMC,112536.100,A,2500.8129900,N,12132.4730900,E,0.03,234.24,260623,,,D,V*09
$GPHDT,,T*1B
$GNGSA,A,3,196,24,199,18,23,15,195,194,12,05,10,,0.76,0.42,0.63,1*00
$GNGSA,A,3,80,73,85,86,71,69,79,,,,,,0.76,0.42,0.63,2*08
$GNGSA,A,3,13,08,07,26,02,30,15,03,,,,,0.76,0.42,0.63,3*0E
$GNGSA,A,3,38,08,39,13,16,06,46,09,19,36,37,35,0.76,0.42,0.63,4*08
$GNGSA,A,3,29,22,20,,,,,,,,,,0.76,0.42,0.63,4*0F
$GPGSV,4,1,16,196,75,064,41,24,74,044,46,199,60,167,23,18,59,247,33,1*68
$GPGSV,4,2,16,23,50,338,28,41,38,242,39,15,37,046,43,195,34,180,23,1*54
$GPGSV,4,3,16,194,30,139,41,12,20,142,40,05,19,118,33,10,18,318,36,1*55
$GPGSV,4,4,16,25,09,176,,13,09,056,17,32,09,269,35,29,01,197,,1*65
$GPGSV,3,1,09,196,75,064,44,24,74,044,50,199,60,167,42,18,59,247,35,8*6B
$GPGSV,3,2,09,23,50,338,33,195,34,180,30,194,30,139,32,10,18,318,33,8*6E
$GPGSV,3,3,09,32,09,269,29,8*5A
$GLGSV,2,1,08,80,48,077,44,70,40,009,,73,38,159,33,85,36,247,37,1*72
$GLGSV,2,2,08,86,27,302,36,71,21,313,45,69,13,073,25,79,12,032,22,1*78
$GAGSV,3,1,09,13,57,232,34,08,47,025,26,07,44,303,43,26,32,307,43,7*72
$GAGSV,3,2,09,02,26,086,37,30,25,144,36,15,23,174,21,03,10,064,18,7*7A
$GAGSV,3,3,09,25,03,043,,7*49
$GAGSV,2,1,07,13,57,232,35,08,47,025,37,07,44,303,44,26,32,307,40,1*7E
$GAGSV,2,2,07,02,26,086,35,30,25,144,40,15,23,174,16,1*4D
$GBGSV,4,1,15,38,83,108,28,08,79,004,36,39,71,282,33,13,68,334,40,1*7B
$GBGSV,4,2,15,16,66,257,39,06,65,253,34,46,60,112,44,09,50,238,19,1*74
$GBGSV,4,3,15,19,49,344,30,20,43,062,,36,35,184,28,37,23,048,28,1*76
$GBGSV,4,4,15,35,21,269,35,29,19,212,26,22,11,301,36,1*4D
$GBGSV,2,1,08,38,83,108,34,39,71,282,35,46,60,112,40,20,43,062,30,4*74
$GBGSV,2,2,08,36,35,184,24,35,21,269,38,29,19,212,23,22,11,301,26,4*75
$GNACCURACY,2.9*1D
$PAIRSAT,1,35,1,0,200,2,0,200,3,0,200,4,0,200,5,0,201,6,0,200,7,0,200,8,0,200,9,0,200,10,0,221,11,0,200,12,0,201,13,0,201,14,0,200,15,0,201,16,0,200,17,0,200,18,0,221,19,0,200,20,0,200,21,0,200,23,0,221,24,0,221,25,0,200,26,0,200,27,0,200,28,0,200,29,0,200,30,0,200,31,0,200,32,0,221,194,0,621,195,0,621,196,0,620,199,0,621*68
$PAIRSAT,2,23,65,0,200,67,0,200,68,0,200,69,0,201,70,0,201,71,0,201,72,0,200,73,0,201,74,0,200,75,0,200,76,0,200,77,0,200,78,0,200,79,0,201,80,0,201,81,0,200,82,0,200,83,0,200,84,0,200,85,0,201,86,0,201,87,0,200,88,0,200*53
$PAIRSAT,3,23,2,0,1221,3,0,1221,4,0,1200,5,0,200,7,0,1221,8,0,1221,9,0,1200,10,0,1200,11,0,1200,12,0,1200,13,0,1221,15,0,1221,19,0,1200,21,0,1200,24,0,1200,25,0,1200,26,0,1221,27,0,1200,30,0,1221,31,0,1200,33,0,1200,34,0,1200,36,0,1200*6A
$PAIRSAT,4,50,1,0,200,2,0,200,3,0,200,4,0,200,5,0,200,6,0,201,7,0,200,8,0,201,9,0,201,10,0,200,11,0,200,12,0,200,13,0,201,14,0,200,15,0,200,16,0,201,19,0,621,20,0,621,21,0,600,22,0,621,23,0,600,24,0,600,25,0,600,26,0,600,27,0,600,28,0,600,29,0,621,30,0,600,31,0,200,32,0,600,33,0,600,34,0,600,35,0,621,36,0,621,37,0,621,38,0,621,39,0,621,40,0,600,41,0,600,42,0,600,43,0,600,44,0,600,45,0,600,46,0,621,56,0,200,57,0,200,58,0,200,59,0,600,60,0,600,61,0,600*41
$PAIRDGP,11,5,10,12,13,15,18,23,24,25,29,32*6B
$GNGGA,112536.200,2500.8129900,N,12132.4731000,E,2,63,0.42,17.52,M,15.25,M,4,3335*7C
$GNRMC,112536.200,A,2500.8129900,N,12132.4731000,E,0.03,234.24,260623,,,D,V*02
$GPHDT,,T*1B
$GNACCURACY,2.9*1D
$GNGGA,112536.300,2500.8130100,N,12132.4731200,E,2,63,0.42,17.52,M,15.25,M,4,3335*7F
$GNRMC,112536.300,A,2500.8130100,N,12132.4731200,E,0.03,234.24,260623,,,D,V*01
$GPHDT,,T*1B
$GNACCURACY,2.9*1D
$GNGGA,112536.400,2500.8130100,N,12132.4731300,E,2,63,0.42,17.52,M,15.25,M,4,3335*79
$GNRMC,112536.400,A,2500.8130100,N,12132.4731300,E,0.03,234.24,260623,,,D,V*07
$GPHDT,,T*1B
$GNACCURACY,2.9*1D
$GNGGA,112536.500,2500.8130200,N,12132.4731400,E,2,63,0.42,17.52,M,15.25,M,4,3335*7C
$GNRMC,112536.500,A,2500.8130200,N,12132.4731400,E,0.03,234.24,260623,,,D,V*02
$GPHDT,,T*1B
$GNACCURACY,2.9*1D
$GNGGA,112536.600,2500.8130200,N,12132.4731500,E,2,63,0.42,17.53,M,15.25,M,1,3335*7A
$GNRMC,112536.600,A,2500.8130200,N,12132.4731500,E,0.03,234.24,260623,,,D,V*00
$GPHDT,,T*1B
$GNACCURACY,2.9*1D
$GNGGA,112536.700,2500.8130300,N,12132.4731600,E,2,63,0.42,17.53,M,15.25,M,0,3335*78
$GNRMC,112536.700,A,2500.8130300,N,12132.4731600,E,0.03,234.24,260623,,,D,V*03
$GPHDT,,T*1B
$GNACCURACY,2.9*1D
$GNGGA,112536.800,2500.8130400,N,12132.4731800,E,2,63,0.42,17.53,M,15.25,M,0,3335*7E
$GNRMC,112536.800,A,2500.8130400,N,12132.4731800,E,0.03,234.24,260623,,,D,V*05
$GPHDT,,T*1B
$GNACCURACY,2.9*1D
$GNGGA,112536.900,2500.8130400,N,12132.4731900,E,2,64,0.42,17.53,M,15.25,M,0,3335*79
$GNRMC,112536.900,A,2500.8130400,N,12132.4731900,E,0.03,234.24,260623,,,D,V*05
$GPHDT,,T*1B
$GNACCURACY,2.9*1D
$GNGGA,112537.000,2500.8130500,N,12132.4732000,E,2,64,0.42,17.54,M,15.25,M,1,3335*7C
$GNRMC,112537.000,A,2500.8130500,N,12132.4732000,E,0.03,234.24,260623,,,D,V*06
$GPHDT,,T*1B
$GNACCURACY,2.9*1D
$GNGGA,112537.100,2500.8130500,N,12132.4732100,E,2,63,0.42,17.54,M,15.25,M,1,3335*7B
$GNRMC,112537.100,A,2500.8130500,N,12132.4732100,E,0.03,234.24,260623,,,D,V*06
$GPHDT,,T*1B
$GNGSA,A,3,196,24,199,18,23,15,195,194,12,05,10,,0.76,0.42,0.63,1*00
$GNGSA,A,3,80,73,85,86,71,69,79,,,,,,0.76,0.42,0.63,2*08
$GNGSA,A,3,13,08,07,26,02,30,15,03,,,,,0.76,0.42,0.63,3*0E
$GNGSA,A,3,38,08,39,13,16,06,46,09,19,36,37,35,0.76,0.42,0.63,4*08
$GNGSA,A,3,29,22,20,,,,,,,,,,0.76,0.42,0.63,4*0F
$GPGSV,4,1,16,196,75,064,41,24,74,044,46,199,60,167,24,18,59,247,33,1*6F
$GPGSV,4,2,16,23,50,338,26,41,38,242,40,15,37,046,43,195,34,180,23,1*54
$GPGSV,4,3,16,194,30,139,41,12,20,142,40,05,19,118,33,10,18,318,35,1*56
$GPGSV,4,4,16,25,09,176,,13,09,056,17,32,09,269,35,29,01,197,,1*65
$GPGSV,3,1,09,196,75,064,44,24,74,044,50,199,60,167,42,18,59,247,35,8*6B
$GPGSV,3,2,09,23,50,338,33,195,34,180,29,194,30,139,32,10,18,318,31,8*64
$GPGSV,3,3,09,32,09,269,29,8*5A
$GLGSV,2,1,08,80,48,077,44,70,40,009,,73,38,159,33,85,36,247,37,1*72
$GLGSV,2,2,08,86,27,302,36,71,21,313,45,69,13,073,23,79,12,032,21,1*7D
$GAGSV,3,1,09,13,57,232,34,08,47,025,25,07,44,303,43,26,32,307,43,7*71
$GAGSV,3,2,09,02,26,086,37,30,25,144,36,15,23,174,21,03,10,064,18,7*7A
$GAGSV,3,3,09,25,03,043,,7*49
$GAGSV,2,1,07,13,57,232,35,08,47,025,37,07,44,303,44,26,32,307,40,1*7E
$GAGSV,2,2,07,02,26,086,35,30,25,144,40,15,23,174,16,1*4D
$GBGSV,4,1,15,38,83,108,28,08,79,004,36,39,71,282,33,13,68,334,40,1*7B
$GBGSV,4,2,15,16,66,257,39,06,65,253,33,46,60,112,44,09,50,238,18,1*72
$GBGSV,4,3,15,19,49,344,30,20,43,062,27,36,35,184,28,37,23,048,29,1*72
$GBGSV,4,4,15,35,21,269,35,29,19,212,26,22,11,301,36,1*4D
$GBGSV,2,1,08,38,83,108,34,39,71,282,35,46,60,112,40,20,43,062,30,4*74
$GBGSV,2,2,08,36,35,184,25,37,23,048,20,35,21,269,38,22,11,301,24,4*7E
$GNACCURACY,2.9*1D
$PAIRSAT,1,35,1,0,200,2,0,200,3,0,200,4,0,200,5,0,201,6,0,200,7,0,200,8,0,200,9,0,200,10,0,221,11,0,200,12,0,201,13,0,201,14,0,200,15,0,201,16,0,200,17,0,200,18,0,221,19,0,200,20,0,200,21,0,200,23,0,221,24,0,221,25,0,200,26,0,200,27,0,200,28,0,200,29,0,200,30,0,200,31,0,200,32,0,221,194,0,621,195,0,621,196,0,620,199,0,621*68
$PAIRSAT,2,23,65,0,200,67,0,200,68,0,200,69,0,201,70,0,201,71,0,201,72,0,200,73,0,201,74,0,200,75,0,200,76,0,200,77,0,200,78,0,200,79,0,201,80,0,201,81,0,200,82,0,200,83,0,200,84,0,200,85,0,201,86,0,201,87,0,200,88,0,200*53
$PAIRSAT,3,23,2,0,1221,3,0,1221,4,0,1200,5,0,200,7,0,1221,8,0,1221,9,0,1200,10,0,1200,11,0,1200,12,0,1200,13,0,1221,15,0,1221,19,0,1200,21,0,1200,24,0,1200,25,0,1200,26,0,1221,27,0,1200,30,0,1221,31,0,1200,33,0,1200,34,0,1200,36,0,1200*6A
$PAIRSAT,4,50,1,0,200,2,0,200,3,0,200,4,0,200,5,0,200,6,0,201,7,0,200,8,0,201,9,0,201,10,0,200,11,0,200,12,0,200,13,0,201,14,0,200,15,0,200,16,0,201,19,0,621,20,0,621,21,0,600,22,0,621,23,0,600,24,0,600,25,0,600,26,0,600,27,0,600,28,0,600,29,0,621,30,0,600,31,0,200,32,0,600,33,0,600,34,0,600,35,0,621,36,0,621,37,0,621,38,0,621,39,0,621,40,0,600,41,0,600,42,0,600,43,0,600,44,0,600,45,0,600,46,0,621,56,0,200,57,0,200,58,0,200,59,0,600,60,0,600,61,0,600*41
$PAIRDGP,11,5,10,12,13,15,18,23,24,25,29,32*6B
$GNGGA,112537.200,2500.8130500,N,12132.4732200,E,2,63,0.42,17.54,M,15.25,M,1,3335*7B
$GNRMC,112537.200,A,2500.8130500,N,12132.4732200,E,0.03,234.24,260623,,,D,V*06
$GPHDT,,T*1B
$GNACCURACY,2.9*1D
$GNGGA,112537.300,2500.8130600,N,12132.4732400,E,2,63,0.42,17.54,M,15.25,M,1,3335*7F
$GNRMC,112537.300,A,2500.8130600,N,12132.4732400,E,0.03,234.24,260623,,,D,V*02
$GPHDT,,T*1B
$GNACCURACY,2.9*1D
$GNGGA,112537.400,2500.8130700,N,12132.4732500,E,2,63,0.42,17.54,M,15.25,M,1,3335*78
$GNRMC,112537.400,A,2500.8130700,N,12132.4732500,E,0.03,234.24,260623,,,D,V*05
$GPHDT,,T*1B
$GNACCURACY,2.9*1D
$GNGGA,112537.500,2500.8130700,N,12132.4732600,E,2,63,0.42,17.54,M,15.25,M,1,3335*7A
$GNRMC,112537.500,A,2500.8130700,N,12132.4732600,E,0.03,234.24,260623,,,D,V*07
$GPHDT,,T*1B
$GNACCURACY,2.9*1D
$GNGGA,112537.600,2500.8130800,N,12132.4732700,E,2,63,0.42,17.54,M,15.25,M,1,3335*77
$GNRMC,112537.600,A,2500.8130800,N,12132.4732700,E,0.03,234.24,260623,,,D,V*0A
$GPHDT,,T*1B
$GNACCURACY,2.9*1D
$GNGGA,112537.700,2500.8130800,N,12132.4732800,E,2,63,0.42,17.54,M,15.25,M,1,3335*79
$GNRMC,112537.700,A,2500.8130800,N,12132.4732800,E,0.03,234.24,260623,,,D,V*04
$GPHDT,,T*1B
$GNACCURACY,2.9*1D
$GNGGA,112537.800,2500.8130900,N,12132.4732900,E,2,63,0.42,17.54,M,15.25,M,0,3335*77
$GNRMC,112537.800,A,2500.8130900,N,12132.4732900,E,0.03,234.24,260623,,,D,V*0B
$GPHDT,,T*1B
$GNACCURACY,2.9*1D
$GNGGA,112537.900,2500.8131000,N,12132.4733000,E,2,63,0.42,17.54,M,15.25,M,0,3335*76
$GNRMC,112537.900,A,2500.8131000,N,12132.4733000,E,0.03,234.24,260623,,,D,V*0A
$GPHDT,,T*1B
$GNACCURACY,2.9*1D
$GNGGA,112538.000,2500.8131000,N,12132.4733100,E,2,63,0.42,17.55,M,15.25,M,1,3335*71
$GNRMC,112538.000,A,2500.8131000,N,12132.4733100,E,0.03,234.24,260623,,,D,V*0D
$GPHDT,,T*1B
$GNACCURACY,2.9*1D
$GNGGA,112538.100,2500.8131100,N,12132.4733200,E,2,63,0.42,17.55,M,15.25,M,1,3335*72
$GNRMC,112538.100,A,2500.8131100,N,12132.4733200,E,0.03,234.24,260623,,,D,V*0E
$GPHDT,,T*1B
$GNGSA,A,3,196,24,199,18,23,15,195,194,12,05,10,,0.76,0.42,0.63,1*00
$GNGSA,A,3,80,73,85,86,71,69,79,,,,,,0.76,0.42,0.63,2*08
$GNGSA,A,3,13,08,07,26,02,30,15,03,,,,,0.76,0.42,0.63,3*0E
$GNGSA,A,3,38,08,39,13,16,06,46,09,19,36,37,35,0.76,0.42,0.63,4*08
$GNGSA,A,3,29,22,20,,,,,,,,,,0.76,0.42,0.63,4*0F
$GPGSV,4,1,16,196,75,064,41,24,74,044,46,199,60,167,24,18,59,247,33,1*6F
$GPGSV,4,2,16,23,50,338,27,41,38,242,40,15,37,046,43,195,34,180,22,1*54
$GPGSV,4,3,16,194,30,139,41,12,20,141,40,05,19,118,33,10,18,318,35,1*55
$GPGSV,4,4,16,25,09,176,,32,09,269,35,13,08,056,17,29,01,197,,1*64
$GPGSV,3,1,09,196,75,064,44,24,74,044,50,199,60,167,42,18,59,247,35,8*6B
$GPGSV,3,2,09,23,50,338,33,195,34,180,29,194,30,139,32,10,18,318,30,8*65
$GPGSV,3,3,09,32,09,269,29,8*5A
$GLGSV,2,1,08,80,48,077,44,70,40,009,,73,38,159,32,85,36,247,37,1*73
$GLGSV,2,2,08,86,27,302,35,71,21,313,43,69,13,073,22,79,12,032,20,1*78
$GAGSV,3,1,09,13,57,232,34,08,47,025,25,07,44,303,43,26,32,307,43,7*71
$GAGSV,3,2,09,02,26,086,37,30,25,144,36,15,23,174,20,03,10,064,18,7*7B
$GAGSV,3,3,09,25,03,043,,7*49
$GAGSV,2,1,07,13,57,232,34,08,47,025,37,07,44,303,44,26,32,307,40,1*7F
$GAGSV,2,2,07,02,26,086,35,30,25,144,40,15,23,174,16,1*4D
$GBGSV,5,1,17,38,83,108,28,08,79,004,36,39,71,282,34,13,68,334,40,1*7F
$GBGSV,5,2,17,16,66,257,39,06,65,253,33,46,60,112,44,09,50,238,19,1*70
$GBGSV,5,3,17,19,49,344,30,20,43,062,27,36,35,184,26,37,23,048,29,1*7F
$GBGSV,5,4,17,35,21,269,35,29,19,212,25,22,11,301,35,07,05,192,,1*76
$GBGSV,5,5,17,32,02,099,,1*43
$GBGSV,2,1,08,38,83,108,34,39,71,282,35,46,60,112,40,20,43,062,30,4*74
$GBGSV,2,2,08,36,35,184,25,37,23,048,21,35,21,269,38,22,11,301,29,4*72
$GNACCURACY,2.9*1D
$PAIRSAT,1,35,1,0,200,2,0,200,3,0,200,4,0,200,5,0,201,6,0,200,7,0,200,8,0,200,9,0,200,10,0,221,11,0,200,12,0,201,13,0,201,14,0,200,15,0,201,16,0,200,17,0,200,18,0,221,19,0,200,20,0,200,21,0,200,23,0,221,24,0,221,25,0,200,26,0,200,27,0,200,28,0,200,29,0,200,30,0,200,31,0,200,32,0,221,194,0,621,195,0,621,196,0,620,199,0,621*68
$PAIRSAT,2,23,65,0,200,67,0,200,68,0,200,69,0,201,70,0,201,71,0,201,72,0,200,73,0,201,74,0,200,75,0,200,76,0,200,77,0,200,78,0,200,79,0,201,80,0,201,81,0,200,82,0,200,83,0,200,84,0,200,85,0,201,86,0,201,87,0,200,88,0,200*53
$PAIRSAT,3,23,2,0,1221,3,0,1221,4,0,1200,5,0,200,7,0,1221,8,0,1221,9,0,1200,10,0,1200,11,0,1200,12,0,1200,13,0,1221,15,0,1221,19,0,1200,21,0,1200,24,0,1200,25,0,1200,26,0,1221,27,0,1200,30,0,1221,31,0,1200,33,0,1200,34,0,1200,36,0,1200*6A
$PAIRSAT,4,50,1,0,200,2,0,200,3,0,200,4,0,200,5,0,200,6,0,201,7,0,200,8,0,201,9,0,201,10,0,200,11,0,200,12,0,200,13,0,201,14,0,200,15,0,200,16,0,201,19,0,621,20,0,621,21,0,600,22,0,621,23,0,600,24,0,600,25,0,600,26,0,600,27,0,600,28,0,600,29,0,621,30,0,600,31,0,200,32,0,600,33,0,600,34,0,600,35,0,621,36,0,621,37,0,621,38,0,621,39,0,621,40,0,600,41,0,600,42,0,600,43,0,600,44,0,600,45,0,600,46,0,621,56,0,200,57,0,200,58,0,200,59,0,600,60,0,600,61,0,600*41
$PAIRDGP,11,5,10,12,13,15,18,23,24,25,29,32*6B
$GNGGA,112538.200,2500.8131100,N,12132.4733300,E,2,63,0.42,17.55,M,15.25,M,1,3335*70
$GNRMC,112538.200,A,2500.8131100,N,12132.4733300,E,0.03,234.24,260623,,,D,V*0C
$GPHDT,,T*1B
$GNACCURACY,2.9*1D
$GNGGA,112538.300,2500.8131100,N,12132.4733400,E,2,63,0.42,17.55,M,15.25,M,1,3335*76
$GNRMC,112538.300,A,2500.8131100,N,12132.4733400,E,0.03,234.24,260623,,,D,V*0A
$GPHDT,,T*1B
$GNACCURACY,3.0*15
$GNGGA,112538.400,2500.8131200,N,12132.4733500,E,2,63,0.42,17.55,M,15.25,M,1,3335*73
$GNRMC,112538.400,A,2500.8131200,N,12132.4733500,E,0.03,234.24,260623,,,D,V*0F
$GPHDT,,T*1B
$GNACCURACY,3.0*15
$GNGGA,112538.500,2500.8131300,N,12132.4733600,E,2,63,0.42,17.55,M,15.25,M,1,3335*70
$GNRMC,112538.500,A,2500.8131300,N,12132.4733600,E,0.03,234.24,260623,,,D,V*0C
$GPHDT,,T*1B
$GNACCURACY,3.0*15
$GNGGA,112538.600,2500.8131300,N,12132.4733600,E,2,63,0.42,17.55,M,15.25,M,1,3335*73
$GNRMC,112538.600,A,2500.8131300,N,12132.4733600,E,0.03,234.24,260623,,,D,V*0F
$GPHDT,,T*1B
$GNACCURACY,3.0*15
$GNGGA,112538.700,2500.8131300,N,12132.4733700,E,2,63,0.42,17.56,M,15.25,M,1,3335*70
$GNRMC,112538.700,A,2500.8131300,N,12132.4733700,E,0.02,234.24,260623,,,D,V*0E
$GPHDT,,T*1B
$GNACCURACY,3.0*15
$GNGGA,112538.800,2500.8131300,N,12132.4733900,E,2,63,0.42,17.56,M,15.25,M,1,3335*71
$GNRMC,112538.800,A,2500.8131300,N,12132.4733900,E,0.03,234.24,260623,,,D,V*0E
$GPHDT,,T*1B
$GNACCURACY,3.0*15
$GNGGA,112538.900,2500.8131300,N,12132.4733900,E,2,63,0.42,17.56,M,15.25,M,1,3335*70
$GNRMC,112538.900,A,2500.8131300,N,12132.4733900,E,0.