$FW : RTK35X,V1.1X0314AS,Lib20210517,1*54
$Tool : LOCOSYS , GNSS Firebird , v1.0.0.19*39
$---------------------------------------------------*2D
05,28,08,78,004,34,39,71,281,37,13,68,335,40,1*73
$GBGSV,4,2,15,16,66,256,41,06,65,252,38,46,59,114,43,09,49,237,23,1*72
$GBGSV,4,3,15,19,48,344,31,20,43,061,24,36,34,184,25,37,23,048,34,1*72
$GBGSV,4,4,15,35,21,270,26,29,20,212,27,22,11,300,31,1*4A
$GBGSV,3,1,10,38,83,105,31,39,71,281,37,46,59,114,42,19,48,344,33,4*7E
$GBGSV,3,2,10,20,43,061,30,36,34,184,29,37,23,048,31,35,21,270,33,4*7D
$GBGSV,3,3,10,29,20,212,20,22,11,300,28,4*71
$GNACCURACY,2.9*1D
$PAIRSAT,1,35,1,0,200,2,0,200,3,0,200,4,0,200,5,0,201,6,0,200,7,0,200,8,0,200,9,0,200,10,0,221,11,0,200,12,0,201,13,0,201,14,0,200,15,0,201,16,0,200,17,0,200,18,0,221,19,0,200,20,0,200,21,0,200,23,0,221,24,0,221,25,0,200,26,0,200,27,0,200,28,0,200,29,0,200,30,0,200,31,0,200,32,0,221,194,0,621,195,0,621,196,0,620,199,0,621*68
$PAIRSAT,2,23,65,0,200,67,0,200,68,0,200,69,0,201,70,0,201,71,0,201,72,0,200,73,0,201,74,0,200,75,0,200,76,0,200,77,0,200,78,0,200,79,0,201,80,0,201,81,0,200,82,0,200,83,0,200,84,0,200,85,0,201,86,0,201,87,0,200,88,0,200*53
$PAIRSAT,3,23,2,0,1221,3,0,1221,4,0,1200,5,0,200,7,0,1221,8,0,1221,9,0,1200,10,0,1200,11,0,1200,12,0,1200,13,0,1221,15,0,1221,19,0,1200,21,0,1200,24,0,1200,25,0,1200,26,0,1221,27,0,1200,30,0,1221,31,0,1200,33,0,1200,34,0,1200,36,0,1200*6A
$PAIRSAT,4,50,1,0,200,2,0,200,3,0,200,4,0,200,5,0,200,6,0,201,7,0,200,8,0,201,9,0,201,10,0,200,11,0,200,12,0,200,13,0,201,14,0,200,15,0,200,16,0,201,19,0,621,20,0,621,21,0,600,22,0,621,23,0,600,24,0,600,25,0,600,26,0,600,27,0,600,28,0,600,29,0,621,30,0,600,31,0,200,32,0,600,33,0,600,34,0,600,35,0,621,36,0,621,37,0,621,38,0,621,39,0,621,40,0,600,41,0,600,42,0,600,43,0,600,44,0,600,45,0,600,46,0,621,56,0,200,57,0,200,58,0,200,59,0,600,60,0,600,61,0,600*41
$PAIRDGP,9,5,10,12,13,15,18,23,24,32*5E
$GNGGA,112412.200,2500.8135300,N,12132.4740000,E,2,68,0.42,23.54,M,15.25,M,1,3335*75
$GNRMC,112412.200,A,2500.8135300,N,12132.4740000,E,0.01,234.24,260623,,,D,V*06
$GPHDT,,T*1B
$GNACCURACY,2.9*1D
$GNGGA,112412.300,2500.8135300,N,12132.4740000,E,2,68,0.42,23.52,M,15.25,M,1,3335*72
$GNRMC,112412.300,A,2500.8135300,N,12132.4740000,E,0.01,234.24,260623,,,D,V*07
$GPHDT,,T*1B
$GNACCURACY,2.9*1D
$GNGGA,112412.400,2500.8135200,N,12132.4740000,E,2,68,0.42,23.50,M,15.25,M,1,3335*76
$GNRMC,112412.400,A,2500.8135200,N,12132.4740000,E,0.01,234.24,260623,,,D,V*01
$GPHDT,,T*1B
$GNACCURACY,2.9*1D
$GNGGA,112412.500,2500.8135200,N,12132.4739900,E,2,68,0.42,23.47,M,15.25,M,1,3335*76
$GNRMC,112412.500,A,2500.8135200,N,12132.4739900,E,0.01,234.24,260623,,,D,V*07
$GPHDT,,T*1B
$GNACCURACY,2.9*1D
$GNGGA,112412.600,2500.8135100,N,12132.4739900,E,2,68,0.42,23.45,M,15.25,M,1,3335*74
$GNRMC,112412.600,A,2500.8135100,N,12132.4739900,E,0.01,234.24,260623,,,D,V*07
$GPHDT,,T*1B
$GNACCURACY,2.9*1D
$GNGGA,112412.700,2500.8135100,N,12132.4739900,E,2,68,0.42,23.43,M,15.25,M,1,3335*73
$GNRMC,112412.700,A,2500.8135100,N,12132.4739900,E,0.01,234.24,260623,,,D,V*06
$GPHDT,,T*1B
$GNACCURACY,2.9*1D
$GNGGA,112412.800,2500.8135100,N,12132.4739800,E,2,68,0.42,23.41,M,15.25,M,1,3335*7F
$GNRMC,112412.800,A,2500.8135100,N,12132.4739800,E,0.01,234.24,260623,,,D,V*08
$GPHDT,,T*1B
$GNACCURACY,2.9*1D
$GNGGA,112412.900,2500.8135000,N,12132.4739700,E,2,68,0.42,23.38,M,15.25,M,1,3335*7E
$GNRMC,112412.900,A,2500.8135000,N,12132.4739700,E,0.01,234.24,260623,,,D,V*07
$GPHDT,,T*1B
$GNACCURACY,2.9*1D
$GNGGA,112413.000,2500.8135000,N,12132.4739600,E,2,68,0.42,23.36,M,15.25,M,2,3335*7A
$GNRMC,112413.000,A,2500.8135000,N,12132.4739600,E,0.01,234.24,260623,,,D,V*0E
$GPHDT,,T*1B
$GNACCURACY,2.9*1D
$GNGGA,112413.100,2500.8135000,N,12132.4739600,E,2,68,0.42,23.34,M,15.25,M,2,3335*79
$GNRMC,112413.100,A,2500.8135000,N,12132.4739600,E,0.01,234.24,260623,,,D,V*0F
$GPHDT,,T*1B
$GNGSA,A,3,24,196,199,18,23,15,195,194,05,12,10,,0.76,0.42,0.63,1*00
$GNGSA,A,3,80,70,73,85,86,71,69,79,,,,,0.76,0.42,0.63,2*0F
$GNGSA,A,3,13,08,07,26,02,30,15,03,,,,,0.76,0.42,0.63,3*0E
$GNGSA,A,3,38,08,39,13,16,06,46,09,19,20,36,37,0.76,0.42,0.63,4*0C
$GNGSA,A,3,35,29,22,,,,,,,,,,0.76,0.42,0.63,4*0B
$GPGSV,4,1,16,24,75,045,46,196,75,064,41,199,60,167,23,18,59,249,31,1*64
$GPGSV,4,2,16,23,50,338,26,41,38,241,39,15,37,046,45,195,34,180,32,1*5F
$GPGSV,4,3,16,194,30,139,41,05,20,118,23,12,19,142,33,10,17,318,37,1*5E
$GPGSV,4,4,16,13,09,056,20,32,09,268,34,25,08,177,,29,01,197,,1*61
$GPGSV,3,1,09,196,75,064,43,24,75,045,47,199,60,167,42,18,59,249,38,8*69
$GPGSV,3,2,09,23,50,338,36,195,34,180,23,194,30,139,29,10,17,318,32,8*6D
$GPGSV,3,3,09,32,09,268,34,8*57
$GLGSV,3,1,09,80,48,079,46,70,40,009,16,73,37,160,18,85,36,247,36,1*74
$GLGSV,3,2,09,86,27,303,45,71,21,313,41,69,13,072,27,79,12,033,18,1*72
$GLGSV,3,3,09,84,09,190,,1*4C
$GAGSV,3,1,09,13,57,233,31,08,47,024,28,07,44,302,43,26,32,308,41,7*75
$GAGSV,3,2,09,02,25,086,37,30,25,144,37,15,24,174,25,03,11,063,15,7*70
$GAGSV,3,3,09,25,03,044,,7*4E
$GAGSV,2,1,08,13,57,233,37,08,47,024,31,07,44,302,45,26,32,308,41,1*7B
$GAGSV,2,2,08,02,25,086,36,30,25,144,38,15,24,174,19,03,11,063,18,1*7A
$GBGSV,4,1,15,38,83,105,28,08,78,004,34,39,71,281,37,13,68,335,40,1*73
$GBGSV,4,2,15,16,66,256,41,06,65,252,38,46,59,114,43,09,49,237,23,1*72
$GBGSV,4,3,15,19,48,344,31,20,43,061,26,36,34,184,25,37,23,048,34,1*70
$GBGSV,4,4,15,35,21,270,26,29,20,212,27,22,11,300,31,1*4A
$GBGSV,3,1,10,38,83,105,32,39,71,281,37,46,59,114,42,19,48,344,33,4*7D
$GBGSV,3,2,10,20,43,061,30,36,34,184,29,37,23,048,32,35,21,270,34,4*79
$GBGSV,3,3,10,29,20,212,19,22,11,300,28,4*7B
$GNACCURACY,2.9*1D
$PAIRSAT,1,35,1,0,200,2,0,200,3,0,200,4,0,200,5,0,201,6,0,200,7,0,200,8,0,200,9,0,200,10,0,221,11,0,200,12,0,201,13,0,201,14,0,200,15,0,201,16,0,200,17,0,200,18,0,221,19,0,200,20,0,200,21,0,200,23,0,221,24,0,221,25,0,200,26,0,200,27,0,200,28,0,200,29,0,200,30,0,200,31,0,200,32,0,221,194,0,621,195,0,621,196,0,620,199,0,621*68
$PAIRSAT,2,23,65,0,200,67,0,200,68,0,200,69,0,201,70,0,201,71,0,201,72,0,200,73,0,201,74,0,200,75,0,200,76,0,200,77,0,200,78,0,200,79,0,201,80,0,201,81,0,200,82,0,200,83,0,200,84,0,200,85,0,201,86,0,201,87,0,200,88,0,200*53
$PAIRSAT,3,23,2,0,1221,3,0,1221,4,0,1200,5,0,200,7,0,1221,8,0,1221,9,0,1200,10,0,1200,11,0,1200,12,0,1200,13,0,1221,15,0,1221,19,0,1200,21,0,1200,24,0,1200,25,0,1200,26,0,1221,27,0,1200,30,0,1221,31,0,1200,33,0,1200,34,0,1200,36,0,1200*6A
$PAIRSAT,4,50,1,0,200,2,0,200,3,0,200,4,0,200,5,0,200,6,0,201,7,0,200,8,0,201,9,0,201,10,0,200,11,0,200,12,0,200,13,0,201,14,0,200,15,0,200,16,0,201,19,0,621,20,0,621,21,0,600,22,0,621,23,0,600,24,0,600,25,0,600,26,0,600,27,0,600,28,0,600,29,0,621,30,0,600,31,0,200,32,0,600,33,0,600,34,0,600,35,0,621,36,0,621,37,0,621,38,0,621,39,0,621,40,0,600,41,0,600,42,0,600,43,0,600,44,0,600,45,0,600,46,0,621,56,0,200,57,0,200,58,0,200,59,0,600,60,0,600,61,0,600*41
$PAIRDGP,9,5,10,12,13,15,18,23,24,32*5E
$GNGGA,112413.200,2500.8135000,N,12132.4739500,E,2,68,0.42,23.32,M,15.25,M,2,3335*7F
$GNRMC,112413.200,A,2500.8135000,N,12132.4739500,E,0.01,234.24,260623,,,D,V*0F
$GPHDT,,T*1B
$GNACCURACY,2.9*1D
$GNGGA,112413.300,2500.8135000,N,12132.4739400,E,2,68,0.42,23.30,M,15.25,M,2,3335*7D
$GNRMC,112413.300,A,2500.8135000,N,12132.4739400,E,0.01,234.24,260623,,,D,V*0F
$GPHDT,,T*1B
$GNACCURACY,2.9*1D
$GNGGA,112413.400,2500.8135000,N,12132.4739300,E,2,68,0.42,23.27,M,15.25,M,2,3335*7B
$GNRMC,112413.400,A,2500.8135000,N,12132.4739300,E,0.01,234.24,260623,,,D,V*0F
$GPHDT,,T*1B
$GNACCURACY,2.9*1D
$GNGGA,112413.500,2500.8135000,N,12132.4739300,E,2,68,0.42,23.25,M,15.25,M,2,3335*78
$GNRMC,112413.500,A,2500.8135000,N,12132.4739300,E,0.01,234.24,260623,,,D,V*0E
$GPHDT,,T*1B
$GNACCURACY,2.9*1D
$GNGGA,112413.600,2500.8135000,N,12132.4739300,E,2,68,0.42,23.23,M,15.25,M,2,3335*7D
$GNRMC,112413.600,A,2500.8135000,N,12132.4739300,E,0.01,234.24,260623,,,D,V*0D
$GPHDT,,T*1B
$GNACCURACY,2.9*1D
$GNGGA,112413.700,2500.8134900,N,12132.4739200,E,2,68,0.42,23.20,M,15.25,M,2,3335*76
$GNRMC,112413.700,A,2500.8134900,N,12132.4739200,E,0.01,234.24,260623,,,D,V*05
$GPHDT,,T*1B
$GNACCURACY,2.9*1D
$GNGGA,112413.800,2500.8134900,N,12132.4739200,E,2,68,0.42,23.18,M,15.25,M,2,3335*72
$GNRMC,112413.800,A,2500.8134900,N,12132.4739200,E,0.01,234.24,260623,,,D,V*0A
$GPHDT,,T*1B
$GNACCURACY,3.0*15
$GNGGA,112413.900,2500.8134900,N,12132.4739100,E,2,68,0.42,23.16,M,15.25,M,2,3335*7E
$GNRMC,112413.900,A,2500.8134900,N,12132.4739100,E,0.01,234.24,260623,,,D,V*08
$GPHDT,,T*1B
$GNACCURACY,3.0*15
$GNGGA,112414.000,2500.8134900,N,12132.4739100,E,2,68,0.42,23.14,M,15.25,M,3,3335*73
$GNRMC,112414.000,A,2500.8134900,N,12132.4739100,E,0.01,234.24,260623,,,D,V*06
$GPHDT,,T*1B
$GNACCURACY,3.0*15
$GNGGA,112414.100,2500.8134900,N,12132.4739000,E,2,68,0.42,23.12,M,15.25,M,3,3335*75
$GNRMC,112414.100,A,2500.8134900,N,12132.4739000,E,0.01,234.24,260623,,,D,V*06
$GPHDT,,T*1B
$GNGSA,A,3,24,196,199,18,23,15,195,194,05,12,10,,0.76,0.42,0.63,1*00
$GNGSA,A,3,80,70,73,85,86,71,69,79,,,,,0.76,0.42,0.63,2*0F
$GNGSA,A,3,13,08,07,26,02,30,15,03,,,,,0.76,0.42,0.63,3*0E
$GNGSA,A,3,38,08,39,13,16,06,46,09,19,20,36,37,0.76,0.42,0.63,4*0C
$GNGSA,A,3,35,29,22,,,,,,,,,,0.76,0.42,0.63,4*0B
$GPGSV,4,1,16,24,75,045,46,196,75,064,41,199,60,167,20,18,59,249,29,1*6E
$GPGSV,4,2,16,23,50,338,28,41,38,241,39,15,37,046,45,195,34,180,31,1*52
$GPGSV,4,3,16,194,30,139,41,05,20,118,22,12,19,142,34,10,17,318,36,1*59
$GPGSV,4,4,16,13,09,056,20,32,09,268,34,25,08,177,,29,01,197,,1*61
$GPGSV,3,1,09,196,75,064,43,24,75,045,47,199,60,167,42,18,59,249,38,8*69
$GPGSV,3,2,09,23,50,338,36,195,34,180,23,194,30,139,31,10,17,318,32,8*64
$GPGSV,3,3,09,32,09,268,34,8*57
$GLGSV,3,1,09,80,48,079,46,70,40,009,15,73,37,160,20,85,36,247,36,1*7C
$GLGSV,3,2,09,86,27,303,45,71,21,313,41,69,13,072,27,79,12,033,19,1*73
$GLGSV,3,3,09,84,09,190,,1*4C
$GAGSV,3,1,09,13,57,233,31,08,47,024,28,07,44,302,43,26,32,308,41,7*75
$GAGSV,3,2,09,02,25,086,37,30,25,144,36,15,24,174,25,03,11,063,16,7*72
$GAGSV,3,3,09,25,03,044,,7*4E
$GAGSV,2,1,08,13,57,233,37,08,47,024,31,07,44,302,46,26,32,308,40,1*79
$GAGSV,2,2,08,02,25,086,36,30,25,144,38,15,24,174,20,03,11,063,17,1*7F
$GBGSV,4,1,15,38,83,105,28,08,78,004,34,39,71,281,37,13,68,335,39,1*7D
$GBGSV,4,2,15,16,66,256,41,06,65,252,38,46,59,114,43,09,49,237,23,1*72
$GBGSV,4,3,15,19,48,344,31,20,43,061,25,36,34,184,25,37,23,048,34,1*73
$GBGSV,4,4,15,35,21,270,28,29,20,212,28,22,11,300,31,1*4B
$GBGSV,3,1,10,38,83,105,31,39,71,281,36,46,59,114,42,19,48,344,32,4*7E
$GBGSV,3,2,10,20,43,061,30,36,34,184,29,37,23,048,30,35,21,270,33,4*7C
$GBGSV,3,3,10,29,20,212,19,22,11,300,29,4*7A
$GNACCURACY,3.0*15
$PAIRSAT,1,35,1,0,200,2,0,200,3,0,200,4,0,200,5,0,201,6,0,200,7,0,200,8,0,200,9,0,200,10,0,221,11,0,200,12,0,201,13,0,201,14,0,200,15,0,201,16,0,200,17,0,200,18,0,221,19,0,200,20,0,200,21,0,200,23,0,221,24,0,221,25,0,200,26,0,200,27,0,200,28,0,200,29,0,200,30,0,200,31,0,200,32,0,221,194,0,621,195,0,621,196,0,620,199,0,621*68
$PAIRSAT,2,23,65,0,200,67,0,200,68,0,200,69,0,201,70,0,201,71,0,201,72,0,200,73,0,201,74,0,200,75,0,200,76,0,200,77,0,200,78,0,200,79,0,201,80,0,201,81,0,200,82,0,200,83,0,200,84,0,200,85,0,201,86,0,201,87,0,200,88,0,200*53
$PAIRSAT,3,23,2,0,1221,3,0,1221,4,0,1200,5,0,200,7,0,1221,8,0,1221,9,0,1200,10,0,1200,11,0,1200,12,0,1200,13,0,1221,15,0,1221,19,0,1200,21,0,1200,24,0,1200,25,0,1200,26,0,1221,27,0,1200,30,0,1221,31,0,1200,33,0,1200,34,0,1200,36,0,1200*6A
$PAIRSAT,4,50,1,0,200,2,0,200,3,0,200,4,0,200,5,0,200,6,0,201,7,0,200,8,0,201,9,0,201,10,0,200,11,0,200,12,0,200,13,0,201,14,0,200,15,0,200,16,0,201,19,0,621,20,0,621,21,0,600,22,0,621,23,0,600,24,0,600,25,0,600,26,0,600,27,0,600,28,0,600,29,0,621,30,0,600,31,0,200,32,0,600,33,0,600,34,0,600,35,0,621,36,0,621,37,0,621,38,0,621,39,0,621,40,0,600,41,0,600,42,0,600,43,0,600,44,0,600,45,0,600,46,0,621,56,0,200,57,0,200,58,0,200,59,0,600,60,0,600,61,0,600*41
$PAIRDGP,9,5,10,12,13,15,18,23,24,32*5E
$GNGGA,112414.200,2500.8134800,N,12132.4739000,E,2,68,0.42,23.10,M,15.25,M,3,3335*75
$GNRMC,112414.200,A,2500.8134800,N,12132.4739000,E,0.01,234.24,260623,,,D,V*04
$GPHDT,,T*1B
$GNACCURACY,3.0*15
$GNGGA,112414.300,2500.8134800,N,12132.4739000,E,2,68,0.42,23.08,M,15.25,M,3,3335*7D
$GNRMC,112414.300,A,2500.8134800,N,12132.4739000,E,0.01,234.24,260623,,,D,V*05
$GPHDT,,T*1B
$GNACCURACY,3.0*15
$GNGGA,112414.400,2500.8134800,N,12132.4739000,E,2,68,0.42,23.06,M,15.25,M,3,3335*74
$GNRMC,112414.400,A,2500.8134800,N,12132.4739000,E,0.01,234.24,260623,,,D,V*02
$GPHDT,,T*1B
$GNACCURACY,3.0*15
$GNGGA,112414.500,2500.8134700,N,12132.4738900,E,2,68,0.42,23.03,M,15.25,M,3,3335*77
$GNRMC,112414.500,A,2500.8134700,N,12132.4738900,E,0.01,234.24,260623,,,D,V*04
$GPHDT,,T*1B
$GNACCURACY,3.0*15
$GNGGA,112414.600,2500.8134700,N,12132.4738900,E,2,68,0.42,23.01,M,15.25,M,3,3335*76
$GNRMC,112414.600,A,2500.8134700,N,12132.4738900,E,0.01,234.24,260623,,,D,V*07
$GPHDT,,T*1B
$GNACCURACY,3.0*15
$GNGGA,112414.700,2500.8134700,N,12132.4738800,E,2,68,0.42,22.99,M,15.25,M,3,3335*76
$GNRMC,112414.700,A,2500.8134700,N,12132.4738800,E,0.01,234.24,260623,,,D,V*07
$GPHDT,,T*1B
$GNACCURACY,3.0*15
$GNGGA,112414.800,2500.8134700,N,12132.4738800,E,2,68,0.42,22.96,M,15.25,M,3,3335*76
$GNRMC,112414.800,A,2500.8134700,N,12132.4738800,E,0.01,234.24,260623,,,D,V*08
$GPHDT,,T*1B
$GNACCURACY,3.0*15
$GNGGA,112414.900,2500.8134700,N,12132.4738800,E,2,68,0.42,22.94,M,15.25,M,3,3335*75
$GNRMC,112414.900,A,2500.8134700,N,12132.4738800,E,0.01,234.24,260623,,,D,V*09
$GPHDT,,T*1B
$GNACCURACY,3.0*15
$GNGGA,112415.000,2500.8134700,N,12132.4738700,E,2,68,0.42,22.92,M,15.25,M,4,3335*73
$GNRMC,112415.000,A,2500.8134700,N,12132.4738700,E,0.01,234.24,260623,,,D,V*0E
$GPHDT,,T*1B
$GNACCURACY,3.0*15
$GNGGA,112415.100,2500.8134700,N,12132.4738700,E,2,68,0.42,22.90,M,15.25,M,4,3335*70
$GNRMC,112415.100,A,2500.8134700,N,12132.4738700,E,0.01,234.24,260623,,,D,V*0F
$GPHDT,,T*1B
$GNGSA,A,3,24,196,199,18,23,15,195,194,05,12,10,,0.76,0.42,0.63,1*00
$GNGSA,A,3,80,70,73,85,86,71,69,79,,,,,0.76,0.42,0.63,2*0F
$GNGSA,A,3,13,08,07,26,02,30,15,03,,,,,0.76,0.42,0.63,3*0E
$GNGSA,A,3,38,08,39,13,16,06,46,09,19,20,36,37,0.76,0.42,0.63,4*0C
$GNGSA,A,3,35,29,22,,,,,,,,,,0.76,0.42,0.63,4*0B
$GPGSV,4,1,16,24,75,045,46,196,75,064,41,199,60,167,21,18,59,249,28,1*6E
$GPGSV,4,2,16,23,50,338,26,41,38,241,39,15,37,046,45,195,34,180,31,1*5C
$GPGSV,4,3,16,194,30,139,41,05,20,118,22,12,19,142,33,10,17,318,36,1*5E
$GPGSV,4,4,16,13,09,056,20,32,09,268,34,25,08,177,,29,01,197,,1*61
$GPGSV,3,1,09,196,75,064,43,24,75,045,47,199,60,167,42,18,59,249,38,8*69
$GPGSV,3,2,09,23,50,338,36,195,34,180,23,194,30,139,31,10,17,318,30,8*66
$GPGSV,3,3,09,32,09,268,33,8*50
$GLGSV,3,1,09,80,48,079,46,70,40,009,16,73,37,160,23,85,36,247,36,1*7C
$GLGSV,3,2,09,86,27,303,45,71,21,313,41,69,13,072,27,79,12,033,20,1*79
$GLGSV,3,3,09,84,09,190,,1*4C
$GAGSV,3,1,09,13,57,233,32,08,47,024,27,07,44,302,43,26,32,308,41,7*79
$GAGSV,3,2,09,02,25,086,37,30,25,144,36,15,24,174,25,03,11,063,15,7*71
$GAGSV,3,3,09,25,03,044,,7*4E
$GAGSV,2,1,08,13,57,233,36,08,47,024,31,07,44,302,45,26,32,308,40,1*7B
$GAGSV,2,2,08,02,25,086,35,30,25,144,38,15,24,174,19,03,11,063,19,1*78
$GBGSV,4,1,15,38,83,105,29,08,78,004,35,39,71,281,37,13,68,335,39,1*7D
$GBGSV,4,2,15,16,66,256,41,06,65,252,38,46,59,114,43,09,49,237,23,1*72
$GBGSV,4,3,15,19,48,344,30,20,43,061,25,36,34,184,25,37,23,048,34,1*72
$GBGSV,4,4,15,35,21,270,28,29,20,212,28,22,11,300,31,1*4B
$GBGSV,3,1,10,38,83,105,31,39,71,281,36,46,59,114,42,19,48,344,32,4*7E
$GBGSV,3,2,10,20,43,061,29,36,34,184,29,37,23,048,30,35,21,270,33,4*74
$GBGSV,3,3,10,29,20,212,18,22,11,300,27,4*75
$GNACCURACY,3.0*15
$PAIRSAT,1,35,1,0,200,2,0,200,3,0,200,4,0,200,5,0,201,6,0,200,7,0,200,8,0,200,9,0,200,10,0,221,11,0,200,12,0,201,13,0,201,14,0,200,15,0,201,16,0,200,17,0,200,18,0,221,19,0,200,20,0,200,21,0,200,23,0,221,24,0,221,25,0,200,26,0,200,27,0,200,28,0,200,29,0,200,30,0,200,31,0,200,32,0,221,194,0,621,195,0,621,196,0,620,199,0,621*68
$PAIRSAT,2,23,65,0,200,67,0,200,68,0,200,69,0,201,70,0,201,71,0,201,72,0,200,73,0,201,74,0,200,75,0,200,76,0,200,77,0,200,78,0,200,79,0,201,80,0,201,81,0,200,82,0,200,83,0,200,84,0,200,85,0,201,86,0,201,87,0,200,88,0,200*53
$PAIRSAT,3,23,2,0,1221,3,0,1221,4,0,1200,5,0,200,7,0,1221,8,0,1221,9,0,1200,10,0,1200,11,0,1200,12,0,1200,13,0,1221,15,0,1221,19,0,1200,21,0,1200,24,0,1200,25,0,1200,26,0,1221,27,0,1200,30,0,1221,31,0,1200,33,0,1200,34,0,1200,36,0,1200*6A
$PAIRSAT,4,50,1,0,200,2,0,200,3,0,200,4,0,200,5,0,200,6,0,201,7,0,200,8,0,201,9,0,201,10,0,200,11,0,200,12,0,200,13,0,201,14,0,200,15,0,200,16,0,201,19,0,621,20,0,621,21,0,600,22,0,621,23,0,600,24,0,600,25,0,600,26,0,600,27,0,600,28,0,600,29,0,621,30,0,600,31,0,200,32,0,600,33,0,600,34,0,600,35,0,621,36,0,621,37,0,621,38,0,621,39,0,621,40,0,600,41,0,600,42,0,600,43,0,600,44,0,600,45,0,600,46,0,621,56,0,200,57,0,200,58,0,200,59,0,600,60,0,600,61,0,600*41
$PAIRDGP,9,5,10,12,13,15,18,23,24,32*5E
$GNGGA,112415.200,2500.8134700,N,12132.4738700,E,2,68,0.42,22.87,M,15.25,M,4,3335*75
$GNRMC,112415.200,A,2500.8134700,N,12132.4738700,E,0.01,234.24,260623,,,D,V*0C
$GPHDT,,T*1B
$GNACCURACY,3.0*15
$GNGGA,112415.300,2500.8134700,N,12132.4738700,E,2,68,0.42,22.85,M,15.25,M,4,3335*76
$GNRMC,112415.300,A,2500.8134700,N,12132.4738700,E,0.01,234.24,260623,,,D,V*0D
$GPHDT,,T*1B
$GNACCURACY,3.0*15
$GNGGA,112415.400,2500.8134700,N,12132.4738700,E,2,68,0.42,22.82,M,15.25,M,4,3335*76
$GNRMC,112415.400,A,2500.8134700,N,12132.4738700,E,0.01,234.24,260623,,,D,V*0A
$GPHDT,,T*1B
$GNACCURACY,3.0*15
$GNGGA,112415.500,2500.8134700,N,12132.4738600,E,2,68,0.42,22.80,M,15.25,M,4,3335*74
$GNRMC,112415.500,A,2500.8134700,N,12132.4738600,E,0.01,234.24,260623,,,D,V*0A
$GPHDT,,T*1B
$GNACCURACY,3.0*15
$GNGGA,112415.600,2500.8134700,N,12132.4738500,E,2,67,0.42,22.77,M,15.25,M,4,3335*73
$GNRMC,112415.600,A,2500.8134700,N,12132.4738500,E,0.01,234.24,260623,,,D,V*0A
$GPHDT,,T*1B
$GNACCURACY,3.0*15
$GNGGA,112415.700,2500.8134600,N,12132.4738500,E,2,67,0.42,22.75,M,15.25,M,4,3335*71
$GNRMC,112415.700,A,2500.8134600,N,12132.4738500,E,0.01,234.24,260623,,,D,V*0A
$GPHDT,,T*1B
$GNACCURACY,3.0*15
$GNGGA,112415.800,2500.8134600,N,12132.4738400,E,2,68,0.42,22.71,M,15.25,M,4,3335*74
$GNRMC,112415.800,A,2500.8134600,N,12132.4738400,E,0.01,234.24,260623,,,D,V*04
$GPHDT,,T*1B
$GNACCURACY,3.1*14
$GNGGA,112415.900,2500.8134600,N,12132.4738400,E,2,68,0.42,22.69,M,15.25,M,4,3335*7C
$GNRMC,112415.900,A,2500.8134600,N,12132.4738400,E,0.01,234.24,260623,,,D,V*05
$GPHDT,,T*1B
$GNACCURACY,3.1*14
$GNGGA,112416.000,2500.8134600,N,12132.4738400,E,2,68,0.42,22.67,M,15.25,M,5,3335*79
$GNRMC,112416.000,A,2500.8134600,N,12132.4738400,E,0.01,234.24,260623,,,D,V*0F
$GPHDT,,T*1B
$GNACCURACY,3.1*14
$GNGGA,112416.100,2500.8134600,N,12132.4738300,E,2,68,0.42,22.64,M,15.25,M,5,3335*7C
$GNRMC,112416.100,A,2500.8134600,N,12132.4738300,E,0.01,234.24,260623,,,D,V*09
$GPHDT,,T*1B
$GNGSA,A,3,24,196,199,18,23,15,195,194,05,12,10,,0.76,0.42,0.63,1*00
$GNGSA,A,3,80,70,73,85,86,71,69,79,,,,,0.76,0.42,0.63,2*0F
$GNGSA,A,3,13,08,07,26,30,02,15,03,,,,,0.76,0.42,0.63,3*0E
$GNGSA,A,3,38,08,39,13,16,06,46,09,19,20,36,37,0.76,0.42,0.63,4*0C
$GNGSA,A,3,35,29,22,,,,,,,,,,0.76,0.42,0.63,4*0B
$GPGSV,4,1,16,24,75,045,46,196,75,064,41,199,60,167,21,18,59,249,28,1*6E
$GPGSV,4,2,16,23,50,338,25,41,38,241,39,15,37,046,45,195,34,180,30,1*5E
$GPGSV,4,3,16,194,30,139,41,05,20,118,24,12,19,142,34,10,17,318,36,1*5F
$GPGSV,4,4,16,13,09,056,19,32,09,268,34,25,08,177,,29,01,197,,1*6B
$GPGSV,3,1,09,196,75,064,43,24,75,045,47,199,60,167,42,18,59,249,38,8*69
$GPGSV,3,2,09,23,50,338,37,195,34,180,24,194,30,139,33,10,17,318,31,8*63
$GPGSV,3,3,09,32,09,268,35,8*56
$GLGSV,2,1,08,80,48,079,46,70,40,009,16,73,37,160,23,85,36,247,36,1*7C
$GLGSV,2,2,08,86,27,303,45,71,21,313,41,69,13,072,28,79,12,033,20,1*76
$GAGSV,3,1,09,13,57,233,31,08,47,024,26,07,44,302,43,26,32,308,41,7*7B
$GAGSV,3,2,09,30,25,144,36,02,25,086,37,15,24,174,25,03,11,063,14,7*70
$GAGSV,3,3,09,25,03,044,,7*4E
$GAGSV,2,1,08,13,57,233,36,08,47,024,31,07,44,302,45,26,32,308,41,1*7A
$GAGSV,2,2,08,02,25,086,36,30,25,144,39,15,24,174,22,03,11,063,19,1*72
$GBGSV,4,1,15,38,83,105,28,08,78,004,35,39,71,281,37,13,68,335,39,1*7C
$GBGSV,4,2,15,16,66,256,41,06,65,252,38,46,59,114,43,09,49,237,23,1*72
$GBGSV,4,3,15,19,48,344,30,20,43,061,27,36,34,184,26,37,23,048,35,1*72
$GBGSV,4,4,15,35,21,270,29,29,20,212,27,22,11,300,32,1*46
$GBGSV,3,1,10,38,83,105,31,39,71,281,36,46,59,114,42,19,48,344,32,4*7E
$GBGSV,3,2,10,20,43,061,29,36,34,184,29,37,23,048,31,35,21,270,33,4*75
$GBGSV,3,3,10,29,20,212,18,22,11,300,28,4*7A
$GNACCURACY,3.1*14
$PAIRSAT,1,35,1,0,200,2,0,200,3,0,200,4,0,200,5,0,201,6,0,200,7,0,200,8,0,200,9,0,200,10,0,221,11,0,200,12,0,201,13,0,201,14,0,200,15,0,201,16,0,200,17,0,200,18,0,221,19,0,200,20,0,200,21,0,200,23,0,221,24,0,221,25,0,200,26,0,200,27,0,200,28,0,200,29,0,200,30,0,200,31,0,200,32,0,221,194,0,621,195,0,621,196,0,620,199,0,621*68
$PAIRSAT,2,23,65,0,200,67,0,200,68,0,200,69,0,201,70,0,201,71,0,201,72,0,200,73,0,201,74,0,200,75,0,200,76,0,200,77,0,200,78,0,200,79,0,201,80,0,201,81,0,200,82,0,200,83,0,200,84,0,200,85,0,201,86,0,201,87,0,200,88,0,200*53
$PAIRSAT,3,23,2,0,1221,3,0,1221,4,0,1200,5,0,200,7,0,1221,8,0,1221,9,0,1200,10,0,1200,11,0,1200,12,0,1200,13,0,1221,15,0,1221,19,0,1200,21,0,1200,24,0,1200,25,0,1200,26,0,1221,27,0,1200,30,0,1221,31,0,1200,33,0,1200,34,0,1200,36,0,1200*6A
$PAIRSAT,4,50,1,0,200,2,0,200,3,0,200,4,0,200,5,0,200,6,0,201,7,0,200,8,0,201,9,0,201,10,0,200,11,0,200,12,0,200,13,0,201,14,0,200,15,0,200,16,0,201,19,0,621,20,0,621,21,0,600,22,0,621,23,0,600,24,0,600,25,0,600,26,0,600,27,0,600,28,0,600,29,0,621,30,0,600,31,0,200,32,0,600,33,0,600,34,0,600,35,0,621,36,0,621,37,0,621,38,0,621,39,0,621,40,0,600,41,0,600,42,0,600,43,0,600,44,0,600,45,0,600,46,0,621,56,0,200,57,0,200,58,0,200,59,0,600,60,0,600,61,0,600*41
$PAIRDGP,9,5,10,12,13,15,18,23,24,32*5E
$GNGGA,112416.200,2500.8134600,N,12132.4738300,E,2,68,0.42,22.62,M,15.25,M,5,3335*79
$GNRMC,112416.200,A,2500.8134600,N,12132.4738300,E,0.01,234.24,260623,,,D,V*0A
$GPHDT,,T*1B
$GNACCURACY,2.9*1D
$GNGGA,112416.300,2500.8134500,N,12132.4738200,E,2,68,0.42,22.60,M,15.25,M,5,3335*78
$GNRMC,112416.300,A,2500.8134500,N,12132.4738200,E,0.01,234.24,260623,,,D,V*09
$GPHDT,,T*1B
$GNACCURACY,2.9*1D
$GNGGA,112416.400,2500.8134500,N,12132.4738200,E,2,68,0.42,22.57,M,15.25,M,5,3335*7B
$GNRMC,112416.400,A,2500.8134500,N,12132.4738200,E,0.01,234.24,260623,,,D,V*0E
$GPHDT,,T*1B
$GNACCURACY,2.9*1D
$GNGGA,112416.500,2500.8134400,N,12132.4738200,E,2,67,0.42,22.55,M,15.25,M,5,3335*76
$GNRMC,112416.500,A,2500.8134400,N,12132.4738200,E,0.01,234.24,260623,,,D,V*0E
$GPHDT,,T*1B
$GNACCURACY,2.9*1D
$GNGGA,112416.600,2500.8134400,N,12132.4738200,E,2,68,0.42,22.53,M,15.25,M,5,3335*7C
$GNRMC,112416.600,A,2500.8134400,N,12132.4738200,E,0.01,234.24,260623,,,D,V*0D
$GPHDT,,T*1B
$GNACCURACY,2.9*1D
$GNGGA,112416.700,2500.8134400,N,12132.4738200,E,2,68,0.42,22.50,M,15.25,M,5,3335*7E
$GNRMC,112416.700,A,2500.8134400,N,12132.4738200,E,0.01,234.24,260623,,,D,V*0C
$GPHDT,,T*1B
$GNACCURACY,2.9*1D
$GNGGA,112416.800,2500.8134400,N,12132.4738100,E,2,68,0.42,22.48,M,15.25,M,5,3335*7B
$GNRMC,112416.800,A,2500.8134400,N,12132.4738100,E,0.01,234.24,260623,,,D,V*00
$GPHDT,,T*1B
$GNACCURACY,2.9*1D
$GNGGA,112416.900,2500.8134400,N,12132.4738100,E,2,68,0.42,22.45,M,15.25,M,5,3335*77
$GNRMC,112416.900,A,2500.8134400,N,12132.4738100,E,0.01,234.24,260623,,,D,V*01
$GPHDT,,T*1B
$GNACCURACY,2.9*1D
$GNGGA,112417.000,2500.8134400,N,12132.4738100,E,2,67,0.42,22.43,M,15.25,M,6,3335*75
$GNRMC,112417.000,A,2500.8134400,N,12132.4738100,E,0.01,234.24,260623,,,D,V*09
$GPHDT,,T*1B
$GNACCURACY,2.9*1D
$GNGGA,112417.100,2500.8134400,N,12132.4738100,E,2,67,0.42,22.41,M,15.25,M,6,3335*76
$GNRMC,112417.100,A,2500.8134400,N,12132.4738100,E,0.01,234.24,260623,,,D,V*08
$GPHDT,,T*1B
$GNGSA,A,3,196,24,199,18,23,15,195,194,05,12,10,,0.76,0.42,0.63,1*00
$GNGSA,A,3,80,70,73,85,86,71,69,79,,,,,0.76,0.42,0.63,2*0F
$GNGSA,A,3,13,08,07,26,30,02,15,03,,,,,0.76,0.42,0.63,3*0E
$GNGSA,A,3,38,08,39,13,16,06,46,09,19,20,36,37,0.76,0.42,0.63,4*0C
$GNGSA,A,3,35,29,22,,,,,,,,,,0.76,0.42,0.63,4*0B
$GPGSV,4,1,16,196,75,064,41,24,75,045,46,199,60,167,21,18,59,249,28,1*6E
$GPGSV,4,2,16,23,50,338,24,41,38,241,39,15,37,046,46,195,34,180,31,1*5D
$GPGSV,4,3,16,194,30,139,41,05,20,118,26,12,20,142,35,10,17,318,34,1*54
$GPGSV,4,4,16,13,09,056,18,32,09,268,34,25,08,177,,29,01,197,,1*6A
$GPGSV,3,1,09,196,75,064,43,24,75,045,47,199,60,167,42,18,59,249,37,8*66
$GPGSV,3,2,09,23,50,338,37,195,34,180,23,194,30,139,30,10,17,318,32,8*64
$GPGSV,3,3,09,32,09,268,35,8*56
$GLGSV,2,1,08,80,48,079,46,70,40,009,16,73,37,160,24,85,36,247,36,1*7B
$GLGSV,2,2,08,86,27,303,45,71,21,313,41,69,13,072,28,79,12,033,20,1*76
$GAGSV,3,1,09,13,57,233,31,08,47,024,27,07,44,302,43,26,32,308,41,7*7A
$GAGSV,3,2,09,30,25,144,36,02,25,086,37,15,24,174,25,03,11,063,15,7*71
$GAGSV,3,3,09,25,03,044,,7*4E
$GAGSV,2,1,08,13,57,233,36,08,47,024,31,07,44,302,45,26,32,308,41,1*7A
$GAGSV,2,2,08,02,25,086,36,30,25,144,39,15,24,174,22,03,11,063,18,1*73
$GBGSV,4,1,15,38,83,105,28,08,78,004,35,39,71,281,37,13,68,335,39,1*7C
$GBGSV,4,2,15,16,66,256,41,06,65,252,38,46,59,114,43,09,49,237,24,1*75
$GBGSV,4,3,15,19,48,344,31,20,43,061,28,36,34,184,25,37,23,048,35,1*7F
$GBGSV,4,4,15,35,21,270,30,29,20,212,26,22,11,300,31,1*4C
$GBGSV,3,1,10,38,83,105,31,39,71,281,35,46,59,114,42,19,48,344,32,4*7D
$GBGSV,3,2,10,20,43,061,29,36,34,184,29,37,23,048,30,35,21,270,31,4*76
$GBGSV,3,3,10,29,20,212,16,22,11,300,28,4*74
$GNACCURACY,2.9*1D
$PAIRSAT,1,35,1,0,200,2,0,200,3,0,200,4,0,200,5,0,201,6,0,200,7,0,200,8,0,200,9,0,200,10,0,221,11,0,200,12,0,201,13,0,201,14,0,200,15,0,201,16,0,200,17,0,200,18,0,221,19,0,200,20,0,200,21,0,200,23,0,221,24,0,221,25,0,200,26,0,200,27,0,200,28,0,200,29,0,200,30,0,200,31,0,200,32,0,221,194,0,621,195,0,621,196,0,620,199,0,621*68
$PAIRSAT,2,23,65,0,200,67,0,200,68,0,200,69,0,201,70,0,201,71,0,201,72,0,200,73,0,201,74,0,200,75,0,200,76,0,200,77,0,200,78,0,200,79,0,201,80,0,201,81,0,200,82,0,200,83,0,200,84,0,200,85,0,201,86,0,201,87,0,200,88,0,200*53
$PAIRSAT,3,23,2,0,1221,3,0,1221,4,0,1200,5,0,200,7,0,1221,8,0,1221,9,0,1200,10,0,1200,11,0,1200,12,0,1200,13,0,1221,15,0,1221,19,0,1200,21,0,1200,24,0,1200,25,0,1200,26,0,1221,27,0,1200,30,0,1221,31,0,1200,33,0,1200,34,0,1200,36,0,1200*6A
$PAIRSAT,4,50,1,0,200,2,0,200,3,0,200,4,0,200,5,0,200,6,0,201,7,0,200,8,0,201,9,0,201,10,0,200,11,0,200,12,0,200,13,0,201,14,0,200,15,0,200,16,0,201,19,0,621,20,0,621,21,0,600,22,0,621,23,0,600,24,0,600,25,0,600,26,0,600,27,0,600,28,0,600,29,0,621,30,0,600,31,0,200,32,0,600,33,0,600,34,0,600,35,0,621,36,0,621,37,0,621,38,0,621,39,0,621,40,0,600,41,0,600,42,0,600,43,0,600,44,0,600,45,0,600,46,0,621,56,0,200,57,0,200,58,0,200,59,0,600,60,0,600,61,0,600*41
$PAIRDGP,9,5,10,12,13,15,18,23,24,32*5E
$GNGGA,112417.200,2500.8134400,N,12132.4738100,E,2,68,0.42,22.38,M,15.25,M,5,3335*77
$GNRMC,112417.200,A,2500.8134400,N,12132.4738100,E,0.01,234.24,260623,,,D,V*0B
$GPHDT,,T*1B
$GNACCURACY,2.9*1D
$GNGGA,112417.300,2500.8134400,N,12132.4738000,E,2,68,0.42,22.36,M,15.25,M,5,3335*79
$GNRMC,112417.300,A,2500.8134400,N,12132.4738000,E,0.01,234.24,260623,,,D,V*0B
$GPHDT,,T*1B
$GNACCURACY,2.9*1D
$GNGGA,112417.400,2500.8134400,N,12132.4738000,E,2,68,0.42,22.34,M,15.25,M,5,3335*7C
$GNRMC,112417.400,A,2500.8134400,N,12132.4738000,E,0.01,234.24,260623,,,D,V*0C
$GPHDT,,T*1B
$GNACCURACY,2.9*1D
$GNGGA,112417.500,2500.8134400,N,12132.4738000,E,2,68,0.42,22.32,M,15.25,M,5,3335*7B
$GNRMC,112417.500,A,2500.8134400,N,12132.4738000,E,0.01,234.24,260623,,,D,V*0D
$GPHDT,,T*1B
$GNACCURACY,2.9*1D
$GNGGA,112417.600,2500.8134400,N,12132.4737900,E,2,67,0.42,22.29,M,15.25,M,5,3335*7B
$GNRMC,112417.600,A,2500.8134400,N,12132.4737900,E,0.01,234.24,260623,,,D,V*08
$GPHDT,,T*1B
$GNACCURACY,2.9*1D
$GNGGA,112417.700,2500.8134400,N,12132.4737900,E,2,67,0.42,22.27,M,15.25,M,5,3335*74
$GNRMC,112417.700,A,2500.8134400,N,12132.4737900,E,0.01,234.24,260623,,,D,V*09
$GPHDT,,T*1B
$GNACCURACY,2.9*1D
$GNGGA,112417.800,2500.8134400,N,12132.4737900,E,2,68,0.42,22.25,M,15.25,M,5,3335*76
$GNRMC,112417.800,A,2500.8134400,N,12132.4737900,E,0.01,234.24,260623,,,D,V*06
$GPHDT,,T*1B
