$FW : RTK35X,V1.1X0314AS,Lib20210517,1*54
$Tool : LOCOSYS , GNSS Firebird , v1.0.0.19*39
$---------------------------------------------------*2D
$GNACCURACY,2.8*1C
$GNGGA,112353.900,2500.8131700,N,12132.4737000,E,2,64,0.43,25.51,M,15.25,M,14,3335*46
$GNRMC,112353.900,A,2500.8131700,N,12132.4737000,E,0.02,234.24,260623,,,D,V*0C
$GPHDT,,T*1B
$GNACCURACY,2.8*1C
$GNGGA,112354.000,2500.8131700,N,12132.4737000,E,2,64,0.43,25.52,M,15.25,M,15,3335*4A
$GNRMC,112354.000,A,2500.8131700,N,12132.4737000,E,0.02,234.24,260623,,,D,V*02
$GPHDT,,T*1B
$GNACCURACY,2.8*1C
$GNGGA,112354.100,2500.8131700,N,12132.4737100,E,2,64,0.43,25.52,M,15.25,M,15,3335*4A
$GNRMC,112354.100,A,2500.8131700,N,12132.4737100,E,0.02,234.24,260623,,,D,V*02
$GPHDT,,T*1B
$GNGSA,A,3,24,196,199,18,23,15,195,194,05,12,10,,0.78,0.43,0.65,1*09
$GNGSA,A,3,80,70,73,85,86,71,69,79,,,,,0.78,0.43,0.65,2*06
$GNGSA,A,3,13,08,07,26,30,02,15,,,,,,0.78,0.43,0.65,3*04
$GNGSA,A,3,38,08,39,13,16,06,46,19,20,36,37,35,0.78,0.43,0.65,4*0A
$GNGSA,A,3,29,22,,,,,,,,,,,0.78,0.43,0.65,4*04
$GPGSV,4,1,16,24,75,045,45,196,75,064,40,199,60,167,22,18,59,249,26,1*61
$GPGSV,4,2,16,23,49,338,32,41,38,241,34,15,37,046,45,195,34,180,30,1*5D
$GPGSV,4,3,16,194,30,139,40,05,20,118,18,12,19,142,35,10,17,318,37,1*51
$GPGSV,4,4,16,13,09,056,19,32,09,268,19,25,08,177,,29,01,197,,1*64
$GPGSV,3,1,09,196,75,064,43,24,75,045,47,199,60,167,41,18,59,249,36,8*64
$GPGSV,3,2,09,23,49,338,32,195,34,180,19,194,30,139,32,10,17,318,31,8*61
$GPGSV,3,3,09,32,09,268,29,8*5B
$GLGSV,2,1,08,80,48,079,47,70,40,008,17,73,37,160,15,85,36,247,33,1*7D
$GLGSV,2,2,08,86,27,303,44,71,21,313,42,69,13,072,18,79,12,033,21,1*76
$GAGSV,3,1,09,13,57,233,28,08,47,024,29,07,44,302,43,26,32,308,41,7*7C
$GAGSV,3,2,09,30,25,144,34,02,25,087,35,15,24,174,24,03,11,063,,7*75
$GAGSV,3,3,09,25,03,044,,7*4E
$GAGSV,2,1,06,13,57,233,35,08,47,024,29,07,44,302,46,26,32,308,42,1*7E
$GAGSV,2,2,06,02,25,087,39,30,25,144,37,1*72
$GBGSV,4,1,15,38,83,104,28,08,78,004,37,39,71,281,36,13,68,335,40,1*70
$GBGSV,4,2,15,16,66,256,39,06,65,252,37,46,59,114,43,09,49,237,14,1*76
$GBGSV,4,3,15,19,48,343,28,20,43,061,24,36,34,184,32,37,23,048,36,1*79
$GBGSV,4,4,15,35,21,270,23,29,20,213,31,22,11,300,35,1*4D
$GBGSV,3,1,10,38,83,104,29,39,71,281,36,46,59,114,40,19,48,343,29,4*79
$GBGSV,3,2,10,20,43,061,31,36,34,184,24,37,23,048,30,35,21,270,31,4*72
$GBGSV,3,3,10,29,20,213,24,22,11,300,27,4*7B
$GNACCURACY,2.8*1C
$PAIRSAT,1,35,1,0,200,2,0,200,3,0,200,4,0,200,5,0,201,6,0,200,7,0,200,8,0,200,9,0,200,10,0,221,11,0,200,12,0,201,13,0,201,14,0,200,15,0,201,16,0,200,17,0,200,18,0,221,19,0,200,20,0,200,21,0,200,23,0,221,24,0,221,25,0,200,26,0,200,27,0,200,28,0,200,29,0,200,30,0,200,31,0,200,32,0,221,194,0,621,195,0,621,196,0,620,199,0,621*68
$PAIRSAT,2,23,65,0,200,67,0,200,68,0,200,69,0,201,70,0,201,71,0,201,72,0,200,73,0,201,74,0,200,75,0,200,76,0,200,77,0,200,78,0,200,79,0,201,80,0,201,81,0,200,82,0,200,83,0,200,84,0,200,85,0,201,86,0,201,87,0,200,88,0,200*53
$PAIRSAT,3,23,2,0,1221,3,0,1221,4,0,1200,5,0,200,7,0,1221,8,0,1221,9,0,1200,10,0,1200,11,0,1200,12,0,1200,13,0,1221,15,0,1221,19,0,1200,21,0,1200,24,0,1200,25,0,1200,26,0,1221,27,0,1200,30,0,1221,31,0,1200,33,0,1200,34,0,1200,36,0,1200*6A
$PAIRSAT,4,50,1,0,200,2,0,200,3,0,200,4,0,200,5,0,200,6,0,201,7,0,200,8,0,201,9,0,201,10,0,200,11,0,200,12,0,200,13,0,201,14,0,200,15,0,200,16,0,201,19,0,621,20,0,621,21,0,600,22,0,621,23,0,600,24,0,600,25,0,600,26,0,600,27,0,600,28,0,600,29,0,621,30,0,600,31,0,200,32,0,600,33,0,600,34,0,600,35,0,621,36,0,621,37,0,621,38,0,621,39,0,621,40,0,600,41,0,600,42,0,600,43,0,600,44,0,600,45,0,600,46,0,621,56,0,200,57,0,200,58,0,200,59,0,600,60,0,600,61,0,600*41
$PAIRDGP,9,5,10,12,13,15,18,23,24,32*5E
$GNGGA,112354.200,2500.8131600,N,12132.4737200,E,2,64,0.43,25.51,M,15.25,M,15,3335*48
$GNRMC,112354.200,A,2500.8131600,N,12132.4737200,E,0.02,234.24,260623,,,D,V*03
$GPHDT,,T*1B
$GNACCURACY,2.8*1C
$GNGGA,112354.300,2500.8131600,N,12132.4737200,E,2,63,0.43,25.51,M,15.25,M,15,3335*4E
$GNRMC,112354.300,A,2500.8131600,N,12132.4737200,E,0.02,234.24,260623,,,D,V*02
$GPHDT,,T*1B
$GNACCURACY,2.8*1C
$GNGGA,112354.400,2500.8131600,N,12132.4737200,E,2,63,0.43,25.50,M,15.25,M,15,3335*48
$GNRMC,112354.400,A,2500.8131600,N,12132.4737200,E,0.02,234.24,260623,,,D,V*05
$GPHDT,,T*1B
$GNACCURACY,2.8*1C
$GNGGA,112354.500,2500.8131600,N,12132.4737300,E,2,63,0.43,25.50,M,15.25,M,15,3335*48
$GNRMC,112354.500,A,2500.8131600,N,12132.4737300,E,0.02,234.24,260623,,,D,V*05
$GPHDT,,T*1B
$GNACCURACY,2.8*1C
$GNGGA,112354.600,2500.8131600,N,12132.4737300,E,2,63,0.43,25.50,M,15.25,M,15,3335*4B
$GNRMC,112354.600,A,2500.8131600,N,12132.4737300,E,0.02,234.24,260623,,,D,V*06
$GPHDT,,T*1B
$GNACCURACY,2.8*1C
$GNGGA,112354.700,2500.8131600,N,12132.4737400,E,2,63,0.43,25.50,M,15.25,M,15,3335*4D
$GNRMC,112354.700,A,2500.8131600,N,12132.4737400,E,0.02,234.24,260623,,,D,V*00
$GPHDT,,T*1B
$GNACCURACY,2.8*1C
$GNGGA,112354.800,2500.8131600,N,12132.4737500,E,2,63,0.43,25.49,M,15.25,M,15,3335*4B
$GNRMC,112354.800,A,2500.8131600,N,12132.4737500,E,0.02,234.24,260623,,,D,V*0E
$GPHDT,,T*1B
$GNACCURACY,2.8*1C
$GNGGA,112354.900,2500.8131500,N,12132.4737500,E,2,63,0.43,25.49,M,15.25,M,15,3335*49
$GNRMC,112354.900,A,2500.8131500,N,12132.4737500,E,0.02,234.24,260623,,,D,V*0C
$GPHDT,,T*1B
$GNACCURACY,2.8*1C
$GNGGA,112355.000,2500.8131500,N,12132.4737500,E,2,63,0.43,25.49,M,15.25,M,16,3335*42
$GNRMC,112355.000,A,2500.8131500,N,12132.4737500,E,0.02,234.24,260623,,,D,V*04
$GPHDT,,T*1B
$GNACCURACY,2.8*1C
$GNGGA,112355.100,2500.8131500,N,12132.4737500,E,2,64,0.43,25.48,M,15.25,M,16,3335*45
$GNRMC,112355.100,A,2500.8131500,N,12132.4737500,E,0.02,234.24,260623,,,D,V*05
$GPHDT,,T*1B
$GNGSA,A,3,24,196,199,18,23,15,195,194,05,12,10,,0.78,0.43,0.65,1*09
$GNGSA,A,3,80,70,73,85,86,71,69,79,,,,,0.78,0.43,0.65,2*06
$GNGSA,A,3,13,08,07,26,30,02,15,,,,,,0.78,0.43,0.65,3*04
$GNGSA,A,3,38,08,39,13,16,06,46,19,20,36,37,35,0.78,0.43,0.65,4*0A
$GNGSA,A,3,29,22,,,,,,,,,,,0.78,0.43,0.65,4*04
$GPGSV,4,1,16,24,75,045,45,196,75,064,40,199,60,167,22,18,59,249,25,1*62
$GPGSV,4,2,16,23,49,338,32,41,38,241,34,15,37,046,45,195,34,180,30,1*5D
$GPGSV,4,3,16,194,30,139,40,05,20,118,18,12,19,142,34,10,17,318,37,1*50
$GPGSV,4,4,16,13,09,056,19,32,09,268,22,25,08,177,,29,01,197,,1*6C
$GPGSV,3,1,09,196,75,064,43,24,75,045,46,199,60,167,41,18,59,249,35,8*66
$GPGSV,3,2,09,23,49,338,32,195,34,180,20,194,30,139,31,10,17,318,31,8*68
$GPGSV,3,3,09,32,09,268,30,8*53
$GLGSV,2,1,08,80,48,079,47,70,40,008,17,73,37,160,17,85,36,247,32,1*7E
$GLGSV,2,2,08,86,27,303,44,71,21,313,43,69,13,072,17,79,12,033,19,1*73
$GAGSV,3,1,09,13,57,233,29,08,47,024,29,07,44,302,43,26,32,308,41,7*7D
$GAGSV,3,2,09,30,25,144,34,02,25,087,35,15,24,174,25,03,11,063,,7*74
$GAGSV,3,3,09,25,03,044,,7*4E
$GAGSV,2,1,06,13,57,233,35,08,47,024,28,07,44,302,46,26,32,308,41,1*7C
$GAGSV,2,2,06,02,25,087,38,30,25,144,37,1*73
$GBGSV,4,1,15,38,83,104,28,08,78,004,37,39,71,281,36,13,68,335,40,1*70
$GBGSV,4,2,15,16,66,256,39,06,65,252,37,46,59,114,43,09,49,237,14,1*76
$GBGSV,4,3,15,19,48,343,28,20,43,061,24,36,34,184,32,37,23,048,36,1*79
$GBGSV,4,4,15,35,21,270,23,29,20,213,31,22,11,300,35,1*4D
$GBGSV,3,1,10,38,83,104,29,39,71,281,36,46,59,114,40,19,48,343,30,4*71
$GBGSV,3,2,10,20,43,061,30,36,34,184,23,37,23,048,31,35,21,270,29,4*7C
$GBGSV,3,3,10,29,20,213,26,22,11,300,27,4*79
$GNACCURACY,2.8*1C
$PAIRSAT,1,35,1,0,200,2,0,200,3,0,200,4,0,200,5,0,201,6,0,200,7,0,200,8,0,200,9,0,200,10,0,221,11,0,200,12,0,201,13,0,201,14,0,200,15,0,201,16,0,200,17,0,200,18,0,221,19,0,200,20,0,200,21,0,200,23,0,221,24,0,221,25,0,200,26,0,200,27,0,200,28,0,200,29,0,200,30,0,200,31,0,200,32,0,221,194,0,621,195,0,621,196,0,620,199,0,621*68
$PAIRSAT,2,23,65,0,200,67,0,200,68,0,200,69,0,201,70,0,201,71,0,201,72,0,200,73,0,201,74,0,200,75,0,200,76,0,200,77,0,200,78,0,200,79,0,201,80,0,201,81,0,200,82,0,200,83,0,200,84,0,200,85,0,201,86,0,201,87,0,200,88,0,200*53
$PAIRSAT,3,23,2,0,1221,3,0,1221,4,0,1200,5,0,200,7,0,1221,8,0,1221,9,0,1200,10,0,1200,11,0,1200,12,0,1200,13,0,1221,15,0,1221,19,0,1200,21,0,1200,24,0,1200,25,0,1200,26,0,1221,27,0,1200,30,0,1221,31,0,1200,33,0,1200,34,0,1200,36,0,1200*6A
$PAIRSAT,4,50,1,0,200,2,0,200,3,0,200,4,0,200,5,0,200,6,0,201,7,0,200,8,0,201,9,0,201,10,0,200,11,0,200,12,0,200,13,0,201,14,0,200,15,0,200,16,0,201,19,0,621,20,0,621,21,0,600,22,0,621,23,0,600,24,0,600,25,0,600,26,0,600,27,0,600,28,0,600,29,0,621,30,0,600,31,0,200,32,0,600,33,0,600,34,0,600,35,0,621,36,0,621,37,0,621,38,0,621,39,0,621,40,0,600,41,0,600,42,0,600,43,0,600,44,0,600,45,0,600,46,0,621,56,0,200,57,0,200,58,0,200,59,0,600,60,0,600,61,0,600*41
$PAIRDGP,9,5,10,12,13,15,18,23,24,32*5E
$GNGGA,112355.200,2500.8131500,N,12132.4737600,E,2,64,0.43,25.48,M,15.25,M,16,3335*45
$GNRMC,112355.200,A,2500.8131500,N,12132.4737600,E,0.02,234.24,260623,,,D,V*05
$GPHDT,,T*1B
$GNACCURACY,2.8*1C
$GNGGA,112355.300,2500.8131500,N,12132.4737600,E,2,64,0.43,25.48,M,15.25,M,16,3335*44
$GNRMC,112355.300,A,2500.8131500,N,12132.4737600,E,0.02,234.24,260623,,,D,V*04
$GPHDT,,T*1B
$GNACCURACY,2.8*1C
$GNGGA,112355.400,2500.8131500,N,12132.4737700,E,2,63,0.43,25.48,M,15.25,M,16,3335*45
$GNRMC,112355.400,A,2500.8131500,N,12132.4737700,E,0.02,234.24,260623,,,D,V*02
$GPHDT,,T*1B
$GNACCURACY,2.8*1C
$GNGGA,112355.500,2500.8131500,N,12132.4737700,E,2,63,0.43,25.48,M,15.25,M,16,3335*44
$GNRMC,112355.500,A,2500.8131500,N,12132.4737700,E,0.02,234.24,260623,,,D,V*03
$GPHDT,,T*1B
$GNACCURACY,2.8*1C
$GNGGA,112355.600,2500.8131400,N,12132.4737700,E,2,63,0.43,25.47,M,15.25,M,16,3335*49
$GNRMC,112355.600,A,2500.8131400,N,12132.4737700,E,0.02,234.24,260623,,,D,V*01
$GPHDT,,T*1B
$GNACCURACY,2.8*1C
$GNGGA,112355.700,2500.8131400,N,12132.4737800,E,2,63,0.42,25.47,M,15.25,M,16,3335*46
$GNRMC,112355.700,A,2500.8131400,N,12132.4737800,E,0.02,234.24,260623,,,D,V*0F
$GPHDT,,T*1B
$GNACCURACY,2.8*1C
$GNGGA,112355.800,2500.8131400,N,12132.4737800,E,2,63,0.43,25.46,M,15.25,M,16,3335*49
$GNRMC,112355.800,A,2500.8131400,N,12132.4737800,E,0.02,234.24,260623,,,D,V*00
$GPHDT,,T*1B
$GNACCURACY,2.8*1C
$GNGGA,112355.900,2500.8131400,N,12132.4737900,E,2,63,0.43,25.46,M,15.25,M,16,3335*49
$GNRMC,112355.900,A,2500.8131400,N,12132.4737900,E,0.02,234.24,260623,,,D,V*00
$GPHDT,,T*1B
$GNACCURACY,2.8*1C
$GNGGA,112356.000,2500.8131400,N,12132.4737900,E,2,63,0.43,25.45,M,15.25,M,17,3335*41
$GNRMC,112356.000,A,2500.8131400,N,12132.4737900,E,0.02,234.24,260623,,,D,V*0A
$GPHDT,,T*1B
$GNACCURACY,2.8*1C
$GNGGA,112356.100,2500.8131400,N,12132.4738000,E,2,63,0.43,25.45,M,15.25,M,17,3335*46
$GNRMC,112356.100,A,2500.8131400,N,12132.4738000,E,0.02,234.24,260623,,,D,V*0D
$GPHDT,,T*1B
$GNGSA,A,3,24,196,199,18,23,15,195,194,05,12,10,,0.78,0.43,0.65,1*09
$GNGSA,A,3,80,70,73,85,86,71,69,79,,,,,0.78,0.43,0.65,2*06
$GNGSA,A,3,13,08,07,26,02,30,15,,,,,,0.78,0.43,0.65,3*04
$GNGSA,A,3,38,08,39,13,16,06,46,19,20,36,37,35,0.78,0.43,0.65,4*0A
$GNGSA,A,3,29,22,,,,,,,,,,,0.78,0.43,0.65,4*04
$GPGSV,4,1,16,24,75,045,45,196,75,064,40,199,60,167,22,18,59,249,24,1*63
$GPGSV,4,2,16,23,49,338,31,41,38,241,34,15,37,046,45,195,34,180,30,1*5E
$GPGSV,4,3,16,194,30,139,40,05,20,118,19,12,19,142,34,10,17,318,37,1*51
$GPGSV,4,4,16,13,09,056,19,32,09,268,25,25,08,177,,29,01,197,,1*6B
$GPGSV,3,1,09,196,75,064,43,24,75,045,46,199,60,167,41,18,59,249,36,8*65
$GPGSV,3,2,09,23,49,338,32,195,34,180,22,194,30,139,31,10,17,318,35,8*6E
$GPGSV,3,3,09,32,09,268,27,8*55
$GLGSV,2,1,08,80,48,079,47,70,40,008,16,73,37,160,17,85,36,247,33,1*7E
$GLGSV,2,2,08,86,27,303,44,71,21,313,43,69,13,072,17,79,12,033,20,1*79
$GAGSV,3,1,10,13,57,233,28,08,47,024,29,07,44,302,43,26,32,308,41,7*74
$GAGSV,3,2,10,02,25,087,35,30,25,144,35,15,24,174,25,03,11,063,,7*7D
$GAGSV,3,3,10,25,03,044,,27,01,189,,7*72
$GAGSV,2,1,06,13,57,233,36,08,47,024,29,07,44,302,46,26,32,308,41,1*7E
$GAGSV,2,2,06,02,25,087,38,30,25,144,37,1*73
$GBGSV,4,1,15,38,83,104,29,08,78,004,37,39,71,281,37,13,68,335,40,1*70
$GBGSV,4,2,15,16,66,256,39,06,65,252,37,46,59,114,43,09,49,237,11,1*73
$GBGSV,4,3,15,19,48,343,28,20,43,061,25,36,34,184,32,37,23,048,36,1*78
$GBGSV,4,4,15,35,21,270,22,29,20,212,31,22,11,300,35,1*4D
$GBGSV,3,1,10,38,83,104,29,39,71,281,36,46,59,114,40,19,48,343,30,4*71
$GBGSV,3,2,10,20,43,061,30,36,34,184,25,37,23,048,30,35,21,270,28,4*7A
$GBGSV,3,3,10,29,20,212,26,22,11,300,27,4*78
$GNACCURACY,2.8*1C
$PAIRSAT,1,35,1,0,200,2,0,200,3,0,200,4,0,200,5,0,201,6,0,200,7,0,200,8,0,200,9,0,200,10,0,221,11,0,200,12,0,201,13,0,201,14,0,200,15,0,201,16,0,200,17,0,200,18,0,221,19,0,200,20,0,200,21,0,200,23,0,221,24,0,221,25,0,200,26,0,200,27,0,200,28,0,200,29,0,200,30,0,200,31,0,200,32,0,221,194,0,621,195,0,621,196,0,620,199,0,621*68
$PAIRSAT,2,23,65,0,200,67,0,200,68,0,200,69,0,201,70,0,201,71,0,201,72,0,200,73,0,201,74,0,200,75,0,200,76,0,200,77,0,200,78,0,200,79,0,201,80,0,201,81,0,200,82,0,200,83,0,200,84,0,200,85,0,201,86,0,201,87,0,200,88,0,200*53
$PAIRSAT,3,23,2,0,1221,3,0,1221,4,0,1200,5,0,200,7,0,1221,8,0,1221,9,0,1200,10,0,1200,11,0,1200,12,0,1200,13,0,1221,15,0,1221,19,0,1200,21,0,1200,24,0,1200,25,0,1200,26,0,1221,27,0,1200,30,0,1221,31,0,1200,33,0,1200,34,0,1200,36,0,1200*6A
$PAIRSAT,4,50,1,0,200,2,0,200,3,0,200,4,0,200,5,0,200,6,0,201,7,0,200,8,0,201,9,0,201,10,0,200,11,0,200,12,0,200,13,0,201,14,0,200,15,0,200,16,0,201,19,0,621,20,0,621,21,0,600,22,0,621,23,0,600,24,0,600,25,0,600,26,0,600,27,0,600,28,0,600,29,0,621,30,0,600,31,0,200,32,0,600,33,0,600,34,0,600,35,0,621,36,0,621,37,0,621,38,0,621,39,0,621,40,0,600,41,0,600,42,0,600,43,0,600,44,0,600,45,0,600,46,0,621,56,0,200,57,0,200,58,0,200,59,0,600,60,0,600,61,0,600*41
$PAIRDGP,9,5,10,12,13,15,18,23,24,32*5E
$GNGGA,112356.200,2500.8131400,N,12132.4738100,E,2,64,0.43,25.44,M,15.25,M,17,3335*42
$GNRMC,112356.200,A,2500.8131400,N,12132.4738100,E,0.02,234.24,260623,,,D,V*0F
$GPHDT,,T*1B
$GNACCURACY,2.8*1C
$GNGGA,112356.300,2500.8131400,N,12132.4738100,E,2,64,0.43,25.43,M,15.25,M,17,3335*44
$GNRMC,112356.300,A,2500.8131400,N,12132.4738100,E,0.02,234.24,260623,,,D,V*0E
$GPHDT,,T*1B
$GNACCURACY,2.8*1C
$GNGGA,112356.400,2500.8131400,N,12132.4738100,E,2,64,0.43,25.42,M,15.25,M,17,3335*42
$GNRMC,112356.400,A,2500.8131400,N,12132.4738100,E,0.02,234.24,260623,,,D,V*09
$GPHDT,,T*1B
$GNACCURACY,2.8*1C
$GNGGA,112356.500,2500.8131400,N,12132.4738200,E,2,64,0.43,25.41,M,15.25,M,17,3335*43
$GNRMC,112356.500,A,2500.8131400,N,12132.4738200,E,0.02,234.24,260623,,,D,V*0B
$GPHDT,,T*1B
$GNACCURACY,2.8*1C
$GNGGA,112356.600,2500.8131400,N,12132.4738200,E,2,64,0.43,25.40,M,15.25,M,17,3335*41
$GNRMC,112356.600,A,2500.8131400,N,12132.4738200,E,0.02,234.24,260623,,,D,V*08
$GPHDT,,T*1B
$GNACCURACY,2.8*1C
$GNGGA,112356.700,2500.8131400,N,12132.4738300,E,2,64,0.43,25.39,M,15.25,M,17,3335*4F
$GNRMC,112356.700,A,2500.8131400,N,12132.4738300,E,0.02,234.24,260623,,,D,V*08
$GPHDT,,T*1B
$GNACCURACY,2.8*1C
$GNGGA,112356.800,2500.8131400,N,12132.4738400,E,2,64,0.43,25.38,M,15.25,M,17,3335*46
$GNRMC,112356.800,A,2500.8131400,N,12132.4738400,E,0.02,234.24,260623,,,D,V*00
$GPHDT,,T*1B
$GNACCURACY,2.9*1D
$GNGGA,112356.900,2500.8131300,N,12132.4738400,E,2,64,0.43,25.38,M,15.25,M,17,3335*40
$GNRMC,112356.900,A,2500.8131300,N,12132.4738400,E,0.02,234.24,260623,,,D,V*06
$GPHDT,,T*1B
$GNACCURACY,2.9*1D
$GNGGA,112357.000,2500.8131300,N,12132.4738500,E,2,64,0.43,25.37,M,15.25,M,18,3335*49
$GNRMC,112357.000,A,2500.8131300,N,12132.4738500,E,0.02,234.24,260623,,,D,V*0F
$GPHDT,,T*1B
$GNACCURACY,2.9*1D
$GNGGA,112357.100,2500.8131300,N,12132.4738500,E,2,64,0.43,25.35,M,15.25,M,18,3335*4A
$GNRMC,112357.100,A,2500.8131300,N,12132.4738500,E,0.02,234.24,260623,,,D,V*0E
$GPHDT,,T*1B
$GNGSA,A,3,24,196,199,18,23,15,195,194,05,12,10,,0.78,0.43,0.65,1*09
$GNGSA,A,3,80,70,73,85,86,71,69,79,,,,,0.78,0.43,0.65,2*06
$GNGSA,A,3,13,08,07,26,02,30,15,,,,,,0.78,0.43,0.65,3*04
$GNGSA,A,3,38,08,39,13,16,06,46,19,20,36,37,35,0.78,0.43,0.65,4*0A
$GNGSA,A,3,29,22,,,,,,,,,,,0.78,0.43,0.65,4*04
$GPGSV,4,1,16,24,75,045,46,196,75,064,40,199,60,167,22,18,59,249,26,1*62
$GPGSV,4,2,16,23,49,338,31,41,38,241,35,15,37,046,45,195,34,180,30,1*5F
$GPGSV,4,3,16,194,30,139,40,05,20,118,22,12,19,142,34,10,17,318,37,1*59
$GPGSV,4,4,16,13,09,056,18,32,09,268,20,25,08,177,,29,01,197,,1*6F
$GPGSV,3,1,09,196,75,064,43,24,75,045,46,199,60,167,41,18,59,249,36,8*65
$GPGSV,3,2,09,23,49,338,33,195,34,180,22,194,30,139,31,10,17,318,36,8*6C
$GPGSV,3,3,09,32,09,268,30,8*53
$GLGSV,2,1,08,80,48,079,47,70,40,008,16,73,37,160,13,85,36,247,32,1*7B
$GLGSV,2,2,08,86,27,303,44,71,21,313,42,69,13,072,17,79,12,033,18,1*73
$GAGSV,3,1,10,13,57,233,28,08,47,024,30,07,44,302,43,26,32,308,41,7*7C
$GAGSV,3,2,10,02,25,087,35,30,25,144,35,15,24,174,25,03,11,063,,7*7D
$GAGSV,3,3,10,25,03,044,,27,01,189,,7*72
$GAGSV,2,1,06,13,57,233,36,08,47,024,31,07,44,302,46,26,32,308,41,1*77
$GAGSV,2,2,06,02,25,087,39,30,25,144,37,1*72
$GBGSV,4,1,15,38,83,105,29,08,78,004,37,39,71,281,38,13,68,335,40,1*7E
$GBGSV,4,2,15,16,66,256,39,06,65,252,37,46,59,114,43,09,49,237,17,1*75
$GBGSV,4,3,15,19,48,343,28,20,43,061,25,36,34,184,30,37,23,048,36,1*7A
$GBGSV,4,4,15,35,21,270,31,29,20,212,30,22,11,300,34,1*4F
$GBGSV,3,1,10,38,83,105,30,39,71,281,36,46,59,114,40,19,48,343,29,4*70
$GBGSV,3,2,10,20,43,061,30,36,34,184,26,37,23,048,30,35,21,270,32,4*72
$GBGSV,3,3,10,29,20,212,26,22,11,300,26,4*79
$GNACCURACY,2.9*1D
$PAIRSAT,1,35,1,0,200,2,0,200,3,0,200,4,0,200,5,0,201,6,0,200,7,0,200,8,0,200,9,0,200,10,0,221,11,0,200,12,0,201,13,0,201,14,0,200,15,0,201,16,0,200,17,0,200,18,0,221,19,0,200,20,0,200,21,0,200,23,0,221,24,0,221,25,0,200,26,0,200,27,0,200,28,0,200,29,0,200,30,0,200,31,0,200,32,0,221,194,0,621,195,0,621,196,0,620,199,0,621*68
$PAIRSAT,2,23,65,0,200,67,0,200,68,0,200,69,0,201,70,0,201,71,0,201,72,0,200,73,0,201,74,0,200,75,0,200,76,0,200,77,0,200,78,0,200,79,0,201,80,0,201,81,0,200,82,0,200,83,0,200,84,0,200,85,0,201,86,0,201,87,0,200,88,0,200*53
$PAIRSAT,3,23,2,0,1221,3,0,1221,4,0,1200,5,0,200,7,0,1221,8,0,1221,9,0,1200,10,0,1200,11,0,1200,12,0,1200,13,0,1221,15,0,1221,19,0,1200,21,0,1200,24,0,1200,25,0,1200,26,0,1221,27,0,1200,30,0,1221,31,0,1200,33,0,1200,34,0,1200,36,0,1200*6A
$PAIRSAT,4,50,1,0,200,2,0,200,3,0,200,4,0,200,5,0,200,6,0,201,7,0,200,8,0,201,9,0,201,10,0,200,11,0,200,12,0,200,13,0,201,14,0,200,15,0,200,16,0,201,19,0,621,20,0,621,21,0,600,22,0,621,23,0,600,24,0,600,25,0,600,26,0,600,27,0,600,28,0,600,29,0,621,30,0,600,31,0,200,32,0,600,33,0,600,34,0,600,35,0,621,36,0,621,37,0,621,38,0,621,39,0,621,40,0,600,41,0,600,42,0,600,43,0,600,44,0,600,45,0,600,46,0,621,56,0,200,57,0,200,58,0,200,59,0,600,60,0,600,61,0,600*41
$PAIRDGP,9,5,10,12,13,15,18,23,24,32*5E
$GNGGA,112357.200,2500.8131300,N,12132.4738500,E,2,64,0.43,25.35,M,15.25,M,18,3335*49
$GNRMC,112357.200,A,2500.8131300,N,12132.4738500,E,0.02,234.24,260623,,,D,V*0D
$GPHDT,,T*1B
$GNACCURACY,2.9*1D
$GNGGA,112357.300,2500.8131300,N,12132.4738600,E,2,64,0.43,25.34,M,15.25,M,18,3335*4A
$GNRMC,112357.300,A,2500.8131300,N,12132.4738600,E,0.02,234.24,260623,,,D,V*0F
$GPHDT,,T*1B
$GNACCURACY,2.9*1D
$GNGGA,112357.400,2500.8131200,N,12132.4738600,E,2,64,0.43,25.33,M,15.25,M,18,3335*4B
$GNRMC,112357.400,A,2500.8131200,N,12132.4738600,E,0.02,234.24,260623,,,D,V*09
$GPHDT,,T*1B
$GNACCURACY,2.9*1D
$GNGGA,112357.500,2500.8131200,N,12132.4738600,E,2,64,0.43,25.32,M,15.25,M,18,3335*4B
$GNRMC,112357.500,A,2500.8131200,N,12132.4738600,E,0.02,234.24,260623,,,D,V*08
$GPHDT,,T*1B
$GNACCURACY,2.9*1D
$GNGGA,112357.600,2500.8131200,N,12132.4738700,E,2,64,0.43,25.31,M,15.25,M,18,3335*4A
$GNRMC,112357.600,A,2500.8131200,N,12132.4738700,E,0.02,234.24,260623,,,D,V*0A
$GPHDT,,T*1B
$GNACCURACY,2.9*1D
$GNGGA,112357.700,2500.8131100,N,12132.4738700,E,2,65,0.42,25.30,M,15.25,M,18,3335*49
$GNRMC,112357.700,A,2500.8131100,N,12132.4738700,E,0.02,234.24,260623,,,D,V*08
$GPHDT,,T*1B
$GNACCURACY,2.9*1D
$GNGGA,112357.800,2500.8131100,N,12132.4738700,E,2,65,0.42,25.29,M,15.25,M,18,3335*4E
$GNRMC,112357.800,A,2500.8131100,N,12132.4738700,E,0.02,234.24,260623,,,D,V*07
$GPHDT,,T*1B
$GNACCURACY,2.9*1D
$GNGGA,112357.900,2500.8131100,N,12132.4738700,E,2,65,0.42,25.28,M,15.25,M,18,3335*4E
$GNRMC,112357.900,A,2500.8131100,N,12132.4738700,E,0.02,234.24,260623,,,D,V*06
$GPHDT,,T*1B
$GNACCURACY,2.9*1D
$GNGGA,112358.000,2500.8131100,N,12132.4738700,E,2,65,0.42,25.27,M,15.25,M,19,3335*46
$GNRMC,112358.000,A,2500.8131100,N,12132.4738700,E,0.02,234.24,260623,,,D,V*00
$GPHDT,,T*1B
$GNACCURACY,2.9*1D
$GNGGA,112358.100,2500.8131100,N,12132.4738700,E,2,65,0.42,25.25,M,15.25,M,19,3335*45
$GNRMC,112358.100,A,2500.8131100,N,12132.4738700,E,0.02,234.24,260623,,,D,V*01
$GPHDT,,T*1B
$GNGSA,A,3,24,196,199,18,23,15,195,194,05,12,10,,0.78,0.42,0.65,1*08
$GNGSA,A,3,80,70,73,85,86,71,69,79,,,,,0.78,0.42,0.65,2*07
$GNGSA,A,3,13,08,07,26,02,30,15,,,,,,0.78,0.42,0.65,3*05
$GNGSA,A,3,38,08,39,13,16,06,46,09,19,20,36,37,0.78,0.42,0.65,4*04
$GNGSA,A,3,35,29,22,,,,,,,,,,0.78,0.42,0.65,4*03
$GPGSV,4,1,16,24,75,045,46,196,75,064,40,199,60,167,22,18,59,249,26,1*62
$GPGSV,4,2,16,23,49,338,29,41,38,241,35,15,37,046,45,195,34,180,30,1*56
$GPGSV,4,3,16,194,30,139,40,05,20,118,21,12,19,142,34,10,17,318,37,1*5A
$GPGSV,4,4,16,13,09,056,19,32,09,268,26,25,08,177,,29,01,197,,1*68
$GPGSV,3,1,09,196,75,064,44,24,75,045,47,199,60,167,41,18,59,249,36,8*63
$GPGSV,3,2,09,23,49,338,33,195,34,180,22,194,30,139,30,10,17,318,36,8*6D
$GPGSV,3,3,09,32,09,268,31,8*52
$GLGSV,2,1,08,80,48,079,47,70,40,008,16,73,37,160,13,85,36,247,32,1*7B
$GLGSV,2,2,08,86,27,303,44,71,21,313,42,69,13,072,17,79,12,033,17,1*7C
$GAGSV,3,1,10,13,57,233,29,08,47,024,28,07,44,302,43,26,32,308,41,7*74
$GAGSV,3,2,10,02,25,087,35,30,25,144,35,15,24,174,25,03,11,063,,7*7D
$GAGSV,3,3,10,25,03,044,,27,01,189,,7*72
$GAGSV,2,1,06,13,57,233,36,08,47,024,29,07,44,302,46,26,32,308,41,1*7E
$GAGSV,2,2,06,02,25,087,39,30,25,144,37,1*72
$GBGSV,4,1,15,38,83,105,29,08,78,004,36,39,71,281,38,13,68,335,40,1*7F
$GBGSV,4,2,15,16,66,256,39,06,65,252,38,46,59,114,43,09,49,237,18,1*75
$GBGSV,4,3,15,19,48,343,27,20,43,061,23,36,34,184,29,37,23,048,35,1*78
$GBGSV,4,4,15,35,21,270,33,29,20,212,29,22,11,300,34,1*45
$GBGSV,3,1,10,38,83,105,29,39,71,281,36,46,59,114,40,19,48,343,30,4*70
$GBGSV,3,2,10,20,43,061,29,36,34,184,26,37,23,048,29,35,21,270,35,4*75
$GBGSV,3,3,10,29,20,212,24,22,11,300,27,4*7A
$GNACCURACY,2.9*1D
$PAIRSAT,1,35,1,0,200,2,0,200,3,0,200,4,0,200,5,0,201,6,0,200,7,0,200,8,0,200,9,0,200,10,0,221,11,0,200,12,0,201,13,0,201,14,0,200,15,0,201,16,0,200,17,0,200,18,0,221,19,0,200,20,0,200,21,0,200,23,0,221,24,0,221,25,0,200,26,0,200,27,0,200,28,0,200,29,0,200,30,0,200,31,0,200,32,0,221,194,0,621,195,0,621,196,0,620,199,0,621*68
$PAIRSAT,2,23,65,0,200,67,0,200,68,0,200,69,0,201,70,0,201,71,0,201,72,0,200,73,0,201,74,0,200,75,0,200,76,0,200,77,0,200,78,0,200,79,0,201,80,0,201,81,0,200,82,0,200,83,0,200,84,0,200,85,0,201,86,0,201,87,0,200,88,0,200*53
$PAIRSAT,3,23,2,0,1221,3,0,1221,4,0,1200,5,0,200,7,0,1221,8,0,1221,9,0,1200,10,0,1200,11,0,1200,12,0,1200,13,0,1221,15,0,1221,19,0,1200,21,0,1200,24,0,1200,25,0,1200,26,0,1221,27,0,1200,30,0,1221,31,0,1200,33,0,1200,34,0,1200,36,0,1200*6A
$PAIRSAT,4,50,1,0,200,2,0,200,3,0,200,4,0,200,5,0,200,6,0,201,7,0,200,8,0,201,9,0,201,10,0,200,11,0,200,12,0,200,13,0,201,14,0,200,15,0,200,16,0,201,19,0,621,20,0,621,21,0,600,22,0,621,23,0,600,24,0,600,25,0,600,26,0,600,27,0,600,28,0,600,29,0,621,30,0,600,31,0,200,32,0,600,33,0,600,34,0,600,35,0,621,36,0,621,37,0,621,38,0,621,39,0,621,40,0,600,41,0,600,42,0,600,43,0,600,44,0,600,45,0,600,46,0,621,56,0,200,57,0,200,58,0,200,59,0,600,60,0,600,61,0,600*41
$PAIRDGP,9,5,10,12,13,15,18,23,24,32*5E
$GNGGA,112358.200,2500.8131000,N,12132.4738800,E,2,65,0.42,25.24,M,15.25,M,19,3335*49
$GNRMC,112358.200,A,2500.8131000,N,12132.4738800,E,0.02,234.24,260623,,,D,V*0C
$GPHDT,,T*1B
$GNACCURACY,2.7*13
$GNGGA,112358.300,2500.8131000,N,12132.4738800,E,2,65,0.42,25.23,M,15.25,M,19,3335*4F
$GNRMC,112358.300,A,2500.8131000,N,12132.4738800,E,0.02,234.24,260623,,,D,V*0D
$GPHDT,,T*1B
$GNACCURACY,2.7*13
$GNGGA,112358.400,2500.8131000,N,12132.4738800,E,2,65,0.42,25.22,M,15.25,M,19,3335*49
$GNRMC,112358.400,A,2500.8131000,N,12132.4738800,E,0.01,234.24,260623,,,D,V*09
$GPHDT,,T*1B
$GNACCURACY,2.7*13
$GNGGA,112358.500,2500.8130900,N,12132.4738800,E,2,64,0.43,25.21,M,15.25,M,19,3335*43
$GNRMC,112358.500,A,2500.8130900,N,12132.4738800,E,0.01,234.24,260623,,,D,V*00
$GPHDT,,T*1B
$GNACCURACY,2.7*13
$GNGGA,112358.600,2500.8130900,N,12132.4738800,E,2,64,0.43,25.19,M,15.25,M,19,3335*4B
$GNRMC,112358.600,A,2500.8130900,N,12132.4738800,E,0.01,234.24,260623,,,D,V*03
$GPHDT,,T*1B
$GNACCURACY,2.7*13
$GNGGA,112358.700,2500.8130800,N,12132.4738800,E,2,64,0.43,25.18,M,15.25,M,19,3335*4A
$GNRMC,112358.700,A,2500.8130800,N,12132.4738800,E,0.01,234.24,260623,,,D,V*03
$GPHDT,,T*1B
$GNACCURACY,2.7*13
$GNGGA,112358.800,2500.8130800,N,12132.4738800,E,2,64,0.43,25.16,M,15.25,M,19,3335*4B
$GNRMC,112358.800,A,2500.8130800,N,12132.4738800,E,0.01,234.24,260623,,,D,V*0C
$GPHDT,,T*1B
$GNACCURACY,2.7*13
$GNGGA,112358.900,2500.8130800,N,12132.4738900,E,2,64,0.43,25.15,M,15.25,M,19,3335*48
$GNRMC,112358.900,A,2500.8130800,N,12132.4738900,E,0.01,234.24,260623,,,D,V*0C
$GPHDT,,T*1B
$GNACCURACY,2.7*13
$GNGGA,112359.000,2500.8130800,N,12132.4738900,E,2,64,0.43,25.14,M,15.25,M,20,3335*4B
$GNRMC,112359.000,A,2500.8130800,N,12132.4738900,E,0.01,234.24,260623,,,D,V*04
$GPHDT,,T*1B
$GNACCURACY,2.7*13
$GNGGA,112359.100,2500.8130700,N,12132.4739000,E,2,64,0.43,25.12,M,15.25,M,20,3335*4B
$GNRMC,112359.100,A,2500.8130700,N,12132.4739000,E,0.01,234.24,260623,,,D,V*02
$GPHDT,,T*1B
$GNGSA,A,3,24,196,199,18,23,15,195,194,05,12,10,,0.78,0.43,0.65,1*09
$GNGSA,A,3,80,70,85,86,71,69,79,,,,,,0.78,0.43,0.65,2*02
$GNGSA,A,3,13,08,07,26,02,30,15,,,,,,0.78,0.43,0.65,3*04
$GNGSA,A,3,38,08,39,13,16,06,46,09,19,20,36,37,0.78,0.43,0.65,4*05
$GNGSA,A,3,35,29,22,,,,,,,,,,0.78,0.43,0.65,4*02
$GPGSV,4,1,16,24,75,045,46,196,75,064,40,199,60,167,21,18,59,249,27,1*60
$GPGSV,4,2,16,23,49,338,29,41,38,241,35,15,37,046,45,195,34,180,30,1*56
$GPGSV,4,3,16,194,30,139,40,05,20,118,21,12,19,142,34,10,17,318,37,1*5A
$GPGSV,4,4,16,13,09,056,19,32,09,268,27,25,08,177,,29,01,197,,1*69
$GPGSV,3,1,09,196,75,064,44,24,75,045,47,199,60,167,41,18,59,249,36,8*63
$GPGSV,3,2,09,23,49,338,33,195,34,180,23,194,30,139,29,10,17,318,35,8*67
$GPGSV,3,3,09,32,09,268,31,8*52
$GLGSV,2,1,08,80,48,079,47,70,40,008,16,73,37,160,15,85,36,247,35,1*7A
$GLGSV,2,2,08,86,27,303,44,71,21,313,42,69,13,072,17,79,12,033,15,1*7E
$GAGSV,3,1,10,13,57,233,28,08,47,024,29,07,44,302,43,26,32,308,41,7*74
$GAGSV,3,2,10,02,25,087,35,30,25,144,35,15,24,174,26,03,11,063,,7*7E
$GAGSV,3,3,10,25,03,044,,27,01,189,,7*72
$GAGSV,2,1,06,13,57,233,36,08,47,024,29,07,44,302,46,26,32,308,41,1*7E
$GAGSV,2,2,06,02,25,087,39,30,25,144,37,1*72
$GBGSV,4,1,15,38,83,105,31,08,78,004,36,39,71,281,38,13,68,335,40,1*76
$GBGSV,4,2,15,16,66,256,40,06,65,252,38,46,59,114,43,09,49,237,19,1*7A
$GBGSV,4,3,15,19,48,343,27,20,43,061,24,36,34,184,29,37,23,048,35,1*7F
$GBGSV,4,4,15,35,21,270,33,29,20,212,29,22,11,300,34,1*45
$GBGSV,3,1,10,38,83,105,29,39,71,281,36,46,59,114,40,19,48,343,30,4*70
$GBGSV,3,2,10,20,43,061,29,36,34,184,25,37,23,048,29,35,21,270,35,4*76
$GBGSV,3,3,10,29,20,212,24,22,11,300,26,4*7B
$GNACCURACY,2.7*13
$PAIRSAT,1,35,1,0,200,2,0,200,3,0,200,4,0,200,5,0,201,6,0,200,7,0,200,8,0,200,9,0,200,10,0,221,11,0,200,12,0,201,13,0,201,14,0,200,15,0,201,16,0,200,17,0,200,18,0,221,19,0,200,20,0,200,21,0,200,23,0,221,24,0,221,25,0,200,26,0,200,27,0,200,28,0,200,29,0,200,30,0,200,31,0,200,32,0,221,194,0,621,195,0,621,196,0,620,199,0,621*68
$PAIRSAT,2,23,65,0,200,67,0,200,68,0,200,69,0,201,70,0,201,71,0,201,72,0,200,73,0,201,74,0,200,75,0,200,76,0,200,77,0,200,78,0,200,79,0,201,80,0,201,81,0,200,82,0,200,83,0,200,84,0,200,85,0,201,86,0,201,87,0,200,88,0,200*53
$PAIRSAT,3,23,2,0,1221,3,0,1221,4,0,1200,5,0,200,7,0,1221,8,0,1221,9,0,1200,10,0,1200,11,0,1200,12,0,1200,13,0,1221,15,0,1221,19,0,1200,21,0,1200,24,0,1200,25,0,1200,26,0,1221,27,0,1200,30,0,1221,31,0,1200,33,0,1200,34,0,1200,36,0,1200*6A
$PAIRSAT,4,50,1,0,200,2,0,200,3,0,200,4,0,200,5,0,200,6,0,201,7,0,200,8,0,201,9,0,201,10,0,200,11,0,200,12,0,200,13,0,201,14,0,200,15,0,200,16,0,201,19,0,621,20,0,621,21,0,600,22,0,621,23,0,600,24,0,600,25,0,600,26,0,600,27,0,600,28,0,600,29,0,621,30,0,600,31,0,200,32,0,600,33,0,600,34,0,600,35,0,621,36,0,621,37,0,621,38,0,621,39,0,621,40,0,600,41,0,600,42,0,600,43,0,600,44,0,600,45,0,600,46,0,621,56,0,200,57,0,200,58,0,200,59,0,600,60,0,600,61,0,600*41
$PAIRDGP,9,5,10,12,13,15,18,23,24,32*5E
$GNGGA,112359.200,2500.8130700,N,12132.4739000,E,2,64,0.43,25.11,M,15.25,M,20,3335*4B
$GNRMC,112359.200,A,2500.8130700,N,12132.4739000,E,0.01,234.24,260623,,,D,V*01
$GPHDT,,T*1B
$GNACCURACY,2.7*13
$GNGGA,112359.300,2500.8130700,N,12132.4739000,E,2,64,0.43,25.09,M,15.25,M,20,3335*43
$GNRMC,112359.300,A,2500.8130700,N,12132.4739000,E,0.01,234.24,260623,,,D,V*00
$GPHDT,,T*1B
$GNACCURACY,2.7*13
$GNGGA,112359.400,2500.8130700,N,12132.4739000,E,2,64,0.43,25.08,M,15.25,M,20,3335*45
$GNRMC,112359.400,A,2500.8130700,N,12132.4739000,E,0.01,234.24,260623,,,D,V*07
$GPHDT,,T*1B
$GNACCURACY,2.8*1C
$GNGGA,112359.500,2500.8130600,N,12132.4739000,E,2,64,0.43,25.07,M,15.25,M,20,3335*4A
$GNRMC,112