$FW : RTK35X,V1.1X0314AS,Lib20210517,1*54
$Tool : LOCOSYS , GNSS Firebird , v1.0.0.19*39
$---------------------------------------------------*2D
$GPHDT,,T*1B
$GNACCURACY,2.3*17
$GNGGA,112514.000,2500.8125700,N,12132.4712300,E,2,63,0.42,16.68,M,15.25,M,28,3335*48
$GNRMC,112514.000,A,2500.8125700,N,12132.4712300,E,0.06,234.24,260623,,,D,V*05
$GPHDT,,T*1B
$GNACCURACY,2.3*17
$GNGGA,112514.100,2500.8125700,N,12132.4712300,E,2,62,0.43,16.69,M,15.25,M,28,3335*48
$GNRMC,112514.100,A,2500.8125700,N,12132.4712300,E,0.06,234.24,260623,,,D,V*04
$GPHDT,,T*1B
$GNGSA,A,3,196,24,199,18,15,195,194,12,05,10,23,,0.76,0.43,0.63,1*01
$GNGSA,A,3,80,73,85,86,71,69,79,,,,,,0.76,0.43,0.63,2*09
$GNGSA,A,3,13,08,07,26,02,30,15,03,,,,,0.76,0.43,0.63,3*0F
$GNGSA,A,3,38,08,39,13,16,06,46,09,19,37,35,29,0.76,0.43,0.63,4*07
$GNGSA,A,3,22,20,,,,,,,,,,,0.76,0.43,0.63,4*05
$GPGSV,4,1,16,196,75,064,40,24,74,044,44,199,60,167,23,18,59,248,31,1*66
$GPGSV,4,2,16,23,50,338,20,41,38,242,39,15,37,046,32,195,34,180,20,1*59
$GPGSV,4,3,16,194,30,139,41,12,20,142,38,05,19,118,30,10,17,318,34,1*54
$GPGSV,4,4,16,25,09,177,,13,09,056,15,32,09,269,37,29,01,197,,1*64
$GPGSV,3,1,09,196,75,064,44,24,74,044,48,199,60,167,41,18,59,248,37,8*6C
$GPGSV,3,2,09,23,50,338,35,195,34,180,22,194,30,139,28,10,17,318,33,8*6F
$GPGSV,3,3,09,32,09,269,34,8*56
$GLGSV,2,1,08,80,48,078,42,70,40,009,16,73,37,159,21,85,36,247,40,1*70
$GLGSV,2,2,08,86,27,303,39,71,21,313,46,69,13,073,17,79,12,032,20,1*76
$GAGSV,3,1,10,13,57,232,33,08,47,025,26,07,44,302,44,26,32,307,43,7*7B
$GAGSV,3,2,10,02,26,086,37,30,25,144,36,15,23,174,17,03,10,064,21,7*7D
$GAGSV,3,3,10,25,03,043,,27,01,188,,7*74
$GAGSV,2,1,08,13,57,232,36,08,47,025,35,07,44,302,45,26,32,307,42,1*72
$GAGSV,2,2,08,02,26,086,38,30,25,144,40,15,23,174,18,03,10,064,21,1*72
$GBGSV,4,1,15,38,83,107,25,08,79,004,37,39,71,282,33,13,68,334,39,1*76
$GBGSV,4,2,15,16,66,257,41,06,65,253,35,46,59,113,43,09,49,238,16,1*71
$GBGSV,4,3,15,19,49,344,31,20,43,062,21,36,34,184,28,37,23,048,27,1*7A
$GBGSV,4,4,15,35,21,269,33,29,19,212,21,22,11,301,34,1*4E
$GBGSV,3,1,09,38,83,107,34,39,71,282,36,46,59,113,40,19,49,344,23,4*76
$GBGSV,3,2,09,20,43,062,20,37,23,048,20,35,21,269,38,29,19,212,25,4*75
$GBGSV,3,3,09,22,11,301,30,4*4B
$GNACCURACY,2.3*17
$PAIRSAT,1,35,1,0,200,2,0,200,3,0,200,4,0,200,5,0,201,6,0,200,7,0,200,8,0,200,9,0,200,10,0,221,11,0,200,12,0,201,13,0,201,14,0,200,15,0,201,16,0,200,17,0,200,18,0,221,19,0,200,20,0,200,21,0,200,23,0,221,24,0,221,25,0,200,26,0,200,27,0,200,28,0,200,29,0,200,30,0,200,31,0,200,32,0,221,194,0,621,195,0,621,196,0,620,199,0,621*68
$PAIRSAT,2,23,65,0,200,67,0,200,68,0,200,69,0,201,70,0,201,71,0,201,72,0,200,73,0,201,74,0,200,75,0,200,76,0,200,77,0,200,78,0,200,79,0,201,80,0,201,81,0,200,82,0,200,83,0,200,84,0,200,85,0,201,86,0,201,87,0,200,88,0,200*53
$PAIRSAT,3,23,2,0,1221,3,0,1221,4,0,1200,5,0,200,7,0,1221,8,0,1221,9,0,1200,10,0,1200,11,0,1200,12,0,1200,13,0,1221,15,0,1221,19,0,1200,21,0,1200,24,0,1200,25,0,1200,26,0,1221,27,0,1200,30,0,1221,31,0,1200,33,0,1200,34,0,1200,36,0,1200*6A
$PAIRSAT,4,50,1,0,200,2,0,200,3,0,200,4,0,200,5,0,200,6,0,201,7,0,200,8,0,201,9,0,201,10,0,200,11,0,200,12,0,200,13,0,201,14,0,200,15,0,200,16,0,201,19,0,621,20,0,621,21,0,600,22,0,621,23,0,600,24,0,600,25,0,600,26,0,600,27,0,600,28,0,600,29,0,621,30,0,600,31,0,200,32,0,600,33,0,600,34,0,600,35,0,621,36,0,621,37,0,621,38,0,621,39,0,621,40,0,600,41,0,600,42,0,600,43,0,600,44,0,600,45,0,600,46,0,621,56,0,200,57,0,200,58,0,200,59,0,600,60,0,600,61,0,600*41
$PAIRDGP,11,5,10,12,13,15,18,23,24,25,29,32*6B
$GNGGA,112514.200,2500.8125700,N,12132.4712300,E,2,62,0.43,16.70,M,15.25,M,28,3335*43
$GNRMC,112514.200,A,2500.8125700,N,12132.4712300,E,0.06,234.24,260623,,,D,V*07
$GPHDT,,T*1B
$GNACCURACY,2.3*17
$GNGGA,112514.300,2500.8125700,N,12132.4712400,E,2,62,0.43,16.70,M,15.25,M,28,3335*45
$GNRMC,112514.300,A,2500.8125700,N,12132.4712400,E,0.06,234.24,260623,,,D,V*01
$GPHDT,,T*1B
$GNACCURACY,2.3*17
$GNGGA,112514.400,2500.8125600,N,12132.4712400,E,2,62,0.43,16.71,M,15.25,M,28,3335*42
$GNRMC,112514.400,A,2500.8125600,N,12132.4712400,E,0.06,234.24,260623,,,D,V*07
$GPHDT,,T*1B
$GNACCURACY,2.3*17
$GNGGA,112514.500,2500.8125600,N,12132.4712500,E,2,64,0.42,16.72,M,15.25,M,28,3335*46
$GNRMC,112514.500,A,2500.8125600,N,12132.4712500,E,0.05,234.24,260623,,,D,V*04
$GPHDT,,T*1B
$GNACCURACY,2.3*17
$GNGGA,112514.600,2500.8125600,N,12132.4712600,E,2,65,0.42,16.73,M,15.25,M,28,3335*46
$GNRMC,112514.600,A,2500.8125600,N,12132.4712600,E,0.05,234.24,260623,,,D,V*04
$GPHDT,,T*1B
$GNACCURACY,2.3*17
$GNGGA,112514.700,2500.8125600,N,12132.4712600,E,2,66,0.42,16.73,M,15.25,M,28,3335*44
$GNRMC,112514.700,A,2500.8125600,N,12132.4712600,E,0.05,234.24,260623,,,D,V*05
$GPHDT,,T*1B
$GNACCURACY,2.3*17
$GNGGA,112514.800,2500.8125700,N,12132.4712700,E,2,66,0.42,16.74,M,15.25,M,28,3335*4C
$GNRMC,112514.800,A,2500.8125700,N,12132.4712700,E,0.05,234.24,260623,,,D,V*0A
$GPHDT,,T*1B
$GNACCURACY,2.3*17
$GNGGA,112514.900,2500.8125700,N,12132.4712700,E,2,66,0.42,16.74,M,15.25,M,28,3335*4D
$GNRMC,112514.900,A,2500.8125700,N,12132.4712700,E,0.05,234.24,260623,,,D,V*0B
$GPHDT,,T*1B
$GNACCURACY,2.3*17
$GNGGA,112515.000,2500.8125700,N,12132.4712800,E,2,66,0.42,16.75,M,15.25,M,29,3335*4A
$GNRMC,112515.000,A,2500.8125700,N,12132.4712800,E,0.05,234.24,260623,,,D,V*0C
$GPHDT,,T*1B
$GNACCURACY,2.3*17
$GNGGA,112515.100,2500.8125800,N,12132.4712900,E,2,66,0.42,16.75,M,15.25,M,29,3335*45
$GNRMC,112515.100,A,2500.8125800,N,12132.4712900,E,0.05,234.24,260623,,,D,V*03
$GPHDT,,T*1B
$GNGSA,A,3,196,24,199,18,23,15,195,194,12,05,10,,0.76,0.42,0.63,1*00
$GNGSA,A,3,80,70,73,85,86,71,69,79,,,,,0.76,0.42,0.63,2*0F
$GNGSA,A,3,13,08,07,26,02,30,15,03,,,,,0.76,0.42,0.63,3*0E
$GNGSA,A,3,38,08,39,13,16,06,46,09,19,36,37,35,0.76,0.42,0.63,4*08
$GNGSA,A,3,29,22,20,,,,,,,,,,0.76,0.42,0.63,4*0F
$GPGSV,4,1,16,196,75,064,40,24,74,044,46,199,60,167,24,18,59,248,33,1*61
$GPGSV,4,2,16,23,50,338,22,41,38,242,39,15,37,046,40,195,34,180,20,1*5E
$GPGSV,4,3,16,194,30,139,41,12,20,142,41,05,19,118,31,10,17,318,34,1*5B
$GPGSV,4,4,16,25,09,177,,13,09,056,13,32,09,269,37,29,01,197,,1*62
$GPGSV,3,1,09,196,75,064,43,24,74,044,47,199,60,167,41,18,59,248,37,8*64
$GPGSV,3,2,09,23,50,338,34,195,34,180,21,194,30,139,30,10,17,318,33,8*64
$GPGSV,3,3,09,32,09,269,33,8*51
$GLGSV,2,1,08,80,48,078,44,70,40,009,17,73,37,159,22,85,36,247,40,1*74
$GLGSV,2,2,08,86,27,303,39,71,21,313,46,69,13,073,18,79,12,032,19,1*73
$GAGSV,3,1,10,13,57,232,33,08,47,025,28,07,44,302,44,26,32,307,43,7*75
$GAGSV,3,2,10,02,26,086,37,30,25,144,36,15,23,174,18,03,10,064,21,7*72
$GAGSV,3,3,10,25,03,043,,27,01,188,,7*74
$GAGSV,2,1,08,13,57,232,35,08,47,025,33,07,44,302,44,26,32,307,42,1*76
$GAGSV,2,2,08,02,26,086,34,30,25,144,40,15,23,174,13,03,10,064,21,1*75
$GBGSV,4,1,15,38,83,107,21,08,79,004,37,39,71,282,35,13,68,334,39,1*74
$GBGSV,4,2,15,16,66,257,41,06,65,253,35,46,59,113,43,09,49,238,17,1*70
$GBGSV,4,3,15,19,49,344,30,20,43,062,20,36,34,184,28,37,23,048,36,1*7A
$GBGSV,4,4,15,35,21,269,34,29,19,212,21,22,11,301,36,1*4B
$GBGSV,3,1,09,38,83,107,34,39,71,282,37,46,59,113,40,19,49,344,23,4*77
$GBGSV,3,2,09,20,43,062,20,37,23,048,25,35,21,269,38,29,19,212,25,4*70
$GBGSV,3,3,09,22,11,301,31,4*4A
$GNACCURACY,2.3*17
$PAIRSAT,1,35,1,0,200,2,0,200,3,0,200,4,0,200,5,0,201,6,0,200,7,0,200,8,0,200,9,0,200,10,0,221,11,0,200,12,0,201,13,0,201,14,0,200,15,0,201,16,0,200,17,0,200,18,0,221,19,0,200,20,0,200,21,0,200,23,0,221,24,0,221,25,0,200,26,0,200,27,0,200,28,0,200,29,0,200,30,0,200,31,0,200,32,0,221,194,0,621,195,0,621,196,0,620,199,0,621*68
$PAIRSAT,2,23,65,0,200,67,0,200,68,0,200,69,0,201,70,0,201,71,0,201,72,0,200,73,0,201,74,0,200,75,0,200,76,0,200,77,0,200,78,0,200,79,0,201,80,0,201,81,0,200,82,0,200,83,0,200,84,0,200,85,0,201,86,0,201,87,0,200,88,0,200*53
$PAIRSAT,3,23,2,0,1221,3,0,1221,4,0,1200,5,0,200,7,0,1221,8,0,1221,9,0,1200,10,0,1200,11,0,1200,12,0,1200,13,0,1221,15,0,1221,19,0,1200,21,0,1200,24,0,1200,25,0,1200,26,0,1221,27,0,1200,30,0,1221,31,0,1200,33,0,1200,34,0,1200,36,0,1200*6A
$PAIRSAT,4,50,1,0,200,2,0,200,3,0,200,4,0,200,5,0,200,6,0,201,7,0,200,8,0,201,9,0,201,10,0,200,11,0,200,12,0,200,13,0,201,14,0,200,15,0,200,16,0,201,19,0,621,20,0,621,21,0,600,22,0,621,23,0,600,24,0,600,25,0,600,26,0,600,27,0,600,28,0,600,29,0,621,30,0,600,31,0,200,32,0,600,33,0,600,34,0,600,35,0,621,36,0,621,37,0,621,38,0,621,39,0,621,40,0,600,41,0,600,42,0,600,43,0,600,44,0,600,45,0,600,46,0,621,56,0,200,57,0,200,58,0,200,59,0,600,60,0,600,61,0,600*41
$PAIRDGP,11,5,10,12,13,15,18,23,24,25,29,32*6B
$GNGGA,112515.200,2500.8125900,N,12132.4713000,E,2,65,0.42,16.76,M,15.25,M,29,3335*4F
$GNRMC,112515.200,A,2500.8125900,N,12132.4713000,E,0.04,234.24,260623,,,D,V*08
$GPHDT,,T*1B
$GNACCURACY,2.3*17
$GNGGA,112515.300,2500.8125900,N,12132.4713100,E,2,65,0.42,16.76,M,15.25,M,29,3335*4F
$GNRMC,112515.300,A,2500.8125900,N,12132.4713100,E,0.04,234.24,260623,,,D,V*08
$GPHDT,,T*1B
$GNACCURACY,2.3*17
$GNGGA,112515.400,2500.8126000,N,12132.4713200,E,2,65,0.42,16.76,M,15.25,M,29,3335*41
$GNRMC,112515.400,A,2500.8126000,N,12132.4713200,E,0.04,234.24,260623,,,D,V*06
$GPHDT,,T*1B
$GNACCURACY,2.3*17
$GNGGA,112515.500,2500.8126100,N,12132.4713300,E,2,65,0.42,16.77,M,15.25,M,29,3335*41
$GNRMC,112515.500,A,2500.8126100,N,12132.4713300,E,0.04,234.24,260623,,,D,V*07
$GPHDT,,T*1B
$GNACCURACY,2.3*17
$GNGGA,112515.600,2500.8126100,N,12132.4713400,E,2,65,0.42,16.77,M,15.25,M,29,3335*45
$GNRMC,112515.600,A,2500.8126100,N,12132.4713400,E,0.04,234.24,260623,,,D,V*03
$GPHDT,,T*1B
$GNACCURACY,2.3*17
$GNGGA,112515.700,2500.8126200,N,12132.4713600,E,2,65,0.42,16.78,M,15.25,M,29,3335*4A
$GNRMC,112515.700,A,2500.8126200,N,12132.4713600,E,0.04,234.24,260623,,,D,V*03
$GPHDT,,T*1B
$GNACCURACY,2.3*17
$GNGGA,112515.800,2500.8126300,N,12132.4713700,E,2,64,0.42,16.78,M,15.25,M,29,3335*44
$GNRMC,112515.800,A,2500.8126300,N,12132.4713700,E,0.03,234.24,260623,,,D,V*0B
$GPHDT,,T*1B
$GNACCURACY,2.3*17
$GNGGA,112515.900,2500.8126400,N,12132.4713800,E,2,64,0.42,16.79,M,15.25,M,29,3335*4C
$GNRMC,112515.900,A,2500.8126400,N,12132.4713800,E,0.03,234.24,260623,,,D,V*02
$GPHDT,,T*1B
$GNACCURACY,2.3*17
$GNGGA,112516.000,2500.8126500,N,12132.4713900,E,2,64,0.42,16.79,M,15.25,M,30,3335*4E
$GNRMC,112516.000,A,2500.8126500,N,12132.4713900,E,0.03,234.24,260623,,,D,V*08
$GPHDT,,T*1B
$GNACCURACY,2.3*17
$GNGGA,112516.100,2500.8126600,N,12132.4714100,E,2,64,0.42,16.80,M,15.25,M,30,3335*45
$GNRMC,112516.100,A,2500.8126600,N,12132.4714100,E,0.03,234.24,260623,,,D,V*05
$GPHDT,,T*1B
$GNGSA,A,3,196,24,199,18,23,15,195,194,12,05,10,,0.76,0.42,0.63,1*00
$GNGSA,A,3,80,70,73,85,86,71,69,79,,,,,0.76,0.42,0.63,2*0F
$GNGSA,A,3,13,08,07,26,02,30,15,03,,,,,0.76,0.42,0.63,3*0E
$GNGSA,A,3,38,08,39,13,16,06,46,09,19,36,37,35,0.76,0.42,0.63,4*08
$GNGSA,A,3,29,22,20,,,,,,,,,,0.76,0.42,0.63,4*0F
$GPGSV,4,1,16,196,75,064,41,24,74,044,46,199,60,167,24,18,59,248,33,1*60
$GPGSV,4,2,16,23,50,338,22,41,38,242,39,15,37,046,41,195,34,180,20,1*5F
$GPGSV,4,3,16,194,30,139,41,12,20,142,41,05,19,118,31,10,17,318,34,1*5B
$GPGSV,4,4,16,25,09,177,,13,09,056,12,32,09,269,37,29,01,197,,1*63
$GPGSV,3,1,09,196,75,064,43,24,74,044,47,199,60,167,41,18,59,248,36,8*65
$GPGSV,3,2,09,23,50,338,34,195,34,180,23,194,30,139,32,10,17,318,33,8*64
$GPGSV,3,3,09,32,09,269,33,8*51
$GLGSV,2,1,08,80,48,078,44,70,40,009,14,73,37,159,23,85,36,247,40,1*76
$GLGSV,2,2,08,86,27,303,39,71,21,313,46,69,13,073,20,79,12,032,19,1*78
$GAGSV,3,1,10,13,57,232,33,08,47,025,29,07,44,302,44,26,32,307,43,7*74
$GAGSV,3,2,10,02,26,086,37,30,25,144,36,15,23,174,18,03,10,064,21,7*72
$GAGSV,3,3,10,25,03,043,,27,01,188,,7*74
$GAGSV,2,1,07,13,57,232,36,08,47,025,33,07,44,302,44,26,32,307,42,1*7A
$GAGSV,2,2,07,02,26,086,33,30,25,144,39,03,10,064,20,1*47
$GBGSV,4,1,15,38,83,107,20,08,79,004,37,39,71,282,34,13,68,334,39,1*74
$GBGSV,4,2,15,16,66,257,41,06,65,253,36,46,59,113,43,09,49,238,17,1*73
$GBGSV,4,3,15,19,49,344,30,20,43,062,18,36,34,184,29,37,23,048,36,1*70
$GBGSV,4,4,15,35,21,269,34,29,19,212,22,22,11,301,36,1*48
$GBGSV,3,1,10,38,83,107,34,39,71,282,37,46,59,113,40,19,49,344,23,4*7F
$GBGSV,3,2,10,20,43,062,22,36,34,184,21,37,23,048,26,35,21,269,38,4*70
$GBGSV,3,3,10,29,19,212,23,22,11,301,31,4*71
$GNACCURACY,2.3*17
$PAIRSAT,1,35,1,0,200,2,0,200,3,0,200,4,0,200,5,0,201,6,0,200,7,0,200,8,0,200,9,0,200,10,0,221,11,0,200,12,0,201,13,0,201,14,0,200,15,0,201,16,0,200,17,0,200,18,0,221,19,0,200,20,0,200,21,0,200,23,0,221,24,0,221,25,0,200,26,0,200,27,0,200,28,0,200,29,0,200,30,0,200,31,0,200,32,0,221,194,0,621,195,0,621,196,0,620,199,0,621*68
$PAIRSAT,2,23,65,0,200,67,0,200,68,0,200,69,0,201,70,0,201,71,0,201,72,0,200,73,0,201,74,0,200,75,0,200,76,0,200,77,0,200,78,0,200,79,0,201,80,0,201,81,0,200,82,0,200,83,0,200,84,0,200,85,0,201,86,0,201,87,0,200,88,0,200*53
$PAIRSAT,3,23,2,0,1221,3,0,1221,4,0,1200,5,0,200,7,0,1221,8,0,1221,9,0,1200,10,0,1200,11,0,1200,12,0,1200,13,0,1221,15,0,1221,19,0,1200,21,0,1200,24,0,1200,25,0,1200,26,0,1221,27,0,1200,30,0,1221,31,0,1200,33,0,1200,34,0,1200,36,0,1200*6A
$PAIRSAT,4,50,1,0,200,2,0,200,3,0,200,4,0,200,5,0,200,6,0,201,7,0,200,8,0,201,9,0,201,10,0,200,11,0,200,12,0,200,13,0,201,14,0,200,15,0,200,16,0,201,19,0,621,20,0,621,21,0,600,22,0,621,23,0,600,24,0,600,25,0,600,26,0,600,27,0,600,28,0,600,29,0,621,30,0,600,31,0,200,32,0,600,33,0,600,34,0,600,35,0,621,36,0,621,37,0,621,38,0,621,39,0,621,40,0,600,41,0,600,42,0,600,43,0,600,44,0,600,45,0,600,46,0,621,56,0,200,57,0,200,58,0,200,59,0,600,60,0,600,61,0,600*41
$PAIRDGP,11,5,10,12,13,15,18,23,24,25,29,32*6B
$GNGGA,112516.200,2500.8126700,N,12132.4714200,E,2,64,0.42,16.81,M,15.25,M,30,3335*45
$GNRMC,112516.200,A,2500.8126700,N,12132.4714200,E,0.03,234.24,260623,,,D,V*04
$GPHDT,,T*1B
$GNACCURACY,2.3*17
$GNGGA,112516.300,2500.8126800,N,12132.4714400,E,2,64,0.42,16.81,M,15.25,M,30,3335*4D
$GNRMC,112516.300,A,2500.8126800,N,12132.4714400,E,0.03,234.24,260623,,,D,V*0C
$GPHDT,,T*1B
$GNACCURACY,2.3*17
$GNGGA,112516.400,2500.8126900,N,12132.4714500,E,2,64,0.42,16.82,M,15.25,M,30,3335*49
$GNRMC,112516.400,A,2500.8126900,N,12132.4714500,E,0.02,234.24,260623,,,D,V*0A
$GPHDT,,T*1B
$GNACCURACY,2.3*17
$GNGGA,112516.500,2500.8127000,N,12132.4714600,E,2,64,0.42,16.83,M,15.25,M,30,3335*42
$GNRMC,112516.500,A,2500.8127000,N,12132.4714600,E,0.02,234.24,260623,,,D,V*00
$GPHDT,,T*1B
$GNACCURACY,2.3*17
$GNGGA,112516.600,2500.8127100,N,12132.4714800,E,2,63,0.42,16.83,M,15.25,M,30,3335*49
$GNRMC,112516.600,A,2500.8127100,N,12132.4714800,E,0.02,234.24,260623,,,D,V*0C
$GPHDT,,T*1B
$GNACCURACY,2.3*17
$GNGGA,112516.700,2500.8127200,N,12132.4714900,E,2,63,0.42,16.84,M,15.25,M,30,3335*4D
$GNRMC,112516.700,A,2500.8127200,N,12132.4714900,E,0.02,234.24,260623,,,D,V*0F
$GPHDT,,T*1B
$GNACCURACY,2.3*17
$GNGGA,112516.800,2500.8127300,N,12132.4715000,E,2,63,0.42,16.85,M,15.25,M,30,3335*4A
$GNRMC,112516.800,A,2500.8127300,N,12132.4715000,E,0.02,234.24,260623,,,D,V*09
$GPHDT,,T*1B
$GNACCURACY,2.3*17
$GNGGA,112516.900,2500.8127400,N,12132.4715100,E,2,63,0.42,16.86,M,15.25,M,30,3335*4E
$GNRMC,112516.900,A,2500.8127400,N,12132.4715100,E,0.01,234.24,260623,,,D,V*0D
$GPHDT,,T*1B
$GNACCURACY,2.3*17
$GNGGA,112517.000,2500.8127400,N,12132.4715300,E,2,64,0.42,16.87,M,15.25,M,31,3335*43
$GNRMC,112517.000,A,2500.8127400,N,12132.4715300,E,0.01,234.24,260623,,,D,V*07
$GPHDT,,T*1B
$GNACCURACY,2.3*17
$GNGGA,112517.100,2500.8127500,N,12132.4715400,E,2,64,0.42,16.88,M,15.25,M,31,3335*4B
$GNRMC,112517.100,A,2500.8127500,N,12132.4715400,E,0.01,234.24,260623,,,D,V*00
$GPHDT,,T*1B
$GNGSA,A,3,196,24,199,18,23,15,195,194,12,05,10,,0.76,0.42,0.63,1*00
$GNGSA,A,3,80,73,85,86,71,69,79,,,,,,0.76,0.42,0.63,2*08
$GNGSA,A,3,13,08,07,26,02,30,15,03,,,,,0.76,0.42,0.63,3*0E
$GNGSA,A,3,38,08,39,13,16,06,46,09,19,36,37,35,0.76,0.42,0.63,4*08
$GNGSA,A,3,29,22,20,,,,,,,,,,0.76,0.42,0.63,4*0F
$GPGSV,4,1,16,196,75,064,41,24,74,044,46,199,60,167,23,18,59,248,33,1*67
$GPGSV,4,2,16,23,50,338,21,41,38,242,39,15,37,046,42,195,34,180,22,1*5D
$GPGSV,4,3,16,194,30,139,41,12,20,142,40,05,19,118,32,10,17,318,33,1*5E
$GPGSV,4,4,16,25,09,177,,13,09,056,11,32,09,269,37,29,01,197,,1*60
$GPGSV,3,1,09,196,75,064,43,24,74,044,48,199,60,167,41,18,59,248,36,8*6A
$GPGSV,3,2,09,23,50,338,34,195,34,180,23,194,30,139,33,10,17,318,32,8*64
$GPGSV,3,3,09,32,09,269,33,8*51
$GLGSV,2,1,08,80,48,078,44,70,40,009,15,73,37,159,21,85,36,247,40,1*75
$GLGSV,2,2,08,86,27,303,39,71,21,313,46,69,13,073,20,79,12,032,19,1*78
$GAGSV,3,1,10,13,57,232,33,08,47,025,30,07,44,302,44,26,32,307,43,7*7C
$GAGSV,3,2,10,02,26,086,36,30,25,144,36,15,23,174,19,03,10,064,21,7*72
$GAGSV,3,3,10,25,03,043,,27,01,188,,7*74
$GAGSV,2,1,07,13,57,232,36,08,47,025,31,07,44,302,44,26,32,307,42,1*78
$GAGSV,2,2,07,02,26,086,34,30,25,144,39,03,10,064,19,1*4A
$GBGSV,4,1,15,38,83,107,20,08,79,004,37,39,71,282,34,13,68,334,39,1*74
$GBGSV,4,2,15,16,66,257,41,06,65,253,36,46,59,113,43,09,49,238,17,1*73
$GBGSV,4,3,15,19,49,344,30,20,43,062,,36,34,184,29,37,23,048,36,1*79
$GBGSV,4,4,15,35,21,269,34,29,19,212,20,22,11,301,36,1*4A
$GBGSV,3,1,10,38,83,107,34,39,71,282,37,46,59,113,41,19,49,344,23,4*7E
$GBGSV,3,2,10,20,43,062,23,36,34,184,26,37,23,048,27,35,21,269,38,4*77
$GBGSV,3,3,10,29,19,212,23,22,11,301,32,4*72
$GNACCURACY,2.3*17
$PAIRSAT,1,35,1,0,200,2,0,200,3,0,200,4,0,200,5,0,201,6,0,200,7,0,200,8,0,200,9,0,200,10,0,221,11,0,200,12,0,201,13,0,201,14,0,200,15,0,201,16,0,200,17,0,200,18,0,221,19,0,200,20,0,200,21,0,200,23,0,221,24,0,221,25,0,200,26,0,200,27,0,200,28,0,200,29,0,200,30,0,200,31,0,200,32,0,221,194,0,621,195,0,621,196,0,620,199,0,621*68
$PAIRSAT,2,23,65,0,200,67,0,200,68,0,200,69,0,201,70,0,201,71,0,201,72,0,200,73,0,201,74,0,200,75,0,200,76,0,200,77,0,200,78,0,200,79,0,201,80,0,201,81,0,200,82,0,200,83,0,200,84,0,200,85,0,201,86,0,201,87,0,200,88,0,200*53
$PAIRSAT,3,23,2,0,1221,3,0,1221,4,0,1200,5,0,200,7,0,1221,8,0,1221,9,0,1200,10,0,1200,11,0,1200,12,0,1200,13,0,1221,15,0,1221,19,0,1200,21,0,1200,24,0,1200,25,0,1200,26,0,1221,27,0,1200,30,0,1221,31,0,1200,33,0,1200,34,0,1200,36,0,1200*6A
$PAIRSAT,4,50,1,0,200,2,0,200,3,0,200,4,0,200,5,0,200,6,0,201,7,0,200,8,0,201,9,0,201,10,0,200,11,0,200,12,0,200,13,0,201,14,0,200,15,0,200,16,0,201,19,0,621,20,0,621,21,0,600,22,0,621,23,0,600,24,0,600,25,0,600,26,0,600,27,0,600,28,0,600,29,0,621,30,0,600,31,0,200,32,0,600,33,0,600,34,0,600,35,0,621,36,0,621,37,0,621,38,0,621,39,0,621,40,0,600,41,0,600,42,0,600,43,0,600,44,0,600,45,0,600,46,0,621,56,0,200,57,0,200,58,0,200,59,0,600,60,0,600,61,0,600*41
$PAIRDGP,11,5,10,12,13,15,18,23,24,25,29,32*6B
$GNGGA,112517.200,2500.8127700,N,12132.4715500,E,2,64,0.42,16.88,M,15.25,M,31,3335*4B
$GNRMC,112517.200,A,2500.8127700,N,12132.4715500,E,0.01,234.24,260623,,,D,V*00
$GPHDT,,T*1B
$GNACCURACY,2.2*16
$GNGGA,112517.300,2500.8127700,N,12132.4715600,E,2,64,0.42,16.89,M,15.25,M,31,3335*48
$GNRMC,112517.300,A,2500.8127700,N,12132.4715600,E,0.01,234.24,260623,,,D,V*02
$GPHDT,,T*1B
$GNACCURACY,2.2*16
$GNGGA,112517.400,2500.8127800,N,12132.4715600,E,2,64,0.42,16.89,M,15.25,M,31,3335*40
$GNRMC,112517.400,A,2500.8127800,N,12132.4715600,E,0.01,234.24,260623,,,D,V*0A
$GPHDT,,T*1B
$GNACCURACY,2.2*16
$GNGGA,112517.500,2500.8127900,N,12132.4715700,E,2,63,0.42,16.89,M,15.25,M,31,3335*46
$GNRMC,112517.500,A,2500.8127900,N,12132.4715700,E,0.01,234.24,260623,,,D,V*0B
$GPHDT,,T*1B
$GNACCURACY,2.3*17
$GNGGA,112517.600,2500.8128000,N,12132.4715800,E,2,64,0.42,16.90,M,15.25,M,31,3335*43
$GNRMC,112517.600,A,2500.8128000,N,12132.4715800,E,0.01,234.24,260623,,,D,V*01
$GPHDT,,T*1B
$GNACCURACY,2.3*17
$GNGGA,112517.700,2500.8128100,N,12132.4715900,E,2,63,0.42,16.91,M,15.25,M,31,3335*44
$GNRMC,112517.700,A,2500.8128100,N,12132.4715900,E,0.01,234.24,260623,,,D,V*00
$GPHDT,,T*1B
$GNACCURACY,2.2*16
$GNGGA,112517.800,2500.8128200,N,12132.4716000,E,2,64,0.42,16.91,M,15.25,M,31,3335*45
$GNRMC,112517.800,A,2500.8128200,N,12132.4716000,E,0.01,234.24,260623,,,D,V*06
$GPHDT,,T*1B
$GNACCURACY,2.2*16
$GNGGA,112517.900,2500.8128300,N,12132.4716100,E,2,64,0.42,16.91,M,15.25,M,31,3335*44
$GNRMC,112517.900,A,2500.8128300,N,12132.4716100,E,0.01,234.24,260623,,,D,V*07
$GPHDT,,T*1B
$GNACCURACY,2.2*16
$GNGGA,112518.000,2500.8128400,N,12132.4716200,E,2,64,0.42,16.91,M,15.25,M,32,3335*45
$GNRMC,112518.000,A,2500.8128400,N,12132.4716200,E,0.01,234.24,260623,,,D,V*05
$GPHDT,,T*1B
$GNACCURACY,2.3*17
$GNGGA,112518.100,2500.8128600,N,12132.4716300,E,2,64,0.42,16.91,M,15.25,M,32,3335*47
$GNRMC,112518.100,A,2500.8128600,N,12132.4716300,E,0.01,234.24,260623,,,D,V*07
$GPHDT,,T*1B
$GNGSA,A,3,196,24,199,18,23,15,195,194,12,05,10,,0.76,0.42,0.63,1*00
$GNGSA,A,3,80,73,85,86,71,69,79,,,,,,0.76,0.42,0.63,2*08
$GNGSA,A,3,13,08,07,26,02,30,15,03,,,,,0.76,0.42,0.63,3*0E
$GNGSA,A,3,38,08,39,13,16,06,46,09,19,36,37,35,0.76,0.42,0.63,4*08
$GNGSA,A,3,29,22,20,,,,,,,,,,0.76,0.42,0.63,4*0F
$GPGSV,4,1,16,196,75,064,41,24,74,044,47,199,60,167,23,18,59,248,33,1*66
$GPGSV,4,2,16,23,50,338,22,41,38,242,39,15,37,046,47,195,34,180,23,1*5A
$GPGSV,4,3,16,194,30,139,41,12,20,142,40,05,19,118,32,10,17,318,35,1*58
$GPGSV,4,4,16,25,09,177,,13,09,056,13,32,09,269,37,29,01,197,,1*62
$GPGSV,3,1,09,196,75,064,43,24,74,044,49,199,60,167,41,18,59,248,35,8*68
$GPGSV,3,2,09,23,50,338,35,195,34,180,23,194,30,139,33,10,17,318,31,8*66
$GPGSV,3,3,09,32,09,269,32,8*50
$GLGSV,2,1,08,80,48,078,44,70,40,009,14,73,37,159,21,85,36,247,39,1*7A
$GLGSV,2,2,08,86,27,303,40,71,21,313,46,69,13,073,20,79,12,032,19,1*76
$GAGSV,3,1,10,13,57,232,33,08,47,025,29,07,44,302,44,26,32,307,43,7*74
$GAGSV,3,2,10,02,26,086,34,30,25,144,35,15,23,174,19,03,10,064,21,7*73
$GAGSV,3,3,10,25,03,043,,27,01,188,,7*74
$GAGSV,2,1,07,13,57,232,36,08,47,025,34,07,44,302,44,26,32,307,42,1*7D
$GAGSV,2,2,07,02,26,086,35,30,25,144,39,03,10,064,19,1*4B
$GBGSV,4,1,15,38,83,108,20,08,79,004,37,39,71,282,32,13,68,334,39,1*7D
$GBGSV,4,2,15,16,66,257,40,06,65,253,35,46,59,113,43,09,49,238,17,1*71
$GBGSV,4,3,15,19,49,344,31,20,43,062,,36,34,184,30,37,23,048,35,1*73
$GBGSV,4,4,15,35,21,269,35,29,19,212,21,22,11,301,35,1*49
$GBGSV,3,1,10,38,83,108,31,39,71,282,37,46,59,113,41,19,49,344,20,4*77
$GBGSV,3,2,10,20,43,062,24,36,34,184,27,37,23,048,23,35,21,269,38,4*75
$GBGSV,3,3,10,29,19,212,22,22,11,301,29,4*79
$GNACCURACY,2.3*17
$PAIRSAT,1,35,1,0,200,2,0,200,3,0,200,4,0,200,5,0,201,6,0,200,7,0,200,8,0,200,9,0,200,10,0,221,11,0,200,12,0,201,13,0,201,14,0,200,15,0,201,16,0,200,17,0,200,18,0,221,19,0,200,20,0,200,21,0,200,23,0,221,24,0,221,25,0,200,26,0,200,27,0,200,28,0,200,29,0,200,30,0,200,31,0,200,32,0,221,194,0,621,195,0,621,196,0,620,199,0,621*68
$PAIRSAT,2,23,65,0,200,67,0,200,68,0,200,69,0,201,70,0,201,71,0,201,72,0,200,73,0,201,74,0,200,75,0,200,76,0,200,77,0,200,78,0,200,79,0,201,80,0,201,81,0,200,82,0,200,83,0,200,84,0,200,85,0,201,86,0,201,87,0,200,88,0,200*53
$PAIRSAT,3,23,2,0,1221,3,0,1221,4,0,1200,5,0,200,7,0,1221,8,0,1221,9,0,1200,10,0,1200,11,0,1200,12,0,1200,13,0,1221,15,0,1221,19,0,1200,21,0,1200,24,0,1200,25,0,1200,26,0,1221,27,0,1200,30,0,1221,31,0,1200,33,0,1200,34,0,1200,36,0,1200*6A
$PAIRSAT,4,50,1,0,200,2,0,200,3,0,200,4,0,200,5,0,200,6,0,201,7,0,200,8,0,201,9,0,201,10,0,200,11,0,200,12,0,200,13,0,201,14,0,200,15,0,200,16,0,201,19,0,621,20,0,621,21,0,600,22,0,621,23,0,600,24,0,600,25,0,600,26,0,600,27,0,600,28,0,600,29,0,621,30,0,600,31,0,200,32,0,600,33,0,600,34,0,600,35,0,621,36,0,621,37,0,621,38,0,621,39,0,621,40,0,600,41,0,600,42,0,600,43,0,600,44,0,600,45,0,600,46,0,621,56,0,200,57,0,200,58,0,200,59,0,600,60,0,600,61,0,600*41
$PAIRDGP,11,5,10,12,13,15,18,23,24,25,29,32*6B
$GNGGA,112518.200,2500.8128700,N,12132.4716400,E,2,64,0.42,16.91,M,15.25,M,32,3335*42
$GNRMC,112518.200,A,2500.8128700,N,12132.4716400,E,0.01,234.24,260623,,,D,V*02
$GPHDT,,T*1B
$GNACCURACY,2.3*17
$GNGGA,112518.300,2500.8128900,N,12132.4716500,E,2,64,0.42,16.91,M,15.25,M,32,3335*4C
$GNRMC,112518.300,A,2500.8128900,N,12132.4716500,E,0.01,234.24,260623,,,D,V*0C
$GPHDT,,T*1B
$GNACCURACY,2.3*17
$GNGGA,112518.400,2500.8129000,N,12132.4716600,E,2,64,0.42,16.91,M,15.25,M,32,3335*40
$GNRMC,112518.400,A,2500.8129000,N,12132.4716600,E,0.01,234.24,260623,,,D,V*00
$GPHDT,,T*1B
$GNACCURACY,2.2*16
$GNGGA,112518.500,2500.8129200,N,12132.4716800,E,2,64,0.42,16.91,M,15.25,M,32,3335*4D
$GNRMC,112518.500,A,2500.8129200,N,12132.4716800,E,0.01,234.24,260623,,,D,V*0D
$GPHDT,,T*1B
$GNACCURACY,2.7*13
$GNGGA,112518.600,2500.8129300,N,12132.4716900,E,2,65,0.42,16.91,M,15.25,M,32,3335*4F
$GNRMC,112518.600,A,2500.8129300,N,12132.4716900,E,0.01,234.24,260623,,,D,V*0E
$GPHDT,,T*1B
$GNACCURACY,2.7*13
$GNGGA,112518.700,2500.8129500,N,12132.4717000,E,2,64,0.42,16.91,M,15.25,M,32,3335*41
$GNRMC,112518.700,A,2500.8129500,N,12132.4717000,E,0.01,234.24,260623,,,D,V*01
$GPHDT,,T*1B
$GNACCURACY,2.7*13
$GNGGA,112518.800,2500.8129600,N,12132.4717100,E,2,64,0.42,16.91,M,15.25,M,32,3335*4C
$GNRMC,112518.800,A,2500.8129600,N,12132.4717100,E,0.01,234.24,260623,,,D,V*0C
$GPHDT,,T*1B
$GNACCURACY,2.7*13
$GNGGA,112518.900,2500.8129800,N,12132.4717200,E,2,64,0.42,16.90,M,15.25,M,32,3335*41
$GNRMC,112518.900,A,2500.8129800,N,12132.4717200,E,0.01,234.24,260623,,,D,V*00
$GPHDT,,T*1B
$GNACCURACY,2.7*13
$GNGGA,112519.000,2500.8129900,N,12132.4717400,E,2,64,0.42,16.90,M,15.25,M,33,3335*4F
$GNRMC,112519.000,A,2500.8129900,N,12132.4717400,E,0.01,234.24,260623,,,D,V*0F
$GPHDT,,T*1B
$GNACCURACY,2.7*13
$GNGGA,112519.100,2500.8130100,N,12132.4717500,E,2,64,0.42,16.90,M,15.25,M,33,3335*4F
$GNRMC,112519.100,A,2500.8130100,N,12132.4717500,E,0.01,234.24,260623,,,D,V*0F
$GPHDT,,T*1B
$GNGSA,A,3,196,24,199,18,23,15,195,194,12,05,10,,0.76,0.42,0.63,1*00
$GNGSA,A,3,80,73,85,86,71,69,79,,,,,,0.76,0.42,0.63,2*08
$GNGSA,A,3,13,08,07,26,02,30,15,03,,,,,0.76,0.42,0.63,3*0E
$GNGSA,A,3,38,08,39,13,16,06,46,09,19,36,37,35,0.76,0.42,0.63,4*08
$GNGSA,A,3,29,22,20,,,,,,,,,,0.76,0.42,0.63,4*0F
$GPGSV,4,1,16,196,75,064,41,24,74,044,47,199,60,167,22,18,59,248,34,1*60
$GPGSV,4,2,16,23,50,338,23,41,38,242,39,15,37,046,47,195,34,180,23,1*5B
$GPGSV,4,3,16,194,30,139,41,12,20,142,39,05,19,118,32,10,17,318,35,1*56
$GPGSV,4,4,16,25,09,177,,13,09,056,12,32,09,269,37,29,01,197,19,1*6B
$GPGSV,3,1,09,196,75,064,43,24,74,044,49,199,60,167,41,18,59,248,35,8*68
$GPGSV,3,2,09,23,50,338,35,195,34,180,23,194,30,139,34,10,17,318,31,8*61
$GPGSV,3,3,09,32,09,269,33,8*51
$GLGSV,2,1,08,80,48,078,44,70,40,009,15,73,37,159,22,85,36,247,39,1*78
$GLGSV,2,2,08,86,27,303,39,71,21,313,46,69,13,073,21,79,12,032,19,1*79
$GAGSV,3,1,10,13,57,232,33,08,47,025,28,07,44,302,44,26,32,307,43,7*75
$GAGSV,3,2,10,02,26,086,34,30,25,144,35,15,23,174,18,03,10,064,21,7*72
$GAGSV,3,3,10,25,03,043,,27,01,188,,7*74
$GAGSV,2,1,07,13,57,232,36,08,47,025,34,07,44,302,44,26,32,307,42,1*7D
$GAGSV,2,2,07,02,26,086,35,30,25,144,39,03,10,064,20,1*41
$GBGSV,4,1,15,38,83,108,25,08,79,004,37,39,71,282,32,13,68,334,40,1*76
$GBGSV,4,2,15,16,66,257,40,06,65,253,35,46,59,113,43,09,49,238,19,1*7F
$GBGSV,4,3,15,19,49,344,31,20,43,062,,36,34,184,27,37,23,048,37,1*77
$GBGSV,4,4,15,35,21,269,34,29,19,212,21,22,11,301,35,1*48
$GBGSV,3,1,10,38,83,108,32,39,71,282,37,46,59,113,41,19,49,344,20,4*74
$GBGSV,3,2,10,20,43,062,26,36,34,184,29,37,23,048,22,35,21,269,38,4*78
$GBGSV,3,3,10,29,19,212,20,22,11,301,29,4*7B
$GNACCURACY,2.8*1C
$PAIRSAT,1,35,1,0,200,2,0,200,3,0,200,4,0,200,5,0,201,6,0,200,7,0,200,8,0,200,9,0,200,10,0,221,11,0,200,12,0,201,13,0,201,14,0,200,15,0,201,16,0,200,17,0,200,18,0,221,19,0,200,20,0,200,21,0,200,23,0,221,24,0,221,25,0,200,26,0,200,27,0,200,28,0,200,29,0,200,30,0,200,31,0,200,32,0,221,194,0,621,195,0,621,196,0,620,199,0,621*68
$PAIRSAT,2,23,65,0,200,67,0,200,68,0,200,69,0,201,70,0,201,71,0,201,72,0,200,73,0,201,74,0,200,75,0,200,76,0,200,77,0,200,78,0,200,79,0,201,80,0,201,81,0,200,82,0,200,83,0,200,84,0,200,85,0,201,86,0,201,87,0,200,88,0,200*53
$PAIRSAT,3,23,2,0,1221,3,0,1221,4,0,1200,5,0,200,7,0,1221,8,0,1221,9,0,1200,10,0,1200,11,0,1200,12,0,1200,13,0,1221,15,0,1221,19,0,1200,21,0,1200,24,0,1200,25,0,1200,26,0,1221,27,0,1200,30,0,1221,31,0,1200,33,0,1200,34,0,1200,36,0,1200*6A
$PAIRSAT,4,50,1,0,200,2,0,200,3,0,200,4,0,200,5,0,200,6,0,201,7,0,200,8,0,201,9,0,201,10,0,200,11,0,200,12,0,200,13,0,201,14,0,200,15,0,200,16,0,201,19,0,621,20,0,621,21,0,600,22,0,621,23,0,600,24,0,600,25,0,600,26,0,600,27,0,600,28,0,600,29,0,621,30,0,600,31,0,200,32,0,600,33,0,600,34,0,600,35,0,621,36,0,621,37,0,621,38,0,621,39,0,621,40,0,600,41,0,600,42,0,600,43,0,600,44,0,600,45,0,600,46,0,621,56,0,200,57,0,200,58,0,200,59,0,600,60,0,600,61,0,600*41
$PAIRDGP,11,5,10,12,13,15,18,23,24,25,29,32*6B
$GNGGA,112519.200,2500.8130200,N,12132.4717700,E,2,65,0.42,16.90,M,15.25,M,33,3335*4C
$GNRMC,112519.200,A,2500.8130200,N,12132.4717700,E,0.01,234.24,260623,,,D,V*0D
$GPHDT,,T*1B
$GNACCURACY,2.8*1C
$GNGGA,112519.300,2500.8130400,N,12132.4717800,E,2,64,0.42,16.90,M,15.25,M,33,3335*45
$GNRMC,112519.300,A,2500.8130400,N,12132.4717800,E,0.01,234.24,260623,,,D,V*05
$GPHDT,,T*1B
$GNACCURACY,2.7*13
$GNGGA,112519.400,2500.8130500,N,12132.4717900,E,2,64,0.42,16.90,M,15.25,M,33,3335*42
$GNRMC,112519.400,A,2500.8130500,N,12132.4717900,E,0.01,234.24,260623,,,D,V*02
$GPHDT,,T*1B
$GNACCURACY,2.7*13
$GNGGA,112519.500,2500.8130700,N,12132.4718000,E,2,64,0.42,16.91,M,15.25,M,33,3335*46
$GNRMC,112519.500,A,2500.8130700,N,12132.4718000,E,0.02,234.24,260623,,,D,V*04
$GPHDT,,T*1B
$GNACCURACY,2.7*13
$GNGGA,112519.600,2500.8130800,N,12132.4718100,E,2,64,0.42,16.91,M,15.25,M,33,3335*4B
$GNRMC,112519.600,A,2500.8130800,N,12132.4718100,E,0.02,234.24,260623,,,D,V*09
$GPHDT,,T*1B
$GNACCURACY,2.7*13
$GNGGA,112519.700,2500.8130800,N,12132.4718200,E,2,64,0.42,16.92,M,15.25,M,33,3335*4A
$GNRMC,112519.700,A,2500.8130800,N,12132.4718200,E,0.02,234.24,260623,,,D,V*0B
$GPHDT,,T*1B
$GNACCURACY,2.7*13
$GNGGA,112519.800,2500.8131000,N,12132.4718300,E,2,64,0.42,16.92,M,15.25,M,33,3335*4D
$GNRMC,112519.800,A,2500.8131000,N,12132.4718300,E,0.02,234.24,260623,,,D,V*0C
$GPHDT,,T*1B
$GNACCURACY,2.7*13
$GNGGA,112519.900,2500.8131000,N,12132.4718400,E,2,64,0.42,16.93,M,15.25,M,33,3335*4A
$GNRMC,112519.900,A,2500.8131000,N,12132.4718400,E,0.02,234.24,260623,,,D,V*0A
$GPHDT,,T*1B
$GNACCURACY,2.7*13
$GNGGA,112520.000,2500.8131100,N,12132.4718500,E,2,64,0.42,16.93,M,15.25,M,34,3335*4E
$GNRMC,112520.000,A,2500.8131100,N,12132.4718500,E,0.02,234.24,260623,,,D,V*09
$GPHDT,,T*1B
$GNACCURACY,2.7*13
$GNGGA,112520.100,2500.8131200,N,12132.4718600,E,2,64,0.42,16.94,M,15.25,M,34,3335*48
$GNRMC,112520.100,A,2500.8131200,N,12132.4718600,E,0.02,234.24,260623,,,D,V*08
$GPHDT,,T*1B
$GNGSA,A,3,196,24,199,18,23,15,195,194,12,05,10,,0.76,0.42,0.63,1*00
$GNGSA,A,3,80,73,85,86,71,69,79,,,,,,0.76,0.42,0.63,2*08
$GNGSA,A,3,13,08,07,26,02,30,15,03,,,,,0.76,0.42,0.63,3*0E
$GNGSA,A,3,38,08,39,13,16,06,46,09,19,36,37,35,0.76,0.42,0.63,4*08
$GNGSA,A,3,29,22,20,,,,,,,,,,0.76,0.42,0.63,4*0F
$GPGSV,4,1,16,196,75,064,41,24,74,044,47,199,60,167,21,18,59,248,32,1*65
$GPGSV,4,2,16,23,50,338,22,41,38,242,39,15,37,046,46,195,34,180,24,1*5C
$GPGSV,4,3,16,194,30,139,41,12,20,142,39,05,19,118,32,10,17,318,35,1*56
$GPGSV,4,4,16,25,09,177,,13,09,056,13,32,09,269,37,29,01,197,,1*62
$GPGSV,3,1,09,196,75,064,44,24,74,044,49,199,60,167,41,18,59,248,36,8*6C
$GPGSV,3,2,09,23,50,338,35,195,34,180,24,194,30,139,34,10,17,318,32,8*65
$GPGSV,3,3,09,32,09,269,33,8*51
$GLGSV,2,1,08,80,48,078,44,70,40,009,15,73,37,159,22,85,36,247,39,1*78
$GLGSV,2,2,08,86,27,303,39,71,21,313,45,69,13,073,22,79,12,032,19,1*79
$GAGSV,3,1,10,13,57,232,33,08,47,025,30,07,44,302,44,26,32,307,43,7*7C
$GAGSV,3,2,10,02,26,086,34,30,25,144,35,15,23,174,18,03,10,064,21,7*72
$GAGSV,3,3,10,25,03,043,,27,01,188,,7*74
$GAGSV,2,1,07,13,57,232,36,08,47,025,34,07,44,302,44,26,32,307,42,1*7D
$GAGSV,2,2,07,02,26,086,35,30,25,144,39,03,10,064,21,1*40
$GBGSV,4,1,15,38,83,108,22,08,79,004,37,39,71,282,33,13,68,334,40,1*70
$GBGSV,4,2,15,16,66,257,40,06,65,253,35,46,59,113,43,09,49,238,18,1*7E
$GBGSV,4,3,15,19,49,344,32,20,43,062,,36,34,184,29,37,23,048,34,1*79
$GBGSV,4,4,15,35,21,269,36,29,19,212,22,22,11,301,36,1*4A
$GBGSV,3,1,10,38,83,108,31,39,71,282,35,46,59,113,42,19,49,344,22,4*74
$GBGSV,3,2,10,20,43,062,26,36,34,184,28,37,23,048,22,35,21,269,38,4*79
$GBGSV,3,3,10,29,19,212,23,22,11,301,31,4*71
$GNACCURACY,2.7*13
$PAIRSAT,1,35,1,0,200,2,0,200,3,0,200,4,0,200,5,0,201,6,0,200,7,0,200,8,0,200,9,0,200,10,0,221,11,0,200,12,0,201,13,0,201,14,0,200,15,0,201,16,0,200,17,0,200,18,0,221,19,0,200,20,0,200,21,0,200,23,0,221,24,0,221,25,0,200,26,0,200,27,0,200,28,0,200,29,0,200,30,0,200,31,0,200,32,0,221,194,0,621,195,0,621,196,0,620,199,0,621*68
$PAIRSAT,2,23,65,0,200,67,0,200,68,0,200,69,0,201,70,0,201,71,0,201,72,0,200,73,0,201,74,0,200,75,0,200,76,0,200,77,0,200,78,0,200,79,0,201,80,0,201,81,0,200,82,0,200,83,0,200,84,0,200,85,0,201,86,0,201,87,0,200,88,0,200*53
$PAIRSAT,3,23,2,0,1221,3,0,1221,4,0,1200,5,0,200,7,0,1221,8,0,1221,9,0,1200,10,0,1200