$FW : RTK35X,V1.1X0314AS,Lib20210517,1*54
$Tool : LOCOSYS , GNSS Firebird , v1.0.0.19*39
$---------------------------------------------------*2D
,3335*4E
$GNRMC,042110.900,A,2500.8052942,N,12132.4273550,E,0.00,252.48,090324,,,R,V*15
$GPHDT,,T*1B
$GNACCURACY,3.6*13
$GNGGA,042111.000,2500.8052942,N,12132.4273566,E,4,55,0.48,17.096,M,15.25,M,1,3335*42
$GNRMC,042111.000,A,2500.8052942,N,12132.4273566,E,0.00,252.48,090324,,,R,V*18
$GPHDT,137.526,T*31
$GNACCURACY,3.6*13
$GNGGA,042111.100,2500.8052928,N,12132.4273562,E,4,55,0.48,17.101,M,15.25,M,1,3335*44
$GNRMC,042111.100,A,2500.8052928,N,12132.4273562,E,0.00,252.48,090324,,,R,V*11
$GPHDT,,T*1B
$GNGSA,A,3,195,21,194,199,08,02,07,27,16,196,04,09,0.83,0.48,0.68,1*07
$GNGSA,A,3,30,,,,,,,,,,,,0.83,0.48,0.68,1*0B
$GNGSA,A,3,81,78,88,79,82,77,,,,,,,0.83,0.48,0.68,2*09
$GNGSA,A,3,21,13,26,27,19,15,,,,,,,0.83,0.48,0.68,3*06
$GNGSA,A,3,23,09,06,16,07,28,40,39,43,10,37,25,0.83,0.48,0.68,4*02
$GPGSV,4,1,16,195,66,111,44,21,65,148,46,194,64,054,43,50,60,167,38,1*65
$GPGSV,4,2,16,199,60,167,35,08,59,003,45,02,54,175,45,07,46,313,40,1*53
$GPGSV,4,3,16,27,29,039,40,16,25,081,37,09,21,241,17,196,19,168,21,1*58
$GPGSV,4,4,16,30,15,319,19,04,14,199,17,26,05,104,,17,01,239,,1*6A
$GPGSV,2,1,08,195,66,111,46,194,64,054,48,199,60,167,44,08,59,003,44,8*5B
$GPGSV,2,2,08,27,29,039,42,09,21,241,18,30,15,319,18,04,14,199,22,8*66
$GLGSV,2,1,06,81,72,209,21,78,59,050,43,88,49,028,44,79,31,338,30,1*78
$GLGSV,2,2,06,82,21,207,17,77,20,116,27,1*75
$GAGSV,2,1,08,21,56,019,41,13,54,072,37,26,49,171,39,27,27,084,37,7*7B
$GAGSV,2,2,08,19,24,237,17,04,12,295,,15,10,037,26,33,08,199,,7*70
$GAGSV,2,1,05,21,56,019,45,13,54,072,45,26,49,171,40,27,27,084,40,1*7F
$GAGSV,2,2,05,15,10,037,35,1*47
$GBGSV,4,1,13,23,76,050,46,09,71,258,32,06,68,214,14,16,65,200,27,1*7E
$GBGSV,4,2,13,07,60,312,41,28,60,228,25,40,59,332,42,39,55,189,21,1*70
$GBGSV,4,3,13,43,53,035,47,10,50,293,38,37,34,323,37,25,34,122,45,1*75
$GBGSV,4,4,13,34,07,041,30,1*42
$GBGSV,2,1,07,23,76,050,48,28,60,228,19,40,59,332,44,39,55,189,25,4*75
$GBGSV,2,2,07,43,53,035,48,25,34,122,43,37,34,323,34,4*4F
$GNACCURACY,3.6*13
$PAIRSAT,1,35,2,0,201,3,0,200,4,0,221,5,0,200,6,0,200,7,0,201,8,0,221,9,0,220,10,0,200,11,0,200,12,0,200,13,0,200,14,0,200,15,0,200,16,0,201,17,0,200,18,0,200,19,0,200,20,0,200,21,0,201,22,0,200,23,0,200,24,0,200,25,0,200,26,0,220,27,0,221,28,0,200,29,0,200,30,0,221,31,0,200,32,0,200,194,0,621,195,0,621,196,0,620,199,0,621*5A
$PAIRSAT,2,24,65,0,200,66,0,200,67,0,200,68,0,200,69,0,200,70,0,200,71,0,200,72,0,200,73,0,200,74,0,200,75,0,200,76,0,200,77,0,201,78,0,201,79,0,201,80,0,200,81,0,201,82,0,201,83,0,200,84,0,200,85,0,200,86,0,200,87,0,200,88,0,201*7A
$PAIRSAT,3,23,2,0,1200,3,0,1200,4,0,1200,5,0,200,7,0,1200,8,0,1200,9,0,1200,10,0,1200,11,0,1200,12,0,1200,13,0,1221,15,0,1220,19,0,1201,21,0,1221,24,0,1200,25,0,1200,26,0,1221,27,0,1221,30,0,1200,31,0,1200,33,0,1200,34,0,1200,36,0,1200*69
$PAIRSAT,4,46,1,0,200,2,0,200,3,0,600,4,0,200,5,0,200,6,0,201,7,0,201,8,0,200,9,0,201,10,0,201,11,0,200,12,0,200,13,0,200,14,0,200,16,0,201,19,0,600,20,0,600,21,0,600,22,0,600,23,0,621,24,0,600,25,0,621,26,0,600,27,0,600,28,0,621,29,0,600,30,0,600,32,0,600,33,0,600,34,0,621,35,0,600,36,0,600,37,0,621,38,0,600,39,0,621,40,0,621,41,0,600,42,0,600,43,0,621,44,0,600,45,0,600,46,0,600,59,0,400,60,0,400,61,0,400,62,0,400*48
$PAIRDGP,10,2,4,7,8,9,16,21,26,27,30*42
$GNGGA,042111.200,2500.8052900,N,12132.4273545,E,4,55,0.48,17.088,M,15.25,M,1,3335*48
$GNRMC,042111.200,A,2500.8052900,N,12132.4273545,E,0.00,252.48,090324,,,R,V*1D
$GPHDT,137.213,T*30
$GNACCURACY,3.5*10
$GNGGA,042111.300,2500.8052904,N,12132.4273570,E,4,55,0.48,17.096,M,15.25,M,1,3335*44
$GNRMC,042111.300,A,2500.8052904,N,12132.4273570,E,0.00,252.48,090324,,,R,V*1E
$GPHDT,,T*1B
$GNACCURACY,3.5*10
$GNGGA,042111.400,2500.8052882,N,12132.4273612,E,4,55,0.48,17.092,M,15.25,M,1,3335*4F
$GNRMC,042111.400,A,2500.8052882,N,12132.4273612,E,0.00,252.48,090324,,,R,V*11
$GPHDT,138.037,T*3B
$GNACCURACY,3.5*10
$GNGGA,042111.500,2500.8052861,N,12132.4273643,E,4,55,0.48,17.098,M,15.25,M,1,3335*4D
$GNRMC,042111.500,A,2500.8052861,N,12132.4273643,E,0.00,252.48,090324,,,R,V*19
$GPHDT,,T*1B
$GNACCURACY,3.5*10
$GNGGA,042111.600,2500.8052810,N,12132.4273719,E,4,55,0.48,17.095,M,15.25,M,1,3335*4B
$GNRMC,042111.600,A,2500.8052810,N,12132.4273719,E,0.01,252.48,090324,,,R,V*13
$GPHDT,138.224,T*3B
$GNACCURACY,3.5*10
$GNGGA,042111.700,2500.8052717,N,12132.4273847,E,4,55,0.48,17.095,M,15.25,M,1,3335*46
$GNRMC,042111.700,A,2500.8052717,N,12132.4273847,E,0.01,252.48,090324,,,R,V*1E
$GPHDT,,T*1B
$GNACCURACY,3.5*10
$GNGGA,042111.800,2500.8052586,N,12132.4274151,E,4,55,0.48,17.106,M,15.25,M,0,3335*40
$GNRMC,042111.800,A,2500.8052586,N,12132.4274151,E,0.01,252.48,090324,,,R,V*12
$GPHDT,140.086,T*3E
$GNACCURACY,3.5*10
$GNGGA,042111.900,2500.8052388,N,12132.4274302,E,4,55,0.48,17.091,M,15.25,M,0,3335*42
$GNRMC,042111.900,A,2500.8052388,N,12132.4274302,E,0.02,252.48,090324,,,R,V*1C
$GPHDT,,T*1B
$GNACCURACY,3.6*13
$GNGGA,042112.000,2500.8052148,N,12132.4274493,E,4,55,0.48,17.068,M,15.25,M,1,3335*4E
$GNRMC,042112.000,A,2500.8052148,N,12132.4274493,E,0.02,252.48,090324,,,R,V*17
$GPHDT,139.946,T*35
$GNACCURACY,3.6*13
$GNGGA,042112.100,2500.8051923,N,12132.4274754,E,4,54,0.48,17.108,M,15.25,M,1,3335*47
$GNRMC,042112.100,A,2500.8051923,N,12132.4274754,E,0.05,252.48,090324,,,R,V*1F
$GPHDT,,T*1B
$GNGSA,A,3,195,21,194,199,08,02,07,27,16,196,30,04,0.84,0.48,0.69,1*0B
$GNGSA,A,3,09,,,,,,,,,,,,0.84,0.48,0.69,1*07
$GNGSA,A,3,81,78,88,79,82,77,,,,,,,0.84,0.48,0.69,2*0F
$GNGSA,A,3,21,13,26,27,19,15,,,,,,,0.84,0.48,0.69,3*00
$GNGSA,A,3,23,09,16,07,28,40,39,43,10,37,25,,0.84,0.48,0.69,4*02
$GPGSV,4,1,16,195,66,111,44,21,65,148,46,194,64,054,43,50,60,167,39,1*64
$GPGSV,4,2,16,199,60,167,37,08,59,003,42,02,54,175,45,07,46,313,40,1*56
$GPGSV,4,3,16,27,29,039,40,16,25,081,38,09,21,241,19,196,19,168,20,1*58
$GPGSV,4,4,16,30,15,319,20,04,14,199,16,26,05,104,,17,01,239,,1*61
$GPGSV,2,1,07,195,66,111,47,194,64,054,48,199,60,167,44,08,59,003,44,8*55
$GPGSV,2,2,07,27,29,039,42,09,21,241,20,04,14,199,23,8*56
$GLGSV,2,1,06,81,72,209,24,78,59,050,46,88,49,028,44,79,31,338,31,1*79
$GLGSV,2,2,06,82,21,207,16,77,20,116,32,1*70
$GAGSV,2,1,08,21,56,019,43,13,54,072,40,26,49,171,38,27,27,084,37,7*78
$GAGSV,2,2,08,19,24,237,17,04,12,295,,15,10,037,30,33,08,199,,7*77
$GAGSV,2,1,05,21,56,019,43,13,54,072,44,26,49,171,39,27,27,084,40,1*76
$GAGSV,2,2,05,15,10,037,32,1*40
$GBGSV,4,1,13,23,76,050,45,09,71,258,30,06,68,214,16,16,65,200,25,1*7F
$GBGSV,4,2,13,07,60,312,42,28,60,228,25,40,59,332,42,39,55,189,20,1*72
$GBGSV,4,3,13,43,53,035,44,10,50,293,37,37,34,323,40,25,34,122,45,1*79
$GBGSV,4,4,13,34,07,041,25,1*46
$GBGSV,2,1,07,23,76,050,47,28,60,228,19,40,59,332,44,39,55,189,25,4*7A
$GBGSV,2,2,07,43,53,035,45,25,34,122,44,37,34,323,37,4*46
$GNACCURACY,3.6*13
$PAIRSAT,1,35,2,0,201,3,0,200,4,0,221,5,0,200,6,0,200,7,0,201,8,0,221,9,0,220,10,0,200,11,0,200,12,0,200,13,0,200,14,0,200,15,0,200,16,0,201,17,0,200,18,0,200,19,0,200,20,0,200,21,0,201,22,0,200,23,0,200,24,0,200,25,0,200,26,0,220,27,0,221,28,0,200,29,0,200,30,0,221,31,0,200,32,0,200,194,0,621,195,0,621,196,0,620,199,0,621*5A
$PAIRSAT,2,24,65,0,200,66,0,200,67,0,200,68,0,200,69,0,200,70,0,200,71,0,200,72,0,200,73,0,200,74,0,200,75,0,200,76,0,200,77,0,201,78,0,201,79,0,201,80,0,200,81,0,201,82,0,201,83,0,200,84,0,200,85,0,200,86,0,200,87,0,200,88,0,201*7A
$PAIRSAT,3,23,2,0,1200,3,0,1200,4,0,1200,5,0,200,7,0,1200,8,0,1200,9,0,1200,10,0,1200,11,0,1200,12,0,1200,13,0,1221,15,0,1220,19,0,1201,21,0,1221,24,0,1200,25,0,1200,26,0,1221,27,0,1221,30,0,1200,31,0,1200,33,0,1200,34,0,1200,36,0,1200*69
$PAIRSAT,4,46,1,0,200,2,0,200,3,0,600,4,0,200,5,0,200,6,0,201,7,0,201,8,0,200,9,0,201,10,0,201,11,0,200,12,0,200,13,0,200,14,0,200,16,0,201,19,0,600,20,0,600,21,0,600,22,0,600,23,0,621,24,0,600,25,0,621,26,0,600,27,0,600,28,0,621,29,0,600,30,0,600,32,0,600,33,0,600,34,0,621,35,0,600,36,0,600,37,0,621,38,0,600,39,0,621,40,0,621,41,0,600,42,0,600,43,0,621,44,0,600,45,0,600,46,0,600,59,0,400,60,0,400,61,0,400,62,0,400*48
$PAIRDGP,10,2,4,7,8,9,16,21,26,27,30*42
$GNGGA,042112.200,2500.8051744,N,12132.4274902,E,4,54,0.48,17.078,M,15.25,M,1,3335*40
$GNRMC,042112.200,A,2500.8051744,N,12132.4274902,E,0.04,252.48,090324,,,R,V*1F
$GPHDT,139.376,T*3C
$GNACCURACY,3.5*10
$GNGGA,042112.300,2500.8051569,N,12132.4275094,E,4,55,0.48,17.075,M,15.25,M,1,3335*47
$GNRMC,042112.300,A,2500.8051569,N,12132.4275094,E,0.02,252.48,090324,,,R,V*12
$GPHDT,,T*1B
$GNACCURACY,3.5*10
$GNGGA,042112.400,2500.8051352,N,12132.4275231,E,4,55,0.48,17.102,M,15.25,M,1,3335*42
$GNRMC,042112.400,A,2500.8051352,N,12132.4275231,E,0.02,252.48,090324,,,R,V*16
$GPHDT,137.245,T*33
$GNACCURACY,3.5*10
$GNGGA,042112.500,2500.8051250,N,12132.4275482,E,4,55,0.48,17.113,M,15.25,M,1,3335*4E
$GNRMC,042112.500,A,2500.8051250,N,12132.4275482,E,0.02,252.48,090324,,,R,V*1A
$GPHDT,,T*1B
$GNACCURACY,3.5*10
$GNGGA,042112.600,2500.8051077,N,12132.4275654,E,4,55,0.48,17.101,M,15.25,M,1,3335*40
$GNRMC,042112.600,A,2500.8051077,N,12132.4275654,E,0.02,252.48,090324,,,R,V*17
$GPHDT,138.645,T*38
$GNACCURACY,3.5*10
$GNGGA,042112.700,2500.8050847,N,12132.4275884,E,4,55,0.48,17.109,M,15.25,M,1,3335*40
$GNRMC,042112.700,A,2500.8050847,N,12132.4275884,E,0.02,252.48,090324,,,R,V*1F
$GPHDT,,T*1B
$GNACCURACY,3.5*10
$GNGGA,042112.800,2500.8050712,N,12132.4276160,E,4,55,0.48,17.105,M,15.25,M,0,3335*4D
$GNRMC,042112.800,A,2500.8050712,N,12132.4276160,E,0.03,252.48,090324,,,R,V*1E
$GPHDT,140.219,T*3A
$GNACCURACY,3.5*10
$GNGGA,042112.900,2500.8050530,N,12132.4276296,E,4,56,0.48,17.106,M,15.25,M,0,3335*44
$GNRMC,042112.900,A,2500.8050530,N,12132.4276296,E,0.09,252.48,090324,,,R,V*1D
$GPHDT,,T*1B
$GNACCURACY,3.6*13
$GNGGA,042113.000,2500.8050312,N,12132.4276545,E,4,56,0.48,17.120,M,15.25,M,1,3335*46
$GNRMC,042113.000,A,2500.8050312,N,12132.4276545,E,0.05,252.48,090324,,,R,V*16
$GPHDT,139.452,T*3D
$GNACCURACY,3.6*13
$GNGGA,042113.100,2500.8050131,N,12132.4276749,E,4,55,0.48,17.106,M,15.25,M,1,3335*4D
$GNRMC,042113.100,A,2500.8050131,N,12132.4276749,E,0.09,252.48,090324,,,R,V*16
$GPHDT,,T*1B
$GNGSA,A,3,195,21,194,199,08,02,07,27,16,196,04,09,0.84,0.48,0.69,1*01
$GNGSA,A,3,30,,,,,,,,,,,,0.84,0.48,0.69,1*0D
$GNGSA,A,3,81,78,88,79,82,77,,,,,,,0.84,0.48,0.69,2*0F
$GNGSA,A,3,21,13,26,27,19,15,,,,,,,0.84,0.48,0.69,3*00
$GNGSA,A,3,23,09,16,07,28,40,39,43,10,25,37,,0.84,0.48,0.69,4*02
$GPGSV,4,1,16,195,66,111,44,21,65,148,45,194,64,054,43,50,60,167,43,1*6A
$GPGSV,4,2,16,199,60,167,40,08,58,003,42,02,54,175,46,07,46,313,43,1*57
$GPGSV,4,3,16,27,29,039,41,16,25,081,39,09,21,241,19,196,19,168,19,1*52
$GPGSV,4,4,16,30,15,319,23,04,14,199,16,26,05,104,,17,01,239,,1*62
$GPGSV,2,1,08,195,66,111,46,194,64,054,47,199,60,167,45,08,58,003,44,8*54
$GPGSV,2,2,08,27,29,039,44,09,21,241,22,30,15,319,25,04,14,199,19,8*6F
$GLGSV,2,1,07,81,72,209,26,78,59,050,44,88,49,028,45,79,31,338,25,1*7C
$GLGSV,2,2,07,82,21,207,16,77,20,116,30,69,01,275,,1*4D
$GAGSV,2,1,08,21,56,019,42,13,54,072,41,26,49,171,34,27,27,084,37,7*74
$GAGSV,2,2,08,19,24,237,13,04,12,295,,15,10,037,29,33,08,199,,7*7B
$GAGSV,2,1,05,21,56,019,44,13,54,072,44,26,49,171,38,27,27,084,40,1*70
$GAGSV,2,2,05,15,10,037,25,1*46
$GBGSV,4,1,14,23,76,050,45,09,71,258,28,06,68,214,18,16,65,200,21,1*7B
$GBGSV,4,2,14,07,60,312,41,28,60,228,22,40,59,332,41,39,55,189,25,1*77
$GBGSV,4,3,14,43,53,035,44,10,50,293,37,25,34,122,45,37,34,323,35,1*7C
$GBGSV,4,4,14,34,07,041,30,08,03,176,,1*7E
$GBGSV,2,1,07,23,76,050,46,28,60,228,16,40,59,332,44,39,55,189,25,4*74
$GBGSV,2,2,07,43,53,035,44,25,34,122,44,37,34,323,32,4*42
$GNACCURACY,3.6*13
$PAIRSAT,1,35,2,0,201,3,0,200,4,0,221,5,0,200,6,0,200,7,0,201,8,0,221,9,0,220,10,0,200,11,0,200,12,0,200,13,0,200,14,0,200,15,0,200,16,0,201,17,0,200,18,0,200,19,0,200,20,0,200,21,0,201,22,0,200,23,0,200,24,0,200,25,0,200,26,0,220,27,0,221,28,0,200,29,0,200,30,0,221,31,0,200,32,0,200,194,0,621,195,0,621,196,0,620,199,0,621*5A
$PAIRSAT,2,24,65,0,200,66,0,200,67,0,200,68,0,200,69,0,200,70,0,200,71,0,200,72,0,200,73,0,200,74,0,200,75,0,200,76,0,200,77,0,201,78,0,201,79,0,201,80,0,200,81,0,201,82,0,201,83,0,200,84,0,200,85,0,200,86,0,200,87,0,200,88,0,201*7A
$PAIRSAT,3,23,2,0,1200,3,0,1200,4,0,1200,5,0,200,7,0,1200,8,0,1200,9,0,1200,10,0,1200,11,0,1200,12,0,1200,13,0,1221,15,0,1220,19,0,1201,21,0,1221,24,0,1200,25,0,1200,26,0,1221,27,0,1221,30,0,1200,31,0,1200,33,0,1200,34,0,1200,36,0,1200*69
$PAIRSAT,4,46,1,0,200,2,0,200,3,0,600,4,0,200,5,0,200,6,0,201,7,0,201,8,0,200,9,0,201,10,0,201,11,0,200,12,0,200,13,0,200,14,0,200,16,0,201,19,0,600,20,0,600,21,0,600,22,0,600,23,0,621,24,0,600,25,0,621,26,0,600,27,0,600,28,0,621,29,0,600,30,0,600,32,0,600,33,0,600,34,0,621,35,0,600,36,0,600,37,0,621,38,0,600,39,0,621,40,0,621,41,0,600,42,0,600,43,0,621,44,0,600,45,0,600,46,0,600,59,0,400,60,0,400,61,0,400,62,0,400*48
$PAIRDGP,10,2,4,7,8,9,16,21,26,27,30*42
$GNGGA,042113.200,2500.8049931,N,12132.4276948,E,4,54,0.48,17.105,M,15.25,M,1,3335*43
$GNRMC,042113.200,A,2500.8049931,N,12132.4276948,E,0.14,252.48,090324,,,R,V*16
$GPHDT,139.577,T*3B
$GNACCURACY,3.6*13
$GNGGA,042113.300,2500.8049620,N,12132.4277307,E,4,56,0.48,17.131,M,15.25,M,1,3335*48
$GNRMC,042113.300,A,2500.8049620,N,12132.4277307,E,0.19,252.48,090324,,,R,V*15
$GPHDT,,T*1B
$GNACCURACY,3.6*13
$GNGGA,042113.400,2500.8049426,N,12132.4277581,E,4,56,0.48,17.130,M,15.25,M,1,3335*42
$GNRMC,042113.400,A,2500.8049426,N,12132.4277581,E,0.27,252.48,090324,,,R,V*13
$GPHDT,138.718,T*31
$GNACCURACY,3.6*13
$GNGGA,042113.500,2500.8049051,N,12132.4277869,E,4,55,0.48,17.113,M,15.25,M,0,3335*4F
$GNRMC,042113.500,A,2500.8049051,N,12132.4277869,E,0.36,252.48,090324,,,R,V*1D
$GPHDT,,T*1B
$GNACCURACY,3.6*13
$GNGGA,042113.600,2500.8048722,N,12132.4278232,E,4,56,0.48,17.095,M,15.25,M,0,3335*49
$GNRMC,042113.600,A,2500.8048722,N,12132.4278232,E,0.47,252.48,090324,,,R,V*11
$GPHDT,139.887,T*39
$GNACCURACY,3.6*13
$GNGGA,042113.700,2500.8048360,N,12132.4278436,E,4,56,0.48,17.121,M,15.25,M,0,3335*46
$GNRMC,042113.700,A,2500.8048360,N,12132.4278436,E,0.59,138.10,090324,,,R,V*1D
$GPHDT,,T*1B
$GNACCURACY,3.6*13
$GNGGA,042113.800,2500.8048125,N,12132.4278758,E,4,55,0.48,17.087,M,15.25,M,0,3335*4F
$GNRMC,042113.800,A,2500.8048125,N,12132.4278758,E,0.66,137.85,090324,,,R,V*15
$GPHDT,140.111,T*31
$GNACCURACY,3.6*13
$GNGGA,042113.900,2500.8047887,N,12132.4279141,E,4,55,0.48,17.151,M,15.25,M,0,3335*45
$GNRMC,042113.900,A,2500.8047887,N,12132.4279141,E,0.76,135.82,090324,,,R,V*11
$GPHDT,,T*1B
$GNACCURACY,3.6*13
$GNGGA,042114.000,2500.8047656,N,12132.4279428,E,4,55,0.48,17.121,M,15.25,M,1,3335*45
$GNRMC,042114.000,A,2500.8047656,N,12132.4279428,E,0.83,135.85,090324,,,R,V*1A
$GPHDT,141.371,T*34
$GNACCURACY,3.6*13
$GNGGA,042114.100,2500.8047364,N,12132.4279781,E,4,55,0.48,17.140,M,15.25,M,1,3335*47
$GNRMC,042114.100,A,2500.8047364,N,12132.4279781,E,0.92,134.31,090324,,,R,V*11
$GPHDT,,T*1B
$GNGSA,A,3,21,195,194,199,08,02,07,27,16,196,30,04,0.74,0.48,0.56,1*08
$GNGSA,A,3,09,,,,,,,,,,,,0.74,0.48,0.56,1*04
$GNGSA,A,3,81,78,88,79,82,77,,,,,,,0.74,0.48,0.56,2*0C
$GNGSA,A,3,21,13,26,27,19,15,,,,,,,0.74,0.48,0.56,3*03
$GNGSA,A,3,23,09,06,16,07,28,40,39,43,10,37,25,0.74,0.48,0.56,4*07
$GPGSV,4,1,16,21,66,148,46,195,66,111,44,194,64,054,43,50,60,167,41,1*68
$GPGSV,4,2,16,199,60,167,37,08,58,003,43,02,54,175,40,07,46,313,45,1*56
$GPGSV,4,3,16,27,29,039,40,16,25,081,38,09,21,241,20,196,19,168,18,1*59
$GPGSV,4,4,16,30,15,319,20,04,14,199,26,26,05,104,,17,01,239,,1*62
$GPGSV,2,1,08,195,66,111,47,194,64,054,46,199,60,167,43,08,58,003,45,8*53
$GPGSV,2,2,08,27,29,039,42,09,21,241,17,30,15,319,20,04,14,199,26,8*66
$GLGSV,2,1,06,81,72,209,25,78,59,050,44,88,49,028,43,79,31,338,30,1*7C
$GLGSV,2,2,06,82,21,207,16,77,20,116,30,1*72
$GAGSV,2,1,08,21,56,019,42,13,54,072,41,26,49,171,37,27,27,084,38,7*78
$GAGSV,2,2,08,19,24,237,13,04,12,295,,15,10,037,29,33,08,199,,7*7B
$GAGSV,2,1,05,21,56,019,44,13,54,072,46,26,49,171,37,27,27,084,37,1*7D
$GAGSV,2,2,05,15,10,037,33,1*41
$GBGSV,4,1,13,23,76,050,46,09,71,258,27,06,68,214,18,16,65,200,20,1*71
$GBGSV,4,2,13,07,60,312,41,28,60,228,21,40,59,332,41,39,55,189,24,1*72
$GBGSV,4,3,13,43,53,035,45,10,50,293,38,37,34,323,36,25,34,122,44,1*77
$GBGSV,4,4,13,34,07,041,35,1*47
$GBGSV,2,1,06,23,76,050,45,28,60,228,16,40,59,332,43,39,55,189,19,4*7E
$GBGSV,2,2,06,43,53,035,46,25,34,122,44,4*71
$GNACCURACY,3.5*10
$PAIRSAT,1,35,2,0,201,3,0,200,4,0,221,5,0,200,6,0,200,7,0,201,8,0,221,9,0,220,10,0,200,11,0,200,12,0,200,13,0,200,14,0,200,15,0,200,16,0,201,17,0,200,18,0,200,19,0,200,20,0,200,21,0,201,22,0,200,23,0,200,24,0,200,25,0,200,26,0,220,27,0,221,28,0,200,29,0,200,30,0,221,31,0,200,32,0,200,194,0,621,195,0,621,196,0,620,199,0,621*5A
$PAIRSAT,2,24,65,0,200,66,0,200,67,0,200,68,0,200,69,0,200,70,0,200,71,0,200,72,0,200,73,0,200,74,0,200,75,0,200,76,0,200,77,0,201,78,0,201,79,0,201,80,0,200,81,0,201,82,0,201,83,0,200,84,0,200,85,0,200,86,0,200,87,0,200,88,0,201*7A
$PAIRSAT,3,23,2,0,1200,3,0,1200,4,0,1200,5,0,200,7,0,1200,8,0,1200,9,0,1200,10,0,1200,11,0,1200,12,0,1200,13,0,1221,15,0,1220,19,0,1201,21,0,1221,24,0,1200,25,0,1200,26,0,1221,27,0,1221,30,0,1200,31,0,1200,33,0,1200,34,0,1200,36,0,1200*69
$PAIRSAT,4,46,1,0,200,2,0,200,3,0,600,4,0,200,5,0,200,6,0,201,7,0,201,8,0,200,9,0,201,10,0,201,11,0,200,12,0,200,13,0,200,14,0,200,16,0,201,19,0,600,20,0,600,21,0,600,22,0,600,23,0,621,24,0,600,25,0,621,26,0,600,27,0,600,28,0,621,29,0,600,30,0,600,32,0,600,33,0,600,34,0,621,35,0,600,36,0,600,37,0,621,38,0,600,39,0,621,40,0,621,41,0,600,42,0,600,43,0,621,44,0,600,45,0,600,46,0,600,59,0,400,60,0,400,61,0,400,62,0,400*48
$PAIRDGP,10,2,4,7,8,9,16,21,26,27,30*42
$GNGGA,042114.200,2500.8047057,N,12132.4280184,E,4,55,0.48,17.140,M,15.25,M,1,3335*42
$GNRMC,042114.200,A,2500.8047057,N,12132.4280184,E,1.01,134.53,090324,,,R,V*1B
$GPHDT,140.245,T*33
$GNACCURACY,3.5*10
$GNGGA,042114.300,2500.8046779,N,12132.4280566,E,4,55,0.48,17.127,M,15.25,M,1,3335*40
$GNRMC,042114.300,A,2500.8046779,N,12132.4280566,E,1.09,133.84,090324,,,R,V*1D
$GPHDT,,T*1B
$GNACCURACY,3.5*10
$GNGGA,042114.400,2500.8046400,N,12132.4280862,E,4,54,0.49,17.126,M,15.25,M,1,3335*42
$GNRMC,042114.400,A,2500.8046400,N,12132.4280862,E,1.12,134.02,090324,,,R,V*1D
$GPHDT,139.507,T*3C
$GNACCURACY,3.5*10
$GNGGA,042114.500,2500.8046117,N,12132.4281198,E,4,54,0.49,17.133,M,15.25,M,0,3335*48
$GNRMC,042114.500,A,2500.8046117,N,12132.4281198,E,1.17,133.52,090324,,,R,V*15
$GPHDT,,T*1B
$GNACCURACY,3.5*10
$GNGGA,042114.600,2500.8045940,N,12132.4281543,E,4,56,0.48,17.191,M,15.25,M,0,3335*4B
$GNRMC,042114.600,A,2500.8045940,N,12132.4281543,E,1.16,133.58,090324,,,R,V*16
$GPHDT,139.174,T*3C
$GNACCURACY,3.5*10
$GNGGA,042114.700,2500.8045652,N,12132.4281820,E,4,56,0.48,17.162,M,15.25,M,0,3335*42
$GNRMC,042114.700,A,2500.8045652,N,12132.4281820,E,1.21,132.06,090324,,,R,V*1D
$GPHDT,,T*1B
$GNACCURACY,3.5*10
$GNGGA,042114.800,2500.8045340,N,12132.4282185,E,4,56,0.48,17.153,M,15.25,M,0,3335*4C
$GNRMC,042114.800,A,2500.8045340,N,12132.4282185,E,1.24,132.39,090324,,,R,V*18
$GPHDT,140.209,T*3B
$GNACCURACY,3.5*10
$GNGGA,042114.900,2500.8045000,N,12132.4282572,E,4,56,0.48,17.143,M,15.25,M,0,3335*47
$GNRMC,042114.900,A,2500.8045000,N,12132.4282572,E,1.30,132.27,090324,,,R,V*18
$GPHDT,,T*1B
$GNACCURACY,3.5*10
$GNGGA,042115.000,2500.8044758,N,12132.4282792,E,4,56,0.48,17.165,M,15.25,M,1,3335*4D
$GNRMC,042115.000,A,2500.8044758,N,12132.4282792,E,1.31,133.98,090324,,,R,V*13
$GPHDT,140.197,T*3F
$GNACCURACY,3.5*10
$GNGGA,042115.100,2500.8044371,N,12132.4283140,E,4,55,0.49,17.137,M,15.25,M,1,3335*4E
$GNRMC,042115.100,A,2500.8044371,N,12132.4283140,E,1.34,133.94,090324,,,R,V*1C
$GPHDT,,T*1B
$GNGSA,A,3,195,21,194,199,08,02,07,27,16,196,30,04,0.76,0.49,0.58,1*05
$GNGSA,A,3,81,78,88,79,82,77,,,,,,,0.76,0.49,0.58,2*01
$GNGSA,A,3,21,13,26,27,19,15,,,,,,,0.76,0.49,0.58,3*0E
$GNGSA,A,3,23,09,06,16,07,28,40,39,43,10,37,25,0.76,0.49,0.58,4*0A
$GPGSV,5,1,17,195,66,111,44,21,66,148,39,194,64,054,44,50,60,167,36,1*67
$GPGSV,5,2,17,199,60,167,34,08,58,003,41,02,54,175,42,07,46,313,45,1*55
$GPGSV,5,3,17,27,28,039,41,16,25,081,38,09,21,241,19,196,19,168,19,1*52
$GPGSV,5,4,17,30,15,319,22,04,14,199,20,26,05,104,,17,01,239,,1*66
$GPGSV,5,5,17,14,01,295,,1*58
$GPGSV,2,1,08,195,66,111,45,194,64,054,47,199,60,167,46,08,58,003,46,8*56
$GPGSV,2,2,08,27,28,039,43,09,21,241,15,30,15,319,30,04,14,199,28,8*6B
$GLGSV,2,1,06,81,72,209,26,78,59,050,43,88,49,028,45,79,31,338,35,1*7B
$GLGSV,2,2,06,82,21,207,16,77,20,116,30,1*72
$GAGSV,2,1,08,21,56,019,42,13,54,072,39,26,49,171,35,27,27,084,37,7*7A
$GAGSV,2,2,08,19,24,237,13,04,12,295,,15,10,037,22,33,08,199,,7*70
$GAGSV,2,1,05,21,56,019,45,13,54,072,46,26,49,171,27,27,27,084,37,1*7D
$GAGSV,2,2,05,15,10,037,30,1*42
$GBGSV,4,1,13,23,76,050,46,09,71,258,23,06,68,214,24,16,65,200,21,1*7B
$GBGSV,4,2,13,07,60,312,39,28,60,228,20,40,59,332,42,39,55,189,24,1*7F
$GBGSV,4,3,13,43,53,035,47,10,50,293,39,37,34,323,27,25,34,122,43,1*73
$GBGSV,4,4,13,34,07,041,30,1*42
$GBGSV,2,1,07,23,76,050,48,28,60,228,18,40,59,332,43,39,55,189,21,4*77
$GBGSV,2,2,07,43,53,035,45,25,34,122,46,37,34,323,27,4*45
$GNACCURACY,3.5*10
$PAIRSAT,1,35,2,0,201,3,0,200,4,0,221,5,0,200,6,0,200,7,0,201,8,0,221,9,0,220,10,0,200,11,0,200,12,0,200,13,0,200,14,0,200,15,0,200,16,0,201,17,0,200,18,0,200,19,0,200,20,0,200,21,0,201,22,0,200,23,0,200,24,0,200,25,0,200,26,0,220,27,0,221,28,0,200,29,0,200,30,0,221,31,0,200,32,0,200,194,0,621,195,0,621,196,0,620,199,0,621*5A
$PAIRSAT,2,24,65,0,200,66,0,200,67,0,200,68,0,200,69,0,200,70,0,200,71,0,200,72,0,200,73,0,200,74,0,200,75,0,200,76,0,200,77,0,201,78,0,201,79,0,201,80,0,200,81,0,201,82,0,201,83,0,200,84,0,200,85,0,200,86,0,200,87,0,200,88,0,201*7A
$PAIRSAT,3,23,2,0,1200,3,0,1200,4,0,1200,5,0,200,7,0,1200,8,0,1200,9,0,1200,10,0,1200,11,0,1200,12,0,1200,13,0,1221,15,0,1220,19,0,1201,21,0,1221,24,0,1200,25,0,1200,26,0,1221,27,0,1221,30,0,1200,31,0,1200,33,0,1200,34,0,1200,36,0,1200*69
$PAIRSAT,4,46,1,0,200,2,0,200,3,0,600,4,0,200,5,0,200,6,0,201,7,0,201,8,0,200,9,0,201,10,0,201,11,0,200,12,0,200,13,0,200,14,0,200,16,0,201,19,0,600,20,0,600,21,0,600,22,0,600,23,0,621,24,0,600,25,0,621,26,0,600,27,0,600,28,0,621,29,0,600,30,0,600,32,0,600,33,0,600,34,0,621,35,0,600,36,0,600,37,0,621,38,0,600,39,0,621,40,0,621,41,0,600,42,0,600,43,0,621,44,0,600,45,0,600,46,0,600,59,0,400,60,0,400,61,0,400,62,0,400*48
$PAIRDGP,10,2,4,7,8,9,16,21,26,27,30*42
$GNGGA,042115.200,2500.8044139,N,12132.4283341,E,4,55,0.49,17.150,M,15.25,M,1,3335*41
$GNRMC,042115.200,A,2500.8044139,N,12132.4283341,E,1.32,135.30,090324,,,R,V*1C
$GPHDT,138.854,T*36
$GNACCURACY,3.6*13
$GNGGA,042115.300,2500.8043827,N,12132.4283674,E,4,56,0.48,17.148,M,15.25,M,1,3335*49
$GNRMC,042115.300,A,2500.8043827,N,12132.4283674,E,1.34,135.94,090324,,,R,V*17
$GPHDT,,T*1B
$GNACCURACY,3.6*13
$GNGGA,042115.400,2500.8043608,N,12132.4283857,E,4,55,0.48,17.111,M,15.25,M,1,3335*4D
$GNRMC,042115.400,A,2500.8043608,N,12132.4283857,E,1.33,136.83,090324,,,R,V*1E
$GPHDT,137.909,T*30
$GNACCURACY,3.6*13
$GNGGA,042115.500,2500.8043305,N,12132.4284128,E,4,55,0.48,17.132,M,15.25,M,1,3335*43
$GNRMC,042115.500,A,2500.8043305,N,12132.4284128,E,1.33,138.19,090324,,,R,V*1C
$GPHDT,,T*1B
$GNACCURACY,3.6*13
$GNGGA,042115.600,2500.8043028,N,12132.4284400,E,4,57,0.48,17.072,M,15.25,M,0,3335*45
$GNRMC,042115.600,A,2500.8043028,N,12132.4284400,E,1.34,137.65,090324,,,R,V*1F
$GPHDT,136.034,T*36
$GNACCURACY,3.6*13
$GNGGA,042115.700,2500.8042679,N,12132.4284682,E,4,56,0.48,17.110,M,15.25,M,0,3335*4B
$GNRMC,042115.700,A,2500.8042679,N,12132.4284682,E,1.33,138.26,090324,,,R,V*1A
$GPHDT,,T*1B
$GNACCURACY,3.6*13
$GNGGA,042115.800,2500.8042417,N,12132.4284920,E,4,55,0.49,17.124,M,15.25,M,0,3335*4C
$GNRMC,042115.800,A,2500.8042417,N,12132.4284920,E,1.32,137.86,090324,,,R,V*1C
$GPHDT,133.595,T*3D
$GNACCURACY,3.6*13
$GNGGA,042115.900,2500.8042163,N,12132.4285265,E,4,55,0.49,17.129,M,15.25,M,0,3335*4D
$GNRMC,042115.900,A,2500.8042163,N,12132.4285265,E,1.34,138.24,090324,,,R,V*11
$GPHDT,,T*1B
$GNACCURACY,3.6*13
$GNGGA,042116.000,2500.8041821,N,12132.4285565,E,4,55,0.49,17.133,M,15.25,M,1,3335*46
$GNRMC,042116.000,A,2500.8041821,N,12132.4285565,E,1.34,138.53,090324,,,R,V*10
$GPHDT,135.964,T*39
$GNACCURACY,3.6*13
$GNGGA,042116.100,2500.8041508,N,12132.4285848,E,4,55,0.49,17.097,M,15.25,M,1,3335*4C
$GNRMC,042116.100,A,2500.8041508,N,12132.4285848,E,1.34,138.40,090324,,,R,V*17
$GPHDT,,T*1B
$GNGSA,A,3,195,21,194,199,08,02,07,27,16,09,196,30,0.75,0.49,0.57,1*04
$GNGSA,A,3,04,,,,,,,,,,,,0.75,0.49,0.57,1*08
$GNGSA,A,3,81,78,88,79,82,77,,,,,,,0.75,0.49,0.57,2*0D
$GNGSA,A,3,21,13,26,27,15,,,,,,,,0.75,0.49,0.57,3*0A
$GNGSA,A,3,23,09,06,16,07,28,40,39,43,10,37,25,0.75,0.49,0.57,4*06
$GPGSV,5,1,17,195,66,111,41,21,66,148,40,194,64,054,43,50,60,167,36,1*6B
$GPGSV,5,2,17,199,60,167,35,08,58,003,45,02,54,175,39,07,46,313,44,1*5D
$GPGSV,5,3,17,27,28,039,42,16,25,081,37,09,21,241,19,196,19,168,20,1*54
$GPGSV,5,4,17,30,15,319,23,04,14,199,19,26,05,104,,17,01,239,,1*6D
$GPGSV,5,5,17,14,01,295,,1*58
$GPGSV,2,1,08,195,66,111,45,194,64,054,46,199,60,167,41,08,58,003,45,8*53
$GPGSV,2,2,08,27,28,039,45,09,21,241,15,30,15,319,20,04,14,199,20,8*64
$GLGSV,2,1,06,81,72,209,31,78,59,050,45,88,49,028,43,79,31,338,30,1*78
$GLGSV,2,2,06,82,21,207,16,77,20,116,28,1*7B
$GAGSV,2,1,08,21,56,019,42,13,54,072,44,26,49,171,33,27,27,084,35,7*74
$GAGSV,2,2,08,19,24,237,,04,12,295,,15,10,037,20,33,08,199,,7*70
$GAGSV,2,1,05,21,56,019,43,13,54,072,46,26,49,171,37,27,27,084,38,1*75
$GAGSV,2,2,05,15,10,037,33,1*41
$GBGSV,4,1,13,23,76,050,44,09,71,258,24,06,68,214,20,16,65,200,21,1*7A
$GBGSV,4,2,13,07,60,312,39,28,60,228,22,40,59,332,43,39,55,189,22,1*7A
$GBGSV,4,3,13,43,53,035,44,10,50,293,39,37,34,323,28,25,34,122,43,1*7F
$GBGSV,4,4,13,34,07,041,25,1*46
$GBGSV,2,1,07,23,76,050,45,28,60,228,16,40,59,332,44,39,55,189,22,4*70
$GBGSV,2,2,07,43,53,035,46,25,34,122,46,37,34,323,32,4*42
$GNACCURACY,3.6*13
$PAIRSAT,1,35,2,0,201,3,0,200,4,0,221,5,0,200,6,0,200,7,0,201,8,0,221,9,0,220,10,0,200,11,0,200,12,0,200,13,0,200,14,0,200,15,0,200,16,0,201,17,0,200,18,0,200,19,0,200,20,0,200,21,0,201,22,0,200,23,0,200,24,0,200,25,0,200,26,0,220,27,0,221,28,0,200,29,0,200,30,0,221,31,0,200,32,0,200,194,0,621,195,0,621,196,0,620,199,0,621*5A
$PAIRSAT,2,24,65,0,200,66,0,200,67,0,200,68,0,200,69,0,200,70,0,200,71,0,200,72,0,200,73,0,200,74,0,200,75,0,200,76,0,200,77,0,201,78,0,201,79,0,201,80,0,200,81,0,201,82,0,201,83,0,200,84,0,200,85,0,200,86,0,200,87,0,200,88,0,201*7A
$PAIRSAT,3,23,2,0,1200,3,0,1200,4,0,1200,5,0,200,7,0,1200,8,0,1200,9,0,1200,10,0,1200,11,0,1200,12,0,1200,13,0,1221,15,0,1220,19,0,1201,21,0,1221,24,0,1200,25,0,1200,26,0,1221,27,0,1221,30,0,1200,31,0,1200,33,0,1200,34,0,1200,36,0,1200*69
$PAIRSAT,4,46,1,0,200,2,0,200,3,0,600,4,0,200,5,0,200,6,0,201,7,0,201,8,0,200,9,0,201,10,0,201,11,0,200,12,0,200,13,0,200,14,0,200,16,0,201,19,0,600,20,0,600,21,0,600,22,0,600,23,0,621,24,0,600,25,0,621,26,0,600,27,0,600,28,0,621,29,0,600,30,0,600,32,0,600,33,0,600,34,0,621,35,0,600,36,0,600,37,0,621,38,0,600,39,0,621,40,0,621,41,0,600,42,0,600,43,0,621,44,0,600,45,0,600,46,0,600,59,0,400,60,0,400,61,0,400,62,0,400*48
$PAIRDGP,10,2,4,7,8,9,16,21,26,27,30*42
$GNGGA,042116.200,2500.8041230,N,12132.4286249,E,4,56,0.49,17.108,M,15.25,M,1,3335*4F
$GNRMC,042116.200,A,2500.8041230,N,12132.4286249,E,1.38,138.13,090324,,,R,V*1A
$GPHDT,135.518,T*3E
$GNACCURACY,3.5*10
$GNGGA,042116.300,2500.8040845,N,12132.4286528,E,4,55,0.49,17.133,M,15.25,M,1,3335*4C
$GNRMC,042116.300,A,2500.8040845,N,12132.4286528,E,1.38,138.65,090324,,,R,V*13
$GPHDT,,T*1B
$GNACCURACY,3.5*10
$GNGGA,042116.400,2500.8040563,N,12132.4286752,E,4,55,0.49,17.065,M,15.25,M,1,3335*4F
$GNRMC,042116.400,A,2500.8040563,N,12132.4286752,E,1.36,138.88,090324,,,R,V*1F
$GPHDT,135.758,T*38
$GNACCURACY,3.5*10
$GNGGA,042116.500,2500.8040218,N,12132.4287119,E,4,54,0.50,17.106,M,15.25,M,1,3335*40
$GNRMC,042116.500,A,2500.8040218,N,12132.4287119,E,1.39,138.53,090324,,,R,V*14
$GPHDT,,T*1B
$GNACCURACY,3.5*10
$GNGGA,042116.600,2500.8040042,N,12132.4287376,E,4,54,0.50,17.072,M,15.25,M,0,3335*46
$GNRMC,042116.600,A,2500.8040042,N,12132.4287376,E,1.35,138.74,090324,,,R,V*18
$GPHDT,137.175,T*33
$GNACCURACY,3.6*13
$GNGGA,042116.700,2500.8039800,N,12132.4287754,E,4,55,0.49,17.109,M,15.25,M,0,3335*47
$GNRMC,042116.700,A,2500.8039800,N,12132.4287754,E,1.35,137.74,090324,,,R,V*12
$GPHDT,,T*1B
$GNACCURACY,3.6*13
$GNGGA,042116.800,2500.8039547,N,12132.4288108,E,4,56,0.49,17.133,M,15.25,M,0,3335*4C
$GNRMC,042116.800,A,2500.8039547,N,12132.4288108,E,1.36,137.44,090324,,,R,V*13
$GPHDT,136.077,T*31
$GNACCURACY,3.6*13
$GNGGA,042116.900,2500.8039222,N,12132.4288484,E,4,55,0.49,17.135,M,15.25,M,0,3335*4D
$GNRMC,042116.900,A,2500.8039222,N,12132.4288484,E,1.35,137.16,090324,,,R,V*13
$GPHDT,,T*1B
$GNACCURACY,3.6*13
$GNGGA,042117.000,2500.8038899,N,12132.4288905,E,4,55,0.49,17.150,M,15.25,M,1,3335*48
$GNRMC,042117.000,A,2500.8038899,N,12132.4288905,E,1.35,137.04,090324,,,R,V*17
$GPHDT,135.395,T*3D
$GNACCURACY,3.6*13
$GNGGA,042117.100,2500.8038766,N,12132.4289235,E,4,55,0.49,17.161,M,15.25,M,1,3335*4D
$GNRMC,042117.100,A,2500.8038766,N,12132.4289235,E,1.34,136.53,090324,,,R,V*12
$GPHDT,,T*1B
$GNGSA,A,3,21,195,194,199,08,02,07,27,16,09,196,30,0.75,0.49,0.57,1*04
$GNGSA,A,3,04,,,,,,,,,,,,0.75,0.49,0.57,1*08
$GNGSA,A,3,81,78,88,79,82,77,,,,,,,0.75,0.49,0.57,2*0D
$GNGSA,A,3,21,13,26,27,15,,,,,,,,0.75,0.49,0.57,3*0A
$GNGSA,A,3,23,09,06,16,07,28,40,39,43,10,37,25,0.75,0.49,0.57,4*06
$GPGSV,4,1,16,21,66,148,30,195,66,111,35,194,64,054,44,50,60,167,34,1*6A
$GPGSV,4,2,16,199,60,167,31,08,58,003,41,02,54,175,39,07,46,313,43,1*5A
$GPGSV,4,3,16,27,28,039,42,16,25,081,38,09,21,241,18,196,19,168,19,1*50
$GPGSV,4,4,16,30,15,319,25,04,14,199,19,26,05,104,,14,01,295,,1*6E
$GPGSV,2,1,08,195,66,111,42,194,64,054,46,199,60,167,43,08,58,003,45,8*56
$GPGSV,2,2,08,27,28,039,43,09,21,241,15,30,15,319,23,04,14,199,18,8*6A
$GLGSV,2,1,06,81,72,209,24,78,59,050,44,88,49,028,44,79,31,338,32,1*78
$GLGSV,2,2,06,82,21,207,16,77,20,116,27,1*74
$GAGSV,2,1,08,21,56,019,43,13,54,072,41,26,49,171,32,27,27,084,34,7*70
$GAGSV,2,2,08,19,24,237,,04,12,295,,15,10,037,23,33,08,199,,7*73
$GAGSV,2,1,05,21,56,019,44,13,54,072,43,26,49,171,22,27,27,084,39,1*72
$GAGSV,2,2,05,15,10,037,26,1*45
$GBGSV,4,1,13,23,76,050,45,09,71,258,23,06,68,214,19,16,65,200,19,1*7D
$GBGSV,4,2,13,07,60,312,41,28,60,228,22,40,59,332,44,39,55,189,24,1*74
$GBGSV,4,3,13,43,53,035,43,10,50,293,39,37,34,323,28,25,34,122,44,1*7F
$GBGSV,4,4,13,34,07,041,22,1*41
$GBGSV,2,1,07,23,76,050,48,28,60,228,16,40,59,332,43,39,55,189,29,4*71
$GBGSV,2,2,07,43,53,035,43,25,34,122,45,37,34,323,36,4*40
$GNACCURACY,3.6*13
$PAIRSAT,1,35,2,0,201,3,0,200,4,0,221,5,0,200,6,0,200,7,0,201,8,0,221,9,0,220,10,0,200,11,0,200,12,0,200,13,0,200,14,0,200,15,0,200,16,0,201,17,0,200,18,0,200,19,0,200,20,0,200,21,0,201,22,0,200,23,0,200,24,0,200,25,0,200,26,0,220,27,0,221,28,0,200,29,0,200,30,0,221,31,0,200,32,0,200,194,0,621,195,0,621,196,0,620,199,0,621*5A
$PAIRSAT,2,24,65,0,200,66,0,200,67,0,200,68,0,200,69,0,200,70,0,200,71,0,200,72,0,200,73,0,200,74,0,200,75,0,200,76,0,200,77,0,201,78,0,201,79,0,201,80,0,200,81,0,201,82,0,201,83,0,200,84,0,200,85,0,200,86,0,200,87,0,200,88,0,201*7A
$PAIRSAT,3,23,2,0,1200,3,0,1200,4,0,1200,5,0,200,7,0,1200,8,0,1200,9,0,1200,10,0,1200,11,0,1200,12,0,1200,13,0,1221,15,0,1220,19,0,1201,21,0,1221,24,0,1200,25,0,1200,26,0,1221,27,0,1221,30,0,1200,31,0,1200,33,0,1200,34,0,1200,36,0,1200*69
$PAIRSAT,4,46,1,0,200,2,0,200,3,0,600,4,0,200,5,0,200,6,0,201,7,0,201,8,0,200,9,0,201,10,0,201,11,0,200,12,0,200,13,0,200,14,0,200,16,0,201,19,0,600,20,0,600,21,0,600,22,0,600,23,0,621,24,0,600,25,0,621,26,0,600,27,0,600,28,0,621,29,0,600,30,0,600,32,0,600,33,0,600,34,0,621,35,0,600,36,0,600,37,0,621,38,0,600,39,0,621,40,0,621,41,0,600,42,0,600,43,0,621,44,0,600,45,0,600,46,0,600,59,0,400,60,0,400,61,0,400,62,0,400*48
$PAIRDGP,10,2,4,7,8,9,16,21,26,27,30*42
$GNGGA,042117.200,2500.8038564,N,12132.4289606,E,4,56,0.49,17.141,M,15.25,M,1,3335*4B
$GNRMC,042117.200,A,2500.8038564,N,12132.4289606,E,1.34,135.70,090324,,,R,V*17
$GPHDT,136.625,T*30
$GNACCURACY,3.5*10
$GNGGA,042117.300,2500.8038276,N,12132.4289847,E,4,56,0.49,17.147,M,15.25,M,1,3335*43
$GNRMC,042117.300,A,2500.8038276,N,12132.4289847,E,1.32,135.06,090324,,,R,V*1E
$GPHDT,,T*1B
$GNACCURACY,3.5*10
$GNGGA,042117.400,2500.8038046,N,12132.4290237,E,4,56,0.49,17.173,M,15.25,M,1,3335*47
$GNRMC,042117.400,A,2500.8038046,N,12132.4290237,E,1.33,134.35,090324,,,R,V*1D
$GPHDT,136.971,T*3E
$GNACCURACY,3.5*10
$GNGGA,042117.500,2500.8037823,N,12132.4290523,E,4,56,0.49,17.130,M,15.25,M,0,3335*46
$GNRMC,042117.500,A,2500.8037823,N,12132.4290523,E,1.32,133.63,090324,,,R,V*1F
$GPHDT,,T*1B
$GNACCURACY,3.5*10
$GNGGA,042117.600,2500.8037507,N,12132.4290906,E,4,55,0.49,17.139,M,15.25,M,0,3335*4F
$GNRMC,042117.600,A,2500.8037507,N,12132.4290906,E,1.35,134.12,090324,,,R,V*1A
$GPHDT,137.733,T*37
$GNACCURACY,3.5*10
$GNGGA,042117.700,2500.8037121,N,12132.4291122,E,4,55,0.49,17.150,M,15.25,M,0,3335*4E
$GNRMC,042117.700,A,2500.8037121,N,12132.4291122,E,1.39,135.45,090324,,,R,V*1B
$GPHDT,,T*1B
$GNACCURACY,3.5*10
$GNGGA,042117.800,2500.8036807,N,12132.4291415,E,4,55,0.49,17.123,M,15.25,M,0,3335*48
$GNRMC,042117.800,A,2500.8036807,N,12132.4291415,E,1.41,136.12,090324,,,R,V*17
$GPHDT,136.847,T*3A
$GNACCURACY,3.5*10
$GNGGA,042117.900,2500.8036391,N,12132.4291631,E,4,55,0.49,17.110,M,15.25,M,0,3335*49
$GNRMC,042117.900,A,2500.8036391,N,12132.4291631,E,1.38,136.14,090324,,,R,V*1E
$GPHDT,,T*1B
$GNACCURACY,3.6*13
$GNGGA,042118.000,2500.8036157,N,12132.4291972,E,4,55,0.49,17.133,M,15.25,M,1,3335*4F
$GNRMC,042118.000,A,2500.8036157,N,12132.4291972,E,1.40,136.41,090324,,,R,V*17
$GPHDT,136.908,T*30
$GNACCURACY,3.6*13
$GNGGA,042118.100,2500.8036004,N,12132.4292249,E,4,55,0.49,17.171,M,15.25,M,1,3335*4F
$GNRMC,042118.100,A,2500.8036004,N,12132.4292249,E,1.38,136.37,090324,,,R,V*1F
$GPHDT,,T*1B
$GNGSA,A,3,195,21,194,199,08,02,07,27,16,196,30,04,0.75,0.49,0.57,1*09
$GNGSA,A,3,09,,,,,,,,,,,,0.75,0.49,0.57,1*05
$GNGSA,A,3,81,78,88,79,82,77,,,,,,,0.75,0.49,0.57,2*0D
$GNGSA,A,3,21,13,26,27,15,,,,,,,,0.75,0.49,0.57,3*0A
$GNGSA,A,3,23,09,06,16,07,28,40,39,43,10,37,25,0.75,0.49,0.57,4*06
$GPGSV,5,1,17,195,66,111,39,21,66,148,30,194,64,054,43,50,60,167,33,1*66
$GPGSV,5,2,17,199,60,167,31,08,58,003,43,02,54,175,38,07,46,313,43,1*59
$GPGSV,5,3,17,27,28,039,39,16,25,081,37,09,21,241,17,196,19,168,19,1*5C
$GPGSV,5,4,17,30,15,319,20,04,14,199,19,26,05,104,,17,01,239,,1*6E
$GPGSV,5,5,17,14,01,295,,1*58
$GPGSV,2,1,08,195,66,111,42,194,64,054,45,199,60,167,37,08,58,003,43,8*50
$GPGSV,2,2,08,27,28,039,41,09,21,241,15,30,15,319,22,04,14,199,18,8*69
$GLGSV,2,1,06,81,72,209,29,78,59,050,43,88,49,028,44,79,31,338,36,1*76
$GLGSV,2,2,06,82,21,207,16,77,20,116,31,1*73
$GAGSV,2,1,08,21,56,019,42,13,54,072,39,26,49,171,35,27,27,084,35,7*78
$GAGSV,2,2,08,19,24,237,,04,12,295,,15,10,037,19,33,08,199,,7*7A
$GAGSV,2,1,05,21,56,019,43,13,54,072,44,26,49,171,39,27,27,084,36,1*77
$GAGSV,2,2,05,15,10,037,24,1*47
$GBGSV,4,1,13,23,76,050,42,09,71,258,21,06,68,214,17,16,65,200,19,1*76
$GBGSV,4,2,13,07,60,312,41,28,60,228,23,40,59,332,43,39,55,189,28,1*7E
$GBGSV,4,3,13,43,53,035,44,10,50,293,40,37,34,323,37,25,34,122,44,1*78
$GBGSV,4,4,13,34,07,041,21,1*42
$GBGSV,2,1,07,23,76,050,45,28,60,228,15,40,59,332,40,39,55,189,25,4*70
$GBGSV,2,2,07,43,53,035,44,25,34,122,46,37,34,323,34,4*46
$GNACCURACY,3.6*13
$PAIRSAT,1,35,2,0,201,3,0,200,4,0,221,5,0,200,6,0,200,7,0,201,8,0,221,9,0,220,10,0,200,11,0,200,12,0,200,13,0,200,14,0,200,15,0,200,16,0,201,17,0,200,18,0,200,19,0,200,20,0,200,21,0,201,22,0,200,23,0,200,24,0,200,25,0,200,26,0,220,27,0,221,28,0,200,29,0,200,30,0,221,31,0,200,32,0,200,194,0,621,195,0,621,196,0,620,199,0,621*5A
$PAIRSAT,2,24,65,0,200,66,0,200,67,0,200,68,0,200,69,0,200,70,0,200,71,0,200,72,0,200,73,0,200,74,0,200,75,0,200,76,0,200,77,0,201,78,0,201,79,0,201,80,0,200,81,0,201,82,0,201,83,0,200,84,0,200,85,0,200,86,0,200,87,0,200,88,0,201*7A
$PAIRSAT,3,23,2,0,1200,3,0,1200,4,0,1200,5,0,200,7,0,1200,8,0,1200,9,0,1200,10,0,1200,11,0,1200,12,0,1200,13,0,1221,15,0,1220,19,0,1201,21,0,1221,24,0,1200,25,0,1200,26,0,1221,27,0,1221,30,0,1200,31,0,1200,33,0,1200,34,0,1200,36,0,1200*69
$PAIRSAT,4,46,1,0,200,2,0,200,3,0,600,4,0,200,5,0,200,6,0,201,7,0,201,8,0,200,9,0,201,10,0,201,11,0,200,12,0,200,13,0,200,14,0,200,16,0,201,19,0,600,20,0,600,21,0,600,22,0,600,23,0,621,24,0,600,25,0,621,26,0,600,27,0,600,28,0,621,29,0,600,30,0,600,32,0,600,33,0,600,34,0,621,35,0,600,36,0,600,37,0,621,38,0,600,39,0,621,40,0,621,41,0,600,42,0,600,43,0,621,44,0,600,45,0,600,46,0,600,59,0,400,60,0,400,61,0,400,62,0,400*48
$PAIRDGP,10,2,4,7,8,9,16,21,26,27,30*42
$GNGGA,042118.200,2500.8035777,N,12132.4292626,E,4,55,0.49,17.147,M,15.25,M,1,3335*44
$GNRMC,042118.200,A,2500.8035777,N,12132.4292626,E,1.38,135.74,090324,,,R,V*15
$GPHDT,139.614,T*3D
$GNACCURACY,3.6*13
$GNGGA,042118.300,2500.8035452,N,12132.4292966,E,4,55,0.49,17.154,M,15.25,M,1,3335*48
$GNRMC,042118.300,A,2500.8035452,N,12132.4292966,E,1.40,135.73,090324,,,R,V*13
$GPHDT,,T*1B
$GNACCURACY,3.6*13
$GNGGA,042118.400,2500.8035194,N,12132.4293322,E,4,55,0.49,17.150,M,15.25,M,1,3335*4F
$GNRMC,042118.400,A,2500.8035194,N,12132.4293322,E,1.45,134.73,090324,,,R,V*14
$GPHDT,139.054,T*3F
$GNACCURACY,3.6*13
$GNGGA,042118.500,2500.8034953,N,12132.4293521,E,4,54,0.49,17.117,M,15.25,M,1,3335*4B
$GNRMC,042118.500,A,2500.8034953,N,12132.4293521,E,1.40,134.44,090324,,,R,V*13
$GPHDT,,T*1B
$GNACCURACY,3.6*13
$GNGGA,042118.600,2500.8034595,N,12132.4293827,E,4,54,0.49,17.068,M,15.25,M,0,3335*4D
$GNRMC,042118.600,A,2500.8034595,N,12132.4293827,E,1.39,134.89,090324,,,R,V*12
$GPHDT,136.589,T*35
$GNACCURACY,3.6*13
$GNGGA,042118.700,2500.8034339,N,12132.4294053,E,4,54,0.49,17.081,M,15.25,M,0,3335*47
$GNRMC,042118.700,A,2500.8034339,N,12132.4294053,E,1.36,134.83,090324,,,R,V*1A
$GPHDT,,T*1B
$GNACCURACY,3.6*13
$GNGGA,042118.800,2500.8033839,N,12132.4294263,E,4,55,0.49,17.036,M,15.25,M,0,3335*48
$GNRMC,042118.800,A,2500.8033839,N,12132.4294263,E,1.33,133.99,090324,,,R,V*11
$GPHDT,135.266,T*30
$GNACCURACY,3.6*13
$GNGGA,042118.900,2500.8033696,N,12132.4294701,E,4,54,0.49,17.167,M,15.25,M,0,3335*47
$GNRMC,042118.900,A,2500.8033696,N,12132.4294701,E,1.32,133.99,090324,,,R,V*1B
$GPHDT,,T*1B
$GNACCURACY,3.6*13
$GNGGA,042119.000,2500.8033466,N,12132.4295100,E,4,55,0.49,17.231,M,15.25,M,1,3335*44
$GNRMC,042119.000,A,2500.8033466,N,12132.4295100,E,1.33,134.23,090324,,,R,V*1F
$GPHDT,137.429,T*3F
$GNACCURACY,3.5*10
$GNGGA,042119.100,2500.8033213,N,12132.4295300,E,4,54,0.49,17.168,M,15.25,M,1,3335*4D
$GNRMC,042119.100,A,2500.8033213,N,12132.4295300,E,1.35,134.82,090324,,,R,V*15
$GPHDT,,T*1B
$GNGSA,A,3,195,21,194,199,08,02,07,27,16,196,04,09,0.75,0.49,0.57,1*03
$GNGSA,A,3,30,,,,,,,,,,,,0.75,0.49,0.57,1*0F
$GNGSA,A,3,81,78,88,79,82,77,,,,,,,0.75,0.49,0.57,2*0D
$GNGSA,A,3,21,13,26,27,15,,,,,,,,0.75,0.49,0.57,3*0A
$GNGSA,A,3,23,09,06,16,07,28,40,39,43,10,37,25,0.75,0.49,0.57,4*06
$GPGSV,5,1,17,195,66,111,44,21,66,148,27,194,64,054,46,50,60,167,35,1*69
$GPGSV,5,2,17,199,60,167,33,08,58,003,45,02,54,175,43,07,46,313,44,1*56
$GPGSV,5,3,17,27,28,039,42,16,25,081,32,09,21,241,17,196,19,168,18,1*54
$GPGSV,5,4,17,30,15,319,23,04,14,199,19,26,05,104,,17,01,239,,1*6D
$GPGSV,5,5,17,14,01,295,,1*58
$GPGSV,2,1,07,194,64,054,47,199,60,167,38,08,58,003,44,27,28,039,41,8*6F
$GPGSV,2,2,07,09,21,241,14,30,15,319,25,04,14,199,18,8*50
$GLGSV,2,1,06,81,72,209,24,78,59,050,42,88,49,028,44,79,31,338,37,1*7B
$GLGSV,2,2,06,82,21,207,15,77,20,116,31,1*70
$GAGSV,2,1,08,21,56,019,43,13,54,072,35,26,49,171,36,27,27,084,32,7*71
$GAGSV,2,2,08,19,24,237,,04,12,295,,15,10,037,23,33,08,199,,7*73
$GAGSV,2,1,05,21,56,019,44,13,54,072,46,26,49,171,37,27,27,084,36,1*7C
$GAGSV,2,2,05,15,10,037,22,1*41
$GBGSV,4,1,13,23,76,050,28,09,71,258,18,06,68,214,17,16,65,200,19,1*70
$GBGSV,4,2,13,07,60,312,40,28,60,228,21,40,59,332,42,39,55,189,30,1*75
$GBGSV,4,3,13,43,53,035,43,10,50,293,41,37,34,323,37,25,34,122,43,1*79
$GBGSV,4,4,13,34,07,041,20,1*43
$GBGSV,2,1,07,23,76,050,45,28,60,228,15,40,59,332,43,39,55,189,28,4*7E
$GBGSV,2,2,07,43,53,035,46,25,34,122,45,37,34,323,35,4*46
$GNACCURACY,3.5*10
$PAIRSAT,1,35,2,0,201,3,0,200,4,0,221,5,0,200,6,0,200,7,0,201,8,0,221,9,0,220,10,0,200,11,0,200,12,0,200,13,0,200,14,0,200,15,0,200,16,0,201,17,0,200,18,0,200,19,0,200,20,0,200,21,0,201,22,0,200,23,0,200,24,0,200,25,0,200,26,0,220,27,0,221,28,0,200,29,0,200,30,0,221,31,0,200,32,0,200,194,0,621,195,0,621,196,0,620,199,0,621*5A
$PAIRSAT,2,24,65,0,200,66,0,200,67,0,200,68,0,200,69,0,200,70,0,200,71,0,200,72,0,200,73,0,200,74,0,200,75,0,200,76,0,200,77,0,201,78,0,201,79,0,201,80,0,200,81,0,201,82,0,201,83,0,200,84,0,200,85,0,200,86,0,200,87,0,200,88,0,201*7A
$PAIRSAT,3,23,2,0,1200,3,0,1200,4,0,1200,5,0,200,7,0,1200,8,0,1200,9,0,1200,10,0,1200,11,0,1200,12,0,1200,13,0,1221,15,0,1220,19,0,1201,21,0,1221,24,0,1200,25,0,1200,26,0,1221,27,0,1221,30,0,1200,31,0,1200,33,0,1200,34,0,1200,36,0,1200*69
$PAIRSAT,4,46,1,0,200,2,0,200,3,0,600,4,0,200,5,0,200,6,0,201,7,0,201,8,0,200,9,0,201,10,0,201,11,0,200,12,0,200,13,0,200,14,0,200,16,0,201,19,0,600,20,0,600,21,0,600,22,0,600,23,0,621,24,0,600,25,0,621,26,0,600,27,0,600,28,0,621,29,0,600,30,0,600,32,0,600,33,0,600,34,0,621,35,0,600,36,0,600,37,0,621,38,0,600,39,0,621,40,0,621,41,0,600,42,0,600,43,0,621,44,0,600,45,0,600,46,0,600,59,0,400,60,0,400,61,0,400,62,0,400*48
$PAIRDGP,10,2,4,7,8,9,16,21,26,27,30*42
$GNGGA,042119.200,2500.8032917,N,12132.4295659,E,4,53,0.49,17.198,M,15.25,M,1,3335*41
$GNRMC,042119.200,A,2500.8032917,N,12132.4295659,E,1.38,134.71,090324,,,R,V*10
$GPHDT,139.686,T*36
$GNACCURACY,3.5*10
$GNGGA,042119.300,2500.8032505,N,12132.4295927,E,4,55,0.49,17.147,M,15.25,M,1,3335*4D
$GNRMC,042119.300,A,2500.8032505,N,12132.4295927,E,1.39,134.72,090324,,,R,V*1A
$GPHDT,,T*1B
$GNACCURACY,3.5*10
$GNGGA,042119.400,2500.8032136,N,12132.4296361,E,4,55,0.49,17.162,M,15.25,M,1,3335*42
$GNRMC,042119.400,A,2500.8032136,N,12132.4296361,E,1.41,134.61,090324,,,R,V*1F
$GPHDT,140.525,T*32
$GNACCURACY,3.5*10
$GNGGA,042119.500,2500.8031786,N,12132.4296462,E,4,55,0.49,17.141,M,15.25,M,1,3335*48
$GNRMC,042119.500,A,2500.8031786,N,12132.4296462,E,1.40,135.00,090324,,,R,V*13
$GPHDT,,T*1B
$GNACCURACY,3.5*10
$GNGGA,042119.600,2500.8031510,N,12132.4296899,E,4,55,0.49,17.139,M,15.25,M,0,3335*40
$GNRMC,042119.600,A,2500.8031510,N,12132.4296899,E,1.39,134.26,090324,,,R,V*1E
$GPHDT,140.023,T*31
$GNACCURACY,3.5*10
$GNGGA,042119.700,2500.8031358,N,12132.4297223,E,4,55,0.49,17.143,M,15.25,M,0,3335*4C
$GNRMC,042119.700,A,2500.8031358,N,12132.4297223,E,1.41,133.66,090324,,,R,V*13
$GPHDT,,T*1B
$GNACCURACY,3.5*10
$GNGGA,042119.800,2500.8031051,N,12132.4297519,E,4,55,0.49,17.136,M,15.25,M,0,3335*45
$GNRMC,042119.800,A,2500.8031051,N,12132.4297519,E,1.38,134.83,090324,,,R,V*1A
$GPHDT,140.730,T*34
$GNACCURACY,3.5*10
$GNGGA,042119.900,2500.8030783,N,12132.4297968,E,4,54,0.50,17.213,M,15.25,M,0,3335*4A
$GNRMC,042119.900,A,2500.8030783,N,12132.4297968,E,1.42,134.45,090324,,,R,V*1F
$GPHDT,,T*1B
$GNACCURACY,3.5*10
$GNGGA,042120.000,2500.8030524,N,12132.4298338,E,4,54,0.50,17.196,M,15.25,M,1,3335*49
$GNRMC,042120.000,A,2500.8030524,N,12132.4298338,E,1.42,134.06,090324,,,R,V*14
$GPHDT,139.889,T*37
$GNACCURACY,3.5*10
$GNGGA,042120.100,2500.8030246,N,12132.4298735,E,4,54,0.50,17.248,M,15.25,M,1,3335*42
$GNRMC,042120.100,A,2500.8030246,N,12132.4298735,E,1.44,133.15,090324,,,R,V*1C
$GPHDT,,T*1B
$GNGSA,A,3,195,21,194,199,08,02,07,27,16,196,30,04,0.76,0.50,0.58,1*0D
$GNGSA,A,3,09,,,,,,,,,,,,0.76,0.50,0.58,1*01
$GNGSA,A,3,81,78,88,79,82,77,,,,,,,0.76,0.50,0.58,2*09
$GNGSA,A,3,21,13,26,27,15,,,,,,,,0.76,0.50,0.58,3*0E
$GNGSA,A,3,23,09,16,28,07,40,39,43,10,37,25,,0.76,0.50,0.58,4*04
$GPGSV,5,1,17,195,66,111,46,21,66,148,32,194,64,054,44,50,60,167,33,1*6B
$GPGSV,5,2,17,199,60,167,31,08,58,003,44,02,54,175,43,07,46,313,45,1*54
$GPGSV,5,3,17,27,28,039,40,16,25,081,36,09,21,241,20,196,19,168,19,1*57
$GPGSV,5,4,17,30,15,319,30,04,14,199,19,26,05,104,,17,01,239,,1*6F
$GPGSV,5,5,17,14,01,295,,1*58
$GPGSV,2,1,08,195,66,111,40,194,64,054,44,199,60,167,35,08,58,003,44,8*56
$GPGSV,2,2,08,27,28,039,40,09,21,241,16,30,15,319,33,04,14,199,18,8*6B
$GLGSV,2,1,07,81,72,209,20,78,59,050,44,88,49,028,42,79,31,338,27,1*7F
$GLGSV,2,2,07,82,21,207,15,77,20,116,33,69,01,275,,1*4D
$GAGSV,2,1,08,21,56,019,45,13,54,072,40,26,49,171,39,27,27,084,35,7*7D
$GAGSV,2,2,08,19,24,237,,04,12,295,18,15,10,037,28,33,08,199,,7*71
$GAGSV,2,1,05,21,56,019,44,13,54,072,44,26,49,171,44,27,27,084,37,1*7B
$GAGSV,2,2,05,15,10,037,18,1*48
$GBGSV,4,1,15,23,76,050,46,09,71,258,21,06,68,214,19,16,65,200,22,1*72
$GBGSV,4,2,15,28,60,228,20,07,60,312,40,40,59,332,44,39,55,189,32,1*76
$GBGSV,4,3,15,43,53,035,45,10,50,293,42,37,34,323,39,25,34,122,39,1*79
$GBGSV,4,4,15,27,14,222,,38,12,168,,34,07,041,20,1*40
$GBGSV,2,1,07,23,76,050,47,28,60,228,16,40,59,332,43,39,55,189,25,4*72
$GBGSV,2,2,07,43,53,035,45,25,34,122,43,37,34,323,32,4*44
$GNACCURACY,3.5*10
$PAIRSAT,1,35,2,0,201,3,0,200,4,0,221,5,0,200,6,0,200,7,0,201,8,0,221,9,0,220,10,0,200,11,0,200,12,0,200,13,0,200,14,0,200,15,0,200,16,0,201,17,0,200,18,0,200,19,0,200,20,0,200,21,0,201,22,0,200,23,0,200,24,0,200,25,0,200,26,0,220,27,0,221,28,0,200,29,0,200,30,0,221,31,0,200,32,0,200,194,0,621,195,0,621,196,0,620,199,0,621*5A
$PAIRSAT,2,24,65,0,200,66,0,200,67,0,200,68,0,200,69,0,200,70,0,200,71,0,200,72,0,200,73,0,200,74,0,200,75,0,200,76,0,200,77,0,201,78,0,201,79,0,201,80,0,200,81,0,201,82,0,201,83,0,200,84,0,200,85,0,200,86,0,200,87,0,200,88,0,201*7A
$PAIRSAT,3,23,2,0,1200,3,0,1200,4,0,1200,5,0,200,7,0,1200,8,0,1200,9,0,1200,10,0,1200,11,0,1200,12,0,1200,13,0,1221,15,0,1220,19,0,1201,21,0,1221,24,0,1200,25,0,1200,26,0,1221,27,0,1221,30,0,1200,31,0,1200,33,0,1200,34,0,1200,36,0,1200*69
$PAIRSAT,4,46,1,0,200,2,0,200,3,0,600,4,0,200,5,0,200,6,0,201,7,0,201,8,0,200,9,0,201,10,0,201,11,0,200,12,0,200,13,0,200,14,0,200,16,0,201,19,0,600,20,0,600,21,0,600,22,0,600,23,0,621,24,0,600,25,0,621,26,0,600,27,0,600,28,0,621,29,0,600,30,0,600,32,0,600,33,0,600,34,0,621,35,0,600,36,0,600,37,0,621,38,0,600,39,0,621,40,0,621,41,0,600,42,0,600,43,0,621,44,0,600,45,0,600,46,0,600,59,0,400,60,0,400,61,0,400,62,0,400*48
$PAIRDGP,10,2,4,7,8,9,16,21,26,27,30*42
$GNGGA,042120.200,2500.8029964,N,12132.4299009,E,4,54,0.50,17.154,M,15.25,M,1,3335*45
$GNRMC,042120.200,A,2500.8029964,N,12132.4299009,E,1.41,133.27,090324,,,R,V*11
$GPHDT,140.432,T*35
$GNACCURACY,3.5*10
$GNGGA,042120.300,2500.8029677,N,12132.4299324,E,4,54,0.50,17.138,M,15.25,M,1,3335*4F
$GNRMC,042120.300,A,2500.8029677,N,12132.4299324,E,1.43,132.29,090324,,,R,V*1C
$GPHDT,,T*1B
$GNACCURACY,3.5*10
$GNGGA,042120.400,2500.8029389,N,12132.4299650,E,4,54,0.50,17.201,M,15.25,M,1,3335*43
$GNRMC,042120.400,A,2500.8029389,N,12132.4299650,E,1.46,133.70,090324,,,R,V*11
$GPHDT,141.664,T*35
$GNACCURACY,3.5*10
$GNGGA,042120.500,2500.8028996,N,12132.4299914,E,4,55,0.49,17.181,M,15.25,M,1,3335*4A
$GNRMC,042120.500,A,2500.8028996,N,12132.4299914,E,1.46,134.89,090324,,,R,V*1B
$GPHDT,,T*1B
$GNACCURACY,3.5*10
$GNGGA,042120.600,2500.8028626,N,12132.4300276,E,4,54,0.50,17.176,M,15.25,M,1,3335*42
$GNRMC,042120.600,A,2500.8028626,N,12132.4300276,E,1.50,135.74,090324,,,R,V*16
$GPHDT,138.936,T*33
$GNACCURACY,3.5*10
$GNGGA,042120.700,2500.8028228,N,12132.4300529,E,4,55,0.49,17.162,M,15.25,M,0,3335*49
$GNRMC,042120.700,A,2500.8028228,N,12132.4300529,E,1.51,137.19,090324,,,R,V*18
$GPHDT,,T*1B
$GNACCURACY,3.5*10
$GNGGA,042120.800,2500.8027926,N,12132.4300838,E,4,54,0.50,17.168,M,15.25,M,0,3335*42
$GNRMC,042120.800,A,2500.8027926,N,12132.4300838,E,1.51,137.82,090324,,,R,V*12
$GPHDT,138.270,T*3A
$GNACCURACY,3.5*10
$GNGGA,042120.900,2500.8027697,N,12132.4301144,E,4,53,0.51,17.186,M,15.25,M,0,3335*43
$GNRMC,042120.900,A,2500.8027697,N,12132.4301144,E,1.50,137.73,090324,,,R,V*1A
$GPHDT,,T*1B
$GNACCURACY,3.5*10
$GNGGA,042121.000,2500.8027413,N,12132.4301397,E,4,53,0.51,17.178,M,15.25,M,1,3335*49
$GNRMC,042121.000,A,2500.8027413,N,12132.4301397,E,1.48,137.99,090324,,,R,V*1D
$GPHDT,140.727,T*32
$GNACCURACY,3.5*10
$GNGGA,042121.100,2500.8027104,N,12132.4301696,E,4,53,0.51,17.147,M,15.25,M,1,3335*43
$GNRMC,042121.100,A,2500.8027104,N,12132.4301696,E,1.48,139.26,090324,,,R,V*11
$GPHDT,,T*1B
$GNGSA,A,3,195,21,194,199,08,02,07,27,16,196,30,04,0.78,0.51,0.59,1*03
$GNGSA,A,3,09,,,,,,,,,,,,0.78,0.51,0.59,1*0F
$GNGSA,A,3,81,78,88,79,77,,,,,,,,0.78,0.51,0.59,2*0D
$GNGSA,A,3,21,13,26,27,15,,,,,,,,0.78,0.51,0.59,3*00
$GNGSA,A,3,23,09,16,07,28,40,39,43,10,37,25,,0.78,0.51,0.59,4*0A
$GPGSV,5,1,17,195,66,111,46,21,66,148,36,194,64,054,44,50,60,167,34,1*68
$GPGSV,5,2,17,199,60,167,31,08,58,003,45,02,54,175,44,07,46,313,46,1*51
$GPGSV,5,3,17,27,28,039,38,16,25,081,36,09,21,241,18,196,19,168,16,1*5C
$GPGSV,5,4,17,30,15,319,24,04,14,199,18,26,05,104,,17,01,239,,1*6B
$GPGSV,5,5,17,14,01,295,,1*58
$GPGSV,2,1,08,195,66,111,44,194,64,054,44,199,60,167,43,08,58,003,46,8*51
$GPGSV,2,2,08,27,28,039,39,09,21,241,16,30,15,319,33,04,14,199,18,8*65
$GLGSV,2,1,06,81,72,210,25,78,59,050,45,88,49,028,44,79,31,338,37,1*75
$GLGSV,2,2,06,82,21,207,14,77,20,116,32,1*72
$GAGSV,2,1,08,21,56,019,44,13,54,072,43,26,49,171,36,27,27,084,36,7*73
$GAGSV,2,2,08,19,24,237,,04,12,295,15,15,10,037,19,33,08,199,,7*7E
$GAGSV,2,1,05,21,56,019,44,13,54,072,43,26,49,171,42,27,27,084,35,1*78
$GAGSV,2,2,05,15,10,037,18,1*48
$GBGSV,4,1,13,23,76,050,47,09,71,258,18,06,68,214,20,16,65,200,29,1*7E
$GBGSV,4,2,13,07,60,312,32,28,60,228,18,40,59,332,37,39,55,189,37,1*7F
$GBGSV,4,3,13,43,53,035,46,10,50,293,39,37,34,323,41,25,34,122,39,1*7F
$GBGSV,4,4,13,34,07,041,23,1*40
$GBGSV,2,1,07,23,76,050,49,28,60,228,14,40,59,332,41,39,55,189,40,4*7F
$GBGSV,2,2,07,43,53,035,45,25,34,122,42,37,34,323,33,4*44
$GNACCURACY,3.6*13
$PAIRSAT,1,35,2,0,201,3,0,200,4,0,221,5,0,200,6,0,200,7,0,201,8,0,221,9,0,220,10,0,200,11,0,200,12,0,200,13,0,200,14,0,200,15,0,200,16,0,201,17,0,200,18,0,200,19,0,200,20,0,200,21,0,201,22,0,200,23,0,200,24,0,200,25,0,200,26,0,220,27,0,221,28,0,200,29,0,200,30,0,221,31,0,200,32,0,200,194,0,621,195,0,621,196,0,620,199,0,621*5A
$PAIRSAT,2,24,65,0,200,66,0,200,67,0,200,68,0,200,69,0,200,70,0,200,71,0,200,72,0,200,73,0,200,74,0,200,75,0,200,76,0,200,77,0,201,78,0,201,79,0,201,80,0,200,81,0,201,82,0,201,83,0,200,84,0,200,85,0,200,86,0,200,87,0,200,88,0,201*7A
$PAIRSAT,3,23,2,0,1200,3,0,1200,4,0,1200,5,0,200,7,0,1200,8,0,1200,9,0,1200,10,0,1200,11,0,1200,12,0,1200,13,0,1221,15,0,1220,19,0,1201,21,0,1221,24,0,1200,25,0,1200,26,0,1221,27,0,1221,30,0,1200,31,0,1200,33,0,1200,34,0,1200,36,0,1200*69
$PAIRSAT,4,46,1,0,200,2,0,200,3,0,600,4,0,200,5,0,200,6,0,201,7,0,201,8,0,200,9,0,201,10,0,201,11,0,200,12,0,200,13,0,200,14,0,200,16,0,201,19,0,600,20,0,600,21,0,600,22,0,600,23,0,621,24,0,600,25,0,621,26,0,600,27,0,600,28,0,621,29,0,600,30,0,600,32,0,600,33,0,600,34,0,621,35,0,600,36,0,600,37,0,621,38,0,600,39,0,621,40,0,621,41,0,600,42,0,600,43,0,621,44,0,600,45,0,600,46,0,600,59,0,400,60,0,400,61,0,400,62,0,400*48
$PAIRDGP,10,2,4,7,8,9,16,21,26,27,30*42
$GNGGA,042121.200,2500.8026784,N,12132.4302009,E,4,53,0.51,17.173,M,15.25,M,1,3335*4B
$GNRMC,042121.200,A,2500.8026784,N,12132.4302009,E,1.48,139.91,090324,,,R,V*12
$GPHDT,139.452,T*3D
$GNACCURACY,3.6*13
$GNGGA,042121.300,2500.8026457,N,12132.4302357,E,4,53,0.51,17.180,M,15.25,M,1,3335*43
$GNRMC,042121.300,A,2500.8026457,N,12132.4302357,E,1.48,139.89,090324,,,R,V*1F
$GPHDT,,T*1B
$GNACCURACY,3.6*13
$GNGGA,042121.400,2500.8026184,N,12132.4302717,E,4,53,0.51,17.175,M,15.25,M,1,3335*45
$GNRMC,042121.400,A,2500.8026184,N,12132.4302717,E,1.48,138.84,090324,,,R,V*1F
$GPHDT,136.345,T*33
$GNACCURACY,3.6*13
$GNGGA,042121.500,2500.8025905,N,12132.4302979,E,4,54,0.51,17.153,M,15.25,M,1,3335*43
$GNRMC,042121.500,A,2500.8025905,N,12132.4302979,E,1.45,138.70,090324,,,R,V*1C
$GPHDT,,T*1B
$GNACCURACY,3.6*13
$GNGGA,042121.600,2500.8025727,N,12132.4303336,E,4,54,0.51,17.190,M,15.25,M,1,3335*41
$GNRMC,042121.600,A,2500.8025727,N,12132.4303336,E,1.42,137.66,090324,,,R,V*1E
$GPHDT,139.555,T*3B
$GNACCURACY,3.6*13
$GNGGA,042121.700,2500.8025504,N,12132.4303731,E,4,52,0.54,17.145,M,15.25,M,0,3335*4A
$GNRMC,042121.700,A,2500.8025504,N,12132.4303731,E,1.41,136.34,090324,,,R,V*1A
$GPHDT,,T*1B
$GNACCURACY,3.6*13
$GNGGA,042121.800,2500.8025255,N,12132.4304081,E,4,52,0.54,17.132,M,15.25,M,0,3335*4D
$GNRMC,042121.800,A,2500.8025255,N,12132.4304081,E,1.41,136.34,090324,,,R,V*1D
$GPHDT,139.767,T*38
$GNACCURACY,3.6*13
$GNGGA,042121.900,2500.8024833,N,12132.4304391,E,4,52,0.54,17.156,M,15.25,M,0,3335*47
$GNRMC,042121.900,A,2500.8024833,N,12132.4304391,E,1.46,136.95,090324,,,R,V*19
$GPHDT,,T*1B
$GNACCURACY,3.6*13
$GNGGA,042122.000,2500.8024494,N,12132.4304642,E,4,53,0.51,17.136,M,15.25,M,1,3335*44
$GNRMC,042122.000,A,2500.8024494,N,12132.4304642,E,1.45,137.17,090324,,,R,V*11
$GPHDT,138.701,T*39
$GNACCURACY,3.6*13
$GNGGA,042122.100,2500.8024136,N,12132.4305070,E,4,53,0.51,17.154,M,15.25,M,1,3335*4A
$GNRMC,042122.100,A,2500.8024136,N,12132.4305070,E,1.48,137.18,090324,,,R,V*19
$GPHDT,,T*1B
$GNGSA,A,3,195,21,194,199,08,02,07,27,16,196,30,04,0.78,0.51,0.59,1*03
$GNGSA,A,3,09,,,,,,,,,,,,0.78,0.51,0.59,1*0F
$GNGSA,A,3,81,78,88,79,77,,,,,,,,0.78,0.51,0.59,2*0D
$GNGSA,A,3,21,13,26,27,15,,,,,,,,0.78,0.51,0.59,3*00
$GNGSA,A,3,23,09,16,07,28,40,39,43,10,37,25,,0.78,0.51,0.59,4*0A
$GPGSV,5,1,17,195,66,111,42,21,66,148,35,194,64,054,45,50,60,167,25,1*6E
$GPGSV,5,2,17,199,60,167,23,08,58,003,45,02,54,175,38,07,46,313,46,1*59
$GPGSV,5,3,17,27,28,039,38,16,25,081,35,09,21,241,15,196,19,168,17,1*53
$GPGSV,5,4,17,30,15,319,33,04,14,199,18,26,05,104,,17,01,239,,1*6D
$GPGSV,5,5,17,14,01,295,,1*58
$GPGSV,2,1,08,195,66,111,46,194,64,054,43,199,60,167,39,08,58,003,46,8*59
$GPGSV,2,2,08,27,28,039,39,09,21,241,13,30,15,319,28,04,14,199,18,8*6A
$GLGSV,2,1,06,81,72,210,29,78,59,050,44,88,49,028,43,79,31,338,36,1*7E
$GLGSV,2,2,06,82,21,207,14,77,20,116,26,1*77
$GAGSV,2,1,08,21,56,019,43,13,54,072,37,26,49,171,31,27,27,084,37,7*71
$GAGSV,2,2,08,19,24,237,,04,12,295,13,15,10,037,19,33,08,199,,7*78
$GAGSV,2,1,05,21,56,019,44,13,54,072,43,26,49,171,31,27,27,084,37,1*7E
$GAGSV,2,2,05,15,10,037,18,1*48
$GBGSV,4,1,13,23,76,050,47,09,71,258,19,06,68,214,18,16,65,200,32,1*7E
$GBGSV,4,2,13,07,60,312,30,28,60,228,18,40,59,332,34,39,55,189,36,1*7F
$GBGSV,4,3,13,43,53,035,43,10,50,293,38,37,34,323,37,25,34,122,41,1*75
$GBGSV,4,4,13,34,07,041,20,1*43
$GBGSV,2,1,07,23,76,050,47,28,60,228,12,40,59,332,35,39,55,189,38,4*7B
$GBGSV,2,2,07,43,53,035,42,25,34,122,41,37,34,323,38,4*4B
$GNACCURACY,3.6*13
$PAIRSAT,1,35,2,0,201,3,0,200,4,0,221,5,0,200,6,0,200,7,0,201,8,0,221,9,0,220,10,0,200,11,0,200,12,0,200,13,0,200,14,0,200,15,0,200,16,0,201,17,0,200,18,0,200,19,0,200,20,0,200,21,0,201,22,0,200,23,0,200,24,0,200,25,0,200,26,0,220,27,0,221,28,0,200,29,0,200,30,0,221,31,0,200,32,0,200,194,0,621,195,0,621,196,0,620,199,0,621*5A
$PAIRSAT,2,24,65,0,200,66,0,200,67,0,200,68,0,200,69,0,200,70,0,200,71,0,200,72,0,200,73,0,200,74,0,200,75,0,200,76,0,200,77,0,201,78,0,201,79,0,201,80,0,200,81,0,201,82,0,201,83,0,200,84,0,200,85,0,200,86,0,200,87,0,200,88,0,201*7A
$PAIRSAT,3,23,2,0,1200,3,0,1200,4,0,1200,5,0,200,7,0,1200,8,0,1200,9,0,1200,10,0,1200,11,0,1200,12,0,1200,13,0,1221,15,0,1220,19,0,1201,21,0,1221,24,0,1200,25,0,1200,26,0,1221,27,0,1221,30,0,1200,31,0,1200,33,0,1200,34,0,1200,36,0,1200*69
$PAIRSAT,4,46,1,0,200,2,0,200,3,0,600,4,0,200,5,0,200,6,0,201,7,0,201,8,0,200,9,0,201,10,0,201,11,0,200,12,0,200,13,0,200,14,0,200,16,0,201,19,0,600,20,0,600,21,0,600,22,0,600,23,0,621,24,0,600,25,0,621,26,0,600,27,0,600,28,0,621,29,0,600,30,0,600,32,0,600,33,0,600,34,0,621,35,0,600,36,0,600,37,0,621,38,0,600,39,0,621,40,0,621,41,0,600,42,0,600,43,0,621,44,0,600,45,0,600,46,0,600,59,0,400,60,0,400,61,0,400,62,0,400*48
$PAIRDGP,10,2,4,7,8,9,16,21,26,27,30*42
$GNGGA,042122.200,2500.8023829,N,12132.4305362,E,4,53,0.51,17.143,M,15.25,M,1,3335*4F
$GNRMC,042122.200,A,2500.8023829,N,12132.4305362,E,1.48,136.49,090324,,,R,V*1F
$GPHDT,138.927,T*33
$GNACCURACY,3.6*13
$GNGGA,042122.300,2500.8023587,N,12132.4305619,E,4,53,0.51,17.148,M,15.25,M,1,3335*45
$GNRMC,042122.300,A,2500.8023587,N,12132.4305619,E,1.47,136.93,090324,,,R,V*16
$GPHDT,,T*1B
$GNACCURACY,3.6*13
$GNGGA,042122.400,2500.8023339,N,12132.4305868,E,4,53,0.51,17.174,M,15.25,M,1,3335*46
$GNRMC,042122.400,A,2500.8023339,N,12132.4305868,E,1.45,136.74,090324,,,R,V*11
$GPHDT,138.529,T*31
$GNACCURACY,3.6*13
$GNGGA,042122.500,2500.8023043,N,12132.4306186,E,4,52,0.51,17.214,M,15.25,M,1,3335*47
$GNRMC,042122.500,A,2500.8023043,N,12132.4306186,E,1.46,136.51,090324,,,R,V*10
$GPHDT,,T*1B
$GNACCURACY,3.6*13
$GNGGA,042122.600,2500.8022780,N,12132.4306507,E,4,53,0.51,17.176,M,15.25,M,0,3335*47
$GNRMC,042122.600,A,2500.8022780,N,12132.4306507,E,1.44,136.59,090324,,,R,V*1D
$GPHDT,141.854,T*38
$GNACCURACY,3.6*13
$GNGGA,042122.700,2500.8022544,N,12132.4306943,E,4,53,0.51,17.151,M,15.25,M,0,3335*45
$GNRMC,042122.700,A,2500.8022544,N,12132.4306943,E,1.45,136.36,090324,,,R,V*12
$GPHDT,,T*1B
$GNACCURACY,3.6*13
$GNGGA,042122.800,2500.8022273,N,12132.4307214,E,4,53,0.51,17.132,M,15.25,M,0,3335*44
$GNRMC,042122.800,A,2500.8022273,N,12132.4307214,E,1.44,136.04,090324,,,R,V*16
$GPHDT,137.695,T*3A
$GNACCURACY,3.6*13
$GNGGA,042122.900,2500.8021983,N,12132.4307502,E,4,52,0.54,17.164,M,15.25,M,0,3335*45
$GNRMC,042122.900,A,2500.8021983,N,12132.4307502,E,1.43,136.32,090324,,,R,V*12
$GPHDT,,T*1B
$GNACCURACY,3.6*13
$GNGGA,042123.000,2500.8021730,N,12132.4307706,E,4,53,0.51,17.180,M,15.25,M,1,3335*42
$GNRMC,042123.000,A,2500.8021730,N,12132.4307706,E,1.35,135.00,090324,,,R,V*19
$GPHDT,136.675,T*35
$GNACCURACY,3.6*13
$GNGGA,042123.100,2500.8021534,N,12132.4308014,E,4,52,0.54,17.170,M,15.25,M,1,3335*45
$GNRMC,042123.100,A,2500.8021534,N,12132.4308014,E,1.35,133.71,090324,,,R,V*15
$GPHDT,,T*1B
$GNGSA,A,3,195,21,194,199,08,02,07,27,16,196,30,04,0.80,0.53,0.60,1*0C
$GNGSA,A,3,81,78,88,79,77,,,,,,,,0.80,0.53,0.60,2*02
$GNGSA,A,3,21,13,26,27,15,,,,,,,,0.80,0.53,0.60,3*0F
$GNGSA,A,3,23,09,06,16,07,28,40,39,43,10,37,25,0.80,0.53,0.60,4*03
$GPGSV,5,1,17,195,66,111,42,21,66,148,39,194,64,054,37,50,60,167,29,1*6B
$GPGSV,5,2,17,199,60,167,27,08,58,003,45,02,54,175,37,07,46,313,40,1*54
$GPGSV,5,3,17,27,28,039,27,16,25,081,38,09,21,241,16,196,19,168,18,1*5C
$GPGSV,5,4,17,30,15,319,32,04,14,199,18,26,05,104,,17,01,239,,1*6C
$GPGSV,5,5,17,14,01,295,,1*58
$GPGSV,2,1,08,195,66,111,47,194,64,054,47,199,60,167,35,08,58,003,47,8*51
$GPGSV,2,2,08,27,28,039,43,09,21,241,14,30,15,319,27,04,14,199,18,8*6F
$GLGSV,2,1,06,81,72,210,29,78,59,050,44,88,49,028,41,79,31,338,36,1*7C
$GLGSV,2,2,06,82,21,207,17,77,20,116,25,1*77
$GAGSV,2,1,08,21,56,019,39,13,54,072,38,26,49,171,35,27,27,084,36,7*76
$GAGSV,2,2,08,19,24,237,,04,12,295,16,15,10,037,19,33,08,199,,7*7D
$GAGSV,2,1,05,21,56,019,44,13,54,072,47,26,49,171,28,27,27,084,38,1*7D
$GAGSV,2,2,05,15,10,037,17,1*47
$GBGSV,4,1,13,23,76,050,45,09,71,258,18,06,68,214,18,16,65,200,32,1*7D
$GBGSV,4,2,13,07,60,312,28,28,60,228,19,40,59,332,41,39,55,189,36,1*75
$GBGSV,4,3,13,43,53,035,44,10,50,293,36,37,34,323,38,25,34,122,43,1*71
$GBGSV,4,4,13,34,07,041,19,1*49
$GBGSV,2,1,07,23,76,050,46,28,60,228,12,40,59,332,41,39,55,189,37,4*76
$GBGSV,2,2,07,43,53,035,44,25,34,122,43,37,34,323,42,4*42
$GNACCURACY,3.6*13
$PAIRSAT,1,35,2,0,201,3,0,200,4,0,221,5,0,200,6,0,200,7,0,201,8,0,221,9,0,220,10,0,200,11,0,200,12,0,200,13,0,200,14,0,200,15,0,200,16,0,201,17,0,200,18,0,200,19,0,200,20,0,200,21,0,201,22,0,200,23,0,200,24,0,200,25,0,200,26,0,220,27,0,221,28,0,200,29,0,200,30,0,221,31,0,200,32,0,200,194,0,621,195,0,621,196,0,620,199,0,621*5A
$PAIRSAT,2,24,65,0,200,66,0,200,67,0,200,68,0,200,69,0,200,70,0,200,71,0,200,72,0,200,73,0,200,74,0,200,75,0,200,76,0,200,77,0,201,78,0,201,79,0,201,80,0,200,81,0,201,82,0,201,83,0,200,84,0,200,85,0,200,86,0,200,87,0,200,88,0,201*7A
$PAIRSAT,3,23,2,0,1200,3,0,1200,4,0,1200,5,0,200,7,0,1200,8,0,1200,9,0,1200,10,0,1200,11,0,1200,12,0,1200,13,0,1221,15,0,1220,19,0,1201,21,0,1221,24,0,1200,25,0,1200,26,0,1221,27,0,1221,30,0,1200,31,0,1200,33,0,1200,34,0,1200,36,0,1200*69
