$FW : RTK35X,V1.1X0314AS,Lib20210517,1*54
$Tool : LOCOSYS , GNSS Firebird , v1.0.0.19*39
$---------------------------------------------------*2D
7,12,11,24,10,25,0.89,0.49,0.75,4*0F
$GNGSA,A,3,44,43,,,,,,,,,,,0.89,0.49,0.75,4*0D
$GPGSV,4,1,15,08,72,279,46,194,63,045,42,199,60,167,,27,57,024,44,1*6E
$GPGSV,4,2,15,195,55,126,35,45,47,231,40,16,38,048,39,04,37,223,44,1*57
$GPGSV,4,3,15,21,32,172,32,09,32,275,26,196,22,175,17,02,21,183,14,1*59
$GPGSV,4,4,15,31,20,133,36,26,20,077,34,07,19,320,32,1*5A
$GPGSV,2,1,08,08,72,279,47,194,63,045,38,199,60,167,32,27,57,024,46,8*62
$GPGSV,2,2,08,195,55,126,34,04,37,223,45,09,32,275,24,26,20,077,35,8*56
$GLGSV,2,1,08,82,70,092,40,83,44,177,,80,41,357,34,79,37,071,39,1*76
$GLGSV,2,2,08,81,30,034,36,70,15,268,,71,06,315,17,69,06,209,14,1*71
$GAGSV,2,1,08,30,51,018,38,34,43,086,26,07,40,244,36,15,36,156,23,7*71
$GAGSV,2,2,08,27,33,306,21,08,20,187,,02,19,072,24,36,11,041,16,7*72
$GAGSV,2,1,07,30,51,018,44,34,43,086,39,07,40,244,40,15,36,156,22,1*7D
$GAGSV,2,2,07,27,33,306,22,02,19,072,34,36,11,041,20,1*48
$GBGSV,5,1,17,06,85,235,42,16,83,185,40,34,78,152,38,09,74,312,42,1*70
$GBGSV,5,2,17,39,71,170,36,40,68,310,44,07,63,288,42,12,60,056,42,1*76
$GBGSV,5,3,17,11,56,191,28,24,53,079,39,10,52,272,37,25,49,336,46,1*79
$GBGSV,5,4,17,44,37,044,32,43,33,208,26,26,12,113,,33,08,220,,1*71
$GBGSV,5,5,17,41,07,267,,1*41
$GBGSV,2,1,07,34,78,152,38,39,71,170,33,40,68,310,44,24,53,079,42,4*78
$GBGSV,2,2,07,25,49,336,42,44,37,044,35,43,33,208,26,4*45
$GNACCURACY,3.1*14
$PAIRSAT,1,35,2,0,201,3,0,200,4,0,221,5,0,200,6,0,200,7,0,201,8,0,221,9,0,221,10,0,200,11,0,200,12,0,200,13,0,200,14,0,200,15,0,200,16,0,201,17,0,200,18,0,200,19,0,200,20,0,200,21,0,201,22,0,200,23,0,200,24,0,200,25,0,200,26,0,221,27,0,221,28,0,200,29,0,200,30,0,200,31,0,201,32,0,200,194,0,621,195,0,621,196,0,620,199,0,621*58
$PAIRSAT,2,24,65,0,200,66,0,200,67,0,200,68,0,200,69,0,201,70,0,201,71,0,201,72,0,200,73,0,200,74,0,200,75,0,200,76,0,200,77,0,200,78,0,200,79,0,201,80,0,201,81,0,201,82,0,201,83,0,201,84,0,200,85,0,200,86,0,200,87,0,200,88,0,200*7A
$PAIRSAT,3,23,2,0,1221,3,0,1200,4,0,1200,5,0,200,7,0,1221,8,0,1221,9,0,1200,10,0,1200,11,0,1200,12,0,1200,13,0,1200,15,0,1221,19,0,1200,21,0,1200,24,0,1200,25,0,1200,26,0,1200,27,0,1221,30,0,1221,31,0,1200,33,0,1200,34,0,1221,36,0,1221*6A
$PAIRSAT,4,46,1,0,200,2,0,200,3,0,600,4,0,200,5,0,200,6,0,201,7,0,201,8,0,200,9,0,201,10,0,201,11,0,201,12,0,201,13,0,200,14,0,200,16,0,201,19,0,600,20,0,600,21,0,600,22,0,600,23,0,600,24,0,621,25,0,621,26,0,621,27,0,600,28,0,600,29,0,600,30,0,600,32,0,600,33,0,621,34,0,621,35,0,600,36,0,600,37,0,600,38,0,600,39,0,621,40,0,621,41,0,621,42,0,600,43,0,621,44,0,621,45,0,600,46,0,600,59,0,400,60,0,400,61,0,400,62,0,400*48
$PAIRDGP,10,2,4,7,8,9,16,21,26,27,31*43
$GNGGA,033716.200,2500.7754425,N,12132.4579692,E,4,59,0.49,17.062,M,15.25,M,1,3335*46
$GNRMC,033716.200,A,2500.7754425,N,12132.4579692,E,0.01,239.07,030324,,,R,V*17
$GPHDT,40.101,T*01
$GNACCURACY,3.1*14
$GNGGA,033716.300,2500.7754471,N,12132.4579668,E,4,60,0.47,17.048,M,15.25,M,1,3335*4F
$GNRMC,033716.300,A,2500.7754471,N,12132.4579668,E,0.01,239.07,030324,,,R,V*12
$GPHDT,,T*1B
$GNACCURACY,3.1*14
$GNGGA,033716.400,2500.7754421,N,12132.4579682,E,4,60,0.47,17.059,M,15.25,M,1,3335*49
$GNRMC,033716.400,A,2500.7754421,N,12132.4579682,E,0.01,239.07,030324,,,R,V*14
$GPHDT,40.822,T*09
$GNACCURACY,3.1*14
$GNGGA,033716.500,2500.7754429,N,12132.4579663,E,4,60,0.47,17.055,M,15.25,M,1,3335*43
$GNRMC,033716.500,A,2500.7754429,N,12132.4579663,E,0.01,239.07,030324,,,R,V*12
$GPHDT,,T*1B
$GNACCURACY,3.1*14
$GNGGA,033716.600,2500.7754419,N,12132.4579687,E,4,60,0.47,17.059,M,15.25,M,1,3335*45
$GNRMC,033716.600,A,2500.7754419,N,12132.4579687,E,0.01,239.07,030324,,,R,V*18
$GPHDT,40.251,T*07
$GNACCURACY,3.0*15
$GNGGA,033716.700,2500.7754411,N,12132.4579686,E,4,60,0.47,17.066,M,15.25,M,0,3335*40
$GNRMC,033716.700,A,2500.7754411,N,12132.4579686,E,0.00,239.07,030324,,,R,V*11
$GPHDT,,T*1B
$GNACCURACY,3.0*15
$GNGGA,033716.800,2500.7754425,N,12132.4579687,E,4,60,0.47,17.074,M,15.25,M,0,3335*4A
$GNRMC,033716.800,A,2500.7754425,N,12132.4579687,E,0.00,239.07,030324,,,R,V*18
$GPHDT,39.969,T*09
$GNACCURACY,3.0*15
$GNGGA,033716.900,2500.7754476,N,12132.4579701,E,4,59,0.49,17.124,M,15.25,M,0,3335*42
$GNRMC,033716.900,A,2500.7754476,N,12132.4579701,E,0.00,239.07,030324,,,R,V*10
$GPHDT,,T*1B
$GNACCURACY,3.0*15
$GNGGA,033717.000,2500.7754514,N,12132.4579677,E,4,58,0.50,17.113,M,15.25,M,1,3335*43
$GNRMC,033717.000,A,2500.7754514,N,12132.4579677,E,0.01,239.07,030324,,,R,V*1C
$GPHDT,40.189,T*01
$GNACCURACY,3.0*15
$GNGGA,033717.100,2500.7754646,N,12132.4579667,E,4,58,0.50,17.085,M,15.25,M,1,3335*49
$GNRMC,033717.100,A,2500.7754646,N,12132.4579667,E,0.01,239.07,030324,,,R,V*18
$GPHDT,,T*1B
$GNGSA,A,3,08,194,27,195,16,04,21,09,31,26,07,199,0.94,0.50,0.79,1*32
$GNGSA,A,3,82,80,79,81,,,,,,,,,0.94,0.50,0.79,2*01
$GNGSA,A,3,30,34,07,15,27,02,36,,,,,,0.94,0.50,0.79,3*00
$GNGSA,A,3,06,16,34,09,39,40,07,12,11,24,10,25,0.94,0.50,0.79,4*07
$GNGSA,A,3,44,43,,,,,,,,,,,0.94,0.50,0.79,4*05
$GPGSV,4,1,15,08,72,279,47,194,63,045,40,199,60,167,,27,57,024,44,1*6D
$GPGSV,4,2,15,195,55,126,36,45,47,231,40,16,38,048,38,04,37,223,44,1*55
$GPGSV,4,3,15,21,32,172,31,09,32,275,31,196,22,175,16,02,21,183,13,1*5A
$GPGSV,4,4,15,31,20,133,36,26,20,077,35,07,19,320,33,1*5A
$GPGSV,2,1,08,08,72,279,49,194,63,045,41,199,60,167,33,27,57,024,46,8*63
$GPGSV,2,2,08,195,55,126,34,04,37,223,46,09,32,275,33,26,20,077,37,8*51
$GLGSV,2,1,08,82,70,092,40,83,44,177,,80,41,357,32,79,37,071,38,1*71
$GLGSV,2,2,08,81,30,034,34,70,15,268,,71,06,315,15,69,06,209,15,1*70
$GAGSV,2,1,08,30,51,018,39,34,43,086,32,07,40,244,34,15,36,156,26,7*72
$GAGSV,2,2,08,27,33,306,19,08,20,187,,02,19,072,25,36,11,041,17,7*79
$GAGSV,2,1,07,30,51,018,44,34,43,086,39,07,40,244,40,15,36,156,22,1*7D
$GAGSV,2,2,07,27,33,306,22,02,19,072,33,36,11,041,22,1*4D
$GBGSV,5,1,18,06,85,235,41,16,83,185,41,34,78,152,39,09,74,312,43,1*7D
$GBGSV,5,2,18,39,71,170,37,40,68,310,44,07,63,288,43,12,60,056,40,1*7B
$GBGSV,5,3,18,11,56,191,23,24,53,079,41,10,52,272,39,25,49,336,45,1*7F
$GBGSV,5,4,18,44,37,044,28,43,33,208,28,26,12,113,,33,08,220,,1*7B
$GBGSV,5,5,18,41,07,267,,14,03,196,,1*76
$GBGSV,2,1,07,34,78,152,38,39,71,170,32,40,68,310,44,24,53,079,40,4*7B
$GBGSV,2,2,07,25,49,336,41,44,37,044,37,43,33,208,22,4*40
$GNACCURACY,3.0*15
$PAIRSAT,1,35,2,0,201,3,0,200,4,0,221,5,0,200,6,0,200,7,0,201,8,0,221,9,0,221,10,0,200,11,0,200,12,0,200,13,0,200,14,0,200,15,0,200,16,0,201,17,0,200,18,0,200,19,0,200,20,0,200,21,0,201,22,0,200,23,0,200,24,0,200,25,0,200,26,0,221,27,0,221,28,0,200,29,0,200,30,0,200,31,0,201,32,0,200,194,0,621,195,0,621,196,0,620,199,0,621*58
$PAIRSAT,2,24,65,0,200,66,0,200,67,0,200,68,0,200,69,0,201,70,0,201,71,0,201,72,0,200,73,0,200,74,0,200,75,0,200,76,0,200,77,0,200,78,0,200,79,0,201,80,0,201,81,0,201,82,0,201,83,0,201,84,0,200,85,0,200,86,0,200,87,0,200,88,0,200*7A
$PAIRSAT,3,23,2,0,1221,3,0,1200,4,0,1200,5,0,200,7,0,1221,8,0,1221,9,0,1200,10,0,1200,11,0,1200,12,0,1200,13,0,1200,15,0,1221,19,0,1200,21,0,1200,24,0,1200,25,0,1200,26,0,1200,27,0,1221,30,0,1221,31,0,1200,33,0,1200,34,0,1221,36,0,1221*6A
$PAIRSAT,4,46,1,0,200,2,0,200,3,0,600,4,0,200,5,0,200,6,0,201,7,0,201,8,0,200,9,0,201,10,0,201,11,0,201,12,0,201,13,0,200,14,0,200,16,0,201,19,0,600,20,0,600,21,0,600,22,0,600,23,0,600,24,0,621,25,0,621,26,0,621,27,0,600,28,0,600,29,0,600,30,0,600,32,0,600,33,0,621,34,0,621,35,0,600,36,0,600,37,0,600,38,0,600,39,0,621,40,0,621,41,0,621,42,0,600,43,0,621,44,0,621,45,0,600,46,0,600,59,0,400,60,0,400,61,0,400,62,0,400*48
$PAIRDGP,10,2,4,7,8,9,16,21,26,27,31*43
$GNGGA,033717.200,2500.7754708,N,12132.4579631,E,4,58,0.50,17.068,M,15.25,M,1,3335*41
$GNRMC,033717.200,A,2500.7754708,N,12132.4579631,E,0.01,239.07,030324,,,R,V*13
$GPHDT,42.523,T*07
$GNACCURACY,3.0*15
$GNGGA,033717.300,2500.7755002,N,12132.4579581,E,4,59,0.49,17.053,M,15.25,M,1,3335*45
$GNRMC,033717.300,A,2500.7755002,N,12132.4579581,E,0.02,239.07,030324,,,R,V*15
$GPHDT,,T*1B
$GNACCURACY,3.0*15
$GNGGA,033717.400,2500.7755355,N,12132.4579641,E,4,58,0.50,17.028,M,15.25,M,1,3335*49
$GNRMC,033717.400,A,2500.7755355,N,12132.4579641,E,0.03,239.07,030324,,,R,V*1D
$GPHDT,48.359,T*06
$GNACCURACY,3.0*15
$GNGGA,033717.500,2500.7755488,N,12132.4579818,E,4,58,0.50,16.987,M,15.25,M,0,3335*41
$GNRMC,033717.500,A,2500.7755488,N,12132.4579818,E,0.05,239.07,030324,,,R,V*1F
$GPHDT,,T*1B
$GNACCURACY,3.0*15
$GNGGA,033717.600,2500.7755719,N,12132.4580109,E,4,58,0.50,16.993,M,15.25,M,0,3335*43
$GNRMC,033717.600,A,2500.7755719,N,12132.4580109,E,0.07,239.07,030324,,,R,V*1A
$GPHDT,51.858,T*04
$GNACCURACY,3.0*15
$GNGGA,033717.700,2500.7755873,N,12132.4580457,E,4,57,0.52,16.996,M,15.25,M,0,3335*47
$GNRMC,033717.700,A,2500.7755873,N,12132.4580457,E,0.11,239.07,030324,,,R,V*11
$GPHDT,,T*1B
$GNACCURACY,3.0*15
$GNGGA,033717.800,2500.7755966,N,12132.4580901,E,4,58,0.50,17.042,M,15.25,M,0,3335*4F
$GNRMC,033717.800,A,2500.7755966,N,12132.4580901,E,0.21,239.07,030324,,,R,V*16
$GPHDT,52.245,T*01
$GNACCURACY,3.0*15
$GNGGA,033717.900,2500.7755979,N,12132.4581357,E,4,58,0.50,17.026,M,15.25,M,0,3335*4A
$GNRMC,033717.900,A,2500.7755979,N,12132.4581357,E,0.31,239.07,030324,,,R,V*10
$GPHDT,,T*1B
$GNACCURACY,3.0*15
$GNGGA,033718.000,2500.7756266,N,12132.4581668,E,4,58,0.50,17.000,M,15.25,M,1,3335*46
$GNRMC,033718.000,A,2500.7756266,N,12132.4581668,E,0.39,239.07,030324,,,R,V*11
$GPHDT,46.252,T*02
$GNACCURACY,3.0*15
$GNGGA,033718.100,2500.7756504,N,12132.4581906,E,4,58,0.50,17.022,M,15.25,M,1,3335*43
$GNRMC,033718.100,A,2500.7756504,N,12132.4581906,E,0.49,239.07,030324,,,R,V*13
$GPHDT,,T*1B
$GNGSA,A,3,08,194,27,195,16,04,09,196,31,26,07,199,0.79,0.50,0.61,1*05
$GNGSA,A,3,82,80,79,81,,,,,,,,,0.79,0.50,0.61,2*0B
$GNGSA,A,3,30,34,07,15,27,02,36,,,,,,0.79,0.50,0.61,3*0A
$GNGSA,A,3,06,16,34,09,39,40,07,12,11,24,10,25,0.79,0.50,0.61,4*0D
$GNGSA,A,3,44,43,,,,,,,,,,,0.79,0.50,0.61,4*0F
$GPGSV,4,1,15,08,72,279,46,194,63,045,40,199,60,167,,27,57,024,44,1*6C
$GPGSV,4,2,15,195,55,126,33,45,47,231,39,16,38,048,41,04,37,223,44,1*50
$GPGSV,4,3,15,21,32,172,24,09,32,275,34,196,22,175,16,02,21,183,16,1*5E
$GPGSV,4,4,15,31,20,133,30,26,20,077,31,07,19,320,35,1*5E
$GPGSV,2,1,08,08,72,279,48,194,63,045,45,199,60,167,28,27,57,024,46,8*6C
$GPGSV,2,2,08,195,55,126,36,04,37,223,46,09,32,275,39,26,20,077,33,8*5D
$GLGSV,2,1,08,82,70,092,39,83,44,177,,80,41,357,29,79,37,071,36,1*7B
$GLGSV,2,2,08,81,30,034,37,70,15,268,,71,06,315,16,69,06,209,13,1*76
$GAGSV,2,1,08,30,51,018,41,34,43,086,39,07,40,244,34,15,36,156,24,7*74
$GAGSV,2,2,08,27,33,306,19,08,20,187,,02,19,072,26,36,11,041,18,7*75
$GAGSV,2,1,07,30,51,018,45,34,43,086,37,07,40,244,36,15,36,156,27,1*76
$GAGSV,2,2,07,27,33,306,23,02,19,072,28,36,11,041,17,1*40
$GBGSV,5,1,17,06,85,235,43,16,83,185,42,34,78,152,41,09,74,312,43,1*7C
$GBGSV,5,2,17,39,71,170,34,40,68,310,45,07,63,288,43,12,60,056,40,1*76
$GBGSV,5,3,17,11,56,191,24,24,53,079,42,10,52,272,40,25,49,336,43,1*7C
$GBGSV,5,4,17,44,37,044,40,43,33,208,23,26,12,113,,33,08,220,,1*71
$GBGSV,5,5,17,41,07,267,,1*41
$GBGSV,2,1,07,34,78,152,39,39,71,170,38,40,68,310,44,24,53,079,39,4*7E
$GBGSV,2,2,07,25,49,336,42,44,37,044,36,43,33,208,24,4*44
$GNACCURACY,3.0*15
$PAIRSAT,1,35,2,0,201,3,0,200,4,0,221,5,0,200,6,0,200,7,0,201,8,0,221,9,0,221,10,0,200,11,0,200,12,0,200,13,0,200,14,0,200,15,0,200,16,0,201,17,0,200,18,0,200,19,0,200,20,0,200,21,0,201,22,0,200,23,0,200,24,0,200,25,0,200,26,0,221,27,0,221,28,0,200,29,0,200,30,0,200,31,0,201,32,0,200,194,0,621,195,0,621,196,0,620,199,0,621*58
$PAIRSAT,2,24,65,0,200,66,0,200,67,0,200,68,0,200,69,0,201,70,0,201,71,0,201,72,0,200,73,0,200,74,0,200,75,0,200,76,0,200,77,0,200,78,0,200,79,0,201,80,0,201,81,0,201,82,0,201,83,0,201,84,0,200,85,0,200,86,0,200,87,0,200,88,0,200*7A
$PAIRSAT,3,23,2,0,1221,3,0,1200,4,0,1200,5,0,200,7,0,1221,8,0,1221,9,0,1200,10,0,1200,11,0,1200,12,0,1200,13,0,1200,15,0,1221,19,0,1200,21,0,1200,24,0,1200,25,0,1200,26,0,1200,27,0,1221,30,0,1221,31,0,1200,33,0,1200,34,0,1221,36,0,1221*6A
$PAIRSAT,4,46,1,0,200,2,0,200,3,0,600,4,0,200,5,0,200,6,0,201,7,0,201,8,0,200,9,0,201,10,0,201,11,0,201,12,0,201,13,0,200,14,0,200,16,0,201,19,0,600,20,0,600,21,0,600,22,0,600,23,0,600,24,0,621,25,0,621,26,0,621,27,0,600,28,0,600,29,0,600,30,0,600,32,0,600,33,0,621,34,0,621,35,0,600,36,0,600,37,0,600,38,0,600,39,0,621,40,0,621,41,0,621,42,0,600,43,0,621,44,0,621,45,0,600,46,0,600,59,0,400,60,0,400,61,0,400,62,0,400*48
$PAIRDGP,10,2,4,7,8,9,16,21,26,27,31*43
$GNGGA,033718.200,2500.7756681,N,12132.4582238,E,4,58,0.50,17.035,M,15.25,M,1,3335*4D
$GNRMC,033718.200,A,2500.7756681,N,12132.4582238,E,0.58,52.90,030324,,,R,V*2A
$GPHDT,48.332,T*0B
$GNACCURACY,3.0*15
$GNGGA,033718.300,2500.7756834,N,12132.4582562,E,4,58,0.50,17.061,M,15.25,M,1,3335*45
$GNRMC,033718.300,A,2500.7756834,N,12132.4582562,E,0.66,51.81,030324,,,R,V*2D
$GPHDT,,T*1B
$GNACCURACY,3.0*15
$GNGGA,033718.400,2500.7757119,N,12132.4583095,E,4,57,0.50,17.013,M,15.25,M,1,3335*43
$GNRMC,033718.400,A,2500.7757119,N,12132.4583095,E,0.78,50.98,030324,,,R,V*27
$GPHDT,47.991,T*07
$GNACCURACY,3.0*15
$GNGGA,033718.500,2500.7757717,N,12132.4583188,E,4,57,0.50,16.979,M,15.25,M,1,3335*43
$GNRMC,033718.500,A,2500.7757717,N,12132.4583188,E,0.88,48.48,030324,,,R,V*28
$GPHDT,,T*1B
$GNACCURACY,3.0*15
$GNGGA,033718.600,2500.7757848,N,12132.4583708,E,4,57,0.50,17.054,M,15.25,M,0,3335*4D
$GNRMC,033718.600,A,2500.7757848,N,12132.4583708,E,0.97,48.34,030324,,,R,V*25
$GPHDT,45.796,T*0C
$GNACCURACY,3.0*15
$GNGGA,033718.700,2500.7758247,N,12132.4584069,E,4,57,0.50,16.970,M,15.25,M,0,3335*4F
$GNRMC,033718.700,A,2500.7758247,N,12132.4584069,E,1.05,48.00,030324,,,R,V*24
$GPHDT,,T*1B
$GNACCURACY,3.0*15
$GNGGA,033718.800,2500.7758696,N,12132.4584280,E,4,57,0.50,16.994,M,15.25,M,0,3335*47
$GNRMC,033718.800,A,2500.7758696,N,12132.4584280,E,1.10,46.50,030324,,,R,V*29
$GPHDT,46.035,T*01
$GNACCURACY,3.0*15
$GNGGA,033718.900,2500.7759111,N,12132.4584602,E,4,58,0.50,16.946,M,15.25,M,0,3335*41
$GNRMC,033718.900,A,2500.7759111,N,12132.4584602,E,1.17,45.81,030324,,,R,V*27
$GPHDT,,T*1B
$GNACCURACY,3.0*15
$GNGGA,033719.000,2500.7759564,N,12132.4585028,E,4,59,0.49,16.908,M,15.25,M,1,3335*42
$GNRMC,033719.000,A,2500.7759564,N,12132.4585028,E,1.27,46.24,030324,,,R,V*29
$GPHDT,46.598,T*03
$GNACCURACY,3.0*15
$GNGGA,033719.100,2500.7760112,N,12132.4585465,E,4,59,0.49,16.908,M,15.25,M,1,3335*41
$GNRMC,033719.100,A,2500.7760112,N,12132.4585465,E,1.40,47.41,030324,,,R,V*29
$GPHDT,,T*1B
$GNGSA,A,3,08,194,27,195,16,04,21,09,196,26,07,31,0.77,0.49,0.60,1*30
$GNGSA,A,3,199,,,,,,,,,,,,0.77,0.49,0.60,1*3B
$GNGSA,A,3,82,80,79,81,,,,,,,,,0.77,0.49,0.60,2*0C
$GNGSA,A,3,30,34,07,15,27,02,36,,,,,,0.77,0.49,0.60,3*0D
$GNGSA,A,3,06,16,34,09,39,40,07,12,11,24,10,25,0.77,0.49,0.60,4*0A
$GNGSA,A,3,44,43,,,,,,,,,,,0.77,0.49,0.60,4*08
$GPGSV,4,1,15,08,72,279,46,194,63,045,41,199,60,167,,27,57,024,44,1*6D
$GPGSV,4,2,15,195,55,126,36,45,47,231,38,16,38,048,38,04,37,222,44,1*5B
$GPGSV,4,3,15,21,32,172,26,09,32,275,36,196,22,175,15,02,21,183,15,1*5E
$GPGSV,4,4,15,26,20,077,35,07,20,320,33,31,20,133,28,1*5F
$GPGSV,3,1,09,08,72,279,47,194,63,045,43,199,60,167,29,27,57,024,46,8*64
$GPGSV,3,2,09,195,55,126,39,04,37,222,47,09,32,275,32,196,22,175,19,8*6A
$GPGSV,3,3,09,26,20,077,35,8*54
$GLGSV,3,1,09,82,70,092,41,83,44,177,,80,41,357,29,79,37,071,37,1*75
$GLGSV,3,2,09,81,30,034,37,70,15,268,,71,06,315,19,73,06,313,,1*7A
$GLGSV,3,3,09,69,06,209,11,1*43
$GAGSV,2,1,08,30,51,018,41,34,43,086,39,07,40,244,33,15,36,156,26,7*71
$GAGSV,2,2,08,27,33,306,20,08,20,187,,02,19,072,26,36,11,041,18,7*7F
$GAGSV,2,1,06,30,51,018,45,34,43,086,38,07,40,244,39,15,36,156,31,1*70
$GAGSV,2,2,06,27,33,306,21,02,19,072,33,1*7F
$GBGSV,5,1,17,06,85,235,42,16,83,185,42,34,78,152,42,09,74,312,43,1*7E
$GBGSV,5,2,17,39,71,170,38,40,68,310,44,07,63,288,42,12,60,056,41,1*7B
$GBGSV,5,3,17,11,56,191,23,24,53,079,43,10,52,272,39,25,49,336,45,1*72
$GBGSV,5,4,17,44,37,044,37,43,33,208,29,26,12,113,,33,08,220,,1*7B
$GBGSV,5,5,17,41,07,267,,1*41
$GBGSV,2,1,07,34,78,152,42,39,71,170,40,40,68,310,46,24,53,079,40,4*71
$GBGSV,2,2,07,25,49,336,42,44,37,044,35,43,33,208,26,4*45
$GNACCURACY,3.0*15
$PAIRSAT,1,35,2,0,201,3,0,200,4,0,221,5,0,200,6,0,200,7,0,201,8,0,221,9,0,221,10,0,200,11,0,200,12,0,200,13,0,200,14,0,200,15,0,200,16,0,201,17,0,200,18,0,200,19,0,200,20,0,200,21,0,201,22,0,200,23,0,200,24,0,200,25,0,200,26,0,221,27,0,221,28,0,200,29,0,200,30,0,200,31,0,201,32,0,200,194,0,621,195,0,621,196,0,620,199,0,621*58
$PAIRSAT,2,24,65,0,200,66,0,200,67,0,200,68,0,200,69,0,201,70,0,201,71,0,201,72,0,200,73,0,200,74,0,200,75,0,200,76,0,200,77,0,200,78,0,200,79,0,201,80,0,201,81,0,201,82,0,201,83,0,201,84,0,200,85,0,200,86,0,200,87,0,200,88,0,200*7A
$PAIRSAT,3,23,2,0,1221,3,0,1200,4,0,1200,5,0,200,7,0,1221,8,0,1221,9,0,1200,10,0,1200,11,0,1200,12,0,1200,13,0,1200,15,0,1221,19,0,1200,21,0,1200,24,0,1200,25,0,1200,26,0,1200,27,0,1221,30,0,1221,31,0,1200,33,0,1200,34,0,1221,36,0,1221*6A
$PAIRSAT,4,46,1,0,200,2,0,200,3,0,600,4,0,200,5,0,200,6,0,201,7,0,201,8,0,200,9,0,201,10,0,201,11,0,201,12,0,201,13,0,200,14,0,200,16,0,201,19,0,600,20,0,600,21,0,600,22,0,600,23,0,600,24,0,621,25,0,621,26,0,621,27,0,600,28,0,600,29,0,600,30,0,600,32,0,600,33,0,621,34,0,621,35,0,600,36,0,600,37,0,600,38,0,600,39,0,621,40,0,621,41,0,621,42,0,600,43,0,621,44,0,621,45,0,600,46,0,600,59,0,400,60,0,400,61,0,400,62,0,400*48
$PAIRDGP,10,2,4,7,8,9,16,21,26,27,31*43
$GNGGA,033719.200,2500.7760173,N,12132.4586050,E,4,59,0.49,16.959,M,15.25,M,1,3335*40
$GNRMC,033719.200,A,2500.7760173,N,12132.4586050,E,1.48,48.98,030324,,,R,V*2F
$GPHDT,46.075,T*05
$GNACCURACY,3.0*15
$GNGGA,033719.300,2500.7760852,N,12132.4586416,E,4,59,0.49,16.902,M,15.25,M,1,3335*43
$GNRMC,033719.300,A,2500.7760852,N,12132.4586416,E,1.54,49.59,030324,,,R,V*23
$GPHDT,,T*1B
$GNACCURACY,3.0*15
$GNGGA,033719.400,2500.7760796,N,12132.4586929,E,4,58,0.50,16.908,M,15.25,M,0,3335*40
$GNRMC,033719.400,A,2500.7760796,N,12132.4586929,E,1.58,50.10,030324,,,R,V*2B
$GPHDT,44.481,T*08
$GNACCURACY,3.0*15
$GNGGA,033719.500,2500.7761196,N,12132.4587546,E,4,58,0.50,16.890,M,15.25,M,0,3335*42
$GNRMC,033719.500,A,2500.7761196,N,12132.4587546,E,1.62,49.67,030324,,,R,V*28
$GPHDT,,T*1B
$GNACCURACY,3.0*15
$GNGGA,033719.600,2500.7761502,N,12132.4587761,E,4,61,0.47,16.928,M,15.25,M,0,3335*41
$GNRMC,033719.600,A,2500.7761502,N,12132.4587761,E,1.65,48.78,030324,,,R,V*2D
$GPHDT,45.872,T*09
$GNACCURACY,3.0*15
$GNGGA,033719.700,2500.7761937,N,12132.4588202,E,4,60,0.47,16.919,M,15.25,M,0,3335*46
$GNRMC,033719.700,A,2500.7761937,N,12132.4588202,E,1.69,48.45,030324,,,R,V*2B
$GPHDT,,T*1B
$GNACCURACY,3.0*15
$GNGGA,033719.800,2500.7762606,N,12132.4588589,E,4,60,0.47,16.869,M,15.25,M,0,3335*45
$GNRMC,033719.800,A,2500.7762606,N,12132.4588589,E,1.75,48.78,030324,,,R,V*2D
$GPHDT,46.284,T*09
$GNACCURACY,3.0*15
$GNGGA,033719.900,2500.7762982,N,12132.4588952,E,4,60,0.47,16.911,M,15.25,M,0,3335*43
$GNRMC,033719.900,A,2500.7762982,N,12132.4588952,E,1.78,47.65,030324,,,R,V*2B
$GPHDT,,T*1B
$GNACCURACY,3.0*15
$GNGGA,033720.000,2500.7763465,N,12132.4589387,E,4,60,0.47,16.909,M,15.25,M,1,3335*4E
$GNRMC,033720.000,A,2500.7763465,N,12132.4589387,E,1.82,46.64,030324,,,R,V*2B
$GPHDT,44.834,T*0A
$GNACCURACY,2.9*1D
$GNGGA,033720.100,2500.7763752,N,12132.4589758,E,4,61,0.47,16.919,M,15.25,M,1,3335*4E
$GNRMC,033720.100,A,2500.7763752,N,12132.4589758,E,1.82,46.82,030324,,,R,V*23
$GPHDT,,T*1B
$GNGSA,A,3,08,194,27,195,16,04,21,09,196,02,26,07,0.76,0.47,0.59,1*35
$GNGSA,A,3,31,199,,,,,,,,,,,0.76,0.47,0.59,1*3C
$GNGSA,A,3,82,80,79,81,,,,,,,,,0.76,0.47,0.59,2*09
$GNGSA,A,3,30,34,07,15,27,02,36,,,,,,0.76,0.47,0.59,3*08
$GNGSA,A,3,06,16,34,09,39,40,07,12,11,24,10,25,0.76,0.47,0.59,4*0F
$GNGSA,A,3,44,43,,,,,,,,,,,0.76,0.47,0.59,4*0D
$GPGSV,4,1,15,08,72,279,46,194,63,045,41,199,60,167,,27,57,024,45,1*6C
$GPGSV,4,2,15,195,55,126,41,45,47,231,37,16,38,048,38,04,37,222,44,1*54
$GPGSV,4,3,15,21,32,172,29,09,32,275,29,196,22,175,16,02,21,183,16,1*5F
$GPGSV,4,4,15,26,20,077,35,07,20,320,34,31,20,133,34,1*55
$GPGSV,3,1,09,08,72,279,47,194,63,045,43,199,60,167,26,27,57,024,46,8*6B
$GPGSV,3,2,09,195,55,126,43,04,37,222,45,09,32,275,33,196,22,175,17,8*6A
$GPGSV,3,3,09,26,20,077,31,8*50
$GLGSV,2,1,08,82,70,092,43,83,44,177,,80,41,357,27,79,37,071,37,1*79
$GLGSV,2,2,08,81,30,034,36,70,15,268,,71,06,315,18,69,06,209,13,1*79
$GAGSV,2,1,08,30,51,018,43,34,43,086,37,07,40,244,34,15,36,156,25,7*79
$GAGSV,2,2,08,27,33,306,19,08,20,187,,02,19,072,31,36,11,041,18,7*73
$GAGSV,2,1,07,30,51,018,44,34,43,086,40,07,40,244,34,15,36,156,24,1*76
$GAGSV,2,2,07,27,33,306,29,02,19,072,33,36,11,041,19,1*4E
$GBGSV,5,1,17,06,85,235,43,16,83,185,45,34,78,152,43,09,74,312,42,1*78
$GBGSV,5,2,17,39,71,170,41,40,68,310,44,07,63,288,43,12,60,056,41,1*74
$GBGSV,5,3,17,11,56,191,24,24,53,079,43,10,52,272,41,25,49,336,42,1*7D
$GBGSV,5,4,17,44,37,044,34,43,33,208,32,26,12,113,,33,08,220,,1*72
$GBGSV,5,5,17,41,07,267,,1*41
$GBGSV,2,1,07,34,78,152,42,39,71,170,41,40,68,310,46,24,53,079,41,4*71
$GBGSV,2,2,07,25,49,336,39,44,37,044,39,43,33,208,21,4*42
$GNACCURACY,2.9*1D
$PAIRSAT,1,35,2,0,201,3,0,200,4,0,221,5,0,200,6,0,200,7,0,201,8,0,221,9,0,221,10,0,200,11,0,200,12,0,200,13,0,200,14,0,200,15,0,200,16,0,201,17,0,200,18,0,200,19,0,200,20,0,200,21,0,201,22,0,200,23,0,200,24,0,200,25,0,200,26,0,221,27,0,221,28,0,200,29,0,200,30,0,200,31,0,201,32,0,200,194,0,621,195,0,621,196,0,620,199,0,621*58
$PAIRSAT,2,24,65,0,200,66,0,200,67,0,200,68,0,200,69,0,201,70,0,201,71,0,201,72,0,200,73,0,200,74,0,200,75,0,200,76,0,200,77,0,200,78,0,200,79,0,201,80,0,201,81,0,201,82,0,201,83,0,201,84,0,200,85,0,200,86,0,200,87,0,200,88,0,200*7A
$PAIRSAT,3,23,2,0,1221,3,0,1200,4,0,1200,5,0,200,7,0,1221,8,0,1221,9,0,1200,10,0,1200,11,0,1200,12,0,1200,13,0,1200,15,0,1221,19,0,1200,21,0,1200,24,0,1200,25,0,1200,26,0,1200,27,0,1221,30,0,1221,31,0,1200,33,0,1200,34,0,1221,36,0,1221*6A
$PAIRSAT,4,46,1,0,200,2,0,200,3,0,600,4,0,200,5,0,200,6,0,201,7,0,201,8,0,200,9,0,201,10,0,201,11,0,201,12,0,201,13,0,200,14,0,200,16,0,201,19,0,600,20,0,600,21,0,600,22,0,600,23,0,600,24,0,621,25,0,621,26,0,621,27,0,600,28,0,600,29,0,600,30,0,600,32,0,600,33,0,621,34,0,621,35,0,600,36,0,600,37,0,600,38,0,600,39,0,621,40,0,621,41,0,621,42,0,600,43,0,621,44,0,621,45,0,600,46,0,600,59,0,400,60,0,400,61,0,400,62,0,400*48
$PAIRDGP,10,2,4,7,8,9,16,21,26,27,31*43
$GNGGA,033720.200,2500.7764256,N,12132.4590303,E,4,61,0.47,16.893,M,15.25,M,1,3335*4A
$GNRMC,033720.200,A,2500.7764256,N,12132.4590303,E,1.83,46.46,030324,,,R,V*2D
$GPHDT,46.740,T*04
$GNACCURACY,2.9*1D
$GNGGA,033720.300,2500.7764500,N,12132.4590899,E,4,62,0.47,16.917,M,15.25,M,1,3335*49
$GNRMC,033720.300,A,2500.7764500,N,12132.4590899,E,1.90,47.53,030324,,,R,V*27
$GPHDT,,T*1B
$GNACCURACY,2.9*1D
$GNGGA,033720.400,2500.7764911,N,12132.4591175,E,4,61,0.47,16.903,M,15.25,M,1,3335*4E
$GNRMC,033720.400,A,2500.7764911,N,12132.4591175,E,1.93,47.73,030324,,,R,V*27
$GPHDT,47.602,T*02
$GNACCURACY,2.9*1D
$GNGGA,033720.500,2500.7765125,N,12132.4592076,E,4,61,0.47,16.981,M,15.25,M,1,3335*4A
$GNRMC,033720.500,A,2500.7765125,N,12132.4592076,E,1.96,48.99,030324,,,R,V*27
$GPHDT,,T*1B
$GNACCURACY,2.9*1D
$GNGGA,033720.600,2500.7765551,N,12132.4592283,E,4,61,0.49,16.944,M,15.25,M,0,3335*40
$GNRMC,033720.600,A,2500.7765551,N,12132.4592283,E,1.88,56.38,030324,,,R,V*20
$GPHDT,47.855,T*0E
$GNACCURACY,2.9*1D
$GNGGA,033720.700,2500.7765827,N,12132.4592849,E,4,62,0.47,16.977,M,15.25,M,0,3335*4C
$GNRMC,033720.700,A,2500.7765827,N,12132.4592849,E,1.95,55.33,030324,,,R,V*25
$GPHDT,,T*1B
$GNACCURACY,2.9*1D
$GNGGA,033720.800,2500.7766254,N,12132.4593256,E,4,62,0.47,16.923,M,15.25,M,0,3335*4A
$GNRMC,033720.800,A,2500.7766254,N,12132.4593256,E,2.03,55.44,030324,,,R,V*2E
$GPHDT,47.093,T*0C
$GNACCURACY,2.9*1D
$GNGGA,033720.900,2500.7766736,N,12132.4593798,E,4,62,0.47,16.914,M,15.25,M,0,3335*49
$GNRMC,033720.900,A,2500.7766736,N,12132.4593798,E,2.13,47.55,030324,,,R,V*2B
$GPHDT,,T*1B
$GNACCURACY,2.9*1D
$GNGGA,033721.000,2500.7767095,N,12132.4594077,E,4,62,0.47,17.011,M,15.25,M,1,3335*43
$GNRMC,033721.000,A,2500.7767095,N,12132.4594077,E,2.20,44.50,030324,,,R,V*2B
$GPHDT,46.054,T*06
$GNACCURACY,2.9*1D
$GNGGA,033721.100,2500.7767510,N,12132.4594580,E,4,61,0.47,16.932,M,15.25,M,1,3335*4D
$GNRMC,033721.100,A,2500.7767510,N,12132.4594580,E,2.18,43.92,030324,,,R,V*2D
$GPHDT,,T*1B
$GNGSA,A,3,08,194,199,27,195,16,04,21,09,196,02,26,0.76,0.47,0.59,1*03
$GNGSA,A,3,07,31,,,,,,,,,,,0.76,0.47,0.59,1*0A
$GNGSA,A,3,82,80,79,81,,,,,,,,,0.76,0.47,0.59,2*09
$GNGSA,A,3,30,34,07,15,27,02,36,,,,,,0.76,0.47,0.59,3*08
$GNGSA,A,3,06,16,34,09,39,40,07,12,11,24,10,25,0.76,0.47,0.59,4*0F
$GNGSA,A,3,43,44,,,,,,,,,,,0.76,0.47,0.59,4*0D
$GPGSV,4,1,15,08,72,279,46,194,63,045,41,199,60,167,25,27,57,024,45,1*6B
$GPGSV,4,2,15,195,55,126,43,45,47,231,39,16,38,048,39,04,37,222,45,1*58
$GPGSV,4,3,15,21,33,172,31,09,32,275,34,196,22,175,18,02,21,183,14,1*57
$GPGSV,4,4,15,26,20,078,34,07,20,320,33,31,20,133,30,1*58
$GPGSV,3,1,09,08,72,279,47,194,63,045,44,199,60,167,38,27,57,024,47,8*62
$GPGSV,3,2,09,195,55,126,44,04,37,222,45,09,32,275,40,196,22,175,17,8*69
$GPGSV,3,3,09,26,20,078,35,8*5B
$GLGSV,2,1,08,82,70,092,43,83,44,177,,80,41,357,24,79,37,071,38,1*75
$GLGSV,2,2,08,81,30,034,35,70,15,268,,71,06,315,22,69,06,209,15,1*75
$GAGSV,2,1,08,30,51,018,42,34,43,086,37,07,40,244,37,15,36,156,27,7*79
$GAGSV,2,2,08,27,33,306,28,08,20,187,,02,19,072,23,36,11,041,18,7*72
$GAGSV,2,1,07,30,51,018,45,34,43,086,39,07,40,244,38,15,36,156,27,1*76
$GAGSV,2,2,07,27,33,306,33,02,19,072,34,36,11,041,21,1*49
$GBGSV,5,1,17,06,85,235,42,16,83,185,45,34,78,152,44,09,74,312,42,1*7E
$GBGSV,5,2,17,39,71,170,41,40,68,310,42,07,63,288,41,12,60,056,40,1*71
$GBGSV,5,3,17,11,56,191,22,24,53,079,42,10,52,272,42,25,49,336,33,1*7F
$GBGSV,5,4,17,44,37,044,,43,33,208,26,26,12,113,,33,08,220,,1*70
$GBGSV,5,5,17,41,07,267,,1*41
$GBGSV,2,1,07,34,78,152,43,39,71,170,43,40,68,310,46,24,53,079,41,4*72
$GBGSV,2,2,07,25,49,336,35,44,37,044,40,43,33,208,21,4*40
$GNACCURACY,2.9*1D
$PAIRSAT,1,35,2,0,201,3,0,200,4,0,221,5,0,200,6,0,200,7,0,201,8,0,221,9,0,221,10,0,200,11,0,200,12,0,200,13,0,200,14,0,200,15,0,200,16,0,201,17,0,200,18,0,200,19,0,200,20,0,200,21,0,201,22,0,200,23,0,200,24,0,200,25,0,200,26,0,221,27,0,221,28,0,200,29,0,200,30,0,200,31,0,201,32,0,200,194,0,621,195,0,621,196,0,620,199,0,621*58
$PAIRSAT,2,24,65,0,200,66,0,200,67,0,200,68,0,200,69,0,201,70,0,201,71,0,201,72,0,200,73,0,200,74,0,200,75,0,200,76,0,200,77,0,200,78,0,200,79,0,201,80,0,201,81,0,201,82,0,201,83,0,201,84,0,200,85,0,200,86,0,200,87,0,200,88,0,200*7A
$PAIRSAT,3,23,2,0,1221,3,0,1200,4,0,1200,5,0,200,7,0,1221,8,0,1221,9,0,1200,10,0,1200,11,0,1200,12,0,1200,13,0,1200,15,0,1221,19,0,1200,21,0,1200,24,0,1200,25,0,1200,26,0,1200,27,0,1221,30,0,1221,31,0,1200,33,0,1200,34,0,1221,36,0,1221*6A
$PAIRSAT,4,46,1,0,200,2,0,200,3,0,600,4,0,200,5,0,200,6,0,201,7,0,201,8,0,200,9,0,201,10,0,201,11,0,201,12,0,201,13,0,200,14,0,200,16,0,201,19,0,600,20,0,600,21,0,600,22,0,600,23,0,600,24,0,621,25,0,621,26,0,621,27,0,600,28,0,600,29,0,600,30,0,600,32,0,600,33,0,621,34,0,621,35,0,600,36,0,600,37,0,600,38,0,600,39,0,621,40,0,621,41,0,621,42,0,600,43,0,621,44,0,621,45,0,600,46,0,600,59,0,400,60,0,400,61,0,400,62,0,400*48
$PAIRDGP,10,2,4,7,8,9,16,21,26,27,31*43
$GNGGA,033721.200,2500.7767880,N,12132.4595101,E,4,61,0.47,16.936,M,15.25,M,1,3335*42
$GNRMC,033721.200,A,2500.7767880,N,12132.4595101,E,1.99,43.93,030324,,,R,V*2D
$GPHDT,47.275,T*06
$GNACCURACY,2.9*1D
$GNGGA,033721.300,2500.7768237,N,12132.4595584,E,4,61,0.47,16.947,M,15.25,M,1,3335*45
$GNRMC,033721.300,A,2500.7768237,N,12132.4595584,E,2.00,43.66,030324,,,R,V*25
$GPHDT,,T*1B
$GNACCURACY,2.9*1D
$GNGGA,033721.400,2500.7768662,N,12132.4596068,E,4,61,0.49,16.916,M,15.25,M,1,3335*48
$GNRMC,033721.400,A,2500.7768662,N,12132.4596068,E,2.15,45.29,030324,,,R,V*2B
$GPHDT,47.803,T*0D
$GNACCURACY,2.9*1D
$GNGGA,033721.500,2500.7768881,N,12132.4596803,E,4,61,0.49,16.982,M,15.25,M,1,3335*42
$GNRMC,033721.500,A,2500.7768881,N,12132.4596803,E,2.24,47.96,030324,,,R,V*28
$GPHDT,,T*1B
$GNACCURACY,2.9*1D
$GNGGA,033721.600,2500.7769446,N,12132.4597329,E,4,61,0.49,16.978,M,15.25,M,0,3335*41
$GNRMC,033721.600,A,2500.7769446,N,12132.4597329,E,2.20,50.34,030324,,,R,V*25
$GPHDT,46.811,T*0F
$GNACCURACY,2.9*1D
$GNGGA,033721.700,2500.7769705,N,12132.4597696,E,4,61,0.49,16.969,M,15.25,M,0,3335*45
$GNRMC,033721.700,A,2500.7769705,N,12132.4597696,E,2.11,50.95,030324,,,R,V*28
$GPHDT,,T*1B
$GNACCURACY,2.9*1D
$GNGGA,033721.800,2500.7770068,N,12132.4598228,E,4,61,0.49,16.948,M,15.25,M,0,3335*43
$GNRMC,033721.800,A,2500.7770068,N,12132.4598228,E,2.09,51.34,030324,,,R,V*2E
$GPHDT,48.019,T*01
$GNACCURACY,2.9*1D
$GNGGA,033721.900,2500.7770432,N,12132.4598673,E,4,61,0.49,16.975,M,15.25,M,0,3335*4D
$GNRMC,033721.900,A,2500.7770432,N,12132.4598673,E,2.22,46.81,030324,,,R,V*2F
$GPHDT,,T*1B
$GNACCURACY,2.9*1D
$GNGGA,033722.000,2500.7770861,N,12132.4599252,E,4,61,0.49,16.913,M,15.25,M,1,3335*4A
$GNRMC,033722.000,A,2500.7770861,N,12132.4599252,E,2.12,47.31,030324,,,R,V*20
$GPHDT,48.511,T*0C
$GNACCURACY,2.9*1D
$GNGGA,033722.100,2500.7771407,N,12132.4599728,E,4,61,0.49,16.926,M,15.25,M,1,3335*48
$GNRMC,033722.100,A,2500.7771407,N,12132.4599728,E,2.34,43.59,030324,,,R,V*2A
$GPHDT,,T*1B
$GNGSA,A,3,08,194,199,27,195,16,04,21,09,196,26,07,0.77,0.49,0.60,1*03
$GNGSA,A,3,31,,,,,,,,,,,,0.77,0.49,0.60,1*08
$GNGSA,A,3,82,80,79,81,,,,,,,,,0.77,0.49,0.60,2*0C
$GNGSA,A,3,30,34,07,15,27,02,36,,,,,,0.77,0.49,0.60,3*0D
$GNGSA,A,3,06,16,34,09,39,40,07,12,11,24,10,25,0.77,0.49,0.60,4*0A
$GNGSA,A,3,44,43,,,,,,,,,,,0.77,0.49,0.60,4*08
$GPGSV,4,1,15,08,72,279,46,194,63,045,41,199,60,167,32,27,57,024,46,1*6E
$GPGSV,4,2,15,195,55,126,42,45,47,231,38,16,38,048,38,04,37,222,44,1*58
$GPGSV,4,3,15,21,33,172,27,09,32,275,35,196,22,175,18,02,21,183,17,1*52
$GPGSV,4,4,15,26,20,078,32,07,20,320,26,31,20,133,29,1*52
$GPGSV,3,1,09,08,72,279,47,194,63,045,43,199,60,167,41,27,57,024,46,8*6A
$GPGSV,3,2,09,195,55,126,45,04,37,222,47,09,32,275,38,196,22,175,16,8*64
$GPGSV,3,3,09,26,20,078,34,8*5A
$GLGSV,2,1,08,82,70,092,43,83,44,177,,80,41,357,24,79,37,071,36,1*7B
$GLGSV,2,2,08,81,30,034,36,70,15,268,,71,06,315,21,69,06,209,14,1*74
$GAGSV,2,1,08,30,51,018,41,34,43,086,36,07,40,244,35,15,36,156,33,7*7C
$GAGSV,2,2,08,27,33,306,30,08,20,187,,02,19,072,28,36,11,041,19,7*71
$GAGSV,2,1,07,30,51,018,45,34,43,086,40,07,40,244,39,15,36,156,39,1*76
$GAGSV,2,2,07,27,33,306,31,02,19,072,34,36,11,041,19,1*40
$GBGSV,5,1,17,06,85,235,42,16,83,185,44,34,78,152,46,09,74,312,40,1*7F
$GBGSV,5,2,17,39,71,170,42,40,68,310,42,07,63,288,41,12,60,056,41,1*73
$GBGSV,5,3,17,11,56,191,23,24,53,079,42,10,52,272,42,25,49,336,33,1*7E
$GBGSV,5,4,17,44,37,044,37,43,33,208,28,26,12,113,,33,08,220,,1*7A
$GBGSV,5,5,17,41,07,267,,1*41
$GBGSV,2,1,07,34,78,152,46,39,71,170,44,40,68,310,45,24,53,079,42,4*70
$GBGSV,2,2,07,25,49,336,29,44,37,044,40,43,33,208,24,4*48
$GNACCURACY,2.9*1D
$PAIRSAT,1,35,2,0,201,3,0,200,4,0,221,5,0,200,6,0,200,7,0,201,8,0,221,9,0,221,10,0,200,11,0,200,12,0,200,13,0,200,14,0,200,15,0,200,16,0,201,17,0,200,18,0,200,19,0,200,20,0,200,21,0,201,22,0,200,23,0,200,24,0,200,25,0,200,26,0,221,27,0,221,28,0,200,29,0,200,30,0,200,31,0,201,32,0,200,194,0,621,195,0,621,196,0,620,199,0,621*58
$PAIRSAT,2,24,65,0,200,66,0,200,67,0,200,68,0,200,69,0,201,70,0,201,71,0,201,72,0,200,73,0,200,74,0,200,75,0,200,76,0,200,77,0,200,78,0,200,79,0,201,80,0,201,81,0,201,82,0,201,83,0,201,84,0,200,85,0,200,86,0,200,87,0,200,88,0,200*7A
$PAIRSAT,3,23,2,0,1221,3,0,1200,4,0,1200,5,0,200,7,0,1221,8,0,1221,9,0,1200,10,0,1200,11,0,1200,12,0,1200,13,0,1200,15,0,1221,19,0,1200,21,0,1200,24,0,1200,25,0,1200,26,0,1200,27,0,1221,30,0,1221,31,0,1200,33,0,1200,34,0,1221,36,0,1221*6A
$PAIRSAT,4,46,1,0,200,2,0,200,3,0,600,4,0,200,5,0,200,6,0,201,7,0,201,8,0,200,9,0,201,10,0,201,11,0,201,12,0,201,13,0,200,14,0,200,16,0,201,19,0,600,20,0,600,21,0,600,22,0,600,23,0,600,24,0,621,25,0,621,26,0,621,27,0,600,28,0,600,29,0,600,30,0,600,32,0,600,33,0,621,34,0,621,35,0,600,36,0,600,37,0,600,38,0,600,39,0,621,40,0,621,41,0,621,42,0,600,43,0,621,44,0,621,45,0,600,46,0,600,59,0,400,60,0,400,61,0,400,62,0,400*48
$PAIRDGP,10,2,4,7,8,9,16,21,26,27,31*43
$GNGGA,033722.200,2500.7771878,N,12132.4600115,E,4,61,0.49,16.967,M,15.25,M,1,3335*41
$GNRMC,033722.200,A,2500.7771878,N,12132.4600115,E,2.13,42.08,030324,,,R,V*26
$GPHDT,49.164,T*0B
$GNACCURACY,2.9*1D
$GNGGA,033722.300,2500.7772241,N,12132.4600663,E,4,61,0.49,16.971,M,15.25,M,1,3335*42
$GNRMC,033722.300,A,2500.7772241,N,12132.4600663,E,2.08,41.51,030324,,,R,V*27
$GPHDT,,T*1B
$GNACCURACY,2.9*1D
$GNGGA,033722.400,2500.7772659,N,12132.4601139,E,4,61,0.49,17.001,M,15.25,M,1,3335*4E
$GNRMC,033722.400,A,2500.7772659,N,12132.4601139,E,2.20,42.89,030324,,,R,V*28
$GPHDT,49.246,T*08
$GNACCURACY,2.9*1D
$GNGGA,033722.500,2500.7773055,N,12132.4601634,E,4,60,0.50,16.953,M,15.25,M,1,3335*48
$GNRMC,033722.500,A,2500.7773055,N,12132.4601634,E,2.10,47.44,030324,,,R,V*2F
$GPHDT,,T*1B
$GNACCURACY,2.9*1D
$GNGGA,033722.600,2500.7773580,N,12132.4602176,E,4,61,0.49,16.986,M,15.25,M,0,3335*44
$GNRMC,033722.600,A,2500.7773580,N,12132.4602176,E,2.28,46.03,030324,,,R,V*2A
$GPHDT,50.412,T*07
$GNACCURACY,2.9*1D
$GNGGA,033722.700,2500.7773831,N,12132.4602816,E,4,61,0.49,17.002,M,15.25,M,0,3335*49
$GNRMC,033722.700,A,2500.7773831,N,12132.4602816,E,2.28,50.09,030324,,,R,V*2E
$GPHDT,,T*1B
$GNACCURACY,2.9*1D
$GNGGA,033722.800,2500.7774195,N,12132.4603437,E,4,61,0.49,16.981,M,15.25,M,0,3335*4B
$GNRMC,033722.800,A,2500.7774195,N,12132.4603437,E,2.17,55.55,030324,,,R,V*2F
$GPHDT,47.080,T*0E
$GNACCURACY,2.9*1D
$GNGGA,033722.900,2500.7774586,N,12132.4603822,E,4,61,0.49,16.985,M,15.25,M,0,3335*40
$GNRMC,033722.900,A,2500.7774586,N,12132.4603822,E,2.08,51.65,030324,,,R,V*29
$GPHDT,,T*1B
$GNACCURACY,3.0*15
$GNGGA,033723.000,2500.7774917,N,12132.4604364,E,4,61,0.49,16.947,M,15.25,M,1,3335*4D
$GNRMC,033723.000,A,2500.7774917,N,12132.4604364,E,2.09,52.78,030324,,,R,V*25
$GPHDT,45.515,T*05
$GNACCURACY,3.0*15
$GNGGA,033723.100,2500.7775350,N,12132.4604875,E,4,61,0.49,16.953,M,15.25,M,1,3335*4A
$GNRMC,033723.100,A,2500.7775350,N,12132.4604875,E,2.22,49.65,030324,,,R,V*28
$GPHDT,,T*1B
$GNGSA,A,3,08,194,199,27,195,16,04,21,09,196,26,07,0.77,0.49,0.60,1*03
$GNGSA,A,3,31,,,,,,,,,,,,0.77,0.49,0.60,1*08
$GNGSA,A,3,82,80,79,81,,,,,,,,,0.77,0.49,0.60,2*0C
$GNGSA,A,3,30,34,07,15,27,02,36,,,,,,0.77,0.49,0.60,3*0D
$GNGSA,A,3,06,16,34,09,39,40,07,12,11,24,10,25,0.77,0.49,0.60,4*0A
$GNGSA,A,3,44,43,,,,,,,,,,,0.77,0.49,0.60,4*08
$GPGSV,4,1,15,08,72,279,46,194,63,045,41,199,60,167,36,27,57,024,45,1*69
$GPGSV,4,2,15,195,55,126,42,45,47,231,38,16,38,048,38,04,37,222,44,1*58
$GPGSV,4,3,15,21,33,172,28,09,32,275,38,196,22,175,18,02,21,183,16,1*51
$GPGSV,4,4,15,26,20,078,32,07,20,320,25,31,20,133,29,1*51
$GPGSV,3,1,09,08,72,279,47,194,63,045,43,199,60,167,42,27,57,024,45,8*6A
$GPGSV,3,2,09,195,55,126,45,04,37,222,44,09,32,275,39,196,22,175,17,8*67
$GPGSV,3,3,09,26,20,078,36,8*58
$GLGSV,2,1,08,82,70,092,42,83,44,177,,80,41,357,27,79,37,071,37,1*78
$GLGSV,2,2,08,81,30,034,34,70,15,268,,71,06,315,19,69,06,209,13,1*7A
$GAGSV,2,1,08,30,51,018,40,34,43,086,36,07,40,244,25,15,36,156,37,7*78
$GAGSV,2,2,08,27,33,306,29,08,20,187,,02,19,072,25,36,11,041,18,7*75
$GAGSV,2,1,07,30,51,018,45,34,43,086,38,07,40,244,37,15,36,156,42,1*7B
$GAGSV,2,2,07,27,33,306,33,02,19,072,30,36,11,041,20,1*4C
$GBGSV,5,1,17,06,85,235,42,16,83,185,43,34,78,152,46,09,74,312,41,1*79
$GBGSV,5,2,17,39,71,170,45,40,68,310,41,07,63,288,41,12,60,056,41,1*77
$GBGSV,5,3,17,11,56,191,24,24,53,079,42,10,52,272,42,25,49,336,28,1*73
$GBGSV,5,4,17,44,37,044,33,43,33,208,26,26,12,113,,33,08,220,,1*70
$GBGSV,5,5,17,41,07,267,,1*41
$GBGSV,2,1,07,34,78,152,45,39,71,170,45,40,68,310,45,24,53,079,41,4*71
$GBGSV,2,2,07,25,49,336,23,44,37,044,36,43,33,208,24,4*43
$GNACCURACY,2.9*1D
$PAIRSAT,1,35,2,0,201,3,0,200,4,0,221,5,0,200,6,0,200,7,0,201,8,0,221,9,0,221,10,0,200,11,0,200,12,0,200,13,0,200,14,0,200,15,0,200,16,0,201,17,0,200,18,0,200,19,0,200,20,0,200,21,0,201,22,0,200,23,0,200,24,0,200,25,0,200,26,0,221,27,0,221,28,0,200,29,0,200,30,0,200,31,0,201,32,0,200,194,0,621,195,0,621,196,0,620,199,0,621*58
$PAIRSAT,2,24,65,0,200,66,0,200,67,0,200,68,0,200,69,0,201,70,0,201,71,0,201,72,0,200,73,0,200,74,0,200,75,0,200,76,0,200,77,0,200,78,0,200,79,0,201,80,0,201,81,0,201,82,0,201,83,0,201,84,0,200,85,0,200,86,0,200,87,0,200,88,0,200*7A
$PAIRSAT,3,23,2,0,1221,3,0,1200,4,0,1200,5,0,200,7,0,1221,8,0,1221,9,0,1200,10,0,1200,11,0,1200,12,0,1200,13,0,1200,15,0,1221,19,0,1200,21,0,1200,24,0,1200,25,0,1200,26,0,1200,27,0,1221,30,0,1221,31,0,1200,33,0,1200,34,0,1221,36,0,1221*6A
$PAIRSAT,4,46,1,0,200,2,0,200,3,0,600,4,0,200,5,0,200,6,0,201,7,0,201,8,0,200,9,0,201,10,0,201,11,0,201,12,0,201,13,0,200,14,0,200,16,0,201,19,0,600,20,0,600,21,0,600,22,0,600,23,0,600,24,0,621,25,0,621,26,0,621,27,0,600,28,0,600,29,0,600,30,0,600,32,0,600,33,0,621,34,0,621,35,0,600,36,0,600,37,0,600,38,0,600,39,0,621,40,0,621,41,0,621,42,0,600,43,0,621,44,0,621,45,0,600,46,0,600,59,0,400,60,0,400,61,0,400,62,0,400*48
$PAIRDGP,10,2,4,7,8,9,16,21,26,27,31*43
$GNGGA,033723.200,2500.7775848,N,12132.4605305,E,4,61,0.49,16.930,M,15.25,M,1,3335*43
$GNRMC,033723.200,A,2500.7775848,N,12132.4605305,E,2.25,44.72,030324,,,R,V*28
$GPHDT,44.911,T*0C
$GNACCURACY,3.0*15
$GNGGA,033723.300,2500.7776312,N,12132.4605792,E,4,61,0.49,16.978,M,15.25,M,1,3335*43
$GNRMC,033723.300,A,2500.7776312,N,12132.4605792,E,2.22,44.43,030324,,,R,V*21
$GPHDT,,T*1B
$GNACCURACY,3.0*15
$GNGGA,033723.400,2500.7776695,N,12132.4606261,E,4,60,0.50,16.957,M,15.25,M,1,3335*40
$GNRMC,033723.400,A,2500.7776695,N,12132.4606261,E,2.03,44.22,030324,,,R,V*22
$GPHDT,45.436,T*05
$GNACCURACY,3.0*15
$GNGGA,033723.500,2500.7777268,N,12132.4606628,E,4,60,0.50,16.976,M,15.25,M,0,3335*4D
$GNRMC,033723.500,A,2500.7777268,N,12132.4606628,E,2.26,42.45,030324,,,R,V*2D
$GPHDT,,T*1B
$GNACCURACY,3.0*15
$GNGGA,033723.600,2500.7777699,N,12132.4607166,E,4,60,0.50,16.967,M,15.25,M,0,3335*48
$GNRMC,033723.600,A,2500.7777699,N,12132.4607166,E,2.25,43.57,030324,,,R,V*29
$GPHDT,46.558,T*0F
$GNACCURACY,3.0*15
$GNGGA,033723.700,2500.7778077,N,12132.4607689,E,4,60,0.50,16.984,M,15.25,M,0,3335*4B
$GNRMC,033723.700,A,2500.7778077,N,12132.4607689,E,2.24,44.33,030324,,,R,V*23
$GPHDT,,T*1B
$GNACCURACY,3.0*15
$GNGGA,033723.800,2500.7778479,N,12132.4608259,E,4,60,0.50,16.971,M,15.25,M,0,3335*42
$GNRMC,033723.800,A,2500.7778479,N,12132.4608259,E,2.20,49.33,030324,,,R,V*29
$GPHDT,46.089,T*06
$GNACCURACY,3.0*15
$GNGGA,033723.900,2500.7778846,N,12132.4608869,E,4,60,0.50,16.981,M,15.25,M,0,3335*45
$GNRMC,033723.900,A,2500.7778846,N,12132.4608869,E,2.22,52.80,030324,,,R,V*21
$GPHDT,,T*1B
$GNACCURACY,3.0*15
$GNGGA,033724.000,2500.7779185,N,12132.4609409,E,4,59,0.52,16.999,M,15.25,M,1,3335*47
$GNRMC,033724.000,A,2500.7779185,N,12132.4609409,E,2.05,50.76,030324,,,R,V*2D
$GPHDT,45.492,T*0B
$GNACCURACY,3.0*15
$GNGGA,033724.100,2500.7779549,N,12132.4609864,E,4,59,0.52,17.004,M,15.25,M,1,3335*49
$GNRMC,033724.100,A,2500.7779549,N,12132.4609864,E,2.15,50.07,030324,,,R,V*28
$GPHDT,,T*1B
$GNGSA,A,3,08,194,199,27,195,16,04,09,196,26,07,,0.81,0.52,0.62,1*01
$GNGSA,A,3,82,80,79,81,,,,,,,,,0.81,0.52,0.62,2*0D
$GNGSA,A,3,30,34,07,15,27,02,36,,,,,,0.81,0.52,0.62,3*0C
$GNGSA,A,3,06,16,34,09,39,40,07,12,11,24,10,25,0.81,0.52,0.62,4*0B
$GNGSA,A,3,44,43,,,,,,,,,,,0.81,0.52,0.62,4*09
$GPGSV,4,1,15,08,72,279,46,194,63,045,41,199,60,167,40,27,57,024,43,1*6E
$GPGSV,4,2,15,195,55,126,43,45,47,231,38,16,38,048,36,04,37,222,43,1*50
$GPGSV,4,3,15,21,33,172,24,09,32,275,38,196,22,175,18,02,21,183,16,1*5D
$GPGSV,4,4,15,26,20,078,35,07,20,320,23,31,20,133,25,1*5C
$GPGSV,3,1,09,08,72,279,47,194,63,045,43,199,60,167,45,27,57,024,46,8*6E
$GPGSV,3,2,09,195,55,126,45,04,37,222,41,09,32,275,39,196,22,175,17,8*62
$GPGSV,3,3,09,26,20,078,38,8*56
$GLGSV,2,1,08,82,70,092,42,83,44,177,,80,41,357,24,79,37,071,37,1*7B
$GLGSV,2,2,08,81,30,034,32,70,15,268,,71,06,315,18,69,06,209,14,1*7A
$GAGSV,2,1,08,30,51,018,38,34,43,086,38,07,40,244,27,15,36,156,40,7*7B
$GAGSV,2,2,08,27,33,306,26,08,20,187,,02,19,072,28,36,11,041,19,7*76
$GAGSV,2,1,07,30,51,018,42,34,43,086,36,07,40,244,33,15,36,156,43,1*77
$GAGSV,2,2,07,27,33,306,22,02,19,072,33,36,11,041,17,1*4B
$GBGSV,5,1,17,06,85,235,42,16,83,185,43,34,78,152,46,09,74,312,42,1*7A
$GBGSV,5,2,17,39,71,170,45,40,68,310,42,07,63,288,40,12,60,056,41,1*75
$GBGSV,5,3,17,11,56,191,28,24,53,079,43,10,52,272,41,25,49,336,28,1*7D
$GBGSV,5,4,17,44,37,044,38,43,33,208,27,26,12,113,,33,08,220,,1*7A
$GBGSV,5,5,17,41,07,267,,1*41
$GBGSV,2,1,07,34,78,152,46,39,71,170,44,40,68,310,44,24,53,079,42,4*71
$GBGSV,2,2,07,25,49,336,21,44,37,044,35,43,33,208,26,4*40
$GNACCURACY,3.0*15
$PAIRSAT,1,35,2,0,201,3,0,200,4,0,221,5,0,200,6,0,200,7,0,201,8,0,221,9,0,221,10,0,200,11,0,200,12,0,200,13,0,200,14,0,200,15,0,200,16,0,201,17,0,200,18,0,200,19,0,200,20,0,200,21,0,201,22,0,200,23,0,200,24,0,200,25,0,200,26,0,221,27,0,221,28,0,200,29,0,200,30,0,200,31,0,201,32,0,200,194,0,621,195,0,621,196,0,620,199,0,621*58
$PAIRSAT,2,24,65,0,200,66,0,200,67,0,200,68,0,200,69,0,201,70,0,201,71,0,201,72,0,200,73,0,200,74,0,200,75,0,200,76,0,200,77,0,200,78,0,200,79,0,201,80,0,201,81,0,201,82,0,201,83,0,201,84,0,200,85,0,200,86,0,200,87,0,200,88,0,200*7A
$PAIRSAT,3,23,2,0,1221,3,0,1200,4,0,1200,5,0,200,7,0,1221,8,0,1221,9,0,1200,10,0,1200,11,0,1200,12,0,1200,13,0,1200,15,0,1221,19,0,1200,21,0,1200,24,0,1200,25,0,1200,26,0,1200,27,0,1221,30,0,1221,31,0,1200,33,0,1200,34,0,1221,36,0,1221*6A
$PAIRSAT,4,46,1,0,200,2,0,200,3,0,600,4,0,200,5,0,200,6,0,201,7,0,201,8,0,200,9,0,201,10,0,201,11,0,201,12,0,201,13,0,200,14,0,200,16,0,201,19,0,600,20,0,600,21,0,600,22,0,600,23,0,600,24,0,621,25,0,621,26,0,621,27,0,600,28,0,600,29,0,600,30,0,600,32,0,600,33,0,621,34,0,621,35,0,600,36,0,600,37,0,600,38,0,600,39,0,621,40,0,621,41,0,621,42,0,600,43,0,621,44,0,621,45,0,600,46,0,600,59,0,400,60,0,400,61,0,400,62,0,400*48
$PAIRDGP,10,2,4,7,8,9,16,21,26,27,31*43
$GNGGA,033724.200,2500.7780055,N,12132.4610287,E,4,59,0.52,16.965,M,15.25,M,1,3335*44
$GNRMC,033724.200,A,2500.7780055,N,12132.4610287,E,2.28,47.91,030324,,,R,V*2D
$GPHDT,44.524,T*06
$GNACCURACY,2.9*1D
$GNGGA,033724.300,2500.7780524,N,12132.4610798,E,4,59,0.52,16.968,M,15.25,M,1,3335*40
$GNRMC,033724.300,A,2500.7780524,N,12132.4610798,E,2.34,42.88,030324,,,R,V*24
$GPHDT,,T*1B
$GNACCURACY,2.9*1D
$GNGGA,033724.400,2500.7781069,N,12132.4611089,E,4,59,0.52,17.023,M,15.25,M,1,3335*4B
$GNRMC,033724.400,A,2500.7781069,N,12132.4611089,E,2.36,40.89,030324,,,R,V*29
$GPHDT,45.277,T*06
$GNACCURACY,2.9*1D
$GNGGA,033724.500,2500.7781442,N,12132.4611602,E,4,61,0.49,17.002,M,15.25,M,1,3335*40
$GNRMC,033724.500,A,2500.7781442,N,12132.4611602,E,2.20,41.95,030324,,,R,V*2B
$GPHDT,,T*1B
$GNACCURACY,2.9*1D
$GNGGA,033724.600,2500.7782026,N,12132.4612051,E,4,61,0.49,17.006,M,15.25,M,0,3335*40
$GNRMC,033724.600,A,2500.7782026,N,12132.4612051,E,2.27,40.55,030324,,,R,V*24
$GPHDT,47.397,T*0B
$GNACCURACY,3.0*15
$GNGGA,033724.700,2500.7782475,N,12132.4612482,E,4,62,0.47,16.954,M,15.25,M,0,3335*4B
$GNRMC,033724.700,A,2500.7782475,N,12132.4612482,E,2.18,39.83,030324,,,R,V*24
$GPHDT,,T*1B
$GNACCURACY,2.9*1D
$GNGGA,033724.800,2500.7782894,N,12132.4612972,E,4,62,0.47,16.988,M,15.25,M,0,3335*44
$GNRMC,033724.800,A,2500.7782894,N,12132.4612972,E,2.34,43.32,030324,,,R,V*23
$GPHDT,49.581,T*04
$GNACCURACY,2.9*1D
$GNGGA,033724.900,2500.7783267,N,12132.4613535,E,4,62,0.47,16.998,M,15.25,M,0,3335*4D
$GNRMC,033724.900,A,2500.7783267,N,12132.4613535,E,2.23,47.37,030324,,,R,V*2C
$GPHDT,,T*1B
$GNACCURACY,2.9*1D
$GNGGA,033725.000,2500.7783678,N,12132.4614128,E,4,61,0.49,16.983,M,15.25,M,1,3335*46
$GNRMC,033725.000,A,2500.7783678,N,12132.4614128,E,2.21,51.95,030324,,,R,V*2C
$GPHDT,48.156,T*0B
$GNACCURACY,3.0*15
$GNGGA,033725.100,2500.7784090,N,12132.4614667,E,4,60,0.50,17.027,M,15.25,M,1,3335*43
$GNRMC,033725.100,A,2500.7784090,N,12132.4614667,E,2.10,52.17,030324,,,R,V*2D
$GPHDT,,T*1B
$GNGSA,A,3,08,194,199,27,195,16,04,09,196,02,26,07,0.78,0.50,0.60,1*05
$GNGSA,A,3,82,80,79,81,,,,,,,,,0.78,0.50,0.60,2*0B
$GNGSA,A,3,30,34,07,15,27,02,36,,,,,,0.78,0.50,0.60,3*0A
$GNGSA,A,3,06,16,34,09,39,40,07,12,11,24,10,25,0.78,0.50,0.60,4*0D
$GNGSA,A,3,44,43,,,,,,,,,,,0.78,0.50,0.60,4*0F
$GPGSV,4,1,15,08,72,279,45,194,63,045,40,199,60,167,36,27,57,024,45,1*6B
$GPGSV,4,2,15,195,55,126,44,45,47,231,36,16,38,048,38,04,37,222,44,1*50
$GPGSV,4,3,15,21,33,172,30,09,32,275,36,196,22,175,19,02,21,183,17,1*56
$GPGSV,4,4,15,26,20,078,33,07,20,320,23,31,20,133,25,1*5A
$GPGSV,3,1,09,08,72,279,46,194,63,045,44,199,60,167,47,27,57,024,46,8*6A
$GPGSV,3,2,09,195,55,126,46,04,37,222,42,09,32,275,36,196,22,175,18,8*62
$GPGSV,3,3,09,26,20,078,38,8*56
$GLGSV,2,1,08,82,70,092,43,83,44,177,,80,41,357,23,79,37,071,36,1*7C
$GLGSV,2,2,08,81,30,034,30,70,15,268,,71,06,315,15,69,06,209,13,1*72
$GAGSV,2,1,08,30,51,018,38,34,43,086,38,07,40,244,26,15,36,156,41,7*7B
$GAGSV,2,2,08,27,33,306,22,08,20,187,,02,19,072,28,36,11,041,19,7*72
$GAGSV,2,1,07,30,51,018,43,34,43,086,38,07,40,244,23,15,36,156,44,1*7E
$GAGSV,2,2,07,27,33,306,24,02,19,072,32,36,11,041,16,1*4D
$GBGSV,5,1,17,06,85,235,41,16,83,185,43,34,78,152,45,09,74,312,41,1*79
$GBGSV,5,2,17,39,71,170,45,40,68,310,42,07,63,288,40,12,60,056,42,1*76
$GBGSV,5,3,17,11,56,191,33,24,53,079,42,10,52,272,39,25,49,336,27,1*76
$GBGSV,5,4,17,44,37,044,41,43,33,208,25,26,12,113,,33,08,220,,1*76
$GBGSV,5,5,17,41,07,267,,1*41
$GBGSV,2,1,07,34,78,152,46,39,71,170,45,40,68,310,45,24,53,079,43,4*70
$GBGSV,2,2,07,25,49,336,23,44,37,044,36,43,33,208,25,4*42
$GNACCURACY,2.9*1D
$PAIRSAT,1,35,2,0,201,3,0,200,4,0,221,5,0,200,6,0,200,7,0,201,8,0,221,9,0,221,10,0,200,11,0,200,12,0,200,13,0,200,14,0,200,15,0,200,16,0,201,17,0,200,18,0,200,19,0,200,20,0,200,21,0,201,22,0,200,23,0,200,24,0,200,25,0,200,26,0,221,27,0,221,28,0,200,29,0,200,30,0,200,31,0,201,32,0,200,194,0,621,195,0,621,196,0,620,199,0,621*58
$PAIRSAT,2,24,65,0,200,66,0,200,67,0,200,68,0,200,69,0,201,70,0,201,71,0,201,72,0,200,73,0,200,74,0,200,75,0,200,76,0,200,77,0,200,78,0,200,79,0,201,80,0,201,81,0,201,82,0,201,83,0,201,84,0,200,85,0,200,86,0,200,87,0,200,88,0,200*7A
$PAIRSAT,3,23,2,0,1221,3,0,1200,4,0,1200,5,0,200,7,0,1221,8,0,1221,9,0,1200,10,0,1200,11,0,1200,12,0,1200,13,0,1200,15,0,1221,19,0,1200,21,0,1200,24,0,1200,25,0,1200,26,0,1200,27,0,1221,30,0,1221,31,0,1200,33,0,1200,34,0,1221,36,0,1221*6A
$PAIRSAT,4,46,1,0,200,2,0,200,3,0,600,4,0,200,5,0,200,6,0,201,7,0,201,8,0,200,9,0,201,10,0,201,11,0,201,12,0,201,13,0,200,14,0,200,16,0,201,19,0,600,20,0,600,21,0,600,22,0,600,23,0,600,24,0,621,25,0,621,26,0,621,27,0,600,28,0,600,29,0,600,30,0,600,32,0,600,33,0,621,34,0,621,35,0,600,36,0,600,37,0,600,38,0,600,39,0,621,40,0,621,41,0,621,42,0,600,43,0,621,44,0,621,45,0,600,46,0,600,59,0,400,60,0,400,61,0,400,62,0,400*48
$PAIRDGP,10,2,4,7,8,9,16,21,26,27,31*43
$GNGGA,033725.200,2500.7784358,N,12132.4615181,E,4,60,0.50,16.988,M,15.25,M,1,3335*44
$GNRMC,033725.200,A,2500.7784358,N,12132.4615181,E,2.10,52.26,030324,,,R,V*25
$GPHDT,46.321,T*07
$GNACCURACY,2.9*1D
$GNGGA,033725.300,2500.7784814,N,12132.4615622,E,4,61,0.50,16.973,M,15.25,M,1,3335*4D
$GNRMC,033725.300,A,2500.7784814,N,12132.4615622,E,2.06,49.86,030324,,,R,V*2E
$GPHDT,,T*1B
$GNACCURACY,2.9*1D
$GNGGA,033725.400,2500.7785240,N,12132.4616077,E,4,61,0.50,17.005,M,15.25,M,1,3335*4C
$GNRMC,033725.400,A,2500.7785240,N,12132.4616077,E,2.14,44.48,030324,,,R,V*2A
$GPHDT,46.554,T*03
$GNACCURACY,2.9*1D
$GNGGA,033725.500,2500.7785667,N,12132.4616538,E,4,61,0.50,17.006,M,15.25,M,1,3335*41
$GNRMC,033725.500,A,2500.7785667,N,12132.4616538,E,2.25,42.55,030324,,,R,V*2C
$GPHDT,,T*1B
$GNACCURACY,2.9*1D
$GNGGA,033725.600,2500.7786265,N,12132.4616959,E,4,61,0.50,16.962,M,15.25,M,0,3335*47
$GNRMC,033725.600,A,2500.7786265,N,12132.4616959,E,2.26,44.23,030324,,,R,V*25
$GPHDT,45.839,T*06
$GNACCURACY,2.9*1D
$GNGGA,033725.700,2500.7786624,N,12132.4617433,E,4,61,0.50,17.002,M,15.25,M,0,3335*49
$GNRMC,033725.700,A,2500.7786624,N,12132.4617433,E,2.20,44.75,030324,,,R,V*20
$GPHDT,,T*1B
$GNACCURACY,2.9*1D
$GNGGA,033725.800,2500.7787077,N,12132.4617948,E,4,61,0.50,16.957,M,15.25,M,0,3335*4E
$GNRMC,033725.800,A,2500.7787077,N,12132.4617948,E,2.17,44.60,030324,,,R,V*2F
$GPHDT,46.450,T*06
$GNACCURACY,2.9*1D
$GNGGA,033725.900,2500.7787411,N,12132.4618481,E,4,61,0.50,16.960,M,15.25,M,0,3335*48
$GNRMC,033725.900,A,2500.7787411,N,12132.4618481,E,2.21,47.10,030324,,,R,V*2C
$GPHDT,,T*1B
$GNACCURACY,2.9*1D
$GNGGA,033726.000,2500.7787870,N,12132.4619008,E,4,60,0.50,16.971,M,15.25,M,1,3335*4D
$GNRMC,033726.000,A,2500.7787870,N,12132.4619008,E,2.25,46.19,030324,,,R,V*25
$GPHDT,46.717,T*06
$GNACCURACY,2.9*1D
$GNGGA,033726.100,2500.7788226,N,12132.4619660,E,4,59,0.50,16.981,M,15.25,M,1,3335*47
$GNRMC,033726.100,A,2500.7788226,N,12132.4619660,E,2.26,50.91,030324,,,R,V*2E
$GPHDT,,T*1B
$GNGSA,A,3,08,194,199,27,195,16,04,21,09,196,02,31,0.76,0.47,0.59,1*05
$GNGSA,A,3,26,07,,,,,,,,,,,0.76,0.47,0.59,1*0C
$GNGSA,A,3,82,80,79,81,,,,,,,,,0.76,0.47,0.59,2*09
$GNGSA,A,3,30,34,07,15,27,02,36,,,,,,0.76,0.47,0.59,3*08
$GNGSA,A,3,06,16,34,09,39,40,07,12,11,24,10,25,0.76,0.47,0.59,4*0F
$GNGSA,A,3,44,43,,,,,,,,,,,0.76,0.47,0.59,4*0D
$GPGSV,4,1,15,08,72,279,45,194,63,045,41,199,60,167,38,27,57,024,45,1*64
$GPGSV,4,2,15,195,55,126,44,45,47,231,36,16,38,048,39,04,37,222,43,1*56
$GPGSV,4,3,15,21,33,172,37,09,32,275,34,196,22,175,19,02,21,183,16,1*52
$GPGSV,4,4,15,31,20,133,28,26,20,078,34,07,20,320,21,1*52
$GPGSV,2,1,08,08,72,279,48,194,63,045,44,199,60,167,47,27,57,024,46,8*64
$GPGSV,2,2,08,195,55,126,47,04,37,222,40,09,32,275,38,26,20,078,36,8*57
$GLGSV,2,1,08,82,70,092,43,83,44,177,,80,41,357,23,79,37,071,37,1*7D
$GLGSV,2,2,08,81,30,034,31,70,15,268,,71,06,315,14,69,05,209,12,1*70
$GAGSV,2,1,08,30,51,018,40,34,43,086,38,07,40,244,32,15,36,156,41,7*71
$GAGSV,2,2,08,27,33,306,20,08,20,187,,02,19,072,26,36,10,041,19,7*7F
$GAGSV,2,1,07,30,51,018,45,34,43,086,39,07,40,244,29,15,36,156,42,1*75
$GAGSV,2,2,07,27,33,306,20,02,19,072,32,36,10,041,14,1*4A
$GBGSV,5,1,18,06,85,235,41,16,83,185,43,34,78,152,46,09,74,312,42,1*76
$GBGSV,5,2,18,39,71,170,45,40,68,310,43,07,63,288,39,12,60,056,42,1*76
$GBGSV,5,3,18,11,56,191,37,24,53,079,41,10,52,272,40,25,49,336,25,1*72
$GBGSV,5,4,18,44,37,044,39,43,33,208,26,26,12,113,,33,08,220,,1*75
$GBGSV,5,5,18,41,07,267,,56,,,41,1*48
$GBGSV,2,1,06,34,78,152,46,39,71,170,45,40,68,310,46,24,53,079,43,4*72
$GBGSV,2,2,06,25,49,336,24,44,37,044,36,4*7E
$GNACCURACY,2.9*1D
$PAIRSAT,1,35,2,0,201,3,0,200,4,0,221,5,0,200,6,0,200,7,0,201,8,0,221,9,0,221,10,0,200,11,0,200,12,0,200,13,0,200,14,0,200,15,0,200,16,0,201,17,0,200,18,0,200,19,0,200,20,0,200,21,0,201,22,0,200,23,0,200,24,0,200,25,0,200,26,0,221,27,0,221,28,0,200,29,0,200,30,0,200,31,0,201,32,0,200,194,0,621,195,0,621,196,0,620,199,0,621*58
$PAIRSAT,2,24,65,0,200,66,0,200,67,0,200,68,0,200,69,0,201,70,0,201,71,0,201,72,0,200,73,0,200,74,0,200,75,0,200,76,0,200,77,0,200,78,0,200,79,0,201,80,0,201,81,0,201,82,0,201,83,0,201,84,0,200,85,0,200,86,0,200,87,0,200,88,0,200*7A
$PAIRSAT,3,23,2,0,1221,3,0,1200,4,0,1200,5,0,200,7,0,1221,8,0,1221,9,0,1200,10,0,1200,11,0,1200,12,0,1200,13,0,1200,15,0,1221,19,0,1200,21,0,1200,24,0,1200,25,0,1200,26,0,1200,27,0,1221,30,0,1221,31,0,1200,33,0,1200,34,0,1221,36,0,1221*6A
$PAIRSAT,4,46,1,0,200,2,0,200,3,0,600,4,0,200,5,0,200,6,0,201,7,0,201,8,0,200,9,0,201,10,0,201,11,0,201,12,0,201,13,0,200,14,0,200,16,0,201,19,0,600,20,0,600,21,0,600,22,0,600,23,0,600,24,0,621,25,0,621,26,0,621,27,0,600,28,0,600,29,0,600,30,0,600,32,0,600,33,0,621,34,0,621,35,0,600,36,0,600,37,0,600,38,0,600,39,0,621,40,0,621,41,0,621,42,0,600,43,0,621,44,0,621,45,0,600,46,0,600,59,0,400,60,0,400,61,0,400,62,0,400*48
$PAIRDGP,10,2,4,7,8,9,16,21,26,27,31*43
$GNGGA,033726.200,2500.7788631,N,12132.4620153,E,4,60,0.47,16.958,M,15.25,M,1,3335*43
$GNRMC,033726.200,A,2500.7788631,N,12132.4620153,E,2.17,55.41,030324,,,R,V*28
$GPHDT,44.157,T*06
$GNACCURACY,2.9*1D
$GNGGA,033726.300,2500.7788968,N,12132.4620681,E,4,61,0.47,16.952,M,15.25,M,1,3335*42
$GNRMC,033726.300,A,2500.7788968,N,12132.4620681,E,2.20,51.96,030324,,,R,V*28
$GPHDT,,T*1B
$GNACCURACY,2.9*1D
$GNGGA,033726.400,2500.7789342,N,12132.4621056,E,4,61,0.47,17.004,M,15.25,M,1,3335*40
$GNRMC,033726.400,A,2500.7789342,N,12132.4621056,E,2.07,48.42,030324,,,R,V*25
$GPHDT,45.071,T*02
$GNACCURACY,2.9*1D
$GNGGA,033726.500,2500.7789843,N,12132.4621562,E,4,60,0.50,16.936,M,15.25,M,1,3335*47
$GNRMC,033726.500,A,2500.7789843,N,12132.4621562,E,2.17,46.09,030324,,,R,V*2C
$GPHDT,,T*1B
$GNACCURACY,2.9*1D
$GNGGA,033726.600,2500.7790229,N,12132.4622026,E,4,60,0.50,17.000,M,15.25,M,0,3335*40
$GNRMC,033726.600,A,2500.7790229,N,12132.4622026,E,2.34,48.33,030324,,,R,V*21
$GPHDT,45.885,T*01
$GNACCURACY,2.9*1D
$GNGGA,033726.700,2500.7790633,N,12132.4622684,E,4,60,0.50,16.969,M,15.25,M,0,3335*47
$GNRMC,033726.700,A,2500.7790633,N,12132.4622684,E,2.28,49.43,030324,,,R,V*2A
$GPHDT,,T*1B
$GNACCURACY,2.9*1D
$GNGGA,033726.800,2500.7791094,N,12132.4623114,E,4,61,0.50,16.973,M,15.25,M,0,3335*47
$GNRMC,033726.800,A,2500.7791094,N,12132.4623114,E,2.25,46.75,030324,,,R,V*27
$GPHDT,47.224,T*02
$GNACCURACY,2.9*1D
$GNGGA,033726.900,2500.7791602,N,12132.4623518,E,4,61,0.50,16.951,M,15.25,M,0,3335*47
$GNRMC,033726.900,A,2500.7791602,N,12132.4623518,E,2.20,44.61,030324,,,R,V*25
$GPHDT,,T*1B
$GNACCURACY,2.9*1D
$GNGGA,033727.000,2500.7791975,N,12132.4624099,E,4,61,0.50,17.010,M,15.25,M,1,3335*47
$GNRMC,033727.000,A,2500.7791975,N,12132.4624099,E,2.17,44.49,030324,,,R,V*27
$GPHDT,46.687,T*0E
$GNACCURACY,2.9*1D
$GNGGA,033727.100,2500.7792377,N,12132.4624674,E,4,61,0.50,16.923,M,15.25,M,1,3335*40
$GNRMC,033727.100,A,2500.7792377,N,12132.4624674,E,2.24,47.99,030324,,,R,V*26
$GPHDT,,T*1B
$GNGSA,A,3,08,194,199,27,195,16,04,21,09,196,02,26,0.79,0.50,0.61,1*01
$GNGSA,A,3,31,,,,,,,,,,,,0.79,0.50,0.61,1*0F
$GNGSA,A,3,82,83,80,79,81,,,,,,,,0.79,0.50,0.61,2*00
$GNGSA,A,3,30,34,07,15,27,02,36,,,,,,0.79,0.50,0.61,3*0A
$GNGSA,A,3,06,16,34,09,39,40,07,12,11,24,10,25,0.79,0.50,0.61,4*0D
$GNGSA,A,3,44,43,,,,,,,,,,,0.79,0.50,0.61,4*0F
$GPGSV,4,1,15,08,72,279,45,194,63,045,41,199,60,167,38,27,57,024,46,1*67
$GPGSV,4,2,15,195,55,126,43,45,47,231,37,16,38,048,39,04,37,222,40,1*53
$GPGSV,4,3,15,21,33,172,43,09,32,275,36,196,22,175,19,02,21,183,17,1*52
$GPGSV,4,4,15,26,20,078,35,07,20,320,20,31,20,133,23,1*59
$GPGSV,2,1,08,08,72,279,47,194,63,045,44,199,60,167,47,27,57,024,47,8*6A
$GPGSV,2,2,08,195,55,126,47,04,37,222,39,09,32,275,40,26,20,078,36,8*56
$GLGSV,2,1,08,82,70,092,43,83,44,177,20,80,41,357,24,79,37,071,38,1*77
$GLGSV,2,2,08,81,30,034,30,70,15,268,,71,06,315,14,69,05,209,14,1*77
$GAGSV,2,1,08,30,51,018,42,34,43,086,39,07,40,244,33,15,36,156,41,7*73
$GAGSV,2,2,08,27,33,306,19,08,20,187,,02,19,072,26,36,10,041,18,7*74
$GAGSV,2,1,07,30,51,018,45,34,43,086,39,07,40,244,26,15,36,156,45,1*7D
$GAGSV,2,2,07,27,33,306,21,02,19,072,36,36,10,041,16,1*4D
$GBGSV,5,1,17,06,85,235,41,16,83,185,43,34,78,152,45,09,74,312,42,1*7A
$GBGSV,5,2,17,39,71,170,44,40,68,310,43,07,63,288,41,12,60,056,43,1*76
$GBGSV,5,3,17,11,56,191,41,24,53,079,41,10,52,272,37,25,49,336,24,1*7D
$GBGSV,5,4,17,44,37,044,39,43,33,208,23,26,12,113,,33,08,220,,1*7F
$GBGSV,5,5,17,41,07,267,,1*41
$GBGSV,2,1,07,34,78,152,46,39,71,170,44,40,68,310,46,24,53,079,42,4*73
$GBGSV,2,2,07,25,49,336,22,44,37,044,38,43,33,208,25,4*4D
$GNACCURACY,2.9*1D
$PAIRSAT,1,35,2,0,201,3,0,200,4,0,221,5,0,200,6,0,200,7,0,201,8,0,221,9,0,221,10,0,200,11,0,200,12,0,200,13,0,200,14,0,200,15,0,200,16,0,201,17,0,200,18,0,200,19,0,200,20,0,200,21,0,201,22,0,200,23,0,200,24,0,200,25,0,200,26,0,221,27,0,221,28,0,200,29,0,200,30,0,200,31,0,201,32,0,200,194,0,621,195,0,621,196,0,620,199,0,621*58
$PAIRSAT,2,24,65,0,200,66,0,200,67,0,200,68,0,200,69,0,201,70,0,201,71,0,201,72,0,200,73,0,200,74,0,200,75,0,200,76,0,200,77,0,200,78,0,200,79,0,201,80,0,201,81,0,201,82,0,201,83,0,201,84,0,200,85,0,200,86,0,200,87,0,200,88,0,200*7A
$PAIRSAT,3,23,2,0,1221,3,0,1200,4,0,1200,5,0,200,7,0,1221,8,0,1221,9,0,1200,10,0,1200,11,0,1200,12,0,1200,13,0,1200,15,0,1221,19,0,1200,21,0,1200,24,0,1200,25,0,1200,26,0,1200,27,0,1221,30,0,1221,31,0,1200,33,0,1200,34,0,1221,36,0,1221*6A
$PAIRSAT,4,46,1,0,200,2,0,200,3,0,600,4,0,200,5,0,200,6,0,201,7,0,201,8,0,200,9,0,201,10,0,201,11,0,201,12,0,201,13,0,200,14,0,200,16,0,201,19,0,600,20,0,600,21,0,600,22,0,600,23,0,600,24,0,621,25,0,621,26,0,621,27,0,600,28,0,600,29,0,600,30,0,600,32,0,600,33,0,621,34,0,621,35,0,600,36,0,600,37,0,600,38,0,600,39,0,621,40,0,621,41,0,621,42,0,600,43,0,621,44,0,621,45,0,600,46,0,600,59,0,400,60,0,400,61,0,400,62,0,400*48
$PAIRDGP,10,2,4,7,8,9,16,21,26,27,31*43
$GNGGA,033727.200,2500.7792752,N,12132.4625239,E,4,61,0.50,16.988,M,15.25,M,1,3335*4D
$GNRMC,033727.200,A,2500.7792752,N,12132.4625239,E,2.28,48.59,030324,,,R,V*25
$GPHDT,44.811,T*0D
$GNACCURACY,2.9*1D
$GNGGA,033727.300,2500.7793171,N,12132.4625777,E,4,61,0.50,16.990,M,15.25,M,1,3335*4C
$GNRMC,033727.300,A,2500.7793171,N,12132.4625777,E,2.35,51.92,030324,,,R,V*2E
$GPHDT,,T*1B
$GNACCURACY,2.9*1D
$GNGGA,033727.400,2500.7793573,N,12132.4626308,E,4,61,0.50,16.971,M,15.25,M,1,3335*4D
$GNRMC,033727.400,A,2500.7793573,N,12132.4626308,E,2.20,50.33,030324,,,R,V*2E
$GPHDT,44.569,T*0F
$GNACCURACY,2.9*1D
$GNGGA,033727.500,2500.7793957,N,12132.4626761,E,4,61,0.50,16.968,M,15.25,M,0,3335*44
$GNRMC,033727.500,A,2500.7793957,N,12132.4626761,E,2.14,47.17,030324,,,R,V*29
$GPHDT,,T*1B
$GNACCURACY,2.9*1D
$GNGGA,033727.600,2500.7794334,N,12132.4627180,E,4,61,0.50,17.014,M,15.25,M,0,3335*44
$GNRMC,033727.600,A,2500.7794334,N,12132.4627180,E,2.04,47.16,030324,,,R,V*2A
$GPHDT,43.766,T*05
$GNACCURACY,2.9*1D
$GNGGA,033727.700,2500.7794887,N,12132.4627738,E,4,61,0.50,16.951,M,15.25,M,0,3335*4A
$GNRMC,033727.700,A,2500.7794887,N,12132.4627738,E,2.26,44.62,030324,,,R,V*2D
$GPHDT,,T*1B
$GNACCURACY,2.9*1D
$GNGGA,033727.800,2500.7795354,N,12132.4628177,E,4,61,0.50,17.005,M,15.25,M,0,3335*4A
$GNRMC,033727.800,A,2500.7795354,N,12132.4628177,E,2.31,42.34,030324,,,R,V*27
$GPHDT,44.544,T*00
$GNACCURACY,2.9*1D
$GNGGA,033727.900,2500.7795810,N,12132.4628601,E,4,60,0.50,16.972,M,15.25,M,0,3335*4F
$GNRMC,033727.900,A,2500.7795810,N,12132.4628601,E,2.22,43.72,030324,,,R,V*2A
$GPHDT,,T*1B
$GNACCURACY,2.9*1D
$GNGGA,033728.000,2500.7796322,N,12132.4628978,E,4,60,0.50,16.933,M,15.25,M,1,3335*45
$GNRMC,033728.000,A,2500.7796322,N,12132.4628978,E,2.11,39.66,030324,,,R,V*2C
$GPHDT,47.442,T*04
$GNACCURACY,2.9*1D
$GNGGA,033728.100,2500.7796720,N,12132.4629518,E,4,60,0.50,16.961,M,15.25,M,1,3335*4E
$GNRMC,033728.100,A,2500.7796720,N,12132.4629518,E,2.14,41.54,030324,,,R,V*2B
$GPHDT,,T*1B
$GNGSA,A,3,08,194,199,27,195,16,04,21,09,196,02,26,0.79,0.50,0.61,1*01
$GNGSA,A,3,31,,,,,,,,,,,,0.79,0.50,0.61,1*0F
$GNGSA,A,3,82,83,80,79,81,,,,,,,,0.79,0.50,0.61,2*00
$GNGSA,A,3,30,34,07,15,27,02,36,,,,,,0.79,0.50,0.61,3*0A
$GNGSA,A,3,06,16,34,09,39,40,07,12,11,24,10,25,0.79,0.50,0.61,4*0D
$GNGSA,A,3,44,43,,,,,,,,,,,0.79,0.50,0.61,4*0F
$GPGSV,4,1,15,08,72,279,44,194,63,045,42,199,60,167,38,27,57,024,46,1*65
$GPGSV,4,2,15,195,55,126,43,45,47,231,37,16,38,048,40,04,37,222,37,1*5D
$GPGSV,4,3,15,21,33,172,45,09,32,275,33,196,22,175,21,02,21,183,19,1*54
$GPGSV,4,4,15,26,20,078,34,07,20,320,21,31,20,133,23,1*59
$GPGSV,2,1,08,08,72,279,47,194,63,045,44,199,60,167,46,27,57,024,46,8*6A
$GPGSV,2,2,08,195,55,126,46,04,37,222,41,09,32,275,38,26,20,078,39,8*58
$GLGSV,2,1,08,82,70,092,42,83,44,177,22,80,41,357,24,79,37,071,39,1*75
$GLGSV,2,2,08,81,30,034,29,70,15,268,,71,06,315,13,69,05,209,15,1*79
$GAGSV,2,1,08,30,51,018,41,34,43,086,37,07,40,244,37,15,36,156,41,7*7A
$GAGSV,2,2,08,27,33,306,18,08,20,187,,02,19,072,25,36,10,041,15,7*7B
$GAGSV,2,1,07,30,51,018,45,34,43,086,38,07,40,244,37,15,36,156,43,1*7A
$GAGSV,2,2,07,27,33,306,18,02,19,072,37,36,10,041,15,1*45
$GBGSV,5,1,17,06,85,235,40,16,83,185,42,34,78,152,46,09,74,312,42,1*79
$GBGSV,5,2,17,39,71,170,45,40,68,310,43,07,63,288,41,12,60,056,42,1*76
$GBGSV,5,3,17,11,56,191,43,24,53,079,42,10,52,272,38,25,49,336,27,1*70
$GBGSV,5,4,17,44,37,044,41,43,33,208,23,26,12,113,,33,08,220,,1*70
$GBGSV,5,5,17,41,07,267,,1*41
$GBGSV,2,1,06,34,78,152,46,39,71,170,45,40,68,310,45,24,53,079,42,4*70
$GBGSV,2,2,06,25,49,336,21,44,37,044,37,4*7A
$GNACCURACY,2.9*1D
