$FW : RTK35X,V1.1X0314AS,Lib20210517,1*54
$Tool : LOCOSYS , GNSS Firebird , v1.0.0.19*39
$---------------------------------------------------*2D
33,,,,,,,,,,0.80,0.52,0.61,4*0F
$GPGSV,4,1,14,27,73,020,44,08,63,238,45,194,63,042,42,199,60,167,37,1*68
$GPGSV,4,2,14,195,49,130,41,04,48,240,37,45,47,231,33,16,44,030,40,1*58
$GPGSV,4,3,14,31,32,122,31,09,30,293,24,26,27,064,26,196,25,177,30,1*5E
$GPGSV,4,4,14,21,18,178,31,07,08,317,27,1*68
$GPGSV,3,1,09,27,73,020,43,194,63,042,43,08,63,238,48,199,60,167,47,8*66
$GPGSV,3,2,09,195,49,130,40,04,48,240,43,09,30,293,28,26,27,064,30,8*52
$GPGSV,3,3,09,196,25,177,35,8*6A
$GLGSV,2,1,05,82,59,135,42,81,43,049,38,79,39,048,39,80,33,339,39,1*78
$GLGSV,2,2,05,69,18,221,21,1*49
$GAGSV,2,1,08,30,52,359,36,07,47,260,37,34,38,103,40,08,32,191,19,7*70
$GAGSV,2,2,08,27,28,293,20,02,25,322,,15,24,162,31,36,16,051,23,7*7A
$GAGSV,2,1,06,30,52,359,39,07,47,260,36,34,38,103,39,08,32,191,38,1*7B
$GAGSV,2,2,06,27,28,293,23,15,24,162,33,1*72
$GBGSV,4,1,15,16,88,082,41,06,85,339,41,39,77,148,43,40,72,292,44,1*70
$GBGSV,4,2,15,09,69,329,38,12,66,087,40,07,65,273,40,34,63,170,47,1*78
$GBGSV,4,3,15,24,56,054,43,44,47,055,45,11,41,188,36,25,39,326,41,1*7A
$GBGSV,4,4,15,43,20,203,40,26,19,101,23,33,15,231,38,1*40
$GBGSV,2,1,08,39,77,148,46,40,72,292,42,34,63,170,46,24,56,054,46,4*73
$GBGSV,2,2,08,44,47,055,42,25,39,326,43,43,20,203,40,33,15,231,30,4*74
$GNACCURACY,4.4*16
$PAIRSAT,1,24,4,0,21,7,0,201,8,0,221,9,0,221,10,0,200,11,0,200,12,0,200,13,0,200,14,0,200,15,0,200,16,0,201,17,0,200,18,0,200,21,0,1,26,0,21,27,0,21,29,0,200,30,0,200,31,0,201,32,0,200,194,0,621,195,0,221,196,0,420,199,0,221*47
$PAIRSAT,2,16,69,0,1,70,0,200,71,0,200,72,0,200,73,0,200,74,0,200,75,0,200,76,0,200,77,0,200,78,0,200,79,0,201,80,0,201,81,0,201,82,0,201,83,0,200,84,0,200*78
$PAIRSAT,3,20,2,0,1000,3,0,1000,4,0,1000,7,0,1021,8,0,1021,9,0,1000,10,0,1000,12,0,1000,13,0,1000,15,0,1221,19,0,1200,21,0,1200,24,0,200,25,0,200,27,0,200,30,0,1221,31,0,1200,33,0,1000,34,0,1021,36,0,21*46
$PAIRSAT,4,43,1,0,200,2,0,200,3,0,600,4,0,200,5,0,200,6,0,201,7,0,201,8,0,200,9,0,1,11,0,1,12,0,1,16,0,1,19,0,400,20,0,400,21,0,600,22,0,600,23,0,600,24,0,621,25,0,621,26,0,621,27,0,600,28,0,400,29,0,600,30,0,600,32,0,400,33,0,421,34,0,421,35,0,400,36,0,400,37,0,400,38,0,400,39,0,421,40,0,421,41,0,400,42,0,400,43,0,421,44,0,421,45,0,400,46,0,400,59,0,400,60,0,400,61,0,400,62,0,400*67
$PAIRDGP,7,4,7,8,9,16,21,27*6D
$GNGGA,030405.200,2500.7989712,N,12132.4852752,E,4,58,0.52,17.085,M,15.25,M,1,3335*46
$GNRMC,030405.200,A,2500.7989712,N,12132.4852752,E,0.05,227.78,030324,,,R,V*16
$GPHDT,218.673,T*3C
$GNACCURACY,4.6*14
$GNGGA,030405.300,2500.7989714,N,12132.4852794,E,4,59,0.50,17.074,M,15.25,M,1,3335*46
$GNRMC,030405.300,A,2500.7989714,N,12132.4852794,E,0.06,227.78,030324,,,R,V*18
$GPHDT,,T*1B
$GNACCURACY,4.6*14
$GNGGA,030405.400,2500.7989741,N,12132.4852767,E,4,58,0.50,17.086,M,15.25,M,1,3335*41
$GNRMC,030405.400,A,2500.7989741,N,12132.4852767,E,0.06,227.78,030324,,,R,V*13
$GPHDT,218.061,T*39
$GNACCURACY,4.5*17
$GNGGA,030405.500,2500.7989766,N,12132.4852726,E,4,58,0.50,17.074,M,15.25,M,1,3335*4D
$GNRMC,030405.500,A,2500.7989766,N,12132.4852726,E,0.07,227.78,030324,,,R,V*13
$GPHDT,,T*1B
$GNACCURACY,4.6*14
$GNGGA,030405.600,2500.7989695,N,12132.4852727,E,4,59,0.50,17.083,M,15.25,M,1,3335*4B
$GNRMC,030405.600,A,2500.7989695,N,12132.4852727,E,0.07,227.78,030324,,,R,V*1C
$GPHDT,217.536,T*31
$GNACCURACY,4.6*14
$GNGGA,030405.700,2500.7989723,N,12132.4852764,E,4,59,0.50,17.067,M,15.25,M,0,3335*4A
$GNRMC,030405.700,A,2500.7989723,N,12132.4852764,E,0.07,227.78,030324,,,R,V*16
$GPHDT,,T*1B
$GNACCURACY,4.5*17
$GNGGA,030405.800,2500.7989748,N,12132.4852790,E,4,60,0.50,17.091,M,15.25,M,0,3335*40
$GNRMC,030405.800,A,2500.7989748,N,12132.4852790,E,0.07,227.78,030324,,,R,V*1F
$GPHDT,217.576,T*35
$GNACCURACY,4.4*16
$GNGGA,030405.900,2500.7989745,N,12132.4852813,E,4,60,0.50,17.095,M,15.25,M,0,3335*4C
$GNRMC,030405.900,A,2500.7989745,N,12132.4852813,E,0.06,227.78,030324,,,R,V*16
$GPHDT,,T*1B
$GNACCURACY,4.4*16
$GNGGA,030406.000,2500.7989710,N,12132.4852802,E,4,60,0.50,17.105,M,15.25,M,1,3335*4F
$GNRMC,030406.000,A,2500.7989710,N,12132.4852802,E,0.04,227.78,030324,,,R,V*1E
$GPHDT,217.643,T*30
$GNACCURACY,4.4*16
$GNGGA,030406.100,2500.7989646,N,12132.4852746,E,4,60,0.50,17.087,M,15.25,M,1,3335*48
$GNRMC,030406.100,A,2500.7989646,N,12132.4852746,E,0.01,227.78,030324,,,R,V*17
$GPHDT,,T*1B
$GNGSA,A,3,27,08,194,199,195,04,16,31,196,21,09,26,0.78,0.50,0.60,1*01
$GNGSA,A,3,82,81,79,80,69,,,,,,,,0.78,0.50,0.60,2*04
$GNGSA,A,3,30,07,34,08,15,36,,,,,,,0.78,0.50,0.60,3*05
$GNGSA,A,3,16,06,39,40,09,12,07,34,24,44,11,25,0.78,0.50,0.60,4*0C
$GNGSA,A,3,43,26,33,,,,,,,,,,0.78,0.50,0.60,4*0B
$GPGSV,4,1,14,27,73,020,45,08,63,238,45,194,63,042,42,199,60,167,37,1*69
$GPGSV,4,2,14,195,49,130,37,04,48,240,36,45,47,231,33,16,44,030,42,1*5A
$GPGSV,4,3,14,31,32,122,29,09,30,293,25,26,27,064,20,196,25,177,31,1*51
$GPGSV,4,4,14,21,18,178,32,07,08,317,26,1*6A
$GPGSV,3,1,09,27,73,020,43,194,63,042,44,08,63,238,47,199,60,167,46,8*6F
$GPGSV,3,2,09,195,49,130,40,04,48,240,43,09,30,293,23,26,27,064,30,8*59
$GPGSV,3,3,09,196,25,177,35,8*6A
$GLGSV,2,1,05,82,59,135,42,81,43,049,40,79,39,048,43,80,33,339,39,1*7A
$GLGSV,2,2,05,69,18,221,26,1*4E
$GAGSV,2,1,08,30,52,359,36,07,47,260,33,34,38,103,39,08,32,191,20,7*70
$GAGSV,2,2,08,27,28,293,19,02,25,322,,15,24,162,31,36,16,051,26,7*75
$GAGSV,2,1,07,30,52,359,41,07,47,260,38,34,38,103,35,08,32,191,38,1*77
$GAGSV,2,2,07,27,28,293,18,15,24,162,35,36,16,051,23,1*4A
$GBGSV,4,1,15,16,88,082,42,06,85,339,42,39,77,148,43,40,72,292,43,1*77
$GBGSV,4,2,15,09,69,329,34,12,66,087,42,07,65,273,40,34,63,170,47,1*76
$GBGSV,4,3,15,24,56,054,42,44,47,055,45,11,41,188,36,25,39,326,37,1*7A
$GBGSV,4,4,15,43,20,203,38,26,19,101,20,33,15,231,35,1*41
$GBGSV,2,1,08,39,77,148,45,40,72,292,42,34,63,170,46,24,56,054,46,4*70
$GBGSV,2,2,08,44,47,055,42,25,39,326,38,43,20,203,40,33,15,231,30,4*78
$GNACCURACY,4.4*16
$PAIRSAT,1,24,4,0,21,7,0,201,8,0,221,9,0,221,10,0,200,11,0,200,12,0,200,13,0,200,14,0,200,15,0,200,16,0,201,17,0,200,18,0,200,21,0,1,26,0,21,27,0,21,29,0,200,30,0,200,31,0,201,32,0,200,194,0,621,195,0,221,196,0,420,199,0,221*47
$PAIRSAT,2,16,69,0,1,70,0,200,71,0,200,72,0,200,73,0,200,74,0,200,75,0,200,76,0,200,77,0,200,78,0,200,79,0,201,80,0,201,81,0,201,82,0,201,83,0,200,84,0,200*78
$PAIRSAT,3,20,2,0,1000,3,0,1000,4,0,1000,7,0,1021,8,0,1021,9,0,1000,10,0,1000,12,0,1000,13,0,1000,15,0,1221,19,0,1200,21,0,1200,24,0,200,25,0,200,27,0,200,30,0,1221,31,0,1200,33,0,1000,34,0,1021,36,0,21*46
$PAIRSAT,4,43,1,0,200,2,0,200,3,0,600,4,0,200,5,0,200,6,0,201,7,0,201,8,0,200,9,0,1,11,0,1,12,0,1,16,0,1,19,0,400,20,0,400,21,0,600,22,0,600,23,0,600,24,0,621,25,0,621,26,0,621,27,0,600,28,0,400,29,0,600,30,0,600,32,0,400,33,0,421,34,0,421,35,0,400,36,0,400,37,0,400,38,0,400,39,0,421,40,0,421,41,0,400,42,0,400,43,0,421,44,0,421,45,0,400,46,0,400,59,0,400,60,0,400,61,0,400,62,0,400*67
$PAIRDGP,8,4,7,8,9,16,21,27,31*4C
$GNGGA,030406.200,2500.7989615,N,12132.4852790,E,4,59,0.50,17.075,M,15.25,M,1,3335*41
$GNRMC,030406.200,A,2500.7989615,N,12132.4852790,E,0.02,227.78,030324,,,R,V*1A
$GPHDT,218.818,T*3F
$GNACCURACY,4.4*16
$GNGGA,030406.300,2500.7989535,N,12132.4852863,E,4,60,0.50,17.087,M,15.25,M,1,3335*45
$GNRMC,030406.300,A,2500.7989535,N,12132.4852863,E,0.04,227.78,030324,,,R,V*1F
$GPHDT,,T*1B
$GNACCURACY,4.4*16
$GNGGA,030406.400,2500.7989499,N,12132.4852837,E,4,59,0.50,17.070,M,15.25,M,1,3335*46
$GNRMC,030406.400,A,2500.7989499,N,12132.4852837,E,0.05,227.78,030324,,,R,V*1F
$GPHDT,221.081,T*3D
$GNACCURACY,4.4*16
$GNGGA,030406.500,2500.7989443,N,12132.4852687,E,4,59,0.50,17.087,M,15.25,M,0,3335*4C
$GNRMC,030406.500,A,2500.7989443,N,12132.4852687,E,0.10,227.78,030324,,,R,V*18
$GPHDT,,T*1B
$GNACCURACY,4.4*16
$GNGGA,030406.600,2500.7989380,N,12132.4852577,E,4,59,0.50,17.091,M,15.25,M,0,3335*4C
$GNRMC,030406.600,A,2500.7989380,N,12132.4852577,E,0.15,227.78,030324,,,R,V*1A
$GPHDT,220.573,T*34
$GNACCURACY,4.4*16
$GNGGA,030406.700,2500.7989177,N,12132.4852449,E,4,59,0.50,17.070,M,15.25,M,0,3335*44
$GNRMC,030406.700,A,2500.7989177,N,12132.4852449,E,0.22,227.78,030324,,,R,V*19
$GPHDT,,T*1B
$GNACCURACY,4.4*16
$GNGGA,030406.800,2500.7989054,N,12132.4852286,E,4,60,0.50,17.065,M,15.25,M,0,3335*40
$GNRMC,030406.800,A,2500.7989054,N,12132.4852286,E,0.29,227.78,030324,,,R,V*18
$GPHDT,218.565,T*38
$GNACCURACY,4.4*16
$GNGGA,030406.900,2500.7988927,N,12132.4852090,E,4,60,0.50,17.058,M,15.25,M,0,3335*46
$GNRMC,030406.900,A,2500.7988927,N,12132.4852090,E,0.36,227.78,030324,,,R,V*1E
$GPHDT,,T*1B
$GNACCURACY,4.3*11
$GNGGA,030407.000,2500.7988781,N,12132.4851862,E,4,60,0.50,17.039,M,15.25,M,1,3335*4C
$GNRMC,030407.000,A,2500.7988781,N,12132.4851862,E,0.41,227.78,030324,,,R,V*12
$GPHDT,213.902,T*3E
$GNACCURACY,4.3*11
$GNGGA,030407.100,2500.7988632,N,12132.4851684,E,4,60,0.50,17.056,M,15.25,M,1,3335*4B
$GNRMC,030407.100,A,2500.7988632,N,12132.4851684,E,0.47,227.78,030324,,,R,V*1A
$GPHDT,,T*1B
$GNGSA,A,3,27,08,194,199,195,04,16,31,09,26,196,21,0.78,0.50,0.60,1*01
$GNGSA,A,3,82,81,79,80,69,,,,,,,,0.78,0.50,0.60,2*04
$GNGSA,A,3,30,07,34,08,15,36,,,,,,,0.78,0.50,0.60,3*05
$GNGSA,A,3,16,06,39,40,09,12,07,34,24,44,11,25,0.78,0.50,0.60,4*0C
$GNGSA,A,3,43,26,33,,,,,,,,,,0.78,0.50,0.60,4*0B
$GPGSV,4,1,14,27,73,020,45,08,63,238,44,194,63,042,42,199,60,167,40,1*68
$GPGSV,4,2,14,195,49,130,39,04,48,240,36,45,47,231,33,16,44,030,43,1*55
$GPGSV,4,3,14,31,32,122,26,09,30,293,29,26,27,064,20,196,25,177,29,1*5B
$GPGSV,4,4,14,21,18,178,33,07,08,317,28,1*65
$GPGSV,3,1,09,27,73,020,46,194,63,042,45,08,63,238,43,199,60,167,45,8*6C
$GPGSV,3,2,09,195,49,130,37,04,48,240,41,09,30,293,23,26,27,064,29,8*53
$GPGSV,3,3,09,196,25,177,34,8*6B
$GLGSV,2,1,05,82,59,135,42,81,43,049,40,79,39,048,43,80,33,339,38,1*7B
$GLGSV,2,2,05,69,18,221,21,1*49
$GAGSV,2,1,08,30,52,359,35,07,47,260,33,34,38,103,39,08,32,191,28,7*7B
$GAGSV,2,2,08,27,28,293,20,02,25,322,,15,24,162,30,36,16,051,26,7*7E
$GAGSV,2,1,07,30,52,359,39,07,47,260,34,34,38,103,32,08,32,191,33,1*78
$GAGSV,2,2,07,27,28,293,21,15,24,162,32,36,16,051,18,1*4F
$GBGSV,4,1,15,16,88,082,44,06,85,339,42,39,77,148,44,40,72,292,42,1*77
$GBGSV,4,2,15,09,69,329,37,12,66,087,43,07,65,273,39,34,63,170,47,1*7A
$GBGSV,4,3,15,24,56,054,45,44,47,055,46,11,41,188,34,25,39,326,42,1*7E
$GBGSV,4,4,15,43,20,203,39,26,19,101,25,33,15,231,36,1*46
$GBGSV,2,1,08,39,77,148,44,40,72,292,42,34,63,170,44,24,56,054,45,4*70
$GBGSV,2,2,08,44,47,055,42,25,39,326,42,43,20,203,40,33,15,231,28,4*7C
$GNACCURACY,4.4*16
$PAIRSAT,1,24,4,0,21,7,0,201,8,0,221,9,0,221,10,0,200,11,0,200,12,0,200,13,0,200,14,0,200,15,0,200,16,0,201,17,0,200,18,0,200,21,0,1,26,0,21,27,0,21,29,0,200,30,0,200,31,0,201,32,0,200,194,0,621,195,0,221,196,0,420,199,0,221*47
$PAIRSAT,2,16,69,0,1,70,0,200,71,0,200,72,0,200,73,0,200,74,0,200,75,0,200,76,0,200,77,0,200,78,0,200,79,0,201,80,0,201,81,0,201,82,0,201,83,0,200,84,0,200*78
$PAIRSAT,3,20,2,0,1000,3,0,1000,4,0,1000,7,0,1021,8,0,1021,9,0,1000,10,0,1000,12,0,1000,13,0,1000,15,0,1221,19,0,1200,21,0,1200,24,0,200,25,0,200,27,0,200,30,0,1221,31,0,1200,33,0,1000,34,0,1021,36,0,21*46
$PAIRSAT,4,43,1,0,200,2,0,200,3,0,600,4,0,200,5,0,200,6,0,201,7,0,201,8,0,200,9,0,1,11,0,1,12,0,1,16,0,1,19,0,400,20,0,400,21,0,600,22,0,600,23,0,600,24,0,621,25,0,621,26,0,621,27,0,600,28,0,400,29,0,600,30,0,600,32,0,400,33,0,421,34,0,421,35,0,400,36,0,400,37,0,400,38,0,400,39,0,421,40,0,421,41,0,400,42,0,400,43,0,421,44,0,421,45,0,400,46,0,400,59,0,400,60,0,400,61,0,400,62,0,400*67
$PAIRDGP,8,4,7,8,9,16,21,27,31*4C
$GNGGA,030407.200,2500.7988468,N,12132.4851556,E,4,61,0.50,17.071,M,15.25,M,1,3335*4D
$GNRMC,030407.200,A,2500.7988468,N,12132.4851556,E,0.53,227.78,030324,,,R,V*1D
$GPHDT,217.044,T*31
$GNACCURACY,4.3*11
$GNGGA,030407.300,2500.7988197,N,12132.4851469,E,4,61,0.50,17.068,M,15.25,M,1,3335*4C
$GNRMC,030407.300,A,2500.7988197,N,12132.4851469,E,0.60,220.26,030324,,,R,V*18
$GPHDT,,T*1B
$GNACCURACY,4.3*11
$GNGGA,030407.400,2500.7987954,N,12132.4851330,E,4,61,0.50,17.070,M,15.25,M,1,3335*41
$GNRMC,030407.400,A,2500.7987954,N,12132.4851330,E,0.65,216.77,030324,,,R,V*18
$GPHDT,220.193,T*3E
$GNACCURACY,4.3*11
$GNGGA,030407.500,2500.7987617,N,12132.4851176,E,4,60,0.50,17.036,M,15.25,M,0,3335*4A
$GNRMC,030407.500,A,2500.7987617,N,12132.4851176,E,0.71,214.22,030324,,,R,V*16
$GPHDT,,T*1B
$GNACCURACY,4.3*11
$GNGGA,030407.600,2500.7987395,N,12132.4851012,E,4,60,0.50,17.052,M,15.25,M,0,3335*47
$GNRMC,030407.600,A,2500.7987395,N,12132.4851012,E,0.74,213.52,030324,,,R,V*1C
$GPHDT,222.976,T*3F
$GNACCURACY,4.3*11
$GNGGA,030407.700,2500.7987267,N,12132.4850785,E,4,61,0.50,17.053,M,15.25,M,0,3335*42
$GNRMC,030407.700,A,2500.7987267,N,12132.4850785,E,0.78,215.59,030324,,,R,V*18
$GPHDT,,T*1B
$GNACCURACY,4.3*11
$GNGGA,030407.800,2500.7987147,N,12132.4850656,E,4,60,0.50,17.054,M,15.25,M,0,3335*45
$GNRMC,030407.800,A,2500.7987147,N,12132.4850656,E,0.79,214.71,030324,,,R,V*13
$GPHDT,224.367,T*33
$GNACCURACY,4.3*11
$GNGGA,030407.900,2500.7986952,N,12132.4850540,E,4,59,0.50,17.083,M,15.25,M,0,3335*4D
$GNRMC,030407.900,A,2500.7986952,N,12132.4850540,E,0.79,214.55,030324,,,R,V*1D
$GPHDT,,T*1B
$GNACCURACY,4.3*11
$GNGGA,030408.000,2500.7986732,N,12132.4850260,E,4,59,0.50,17.108,M,15.25,M,1,3335*45
$GNRMC,030408.000,A,2500.7986732,N,12132.4850260,E,0.80,216.01,030324,,,R,V*13
$GPHDT,226.809,T*32
$GNACCURACY,4.2*10
$GNGGA,030408.100,2500.7986516,N,12132.4850060,E,4,58,0.50,17.095,M,15.25,M,1,3335*46
$GNRMC,030408.100,A,2500.7986516,N,12132.4850060,E,0.83,216.25,030324,,,R,V*11
$GPHDT,,T*1B
$GNGSA,A,3,27,194,08,199,195,04,16,31,09,26,196,21,0.79,0.50,0.61,1*01
$GNGSA,A,3,82,81,79,80,69,,,,,,,,0.79,0.50,0.61,2*04
$GNGSA,A,3,30,07,34,08,15,36,,,,,,,0.79,0.50,0.61,3*05
$GNGSA,A,3,16,06,39,40,09,12,07,34,24,44,11,25,0.79,0.50,0.61,4*0C
$GNGSA,A,3,43,33,,,,,,,,,,,0.79,0.50,0.61,4*0F
$GPGSV,4,1,14,27,73,020,45,194,63,042,44,08,63,238,40,199,60,167,37,1*6A
$GPGSV,4,2,14,195,49,130,40,04,48,240,38,45,47,231,28,16,44,030,40,1*5C
$GPGSV,4,3,14,31,32,122,29,09,30,293,30,26,27,064,22,196,25,177,37,1*51
$GPGSV,4,4,14,21,18,178,29,07,08,317,27,1*61
$GPGSV,2,1,08,27,73,020,47,194,63,042,44,08,63,238,43,199,60,167,45,8*6C
$GPGSV,2,2,08,195,49,130,39,04,48,240,41,26,27,064,24,196,25,177,31,8*69
$GLGSV,2,1,05,82,59,135,43,81,43,049,41,79,39,048,44,80,33,339,38,1*7C
$GLGSV,2,2,05,69,18,221,26,1*4E
$GAGSV,2,1,07,30,52,359,26,07,47,260,33,34,38,103,35,08,32,191,23,7*71
$GAGSV,2,2,07,27,28,293,24,15,24,162,32,36,16,051,28,7*4F
$GAGSV,2,1,07,30,52,359,39,07,47,260,35,34,38,103,37,08,32,191,36,1*79
$GAGSV,2,2,07,27,28,293,18,15,24,162,37,36,16,051,30,1*4A
$GBGSV,4,1,15,16,88,082,44,06,85,339,43,39,77,148,43,40,72,292,40,1*73
$GBGSV,4,2,15,09,69,329,37,12,66,087,43,07,65,273,39,34,63,170,47,1*7A
$GBGSV,4,3,15,24,56,054,45,44,47,055,46,11,41,188,32,25,39,326,44,1*7E
$GBGSV,4,4,15,43,20,203,37,26,19,101,22,33,15,231,29,1*41
$GBGSV,2,1,08,39,77,148,45,40,72,292,44,34,63,170,44,24,56,054,46,4*74
$GBGSV,2,2,08,44,47,055,43,25,39,326,41,43,20,203,36,33,15,231,32,4*74
$GNACCURACY,4.2*10
$PAIRSAT,1,24,4,0,21,7,0,201,8,0,221,9,0,221,10,0,200,11,0,200,12,0,200,13,0,200,14,0,200,15,0,200,16,0,201,17,0,200,18,0,200,21,0,1,26,0,21,27,0,21,29,0,200,30,0,200,31,0,201,32,0,200,194,0,621,195,0,221,196,0,420,199,0,221*47
$PAIRSAT,2,16,69,0,1,70,0,200,71,0,200,72,0,200,73,0,200,74,0,200,75,0,200,76,0,200,77,0,200,78,0,200,79,0,201,80,0,201,81,0,201,82,0,201,83,0,200,84,0,200*78
$PAIRSAT,3,20,2,0,1000,3,0,1000,4,0,1000,7,0,1021,8,0,1021,9,0,1000,10,0,1000,12,0,1000,13,0,1000,15,0,1221,19,0,1200,21,0,1200,24,0,200,25,0,200,27,0,200,30,0,1221,31,0,1200,33,0,1000,34,0,1021,36,0,21*46
$PAIRSAT,4,43,1,0,200,2,0,200,3,0,600,4,0,200,5,0,200,6,0,201,7,0,201,8,0,200,9,0,1,11,0,1,12,0,1,16,0,1,19,0,400,20,0,400,21,0,600,22,0,600,23,0,600,24,0,621,25,0,621,26,0,621,27,0,600,28,0,400,29,0,600,30,0,600,32,0,400,33,0,421,34,0,421,35,0,400,36,0,400,37,0,400,38,0,400,39,0,421,40,0,421,41,0,400,42,0,400,43,0,421,44,0,421,45,0,400,46,0,400,59,0,400,60,0,400,61,0,400,62,0,400*67
$PAIRDGP,8,4,7,8,9,16,21,27,31*4C
$GNGGA,030408.200,2500.7986307,N,12132.4849705,E,4,58,0.50,17.134,M,15.25,M,1,3335*45
$GNRMC,030408.200,A,2500.7986307,N,12132.4849705,E,0.85,218.39,030324,,,R,V*1D
$GPHDT,224.031,T*33
$GNACCURACY,4.2*10
$GNGGA,030408.300,2500.7986000,N,12132.4849441,E,4,58,0.50,17.029,M,15.25,M,1,3335*4E
$GNRMC,030408.300,A,2500.7986000,N,12132.4849441,E,0.87,217.82,030324,,,R,V*16
$GPHDT,,T*1B
$GNACCURACY,4.2*10
$GNGGA,030408.400,2500.7985792,N,12132.4849234,E,4,58,0.50,17.020,M,15.25,M,1,3335*4B
$GNRMC,030408.400,A,2500.7985792,N,12132.4849234,E,0.89,216.54,030324,,,R,V*1E
$GPHDT,224.679,T*39
$GNACCURACY,4.2*10
$GNGGA,030408.500,2500.7985547,N,12132.4848994,E,4,58,0.50,17.032,M,15.25,M,0,3335*42
$GNRMC,030408.500,A,2500.7985547,N,12132.4848994,E,0.91,216.94,030324,,,R,V*10
$GPHDT,,T*1B
$GNACCURACY,4.2*10
$GNGGA,030408.600,2500.7985258,N,12132.4848878,E,4,58,0.50,17.009,M,15.25,M,0,3335*43
$GNRMC,030408.600,A,2500.7985258,N,12132.4848878,E,0.93,215.62,030324,,,R,V*11
$GPHDT,227.215,T*34
$GNACCURACY,4.2*10
$GNGGA,030408.700,2500.7984927,N,12132.4848645,E,4,58,0.50,17.048,M,15.25,M,0,3335*45
$GNRMC,030408.700,A,2500.7984927,N,12132.4848645,E,1.00,213.38,030324,,,R,V*10
$GPHDT,,T*1B
$GNACCURACY,4.2*10
$GNGGA,030408.800,2500.7984686,N,12132.4848504,E,4,58,0.50,17.050,M,15.25,M,0,3335*41
$GNRMC,030408.800,A,2500.7984686,N,12132.4848504,E,1.01,212.46,030324,,,R,V*14
$GPHDT,230.795,T*3F
$GNACCURACY,4.2*10
$GNGGA,030408.900,2500.7984345,N,12132.4848284,E,4,58,0.50,17.038,M,15.25,M,0,3335*4B
$GNRMC,030408.900,A,2500.7984345,N,12132.4848284,E,1.02,212.63,030324,,,R,V*14
$GPHDT,,T*1B
$GNACCURACY,4.2*10
$GNGGA,030409.000,2500.7984182,N,12132.4848021,E,4,57,0.54,17.091,M,15.25,M,1,3335*4E
$GNRMC,030409.000,A,2500.7984182,N,12132.4848021,E,1.01,214.06,030324,,,R,V*1E
$GPHDT,233.760,T*36
$GNACCURACY,4.3*11
$GNGGA,030409.100,2500.7983942,N,12132.4847771,E,4,58,0.50,17.087,M,15.25,M,1,3335*4D
$GNRMC,030409.100,A,2500.7983942,N,12132.4847771,E,1.02,216.17,030324,,,R,V*10
$GPHDT,,T*1B
$GNGSA,A,3,27,194,08,199,195,04,16,31,09,26,196,21,0.89,0.50,0.74,1*0A
$GNGSA,A,3,82,81,79,80,69,,,,,,,,0.89,0.50,0.74,2*0F
$GNGSA,A,3,30,07,34,08,15,36,,,,,,,0.89,0.50,0.74,3*0E
$GNGSA,A,3,16,06,39,40,09,12,07,34,24,44,11,25,0.89,0.50,0.74,4*07
$GNGSA,A,3,43,33,26,,,,,,,,,,0.89,0.50,0.74,4*00
$GPGSV,4,1,14,27,73,020,44,194,63,042,42,08,63,238,43,199,60,167,30,1*69
$GPGSV,4,2,14,195,49,130,40,04,48,240,38,45,47,231,32,16,44,030,40,1*57
$GPGSV,4,3,14,31,32,122,31,09,30,293,27,26,27,064,24,196,25,177,30,1*5F
$GPGSV,4,4,14,21,18,178,30,07,08,317,23,1*6D
$GPGSV,2,1,08,27,73,020,46,194,63,042,43,08,63,238,45,199,60,167,44,8*6D
$GPGSV,2,2,08,195,49,130,41,04,48,240,41,26,27,064,28,196,25,177,37,8*6C
$GLGSV,2,1,05,82,59,135,43,81,43,049,41,79,39,048,36,80,33,339,44,1*72
$GLGSV,2,2,05,69,18,221,31,1*48
$GAGSV,2,1,07,30,52,359,34,07,47,260,35,34,38,103,41,08,32,191,29,7*7D
$GAGSV,2,2,07,27,28,293,24,15,24,162,32,36,16,051,23,7*44
$GAGSV,2,1,07,30,52,359,38,07,47,260,40,34,38,103,38,08,32,191,35,1*76
$GAGSV,2,2,07,27,28,293,20,15,24,162,35,36,16,051,24,1*46
$GBGSV,4,1,15,16,88,082,43,06,85,339,41,39,77,148,43,40,72,292,43,1*75
$GBGSV,4,2,15,09,69,329,40,12,66,087,41,07,65,273,40,34,63,170,44,1*75
$GBGSV,4,3,15,24,56,054,45,44,47,055,42,11,41,188,35,25,39,326,46,1*7F
$GBGSV,4,4,15,43,20,203,30,26,19,101,,33,15,231,29,1*46
$GBGSV,3,1,09,39,77,148,47,40,72,292,44,34,63,170,40,24,56,054,45,4*71
$GBGSV,3,2,09,44,47,055,42,25,39,326,42,43,20,203,39,26,19,101,20,4*72
$GBGSV,3,3,09,33,15,231,41,4*4B
$GNACCURACY,4.2*10
$PAIRSAT,1,24,4,0,21,7,0,201,8,0,221,9,0,221,10,0,200,11,0,200,12,0,200,13,0,200,14,0,200,15,0,200,16,0,201,17,0,200,18,0,200,21,0,1,26,0,21,27,0,21,29,0,200,30,0,200,31,0,201,32,0,200,194,0,621,195,0,221,196,0,420,199,0,221*47
$PAIRSAT,2,16,69,0,1,70,0,200,71,0,200,72,0,200,73,0,200,74,0,200,75,0,200,76,0,200,77,0,200,78,0,200,79,0,201,80,0,201,81,0,201,82,0,201,83,0,200,84,0,200*78
$PAIRSAT,3,20,2,0,1000,3,0,1000,4,0,1000,7,0,1021,8,0,1021,9,0,1000,10,0,1000,12,0,1000,13,0,1000,15,0,1221,19,0,1200,21,0,1200,24,0,200,25,0,200,27,0,200,30,0,1221,31,0,1200,33,0,1000,34,0,1021,36,0,21*46
$PAIRSAT,4,43,1,0,200,2,0,200,3,0,600,4,0,200,5,0,200,6,0,201,7,0,201,8,0,200,9,0,1,11,0,1,12,0,1,16,0,1,19,0,400,20,0,400,21,0,600,22,0,600,23,0,600,24,0,621,25,0,621,26,0,621,27,0,600,28,0,400,29,0,600,30,0,600,32,0,400,33,0,421,34,0,421,35,0,400,36,0,400,37,0,400,38,0,400,39,0,421,40,0,421,41,0,400,42,0,400,43,0,421,44,0,421,45,0,400,46,0,400,59,0,400,60,0,400,61,0,400,62,0,400*67
$PAIRDGP,8,4,7,8,9,16,21,27,31*4C
$GNGGA,030409.200,2500.7983735,N,12132.4847505,E,4,59,0.50,17.089,M,15.25,M,1,3335*4E
$GNRMC,030409.200,A,2500.7983735,N,12132.4847505,E,1.03,217.22,030324,,,R,V*1A
$GPHDT,233.372,T*31
$GNACCURACY,4.2*10
$GNGGA,030409.300,2500.7983488,N,12132.4847195,E,4,60,0.50,17.070,M,15.25,M,1,3335*4B
$GNRMC,030409.300,A,2500.7983488,N,12132.4847195,E,1.04,218.26,030324,,,R,V*1F
$GPHDT,,T*1B
$GNACCURACY,4.2*10
$GNGGA,030409.400,2500.7983355,N,12132.4846942,E,4,61,0.50,17.104,M,15.25,M,1,3335*4B
$GNRMC,030409.400,A,2500.7983355,N,12132.4846942,E,1.04,219.56,030324,,,R,V*1A
$GPHDT,234.776,T*36
$GNACCURACY,4.2*10
$GNGGA,030409.500,2500.7983179,N,12132.4846770,E,4,60,0.50,17.103,M,15.25,M,1,3335*4F
$GNRMC,030409.500,A,2500.7983179,N,12132.4846770,E,1.05,223.06,030324,,,R,V*15
$GPHDT,,T*1B
$GNACCURACY,4.2*10
$GNGGA,030409.600,2500.7982991,N,12132.4846531,E,4,60,0.50,17.129,M,15.25,M,1,3335*4C
$GNRMC,030409.600,A,2500.7982991,N,12132.4846531,E,1.05,222.08,030324,,,R,V*11
$GPHDT,233.121,T*35
$GNACCURACY,4.2*10
$GNGGA,030409.700,2500.7982718,N,12132.4846333,E,4,60,0.50,17.154,M,15.25,M,0,3335*4D
$GNRMC,030409.700,A,2500.7982718,N,12132.4846333,E,1.04,220.90,030324,,,R,V*19
$GPHDT,,T*1B
$GNACCURACY,4.2*10
$GNGGA,030409.800,2500.7982374,N,12132.4846249,E,4,59,0.50,17.181,M,15.25,M,0,3335*42
$GNRMC,030409.800,A,2500.7982374,N,12132.4846249,E,1.06,218.10,030324,,,R,V*15
$GPHDT,236.486,T*38
$GNACCURACY,4.2*10
$GNGGA,030409.900,2500.7982102,N,12132.4846077,E,4,61,0.50,17.194,M,15.25,M,0,3335*40
$GNRMC,030409.900,A,2500.7982102,N,12132.4846077,E,1.07,217.08,030324,,,R,V*1F
$GPHDT,,T*1B
$GNACCURACY,4.2*10
$GNGGA,030410.000,2500.7981832,N,12132.4845878,E,4,61,0.50,17.161,M,15.25,M,1,3335*47
$GNRMC,030410.000,A,2500.7981832,N,12132.4845878,E,1.04,215.76,030324,,,R,V*1B
$GPHDT,236.280,T*38
$GNACCURACY,4.2*10
$GNGGA,030410.100,2500.7981762,N,12132.4845625,E,4,61,0.50,17.173,M,15.25,M,1,3335*49
$GNRMC,030410.100,A,2500.7981762,N,12132.4845625,E,1.06,218.10,030324,,,R,V*19
$GPHDT,,T*1B
$GNGSA,A,3,27,194,08,199,195,04,16,31,09,26,196,21,0.78,0.50,0.60,1*01
$GNGSA,A,3,82,81,79,80,69,,,,,,,,0.78,0.50,0.60,2*04
$GNGSA,A,3,30,07,34,08,15,36,,,,,,,0.78,0.50,0.60,3*05
$GNGSA,A,3,16,06,39,40,09,12,07,34,24,44,11,25,0.78,0.50,0.60,4*0C
$GNGSA,A,3,43,26,33,,,,,,,,,,0.78,0.50,0.60,4*0B
$GPGSV,4,1,14,27,73,020,40,194,63,042,42,08,63,238,46,199,60,167,31,1*69
$GPGSV,4,2,14,195,49,130,37,04,48,240,39,45,47,231,36,16,44,030,42,1*50
$GPGSV,4,3,14,31,32,122,36,09,30,293,28,26,27,064,34,196,25,177,28,1*5F
$GPGSV,4,4,14,21,18,178,31,07,08,317,24,1*6B
$GPGSV,3,1,09,27,73,020,47,194,63,042,45,08,63,238,46,199,60,167,38,8*62
$GPGSV,3,2,09,195,49,130,37,04,48,240,45,09,30,293,25,26,27,064,32,8*5B
$GPGSV,3,3,09,196,25,177,31,8*6E
$GLGSV,2,1,05,82,59,135,44,81,43,049,42,79,39,048,35,80,33,339,42,1*73
$GLGSV,2,2,05,69,18,221,31,1*48
$GAGSV,2,1,07,30,52,359,37,07,47,260,39,34,38,103,39,08,32,191,29,7*7D
$GAGSV,2,2,07,27,28,293,19,15,24,162,32,36,16,051,25,7*4C
$GAGSV,2,1,07,30,52,359,36,07,47,260,41,34,38,103,39,08,32,191,32,1*7F
$GAGSV,2,2,07,27,28,293,24,15,24,162,34,36,16,051,24,1*43
$GBGSV,4,1,15,16,88,082,44,06,85,339,42,39,77,148,44,40,72,292,44,1*71
$GBGSV,4,2,15,09,69,329,39,12,66,087,43,07,65,273,43,34,63,170,38,1*71
$GBGSV,4,3,15,24,56,054,45,44,47,055,41,11,41,188,32,25,39,326,46,1*7B
$GBGSV,4,4,15,43,20,203,32,26,19,101,25,33,15,231,29,1*43
$GBGSV,3,1,09,39,77,148,46,40,72,292,45,34,63,170,42,24,56,054,45,4*73
$GBGSV,3,2,09,44,47,055,42,25,39,326,46,43,20,203,34,26,19,101,20,4*7B
$GBGSV,3,3,09,33,15,231,42,4*48
$GNACCURACY,4.2*10
$PAIRSAT,1,24,4,0,21,7,0,201,8,0,221,9,0,221,10,0,200,11,0,200,12,0,200,13,0,200,14,0,200,15,0,200,16,0,201,17,0,200,18,0,200,21,0,1,26,0,21,27,0,21,29,0,200,30,0,200,31,0,201,32,0,200,194,0,621,195,0,221,196,0,420,199,0,221*47
$PAIRSAT,2,16,69,0,1,70,0,200,71,0,200,72,0,200,73,0,200,74,0,200,75,0,200,76,0,200,77,0,200,78,0,200,79,0,201,80,0,201,81,0,201,82,0,201,83,0,200,84,0,200*78
$PAIRSAT,3,20,2,0,1000,3,0,1000,4,0,1000,7,0,1021,8,0,1021,9,0,1000,10,0,1000,12,0,1000,13,0,1000,15,0,1221,19,0,1200,21,0,1200,24,0,200,25,0,200,27,0,200,30,0,1221,31,0,1200,33,0,1000,34,0,1021,36,0,21*46
$PAIRSAT,4,43,1,0,200,2,0,200,3,0,600,4,0,200,5,0,200,6,0,201,7,0,201,8,0,200,9,0,1,11,0,1,12,0,1,16,0,1,19,0,400,20,0,400,21,0,600,22,0,600,23,0,600,24,0,621,25,0,621,26,0,621,27,0,600,28,0,400,29,0,600,30,0,600,32,0,400,33,0,421,34,0,421,35,0,400,36,0,400,37,0,400,38,0,400,39,0,421,40,0,421,41,0,400,42,0,400,43,0,421,44,0,421,45,0,400,46,0,400,59,0,400,60,0,400,61,0,400,62,0,400*67
$PAIRDGP,8,4,7,8,9,16,21,27,31*4C
$GNGGA,030410.200,2500.7981343,N,12132.4845283,E,4,61,0.50,17.057,M,15.25,M,1,3335*42
$GNRMC,030410.200,A,2500.7981343,N,12132.4845283,E,1.09,219.60,030324,,,R,V*1C
$GPHDT,234.029,T*3B
$GNACCURACY,4.3*11
$GNGGA,030410.300,2500.7981180,N,12132.4844842,E,4,61,0.50,17.074,M,15.25,M,1,3335*49
$GNRMC,030410.300,A,2500.7981180,N,12132.4844842,E,1.14,223.82,030324,,,R,V*1F
$GPHDT,,T*1B
$GNACCURACY,4.3*11
$GNGGA,030410.400,2500.7981009,N,12132.4844400,E,4,61,0.50,16.995,M,15.25,M,1,3335*43
$GNRMC,030410.400,A,2500.7981009,N,12132.4844400,E,1.17,226.35,030324,,,R,V*18
$GPHDT,229.720,T*39
$GNACCURACY,4.2*10
$GNGGA,030410.500,2500.7980751,N,12132.4844027,E,4,61,0.50,17.049,M,15.25,M,0,3335*40
$GNRMC,030410.500,A,2500.7980751,N,12132.4844027,E,1.21,227.66,030324,,,R,V*11
$GPHDT,,T*1B
$GNACCURACY,4.2*10
$GNGGA,030410.600,2500.7980567,N,12132.4843765,E,4,61,0.50,17.084,M,15.25,M,0,3335*43
$GNRMC,030410.600,A,2500.7980567,N,12132.4843765,E,1.23,228.20,030324,,,R,V*1C
$GPHDT,229.189,T*3C
$GNACCURACY,4.2*10
$GNGGA,030410.700,2500.7980268,N,12132.4843394,E,4,61,0.50,17.074,M,15.25,M,0,3335*4F
$GNRMC,030410.700,A,2500.7980268,N,12132.4843394,E,1.24,229.24,030324,,,R,V*1D
$GPHDT,,T*1B
$GNACCURACY,4.2*10
$GNGGA,030410.800,2500.7980032,N,12132.4843061,E,4,61,0.50,17.122,M,15.25,M,0,3335*46
$GNRMC,030410.800,A,2500.7980032,N,12132.4843061,E,1.26,229.05,030324,,,R,V*17
$GPHDT,229.557,T*3B
$GNACCURACY,4.2*10
$GNGGA,030410.900,2500.7979787,N,12132.4842761,E,4,61,0.50,17.154,M,15.25,M,0,3335*4F
$GNRMC,030410.900,A,2500.7979787,N,12132.4842761,E,1.28,229.20,030324,,,R,V*16
$GPHDT,,T*1B
$GNACCURACY,4.2*10
$GNGGA,030411.000,2500.7979352,N,12132.4842384,E,4,61,0.50,17.080,M,15.25,M,1,3335*4D
$GNRMC,030411.000,A,2500.7979352,N,12132.4842384,E,1.32,229.07,030324,,,R,V*13
$GPHDT,228.143,T*3B
$GNACCURACY,4.2*10
$GNGGA,030411.100,2500.7979160,N,12132.4841939,E,4,61,0.50,17.084,M,15.25,M,1,3335*44
$GNRMC,030411.100,A,2500.7979160,N,12132.4841939,E,1.35,229.91,030324,,,R,V*16
$GPHDT,,T*1B
$GNGSA,A,3,27,194,08,199,195,04,16,31,09,26,196,21,0.78,0.50,0.60,1*01
$GNGSA,A,3,82,81,79,80,69,,,,,,,,0.78,0.50,0.60,2*04
$GNGSA,A,3,30,07,34,08,15,36,,,,,,,0.78,0.50,0.60,3*05
$GNGSA,A,3,16,06,39,40,09,12,07,34,24,44,11,25,0.78,0.50,0.60,4*0C
$GNGSA,A,3,43,26,33,,,,,,,,,,0.78,0.50,0.60,4*0B
$GPGSV,4,1,14,27,73,020,43,194,63,042,41,08,63,238,43,199,60,167,30,1*6D
$GPGSV,4,2,14,195,49,130,38,04,48,240,40,45,47,231,33,16,44,030,40,1*56
$GPGSV,4,3,14,31,32,122,34,09,30,293,26,26,27,064,30,196,25,177,22,1*5D
$GPGSV,4,4,14,21,18,178,26,07,08,317,30,1*68
$GPGSV,3,1,09,27,73,020,46,194,63,042,44,08,63,238,45,199,60,167,42,8*6C
$GPGSV,3,2,09,195,49,130,40,04,48,240,43,09,30,293,26,26,27,064,31,8*5D
$GPGSV,3,3,09,196,25,177,32,8*6D
$GLGSV,2,1,05,82,59,135,40,81,43,049,41,79,39,048,39,80,33,339,43,1*79
$GLGSV,2,2,05,69,18,221,26,1*4E
$GAGSV,2,1,07,30,52,359,32,07,47,260,38,34,38,103,38,08,32,191,34,7*74
$GAGSV,2,2,07,27,28,293,19,15,24,162,32,36,16,051,27,7*4E
$GAGSV,2,1,07,30,52,359,40,07,47,260,38,34,38,103,40,08,32,191,39,1*75
$GAGSV,2,2,07,27,28,293,30,15,24,162,36,36,16,051,27,1*47
$GBGSV,4,1,16,16,88,082,44,06,85,339,43,39,77,148,42,40,72,292,44,1*75
$GBGSV,4,2,16,09,69,329,42,12,66,087,44,07,65,273,41,34,63,170,35,1*76
$GBGSV,4,3,16,24,56,054,44,44,47,055,44,11,41,188,37,25,39,326,47,1*78
$GBGSV,4,4,16,43,20,203,32,26,19,101,20,33,15,231,31,10,,,36,1*48
$GBGSV,3,1,09,39,77,148,46,40,72,292,46,34,63,170,42,24,56,054,43,4*76
$GBGSV,3,2,09,44,47,055,43,25,39,326,43,43,20,203,39,26,19,101,20,4*72
$GBGSV,3,3,09,33,15,231,41,4*4B
$GNACCURACY,4.3*11
$PAIRSAT,1,24,4,0,21,7,0,201,8,0,221,9,0,221,10,0,200,11,0,200,12,0,200,13,0,200,14,0,200,15,0,200,16,0,201,17,0,200,18,0,200,21,0,1,26,0,21,27,0,21,29,0,200,30,0,200,31,0,201,32,0,200,194,0,621,195,0,221,196,0,420,199,0,221*47
$PAIRSAT,2,16,69,0,1,70,0,200,71,0,200,72,0,200,73,0,200,74,0,200,75,0,200,76,0,200,77,0,200,78,0,200,79,0,201,80,0,201,81,0,201,82,0,201,83,0,200,84,0,200*78
$PAIRSAT,3,20,2,0,1000,3,0,1000,4,0,1000,7,0,1021,8,0,1021,9,0,1000,10,0,1000,12,0,1000,13,0,1000,15,0,1221,19,0,1200,21,0,1200,24,0,200,25,0,200,27,0,200,30,0,1221,31,0,1200,33,0,1000,34,0,1021,36,0,21*46
$PAIRSAT,4,43,1,0,200,2,0,200,3,0,600,4,0,200,5,0,200,6,0,201,7,0,201,8,0,200,9,0,1,11,0,1,12,0,1,16,0,1,19,0,400,20,0,400,21,0,600,22,0,600,23,0,600,24,0,621,25,0,621,26,0,621,27,0,600,28,0,400,29,0,600,30,0,600,32,0,400,33,0,421,34,0,421,35,0,400,36,0,400,37,0,400,38,0,400,39,0,421,40,0,421,41,0,400,42,0,400,43,0,421,44,0,421,45,0,400,46,0,400,59,0,400,60,0,400,61,0,400,62,0,400*67
$PAIRDGP,8,4,7,8,9,16,21,27,31*4C
$GNGGA,030411.200,2500.7978897,N,12132.4841675,E,4,61,0.50,17.176,M,15.25,M,1,3335*4C
$GNRMC,030411.200,A,2500.7978897,N,12132.4841675,E,1.34,228.00,030324,,,R,V*1A
$GPHDT,224.985,T*35
$GNACCURACY,4.3*11
$GNGGA,030411.300,2500.7978555,N,12132.4841428,E,4,60,0.50,17.148,M,15.25,M,1,3335*48
$GNRMC,030411.300,A,2500.7978555,N,12132.4841428,E,1.31,226.98,030324,,,R,V*18
$GPHDT,,T*1B
$GNACCURACY,4.3*11
$GNGGA,030411.400,2500.7978078,N,12132.4841119,E,4,61,0.50,17.060,M,15.25,M,1,3335*48
$GNRMC,030411.400,A,2500.7978078,N,12132.4841119,E,1.33,226.42,030324,,,R,V*17
$GPHDT,228.330,T*3D
$GNACCURACY,4.3*11
$GNGGA,030411.500,2500.7977980,N,12132.4840740,E,4,60,0.50,17.141,M,15.25,M,0,3335*41
$GNRMC,030411.500,A,2500.7977980,N,12132.4840740,E,1.36,226.45,030324,,,R,V*1E
$GPHDT,,T*1B
$GNACCURACY,4.3*11
$GNGGA,030411.600,2500.7977795,N,12132.4840438,E,4,60,0.50,17.202,M,15.25,M,0,3335*40
$GNRMC,030411.600,A,2500.7977795,N,12132.4840438,E,1.36,225.93,030324,,,R,V*13
$GPHDT,227.237,T*34
$GNACCURACY,4.3*11
$GNGGA,030411.700,2500.7977203,N,12132.4840111,E,4,61,0.50,17.133,M,15.25,M,0,3335*45
$GNRMC,030411.700,A,2500.7977203,N,12132.4840111,E,1.40,225.90,030324,,,R,V*14
$GPHDT,,T*1B
$GNACCURACY,4.3*11
$GNGGA,030411.800,2500.7976990,N,12132.4839695,E,4,61,0.50,17.161,M,15.25,M,0,3335*48
$GNRMC,030411.800,A,2500.7976990,N,12132.4839695,E,1.41,226.90,030324,,,R,V*1C
$GPHDT,232.064,T*34
$GNACCURACY,4.3*11
$GNGGA,030411.900,2500.7976868,N,12132.4839345,E,4,61,0.50,17.176,M,15.25,M,0,3335*41
$GNRMC,030411.900,A,2500.7976868,N,12132.4839345,E,1.41,227.51,030324,,,R,V*1F
$GPHDT,,T*1B
$GNACCURACY,4.3*11
$GNGGA,030412.000,2500.7976536,N,12132.4839019,E,4,61,0.50,17.122,M,15.25,M,1,3335*47
$GNRMC,030412.000,A,2500.7976536,N,12132.4839019,E,1.43,228.65,030324,,,R,V*13
$GPHDT,226.930,T*39
$GNACCURACY,4.3*11
$GNGGA,030412.100,2500.7976135,N,12132.4838644,E,4,61,0.50,17.085,M,15.25,M,1,3335*42
$GNRMC,030412.100,A,2500.7976135,N,12132.4838644,E,1.44,229.16,030324,,,R,V*18
$GPHDT,,T*1B
$GNGSA,A,3,27,194,08,199,195,04,16,31,09,26,196,21,0.78,0.50,0.60,1*01
$GNGSA,A,3,82,81,79,80,69,,,,,,,,0.78,0.50,0.60,2*04
$GNGSA,A,3,30,07,34,08,15,36,,,,,,,0.78,0.50,0.60,3*05
$GNGSA,A,3,16,06,39,40,09,12,07,34,24,44,11,25,0.78,0.50,0.60,4*0C
$GNGSA,A,3,43,26,33,,,,,,,,,,0.78,0.50,0.60,4*0B
$GPGSV,4,1,14,27,73,020,41,194,63,042,42,08,63,238,43,199,60,167,28,1*65
$GPGSV,4,2,14,195,49,130,36,04,48,240,38,45,47,231,35,16,44,030,41,1*50
$GPGSV,4,3,14,31,32,122,35,09,30,293,25,26,27,064,23,196,25,177,28,1*57
$GPGSV,4,4,14,21,18,178,26,07,08,317,25,1*6C
$GPGSV,3,1,09,27,73,020,45,194,63,042,44,08,63,238,44,199,60,167,35,8*6E
$GPGSV,3,2,09,195,49,130,41,04,48,240,44,09,30,293,25,26,27,064,27,8*5F
$GPGSV,3,3,09,196,25,177,30,8*6F
$GLGSV,2,1,05,82,59,135,39,81,43,049,43,79,39,048,43,80,33,339,40,1*7B
$GLGSV,2,2,05,69,18,221,29,1*41
$GAGSV,2,1,07,30,52,359,36,07,47,260,36,34,38,103,31,08,32,191,37,7*74
$GAGSV,2,2,07,27,28,293,21,15,24,162,25,36,16,051,29,7*4D
$GAGSV,2,1,07,30,52,359,37,07,47,260,38,34,38,103,40,08,32,191,37,1*7B
$GAGSV,2,2,07,27,28,293,22,15,24,162,35,36,16,051,29,1*49
$GBGSV,4,1,16,16,88,082,44,06,85,339,44,39,77,148,41,40,72,292,45,1*70
$GBGSV,4,2,16,09,69,329,44,12,66,087,44,07,65,273,41,34,63,170,33,1*76
$GBGSV,4,3,16,24,56,054,42,44,47,055,44,11,41,188,35,25,39,326,47,1*7C
$GBGSV,4,4,16,43,20,203,34,26,19,101,21,33,15,231,29,10,,,33,1*43
$GBGSV,3,1,09,39,77,148,44,40,72,292,46,34,63,170,35,24,56,054,46,4*71
$GBGSV,3,2,09,44,47,055,44,25,39,326,46,43,20,203,36,26,19,101,18,4*74
$GBGSV,3,3,09,33,15,231,41,4*4B
$GNACCURACY,4.3*11
$PAIRSAT,1,25,4,0,21,7,0,201,8,0,221,9,0,221,10,0,200,11,0,200,12,0,200,13,0,200,14,0,200,15,0,200,16,0,201,17,0,200,18,0,200,19,0,200,21,0,1,26,0,21,27,0,21,29,0,200,30,0,200,31,0,201,32,0,200,194,0,621,195,0,221,196,0,620,199,0,221*62
$PAIRSAT,2,16,69,0,1,70,0,200,71,0,200,72,0,200,73,0,200,74,0,200,75,0,200,76,0,200,77,0,200,78,0,200,79,0,201,80,0,201,81,0,201,82,0,201,83,0,200,84,0,200*78
$PAIRSAT,3,20,2,0,1000,3,0,1000,4,0,1000,7,0,1021,8,0,1021,9,0,1000,10,0,1000,12,0,1000,13,0,1000,15,0,1221,19,0,1200,21,0,1200,24,0,200,25,0,200,27,0,200,30,0,1221,31,0,1200,33,0,1000,34,0,1021,36,0,21*46
$PAIRSAT,4,43,1,0,200,2,0,200,3,0,600,4,0,200,5,0,200,6,0,201,7,0,201,8,0,200,9,0,1,11,0,1,12,0,1,16,0,1,19,0,400,20,0,400,21,0,600,22,0,600,23,0,600,24,0,621,25,0,621,26,0,621,27,0,600,28,0,400,29,0,600,30,0,600,32,0,400,33,0,421,34,0,421,35,0,400,36,0,400,37,0,400,38,0,400,39,0,421,40,0,421,41,0,400,42,0,400,43,0,421,44,0,421,45,0,400,46,0,400,59,0,400,60,0,400,61,0,400,62,0,400*67
$PAIRDGP,8,4,7,8,9,16,21,27,31*4C
$GNGGA,030412.200,2500.7975814,N,12132.4838241,E,4,61,0.50,17.071,M,15.25,M,1,3335*42
$GNRMC,030412.200,A,2500.7975814,N,12132.4838241,E,1.44,229.70,030324,,,R,V*13
$GPHDT,232.065,T*35
$GNACCURACY,4.3*11
$GNGGA,030412.300,2500.7975447,N,12132.4837815,E,4,61,0.50,17.110,M,15.25,M,1,3335*4B
$GNRMC,030412.300,A,2500.7975447,N,12132.4837815,E,1.47,229.65,030324,,,R,V*1B
$GPHDT,,T*1B
$GNACCURACY,4.3*11
$GNGGA,030412.400,2500.7974976,N,12132.4837549,E,4,61,0.50,17.072,M,15.25,M,1,3335*43
$GNRMC,030412.400,A,2500.7974976,N,12132.4837549,E,1.47,227.74,030324,,,R,V*18
$GPHDT,233.063,T*32
$GNACCURACY,4.3*11
$GNGGA,030412.500,2500.7974556,N,12132.4837266,E,4,61,0.50,17.093,M,15.25,M,1,3335*49
$GNRMC,030412.500,A,2500.7974556,N,12132.4837266,E,1.50,225.94,030324,,,R,V*17
$GPHDT,,T*1B
$GNACCURACY,4.3*11
$GNGGA,030412.600,2500.7974429,N,12132.4836915,E,4,61,0.50,17.151,M,15.25,M,0,3335*43
$GNRMC,030412.600,A,2500.7974429,N,12132.4836915,E,1.50,225.53,030324,,,R,V*18
$GPHDT,228.476,T*38
$GNACCURACY,4.2*10
$GNGGA,030412.700,2500.7974040,N,12132.4836583,E,4,61,0.50,17.133,M,15.25,M,0,3335*4E
$GNRMC,030412.700,A,2500.7974040,N,12132.4836583,E,1.50,224.16,030324,,,R,V*11
$GPHDT,,T*1B
$GNACCURACY,4.2*10
$GNGGA,030412.800,2500.7973741,N,12132.4836117,E,4,61,0.50,17.131,M,15.25,M,0,3335*4B
$GNRMC,030412.800,A,2500.7973741,N,12132.4836117,E,1.55,224.29,030324,,,R,V*1F
$GPHDT,230.277,T*36
$GNACCURACY,4.2*10
$GNGGA,030412.900,2500.7973349,N,12132.4835663,E,4,61,0.50,17.089,M,15.25,M,0,3335*43
$GNRMC,030412.900,A,2500.7973349,N,12132.4835663,E,1.60,225.10,030324,,,R,V*18
$GPHDT,,T*1B
$GNACCURACY,4.2*10
$GNGGA,030413.000,2500.7973037,N,12132.4835212,E,4,61,0.50,17.077,M,15.25,M,1,3335*43
$GNRMC,030413.000,A,2500.7973037,N,12132.4835212,E,1.62,225.87,030324,,,R,V*14
$GPHDT,231.063,T*30
$GNACCURACY,4.2*10
$GNGGA,030413.100,2500.7972836,N,12132.4834982,E,4,60,0.50,17.104,M,15.25,M,1,3335*4D
$GNRMC,030413.100,A,2500.7972836,N,12132.4834982,E,1.61,226.61,030324,,,R,V*16
$GPHDT,,T*1B
$GNGSA,A,3,27,194,08,199,195,04,16,31,09,26,196,21,0.78,0.50,0.60,1*01
$GNGSA,A,3,82,81,79,80,69,,,,,,,,0.78,0.50,0.60,2*04
$GNGSA,A,3,30,07,34,08,15,36,,,,,,,0.78,0.50,0.60,3*05
$GNGSA,A,3,16,06,39,40,09,12,07,34,24,44,11,25,0.78,0.50,0.60,4*0C
$GNGSA,A,3,43,26,33,,,,,,,,,,0.78,0.50,0.60,4*0B
$GPGSV,4,1,14,27,73,020,44,194,63,042,41,08,63,238,44,199,60,167,32,1*6F
$GPGSV,4,2,14,195,49,130,35,04,48,240,42,45,47,231,35,16,44,030,42,1*5D
$GPGSV,4,3,14,31,32,122,36,09,30,293,24,26,27,064,31,196,25,177,34,1*5B
$GPGSV,4,4,14,21,18,178,26,07,08,317,21,1*68
$GPGSV,3,1,09,27,73,020,44,194,63,042,45,08,63,238,42,199,60,167,44,8*6E
$GPGSV,3,2,09,195,49,130,29,04,48,240,43,09,30,293,28,26,27,064,29,8*55
$GPGSV,3,3,09,196,25,177,36,8*69
$GLGSV,2,1,05,82,59,135,37,81,43,049,42,79,39,048,42,80,33,339,43,1*76
$GLGSV,2,2,05,69,18,221,26,1*4E
$GAGSV,2,1,07,30,52,359,39,07,47,260,36,34,38,103,38,08,32,191,30,7*75
$GAGSV,2,2,07,27,28,293,23,15,24,162,22,36,16,050,32,7*43
$GAGSV,2,1,07,30,52,359,34,07,47,260,40,34,38,103,34,08,32,191,36,1*75
$GAGSV,2,2,07,27,28,293,25,15,24,162,25,36,16,050,30,1*46
$GBGSV,4,1,16,16,88,082,43,06,85,339,41,39,77,148,35,40,72,292,45,1*71
$GBGSV,4,2,16,09,69,329,43,12,66,087,42,07,65,273,42,34,63,170,37,1*70
$GBGSV,4,3,16,24,56,054,43,44,47,055,43,11,41,188,25,25,39,326,47,1*7B
$GBGSV,4,4,16,43,20,203,37,26,19,101,26,33,15,231,29,10,,,31,1*45
$GBGSV,3,1,09,39,77,148,41,40,72,292,45,34,63,170,36,24,56,054,47,4*75
$GBGSV,3,2,09,44,47,055,43,25,39,326,46,43,20,203,35,26,19,101,18,4*70
$GBGSV,3,3,09,33,15,231,42,4*48
$GNACCURACY,4.2*10
$PAIRSAT,1,25,4,0,21,7,0,201,8,0,221,9,0,221,10,0,200,11,0,200,12,0,200,13,0,200,14,0,200,15,0,200,16,0,201,17,0,200,18,0,200,19,0,200,21,0,1,26,0,21,27,0,21,29,0,200,30,0,200,31,0,201,32,0,200,194,0,621,195,0,221,196,0,620,199,0,221*62
$PAIRSAT,2,16,69,0,1,70,0,200,71,0,200,72,0,200,73,0,200,74,0,200,75,0,200,76,0,200,77,0,200,78,0,200,79,0,201,80,0,201,81,0,201,82,0,201,83,0,200,84,0,200*78
$PAIRSAT,3,20,2,0,1000,3,0,1000,4,0,1000,7,0,1021,8,0,1021,9,0,1000,10,0,1000,12,0,1000,13,0,1000,15,0,1221,19,0,1200,21,0,1200,24,0,200,25,0,200,27,0,200,30,0,1221,31,0,1200,33,0,1000,34,0,1021,36,0,21*46
$PAIRSAT,4,43,1,0,200,2,0,200,3,0,600,4,0,200,5,0,200,6,0,201,7,0,201,8,0,200,9,0,1,11,0,1,12,0,1,16,0,1,19,0,400,20,0,400,21,0,600,22,0,600,23,0,600,24,0,621,25,0,621,26,0,621,27,0,600,28,0,400,29,0,600,30,0,600,32,0,400,33,0,421,34,0,421,35,0,400,36,0,400,37,0,400,38,0,400,39,0,421,40,0,421,41,0,400,42,0,400,43,0,421,44,0,421,45,0,400,46,0,400,59,0,400,60,0,400,61,0,400,62,0,400*67
$PAIRDGP,8,4,7,8,9,16,21,27,31*4C
$GNGGA,030413.200,2500.7972310,N,12132.4834508,E,4,61,0.50,17.085,M,15.25,M,1,3335*46
$GNRMC,030413.200,A,2500.7972310,N,12132.4834508,E,1.62,227.18,030324,,,R,V*18
$GPHDT,230.417,T*36
$GNACCURACY,4.2*10
$GNGGA,030413.300,2500.7972056,N,12132.4834030,E,4,61,0.50,17.057,M,15.25,M,1,3335*47
$GNRMC,030413.300,A,2500.7972056,N,12132.4834030,E,1.64,227.84,030324,,,R,V*15
$GPHDT,,T*1B
$GNACCURACY,4.2*10
$GNGGA,030413.400,2500.7971620,N,12132.4833691,E,4,61,0.50,17.007,M,15.25,M,1,3335*4B
$GNRMC,030413.400,A,2500.7971620,N,12132.4833691,E,1.63,229.16,030324,,,R,V*1E
$GPHDT,231.394,T*3B
$GNACCURACY,4.3*11
$GNGGA,030413.500,2500.7971349,N,12132.4833318,E,4,61,0.50,17.065,M,15.25,M,1,3335*40
$GNRMC,030413.500,A,2500.7971349,N,12132.4833318,E,1.66,229.52,030324,,,R,V*14
$GPHDT,,T*1B
$GNACCURACY,4.3*11
$GNGGA,030413.600,2500.7971160,N,12132.4832828,E,4,61,0.50,17.074,M,15.25,M,1,3335*43
$GNRMC,030413.600,A,2500.7971160,N,12132.4832828,E,1.66,228.84,030324,,,R,V*1D
$GPHDT,228.549,T*35
$GNACCURACY,4.3*11
$GNGGA,030413.700,2500.7970620,N,12132.4832475,E,4,60,0.50,17.045,M,15.25,M,1,3335*47
$GNRMC,030413.700,A,2500.7970620,N,12132.4832475,E,1.65,228.10,030324,,,R,V*14
$GPHDT,,T*1B
$GNACCURACY,4.3*11
$GNGGA,030413.800,2500.7970291,N,12132.4832077,E,4,61,0.50,17.062,M,15.25,M,0,3335*45
$GNRMC,030413.800,A,2500.7970291,N,12132.4832077,E,1.67,227.73,030324,,,R,V*1B
$GPHDT,227.668,T*3A
$GNACCURACY,4.2*10
$GNGGA,030413.900,2500.7969975,N,12132.4831767,E,4,61,0.50,17.040,M,15.25,M,0,3335*48
$GNRMC,030413.900,A,2500.7969975,N,12132.4831767,E,1.68,227.53,030324,,,R,V*1B
$GPHDT,,T*1B
$GNACCURACY,4.2*10
$GNGGA,030414.000,2500.7969703,N,12132.4831329,E,4,61,0.50,17.060,M,15.25,M,1,3335*44
$GNRMC,030414.000,A,2500.7969703,N,12132.4831329,E,1.68,226.36,030324,,,R,V*16
$GPHDT,229.579,T*37
$GNACCURACY,4.2*10
$GNGGA,030414.100,2500.7969224,N,12132.4831005,E,4,62,0.50,17.111,M,15.25,M,1,3335*4C
$GNRMC,030414.100,A,2500.7969224,N,12132.4831005,E,1.72,226.14,030324,,,R,V*11
$GPHDT,,T*1B
$GNGSA,A,3,27,194,08,199,195,04,16,31,09,26,196,21,0.78,0.50,0.60,1*01
$GNGSA,A,3,82,81,79,80,69,,,,,,,,0.78,0.50,0.60,2*04
$GNGSA,A,3,30,07,34,08,15,36,,,,,,,0.78,0.50,0.60,3*05
$GNGSA,A,3,16,06,39,40,09,12,07,34,24,44,11,25,0.78,0.50,0.60,4*0C
$GNGSA,A,3,43,26,33,,,,,,,,,,0.78,0.50,0.60,4*0B
$GPGSV,4,1,14,27,73,020,42,194,63,042,41,08,63,238,43,199,60,167,30,1*6C
$GPGSV,4,2,14,195,49,130,36,04,48,240,41,45,47,231,35,16,44,030,35,1*5D
$GPGSV,4,3,14,31,32,122,34,09,30,293,27,26,27,064,29,196,25,177,33,1*54
$GPGSV,4,4,14,21,18,178,27,07,08,317,18,1*63
$GPGSV,3,1,09,27,73,020,47,194,63,042,43,08,63,238,44,199,60,167,42,8*6B
$GPGSV,3,2,09,195,49,130,38,04,48,240,41,09,30,293,20,26,27,064,33,8*54
$GPGSV,3,3,09,196,25,177,33,8*6C
$GLGSV,2,1,05,82,59,135,33,81,43,049,41,79,39,048,42,80,33,339,41,1*73
$GLGSV,2,2,05,69,18,221,29,1*41
$GAGSV,2,1,07,30,52,359,39,07,47,260,35,34,38,103,34,08,32,191,32,7*78
$GAGSV,2,2,07,27,28,293,24,15,24,162,32,36,16,050,31,7*46
$GAGSV,2,1,06,30,52,359,40,07,47,260,38,34,38,103,39,08,32,191,42,1*76
$GAGSV,2,2,06,15,24,162,24,36,16,050,31,1*77
$GBGSV,4,1,16,16,88,082,42,06,85,339,43,39,77,148,37,40,72,292,45,1*70
$GBGSV,4,2,16,09,69,329,43,12,66,087,44,07,65,273,41,34,63,170,35,1*77
$GBGSV,4,3,16,24,56,054,43,44,47,055,45,11,41,188,29,25,39,326,44,1*72
$GBGSV,4,4,16,43,20,203,37,26,19,101,21,33,15,231,32,10,,,34,1*4D
$GBGSV,3,1,09,39,77,148,43,40,72,292,46,34,63,170,39,24,56,054,46,4*7A
$GBGSV,3,2,09,44,47,055,43,25,39,326,44,43,20,203,41,26,19,101,19,4*70
$GBGSV,3,3,09,33,15,231,41,4*4B
$GNACCURACY,4.2*10
$PAIRSAT,1,25,4,0,21,7,0,201,8,0,221,9,0,221,10,0,200,11,0,200,12,0,200,13,0,200,14,0,200,15,0,200,16,0,201,17,0,200,18,0,200,19,0,200,21,0,1,26,0,21,27,0,21,29,0,200,30,0,200,31,0,201,32,0,200,194,0,621,195,0,221,196,0,620,199,0,221*62
$PAIRSAT,2,16,69,0,1,70,0,200,71,0,200,72,0,200,73,0,200,74,0,200,75,0,200,76,0,200,77,0,200,78,0,200,79,0,201,80,0,201,81,0,201,82,0,201,83,0,200,84,0,200*78
$PAIRSAT,3,20,2,0,1000,3,0,1000,4,0,1000,7,0,1021,8,0,1021,9,0,1000,10,0,1000,12,0,1000,13,0,1000,15,0,1221,19,0,1200,21,0,1200,24,0,200,25,0,200,27,0,200,30,0,1221,31,0,1200,33,0,1000,34,0,1021,36,0,21*46
$PAIRSAT,4,43,1,0,200,2,0,200,3,0,600,4,0,200,5,0,200,6,0,201,7,0,201,8,0,200,9,0,1,11,0,1,12,0,1,16,0,1,19,0,400,20,0,400,21,0,600,22,0,600,23,0,600,24,0,621,25,0,621,26,0,621,27,0,600,28,0,400,29,0,600,30,0,600,32,0,400,33,0,421,34,0,421,35,0,400,36,0,400,37,0,400,38,0,400,39,0,421,40,0,421,41,0,400,42,0,400,43,0,421,44,0,421,45,0,400,46,0,400,59,0,400,60,0,400,61,0,400,62,0,400*67
$PAIRDGP,8,4,7,8,9,16,21,27,31*4C
$GNGGA,030414.200,2500.7968700,N,12132.4830552,E,4,62,0.50,17.030,M,15.25,M,1,3335*49
$GNRMC,030414.200,A,2500.7968700,N,12132.4830552,E,1.73,226.69,030324,,,R,V*1D
$GPHDT,228.934,T*33
$GNACCURACY,4.2*10
$GNGGA,030414.300,2500.7968642,N,12132.4830188,E,4,62,0.50,17.095,M,15.25,M,1,3335*43
$GNRMC,030414.300,A,2500.7968642,N,12132.4830188,E,1.69,227.05,030324,,,R,V*18
$GPHDT,,T*1B
$GNACCURACY,4.2*10
$GNGGA,030414.400,2500.7968399,N,12132.4829846,E,4,62,0.50,17.109,M,15.25,M,1,3335*40
$GNRMC,030414.400,A,2500.7968399,N,12132.4829846,E,1.68,227.29,030324,,,R,V*10
$GPHDT,228.936,T*31
$GNACCURACY,4.2*10
$GNGGA,030414.500,2500.7968154,N,12132.4829341,E,4,62,0.50,17.129,M,15.25,M,1,3335*4C
$GNRMC,030414.500,A,2500.7968154,N,12132.4829341,E,1.66,228.08,030324,,,R,V*1C
$GPHDT,,T*1B
$GNACCURACY,4.2*10
$GNGGA,030414.600,2500.7967733,N,12132.4829049,E,4,62,0.50,17.142,M,15.25,M,0,3335*40
$GNRMC,030414.600,A,2500.7967733,N,12132.4829049,E,1.64,227.84,030324,,,R,V*15
$GPHDT,227.696,T*3B
$GNACCURACY,4.2*10
$GNGGA,030414.700,2500.7967377,N,12132.4828569,E,4,62,0.50,17.133,M,15.25,M,0,3335*45
$GNRMC,030414.700,A,2500.7967377,N,12132.4828569,E,1.64,227.31,030324,,,R,V*18
$GPHDT,,T*1B
$GNACCURACY,4.2*10
$GNGGA,030414.800,2500.7967119,N,12132.4828167,E,4,62,0.50,17.063,M,15.25,M,0,3335*4E
$GNRMC,030414.800,A,2500.7967119,N,12132.4828167,E,1.65,227.48,030324,,,R,V*18
$GPHDT,225.788,T*37
$GNACCURACY,4.2*10
$GNGGA,030414.900,2500.7966903,N,12132.4827728,E,4,62,0.50,17.019,M,15.25,M,0,3335*42
$GNRMC,030414.900,A,2500.7966903,N,12132.4827728,E,1.64,226.92,030324,,,R,V*1E
$GPHDT,,T*1B
$GNACCURACY,4.2*10
$GNGGA,030415.000,2500.7966363,N,12132.4827470,E,4,61,0.50,17.135,M,15.25,M,1,3335*45
$GNRMC,030415.000,A,2500.7966363,N,12132.4827470,E,1.67,225.38,030324,,,R,V*14
$GPHDT,224.325,T*35
$GNACCURACY,4.2*10
$GNGGA,030415.100,2500.7965980,N,12132.4827145,E,4,61,0.50,17.212,M,15.25,M,1,3335*45
$GNRMC,030415.100,A,2500.7965980,N,12132.4827145,E,1.69,224.02,030324,,,R,V*14
$GPHDT,,T*1B
$GNGSA,A,3,27,194,08,199,195,04,16,31,26,196,21,09,0.78,0.50,0.60,1*01
$GNGSA,A,3,82,81,79,80,69,,,,,,,,0.78,0.50,0.60,2*04
$GNGSA,A,3,30,07,34,08,15,36,,,,,,,0.78,0.50,0.60,3*05
$GNGSA,A,3,16,06,39,40,09,12,07,34,24,44,11,25,0.78,0.50,0.60,4*0C
$GNGSA,A,3,43,26,33,,,,,,,,,,0.78,0.50,0.60,4*0B
$GPGSV,4,1,14,27,73,020,46,194,63,042,41,08,63,238,43,199,60,167,32,1*6A
$GPGSV,4,2,14,195,49,130,35,04,48,240,39,45,47,231,33,16,44,030,39,1*5B
$GPGSV,4,3,14,31,32,122,33,09,30,293,24,26,27,064,29,196,25,177,37,1*54
$GPGSV,4,4,14,21,18,178,27,07,08,317,19,1*62
$GPGSV,3,1,09,27,73,020,46,194,63,042,45,08,63,238,44,199,60,167,45,8*6B
$GPGSV,3,2,09,195,49,130,37,04,48,240,41,09,30,293,27,26,27,064,33,8*5C
$GPGSV,3,3,09,196,25,177,36,8*69
$GLGSV,2,1,05,82,59,135,36,81,43,049,40,79,39,048,43,80,33,339,42,1*75
$GLGSV,2,2,05,69,18,221,25,1*4D
$GAGSV,2,1,07,30,52,359,36,07,47,260,36,34,38,103,26,08,32,191,39,7*7C
$GAGSV,2,2,07,27,28,293,19,15,24,162,35,36,16,050,28,7*47
$GAGSV,2,1,07,30,52,359,42,07,47,260,39,34,38,103,26,08,32,191,44,1*7C
$GAGSV,2,2,07,27,28,293,21,15,24,162,37,36,16,050,30,1*41
$GBGSV,4,1,16,16,88,082,43,06,85,339,43,39,77,148,37,40,72,292,46,1*72
$GBGSV,4,2,16,09,69,329,43,12,66,087,40,07,65,273,39,34,63,170,39,1*70
$GBGSV,4,3,16,24,56,054,42,44,47,055,44,11,41,188,32,25,39,326,43,1*7F
$GBGSV,4,4,16,43,20,203,37,26,19,101,25,33,15,231,33,10,,,35,1*49
$GBGSV,3,1,09,39,77,148,41,40,72,292,46,34,63,170,40,24,56,054,44,4*74
$GBGSV,3,2,09,44,47,055,43,25,39,326,32,43,20,203,42,26,19,101,19,4*72
$GBGSV,3,3,09,33,15,231,39,4*44
$GNACCURACY,4.2*10
$PAIRSAT,1,25,4,0,21,7,0,201,8,0,221,9,0,221,10,0,200,11,0,200,12,0,200,13,0,200,14,0,200,15,0,200,16,0,201,17,0,200,18,0,200,19,0,200,21,0,1,26,0,21,27,0,21,29,0,200,30,0,200,31,0,201,32,0,200,194,0,621,195,0,221,196,0,620,199,0,221*62
$PAIRSAT,2,16,69,0,1,70,0,200,71,0,200,72,0,200,73,0,200,74,0,200,75,0,200,76,0,200,77,0,200,78,0,200,79,0,201,80,0,201,81,0,201,82,0,201,83,0,200,84,0,200*78
$PAIRSAT,3,20,2,0,1000,3,0,1000,4,0,1000,7,0,1021,8,0,1021,9,0,1000,10,0,1000,12,0,1000,13,0,1000,15,0,1221,19,0,1200,21,0,1200,24,0,200,25,0,200,27,0,200,30,0,1221,31,0,1200,33,0,1000,34,0,1021,36,0,21*46
$PAIRSAT,4,43,1,0,200,2,0,200,3,0,600,4,0,200,5,0,200,6,0,201,7,0,201,8,0,200,9,0,1,11,0,1,12,0,1,16,0,1,19,0,400,20,0,400,21,0,600,22,0,600,23,0,600,24,0,621,25,0,621,26,0,621,27,0,600,28,0,400,29,0,600,30,0,600,32,0,400,33,0,421,34,0,421,35,0,400,36,0,400,37,0,400,38,0,400,39,0,421,40,0,421,41,0,400,42,0,400,43,0,421,44,0,421,45,0,400,46,0,400,59,0,400,60,0,400,61,0,400,62,0,400*67
$PAIRDGP,8,4,7,8,9,16,21,27,31*4C
$GNGGA,030415.200,2500.7965585,N,12132.4826657,E,4,61,0.50,17.092,M,15.25,M,1,3335*40
$GNRMC,030415.200,A,2500.7965585,N,12132.4826657,E,1.70,224.26,030324,,,R,V*15
$GPHDT,226.463,T*32
$GNACCURACY,4.2*10
$GNGGA,030415.300,2500.7965186,N,12132.4826360,E,4,61,0.50,17.060,M,15.25,M,1,3335*4A
$GNRMC,030415.300,A,2500.7965186,N,12132.4826360,E,1.72,223.72,030324,,,R,V*16
$GPHDT,,T*1B
$GNACCURACY,4.2*10
$GNGGA,030415.400,2500.7964795,N,12132.4825816,E,4,61,0.50,17.040,M,15.25,M,1,3335*43
$GNRMC,030415.400,A,2500.7964795,N,12132.4825816,E,1.74,223.96,030324,,,R,V*11
$GPHDT,225.867,T*39
$GNACCURACY,4.2*10
$GNGGA,030415.500,2500.7964535,N,12132.4825374,E,4,61,0.50,17.037,M,15.25,M,1,3335*45
$GNRMC,030415.500,A,2500.7964535,N,12132.4825374,E,1.72,224.82,030324,,,R,V*13
$GPHDT,,T*1B
$GNACCURACY,4.2*10
$GNGGA,030415.600,2500.7964269,N,12132.4824886,E,4,61,0.50,17.013,M,15.25,M,1,3335*49
$GNRMC,030415.600,A,2500.7964269,N,12132.4824886,E,1.71,224.91,030324,,,R,V*18
$GPHDT,231.388,T*36
$GNACCURACY,4.2*10
$GNGGA,030415.700,2500.7963952,N,12132.4824414,E,4,62,0.50,16.937,M,15.25,M,0,3335*47
$GNRMC,030415.700,A,2500.7963952,N,12132.4824414,E,1.71,224.82,030324,,,R,V*18
$GPHDT,,T*1B
$GNACCURACY,4.3*11
$GNGGA,030415.800,2500.7963769,N,12132.4823908,E,4,62,0.50,16.853,M,15.25,M,0,3335*4A
$GNRMC,030415.800,A,2500.7963769,N,12132.4823908,E,1.68,224.77,030324,,,R,V*14
$GPHDT,223.770,T*36
$GNACCURACY,4.3*11
$GNGGA,030415.900,2500.7963324,N,12132.4823635,E,4,62,0.50,16.916,M,15.25,M,0,3335*47
$GNRMC,030415.900,A,2500.7963324,N,12132.4823635,E,1.70,224.95,030324,,,R,V*1C
$GPHDT,,T*1B
$GNACCURACY,4.3*11
$GNGGA,030416.000,2500.7962945,N,12132.4823362,E,4,61,0.50,16.986,M,15.25,M,1,3335*4D
$GNRMC,030416.000,A,2500.7962945,N,12132.4823362,E,1.71,224.63,030324,,,R,V*15
$GPHDT,226.172,T*37
$GNACCURACY,4.3*11
$GNGGA,030416.100,2500.7962523,N,12132.4823035,E,4,61,0.50,16.927,M,15.25,M,1,3335*4A
$GNRMC,030416.100,A,2500.7962523,N,12132.4823035,E,1.72,224.59,030324,,,R,V*13
$GPHDT,,T*1B
$GNGSA,A,3,27,194,08,199,195,04,16,31,26,196,21,09,0.78,0.50,0.60,1*01
$GNGSA,A,3,82,81,79,80,69,,,,,,,,0.78,0.50,0.60,2*04
$GNGSA,A,3,30,07,34,08,15,36,,,,,,,0.78,0.50,0.60,3*05
$GNGSA,A,3,16,06,39,40,09,12,07,34,24,44,11,25,0.78,0.50,0.60,4*0C
$GNGSA,A,3,43,26,33,,,,,,,,,,0.78,0.50,0.60,4*0B
$GPGSV,4,1,14,27,73,020,46,194,63,042,40,08,63,238,44,199,60,167,27,1*68
$GPGSV,4,2,14,195,49,130,35,04,48,240,39,45,47,231,35,16,44,030,44,1*57
$GPGSV,4,3,14,31,32,122,30,09,30,293,23,26,27,064,30,196,25,177,29,1*57
$GPGSV,4,4,14,21,18,178,28,07,08,317,18,1*6C
$GPGSV,3,1,09,27,73,020,49,194,63,042,43,08,63,238,45,199,60,167,32,8*63
$GPGSV,3,2,09,195,49,130,37,04,48,240,41,09,30,293,26,26,27,064,30,8*5E
$GPGSV,3,3,09,196,25,177,37,8*68
$GLGSV,2,1,05,82,59,135,36,81,43,049,42,79,39,048,41,80,33,339,43,1*74
$GLGSV,2,2,05,69,18,221,24,1*4C
$GAGSV,2,1,07,30,52,359,38,07,47,260,30,34,38,103,32,08,32,191,37,7*7F
$GAGSV,2,2,07,27,28,293,22,15,24,162,27,36,16,050,28,7*4C
$GAGSV,2,1,07,30,52,359,43,07,47,260,37,34,38,103,35,08,32,191,41,1*74
$GAGSV,2,2,07,27,28,293,20,15,24,162,36,36,16,050,30,1*41
$GBGSV,4,1,15,16,88,082,42,06,85,339,42,39,77,148,36,40,72,292,44,1*72
$GBGSV,4,2,15,09,69,329,44,12,66,087,37,07,65,273,42,34,63,170,28,1*78
$GBGSV,4,3,15,24,56,054,45,44,47,055,44,11,41,188,40,25,39,326,28,1*73
$GBGSV,4,4,15,43,20,203,39,26,19,101,25,33,15,231,29,1*48
$GBGSV,3,1,09,39,77,148,40,40,72,292,47,34,63,170,39,24,56,054,44,4*7A
$GBGSV,3,2,09,44,47,055,42,25,39,326,27,43,20,203,42,26,19,101,20,4*7D
$GBGSV,3,3,09,33,15,231,41,4*4B
$GNACCURACY,4.3*11
$PAIRSAT,1,25,4,0,21,7,0,201,8,0,221,9,0,221,10,0,200,11,0,200,12,0,200,13,0,200,14,0,200,15,0,200,16,0,201,17,0,200,18,0,200,19,0,200,21,0,1,26,0,21,27,0,21,29,0,200,30,0,200,31,0,201,32,0,200,194,0,621,195,0,221,196,0,620,199,0,221*62
$PAIRSAT,2,16,69,0,1,70,0,200,71,0,200,72,0,200,73,0,200,74,0,200,75,0,200,76,0,200,77,0,200,78,0,200,79,0,201,80,0,201,81,0,201,82,0,201,83,0,200,84,0,200*78
$PAIRSAT,3,20,2,0,1000,3,0,1000,4,0,1000,7,0,1021,8,0,1021,9,0,1000,10,0,1000,12,0,1000,13,0,1000,15,0,1221,19,0,1200,21,0,1200,24,0,200,25,0,200,27,0,200,30,0,1221,31,0,1200,33,0,1000,34,0,1021,36,0,21*46
$PAIRSAT,4,43,1,0,200,2,0,200,3,0,600,4,0,200,5,0,200,6,0,201,7,0,201,8,0,200,9,0,1,11,0,1,12,0,1,16,0,1,19,0,400,20,0,400,21,0,600,22,0,600,23,0,600,24,0,621,25,0,621,26,0,621,27,0,600,28,0,400,29,0,600,30,0,600,32,0,400,33,0,421,34,0,421,35,0,400,36,0,400,37,0,400,38,0,400,39,0,421,40,0,421,41,0,400,42,0,400,43,0,421,44,0,421,45,0,400,46,0,400,59,0,400,60,0,400,61,0,400,62,0,400*67
$PAIRDGP,8,4,7,8,9,16,21,27,31*4C
$GNGGA,030416.200,2500.7962181,N,12132.4822612,E,4,61,0.50,16.970,M,15.25,M,1,3335*45
$GNRMC,030416.200,A,2500.7962181,N,12132.4822612,E,1.70,225.14,030324,,,R,V*14
$GPHDT,224.295,T*3F
$GNACCURACY,4.3*11
$GNGGA,030416.300,2500.7961825,N,12132.4822219,E,4,61,0.50,17.007,M,15.25,M,1,3335*47
$GNRMC,030416.300,A,2500.7961825,N,12132.4822219,E,1.71,224.95,030324,,,R,V*17
$GPHDT,,T*1B
$GNACCURACY,4.3*11
$GNGGA,030416.400,2500.7961610,N,12132.4821749,E,4,62,0.50,16.884,M,15.25,M,1,3335*4A
$GNRMC,030416.400,A,2500.7961610,N,12132.4821749,E,1.70,225.19,030324,,,R,V*1F
$GPHDT,223.268,T*3A
$GNACCURACY,4.4*16
$GNGGA,030416.500,2500.7961201,N,12132.4821502,E,4,61,0.50,16.928,M,15.25,M,1,3335*46
$GNRMC,030416.500,A,2500.7961201,N,12132.4821502,E,1.69,224.30,030324,,,R,V*15
$GPHDT,,T*1B
$GNACCURACY,4.4*16
$GNGGA,030416.600,2500.7960946,N,12132.4820831,E,4,61,0.50,16.798,M,15.25,M,1,3335*45
$GNRMC,030416.600,A,2500.7960946,N,12132.4820831,E,1.71,223.99,030324,,,R,V*1E
$GPHDT,221.887,T*33
$GNACCURACY,4.3*11
$GNGGA,030416.700,2500.7960715,N,12132.4820277,E,4,60,0.50,16.714,M,15.25,M,0,3335*40
$GNRMC,030416.700,A,2500.7960715,N,12132.4820277,E,1.74,223.68,030324,,,R,V*14
$GPHDT,,T*1B
$GNACCURACY,4.3*11
$GNGGA,030416.800,2500.7960424,N,12132.4820028,E,4,61,0.50,16.969,M,15.25,M,0,3335*43
$GNRMC,030416.800,A,2500.7960424,N,12132.4820028,E,1.70,224.72,030324,,,R,V*1A
$GPHDT,220.330,T*35
$GNACCURACY,4.4*16
$GNGGA,030416.900,2500.7960349,N,12132.4819396,E,4,61,0.50,16.922,M,15.25,M,0,3335*4D
$GNRMC,030416.900,A,2500.7960349,N,12132.4819396,E,1.71,225.41,030324,,,R,V*1B
$GPHDT,,T*1B
$GNACCURACY,4.4*16
$GNGGA,030417.000,2500.7959980,N,12132.4819008,E,4,61,0.50,16.965,M,15.25,M,1,3335*46
$GNRMC,030417.000,A,2500.7959980,N,12132.4819008,E,1.71,225.60,030324,,,R,V*11
$GPHDT,218.088,T*3E
$GNACCURACY,4.4*16
$GNGGA,030417.100,2500.7959389,N,12132.4818954,E,4,61,0.50,17.041,M,15.25,M,1,3335*4B
$GNRMC,030417.100,A,2500.7959389,N,12132.4818954,E,1.70,226.02,030324,,,R,V*14
$GPHDT,,T*1B
$GNGSA,A,3,27,194,08,199,195,04,16,31,26,196,21,09,0.78,0.50,0.60,1*01
$GNGSA,A,3,82,81,79,80,69,,,,,,,,0.78,0.50,0.60,2*04
$GNGSA,A,3,30,07,34,08,15,36,,,,,,,0.78,0.50,0.60,3*05
$GNGSA,A,3,16,06,39,40,09,12,07,34,24,44,11,25,0.78,0.50,0.60,4*0C
$GNGSA,A,3,43,26,33,,,,,,,,,,0.78,0.50,0.60,4*0B
$GPGSV,4,1,14,27,73,020,47,194,63,042,38,08,63,238,44,199,60,167,32,1*62
$GPGSV,4,2,14,195,49,130,36,04,48,240,37,45,47,231,35,16,44,030,42,1*5C
$GPGSV,4,3,14,31,32,122,29,09,30,293,24,26,27,064,31,196,25,177,33,1*52
$GPGSV,4,4,14,21,18,178,25,07,08,317,18,1*61
$GPGSV,3,1,09,27,73,020,48,194,63,042,44,08,63,238,43,199,60,167,42,8*64
$GPGSV,3,2,09,195,49,130,35,04,48,240,39,09,30,293,22,26,27,064,30,8*57
$GPGSV,3,3,09,196,25,177,38,8*67
$GLGSV,2,1,05,82,59,135,28,81,43,049,40,79,39,048,41,80,33,339,43,1*79
$GLGSV,2,2,05,69,18,221,24,1*4C
$GAGSV,2,1,07,30,52,359,39,07,47,260,31,34,38,103,29,08,32,191,39,7*7B
$GAGSV,2,2,07,27,28,293,19,15,24,162,29,36,16,050,33,7*40
$GAGSV,2,1,07,30,52,359,44,07,47,260,38,34,38,103,34,08,32,191,42,1*7E
$GAGSV,2,2,07,27,28,293,20,15,24,162,36,36,16,050,31,1*40
$GBGSV,4,1,16,16,88,084,41,06,85,339,41,39,77,148,37,40,72,292,45,1*77
$GBGSV,4,2,16,09,70,329,43,12,66,087,33,07,65,273,41,34,63,170,29,1*72
$GBGSV,4,3,16,24,56,054,42,44,47,055,45,11,41,188,41,25,39,326,29,1*76
$GBGSV,4,4,16,43,20,203,39,26,19,101,23,33,15,231,26,10,,,32,1*42
$GBGSV,3,1,09,39,77,148,43,40,72,292,46,34,63,170,36,24,56,054,45,4*76
$GBGSV,3,2,09,44,47,055,43,25,39,326,33,43,20,203,40,26,19,101,19,4*71
$GBGSV,3,3,09,33,15,231,38,4*45
$GNACCURACY,4.4*16
$PAIRSAT,1,25,4,0,21,7,0,201,8,0,221,9,0,221,10,0,200,11,0,200,12,0,200,13,0,200,14,0,200,15,0,200,16,0,201,17,0,200,18,0,200,19,0,200,21,0,1,26,0,21,27,0,21,29,0,200,30,0,200,31,0,201,32,0,200,194,0,621,195,0,221,196,0,620,199,0,221*62
$PAIRSAT,2,16,69,0,1,70,0,200,71,0,200,72,0,200,73,0,200,74,0,200,75,0,200,76,0,200,77,0,200,78,0,200,79,0,201,80,0,201,81,0,201,82,0,201,83,0,200,84,0,200*78
$PAIRSAT,3,20,2,0,1000,3,0,1000,4,0,1000,7,0,1021,8,0,1021,9,0,1000,10,0,1000,12,0,1000,13,0,1000,15,0,1221,19,0,1200,21,0,1200,24,0,200,25,0,200,27,0,200,30,0,1221,31,0,1200,33,0,1000,34,0,1021,36,0,21*46
$PAIRSAT,4,43,1,0,200,2,0,200,3,0,600,4,0,200,5,0,200,6,0,201,7,0,201,8,0,200,9,0,1,11,0,1,12,0,1,16,0,1,19,0,400,20,0,400,21,0,600,22,0,600,23,0,600,24,0,621,25,0,621,26,0,621,27,0,600,28,0,400,29,0,600,30,0,600,32,0,400,33,0,421,34,0,421,35,0,400,36,0,400,37,0,400,38,0,400,39,0,421,40,0,421,41,0,400,42,0,400,43,0,421,44,0,421,45,0,400,46,0,400,59,0,400,60,0,400,61,0,400,62,0,400*67
$PAIRDGP,8,4,7,8,9,16,21,27,31*4C
$GNGGA,030417.200,2500.7959037,N,12132.4818395,E,4,61,0.50,16.936,M,15.25,M,1,3335*41
$GNRMC,030417.200,A,2500.7959037,N,12132.4818395,E,1.71,225.97,030324,,,R,V*18
$GPHDT,221.677,T*32
$GNACCURACY,4.4*16
$GNGGA,030417.300,2500.7958513,N,12132.4818146,E,4,61,0.50,16.995,M,15.25,M,1,3335*47
$GNRMC,030417.300,A,2500.7958513,N,12132.4818146,E,1.72,224.45,030324,,,R,V*1A
$GPHDT,,T*1B
$GNACCURACY,4.4*16
$GNGGA,030417.400,2500.7958362,N,12132.4817559,E,4,61,0.50,16.915,M,15.25,M,1,3335*4D
$GNRMC,030417.400,A,2500.7958362,N,12132.4817559,E,1.72,224.91,030324,,,R,V*11
$GPHDT,221.469,T*3F
$GNACCURACY,4.4*16
$GNGGA,030417.500,2500.7957861,N,12132.4817280,E,4,61,0.50,16.962,M,15.25,M,0,3335*49
$GNRMC,030417.500,A,2500.7957861,N,12132.4817280,E,1.72,224.45,030324,,,R,V*1D
$GPHDT,,T*1B
$GNACCURACY,4.4*16
$GNGGA,030417.600,2500.7957349,N,12132.4816999,E,4,61,0.50,17.016,M,15.25,M,0,3335*42
$GNRMC,030417.600,A,2500.7957349,N,12132.4816999,E,1.73,224.45,030324,,,R,V*1C
$GPHDT,224.955,T*38
$GNACCURACY,4.4*16
$GNGGA,030417.700,2500.7957057,N,12132.4816574,E,4,61,0.50,17.000,M,15.25,M,0,3335*47
$GNRMC,030417.700,A,2500.7957057,N,12132.4816574,E,1.71,223.99,030324,,,R,V*1A
$GPHDT,,T*1B
$GNACCURACY,4.4*16
$GNGGA,030417.800,2500.7956625,N,12132.4816197,E,4,61,0.50,16.972,M,15.25,M,0,3335*4E
$GNRMC,030417.800,A,2500.7956625,N,12132.4816197,E,1.71,223.12,030324,,,R,V*1D
$GPHDT,224.070,T*36
$GNACCURACY,4.5*17
$GNGGA,030417.900,2500.7956187,N,12132.4815910,E,4,61,0.50,17.041,M,15.25,M,0,3335*4C
$GNRMC,030417.900,A,2500.7956187,N,12132.4815910,E,1.73,222.09,030324,,,R,V*1E
$GPHDT,,T*1B
$GNACCURACY,4.5*17
$GNGGA,030418.000,2500.7955660,N,12132.4815679,E,4,61,0.50,17.113,M,15.25,M,1,3335*40
$GNRMC,030418.000,A,2500.7955660,N,12132.4815679,E,1.74,222.05,030324,,,R,V*1E
$GPHDT,230.807,T*3B
$GNACCURACY,4.4*16
$GNGGA,030418.100,2500.7955160,N,12132.4815472,E,4,62,0.50,17.137,M,15.25,M,1,3335*4A
$GNRMC,030418.100,A,2500.7955160,N,12132.4815472,E,1.74,222.19,030324,,,R,V*1C
$GPHDT,,T*1B
$GNGSA,A,3,27,194,08,199,195,04,16,31,09,196,21,26,0.78,0.50,0.60,1*01
$GNGSA,A,3,82,81,79,80,69,,,,,,,,0.78,0.50,0.60,2*04
$GNGSA,A,3,30,07,34,08,15,36,,,,,,,0.78,0.50,0.60,3*05
$GNGSA,A,3,16,06,39,40,09,12,07,34,24,44,11,25,0.78,0.50,0.60,4*0C
$GNGSA,A,3,43,26,33,,,,,,,,,,0.78,0.50,0.60,4*0B
$GPGSV,4,1,14,27,73,020,44,194,63,042,40,08,63,238,45,199,60,167,32,1*6F
$GPGSV,4,2,14,195,49,130,36,04,48,240,40,45,47,231,34,16,44,030,42,1*5D
$GPGSV,4,3,14,31,32,122,26,09,30,293,23,26,27,064,25,196,25,177,35,1*59
$GPGSV,4,4,14,21,18,178,25,07,08,317,18,1*61
$GPGSV,3,1,09,27,73,020,47,194,63,042,44,08,63,238,45,199,60,167,43,8*6C
$GPGSV,3,2,09,195,49,130,40,04,48,240,39,09,30,293,21,26,27,064,37,8*51
$GPGSV,3,3,09,196,25,177,37,8*68
$GLGSV,2,1,05,82,59,135,33,81,43,049,42,79,39,048,41,80,33,339,44,1*76
$GLGSV,2,2,05,69,18,221,27,1*4F
$GAGSV,2,1,07,30,52,359,43,07,47,260,30,34,38,103,31,08,32,191,39,7*7E
