$FW : RTK35X,V1.1X0314AS,Lib20210517,1*54
$Tool : LOCOSYS , GNSS Firebird , v1.0.0.19*39
$---------------------------------------------------*2D
2.9*1D
$GNGGA,033040.800,2500.7755847,N,12132.4580623,E,4,61,0.47,17.147,M,15.25,M,0,3335*4F
$GNRMC,033040.800,A,2500.7755847,N,12132.4580623,E,0.06,57.74,030324,,,R,V*25
$GPHDT,46.969,T*01
$GNACCURACY,2.9*1D
$GNGGA,033040.900,2500.7755822,N,12132.4580611,E,4,61,0.47,17.130,M,15.25,M,0,3335*4C
$GNRMC,033040.900,A,2500.7755822,N,12132.4580611,E,0.05,57.74,030324,,,R,V*25
$GPHDT,,T*1B
$GNACCURACY,2.9*1D
$GNGGA,033041.000,2500.7755885,N,12132.4580557,E,4,61,0.47,17.149,M,15.25,M,1,3335*47
$GNRMC,033041.000,A,2500.7755885,N,12132.4580557,E,0.04,57.74,030324,,,R,V*20
$GPHDT,48.853,T*07
$GNACCURACY,2.9*1D
$GNGGA,033041.100,2500.7755858,N,12132.4580561,E,4,61,0.47,17.127,M,15.25,M,1,3335*4B
$GNRMC,033041.100,A,2500.7755858,N,12132.4580561,E,0.03,57.74,030324,,,R,V*23
$GPHDT,,T*1B
$GNGSA,A,3,08,194,199,27,195,04,16,09,21,31,26,196,0.75,0.47,0.59,1*00
$GNGSA,A,3,07,,,,,,,,,,,,0.75,0.47,0.59,1*0B
$GNGSA,A,3,82,80,79,81,,,,,,,,,0.75,0.47,0.59,2*0A
$GNGSA,A,3,30,07,34,15,27,08,02,36,,,,,0.75,0.47,0.59,3*03
$GNGSA,A,3,06,16,34,09,39,40,07,12,24,10,11,25,0.75,0.47,0.59,4*0C
$GNGSA,A,3,44,43,,,,,,,,,,,0.75,0.47,0.59,4*0E
$GPGSV,4,1,14,08,71,269,42,194,63,044,39,199,60,167,21,27,60,023,46,1*66
$GPGSV,4,2,14,195,54,127,37,04,40,226,44,16,39,044,37,09,32,279,29,1*5B
$GPGSV,4,3,14,21,29,173,20,31,23,131,28,26,22,075,29,196,22,175,19,1*5B
$GPGSV,4,4,14,02,19,184,17,07,17,320,39,1*6A
$GPGSV,3,1,09,08,71,269,49,194,63,044,44,27,60,023,45,199,60,167,24,8*63
$GPGSV,3,2,09,195,54,127,40,04,40,226,43,09,32,279,33,26,22,075,35,8*5C
$GPGSV,3,3,09,196,22,175,18,8*60
$GLGSV,2,1,08,82,69,104,27,83,40,177,,80,39,353,31,79,38,066,33,1*78
$GLGSV,2,2,08,81,33,036,36,70,16,272,,69,08,212,11,71,05,318,,1*71
$GAGSV,2,1,08,30,51,014,44,07,42,247,20,34,42,090,37,15,34,158,23,7*7A
$GAGSV,2,2,08,27,32,303,19,08,22,187,14,02,20,070,32,36,12,042,27,7*77
$GAGSV,2,1,06,30,51,014,45,34,42,090,36,07,42,247,35,15,34,158,19,1*7F
$GAGSV,2,2,06,02,20,070,26,36,12,042,28,1*7A
$GBGSV,5,1,17,06,86,249,44,16,84,179,44,34,76,159,41,09,73,316,40,1*74
$GBGSV,5,2,17,39,72,167,31,40,68,307,43,07,64,285,42,12,62,061,41,1*7A
$GBGSV,5,3,17,24,54,074,40,10,53,269,37,11,53,190,25,25,47,334,39,1*7B
$GBGSV,5,4,17,44,39,046,42,43,31,206,31,26,13,110,26,33,09,222,,1*75
$GBGSV,5,5,17,41,08,270,,1*48
$GBGSV,2,1,07,34,76,159,39,39,72,167,43,40,68,307,46,24,54,074,41,4*73
$GBGSV,2,2,07,25,47,334,39,44,39,046,39,43,31,206,32,4*4C
$GNACCURACY,2.9*1D
$PAIRSAT,1,35,2,0,201,3,0,200,4,0,221,5,0,200,6,0,200,7,0,201,8,0,221,9,0,221,10,0,200,11,0,200,12,0,200,13,0,200,14,0,200,15,0,200,16,0,201,17,0,200,18,0,200,19,0,200,20,0,200,21,0,201,22,0,200,23,0,200,24,0,200,25,0,200,26,0,221,27,0,221,28,0,200,29,0,200,30,0,200,31,0,201,32,0,200,194,0,621,195,0,621,196,0,620,199,0,621*58
$PAIRSAT,2,24,65,0,200,66,0,200,67,0,200,68,0,200,69,0,201,70,0,200,71,0,201,72,0,200,73,0,200,74,0,200,75,0,200,76,0,200,77,0,200,78,0,200,79,0,201,80,0,201,81,0,201,82,0,201,83,0,201,84,0,200,85,0,200,86,0,200,87,0,200,88,0,200*7B
$PAIRSAT,3,23,2,0,1221,3,0,1200,4,0,1200,5,0,200,7,0,1221,8,0,1221,9,0,1200,10,0,1200,11,0,1200,12,0,1200,13,0,1200,15,0,1221,19,0,1200,21,0,1200,24,0,1200,25,0,1200,26,0,1200,27,0,1221,30,0,1221,31,0,1200,33,0,1200,34,0,1221,36,0,1221*6A
$PAIRSAT,4,46,1,0,200,2,0,200,3,0,600,4,0,200,5,0,200,6,0,201,7,0,201,8,0,200,9,0,201,10,0,201,11,0,201,12,0,201,13,0,200,14,0,200,16,0,201,19,0,600,20,0,600,21,0,600,22,0,600,23,0,600,24,0,621,25,0,621,26,0,621,27,0,600,28,0,600,29,0,600,30,0,600,32,0,600,33,0,621,34,0,621,35,0,600,36,0,600,37,0,600,38,0,600,39,0,621,40,0,621,41,0,621,42,0,600,43,0,621,44,0,621,45,0,600,46,0,600,59,0,400,60,0,400,61,0,400,62,0,400*48
$PAIRDGP,10,2,4,7,8,9,16,21,26,27,31*43
$GNGGA,033041.200,2500.7755871,N,12132.4580557,E,4,61,0.47,17.130,M,15.25,M,1,3335*40
$GNRMC,033041.200,A,2500.7755871,N,12132.4580557,E,0.02,57.74,030324,,,R,V*2F
$GPHDT,48.879,T*0F
$GNACCURACY,2.9*1D
$GNGGA,033041.300,2500.7755903,N,12132.4580507,E,4,61,0.47,17.141,M,15.25,M,1,3335*46
$GNRMC,033041.300,A,2500.7755903,N,12132.4580507,E,0.02,57.74,030324,,,R,V*2F
$GPHDT,,T*1B
$GNACCURACY,2.9*1D
$GNGGA,033041.400,2500.7756003,N,12132.4580530,E,4,61,0.47,17.139,M,15.25,M,1,3335*40
$GNRMC,033041.400,A,2500.7756003,N,12132.4580530,E,0.05,57.74,030324,,,R,V*21
$GPHDT,49.423,T*0D
$GNACCURACY,2.9*1D
$GNGGA,033041.500,2500.7756062,N,12132.4580649,E,4,61,0.47,17.143,M,15.25,M,1,3335*46
$GNRMC,033041.500,A,2500.7756062,N,12132.4580649,E,0.09,57.74,030324,,,R,V*26
$GPHDT,,T*1B
$GNACCURACY,2.9*1D
$GNGGA,033041.600,2500.7756284,N,12132.4580759,E,4,61,0.47,17.138,M,15.25,M,1,3335*43
$GNRMC,033041.600,A,2500.7756284,N,12132.4580759,E,0.19,57.74,030324,,,R,V*2E
$GPHDT,49.894,T*0D
$GNACCURACY,2.9*1D
$GNGGA,033041.700,2500.7756595,N,12132.4580825,E,4,60,0.48,17.015,M,15.25,M,0,3335*40
$GNRMC,033041.700,A,2500.7756595,N,12132.4580825,E,0.27,57.74,030324,,,R,V*21
$GPHDT,,T*1B
$GNACCURACY,2.9*1D
$GNGGA,033041.800,2500.7756800,N,12132.4581067,E,4,60,0.48,17.053,M,15.25,M,0,3335*43
$GNRMC,033041.800,A,2500.7756800,N,12132.4581067,E,0.41,57.74,030324,,,R,V*20
$GPHDT,51.036,T*04
$GNACCURACY,2.9*1D
$GNGGA,033041.900,2500.7757137,N,12132.4581300,E,4,61,0.47,17.060,M,15.25,M,0,3335*42
$GNRMC,033041.900,A,2500.7757137,N,12132.4581300,E,0.53,57.74,030324,,,R,V*2C
$GPHDT,,T*1B
$GNACCURACY,2.9*1D
$GNGGA,033042.000,2500.7757284,N,12132.4581663,E,4,61,0.47,17.027,M,15.25,M,1,3335*41
$GNRMC,033042.000,A,2500.7757284,N,12132.4581663,E,0.63,44.88,030324,,,R,V*2F
$GPHDT,50.454,T*05
$GNACCURACY,2.9*1D
$GNGGA,033042.100,2500.7757422,N,12132.4581884,E,4,61,0.47,17.023,M,15.25,M,1,3335*49
$GNRMC,033042.100,A,2500.7757422,N,12132.4581884,E,0.70,45.11,030324,,,R,V*20
$GPHDT,,T*1B
$GNGSA,A,3,08,194,199,27,195,04,16,09,21,31,26,196,0.85,0.47,0.71,1*05
$GNGSA,A,3,07,,,,,,,,,,,,0.85,0.47,0.71,1*0E
$GNGSA,A,3,82,80,79,81,,,,,,,,,0.85,0.47,0.71,2*0F
$GNGSA,A,3,30,34,07,15,27,08,02,36,,,,,0.85,0.47,0.71,3*06
$GNGSA,A,3,06,16,34,09,39,40,07,12,24,11,10,25,0.85,0.47,0.71,4*09
$GNGSA,A,3,44,43,26,,,,,,,,,,0.85,0.47,0.71,4*0F
$GPGSV,4,1,14,08,71,269,44,194,63,044,41,199,60,167,20,27,60,023,46,1*6E
$GPGSV,4,2,14,195,54,127,34,04,40,226,43,16,39,044,38,09,32,279,30,1*58
$GPGSV,4,3,14,21,29,173,22,31,23,131,30,26,22,075,30,196,22,175,17,1*56
$GPGSV,4,4,14,02,19,184,14,07,17,320,33,1*63
$GPGSV,3,1,09,08,71,269,48,194,63,044,45,27,60,023,47,199,60,167,33,8*67
$GPGSV,3,2,09,195,54,127,40,04,40,226,46,09,32,279,30,26,22,075,35,8*5A
$GPGSV,3,3,09,196,22,175,18,8*60
$GLGSV,3,1,09,82,69,104,34,83,40,177,,80,39,353,28,79,38,066,38,1*79
$GLGSV,3,2,09,81,33,036,39,70,16,272,,69,08,212,13,71,05,318,,1*7C
$GLGSV,3,3,09,73,04,310,,1*43
$GAGSV,2,1,08,30,51,014,44,34,42,090,38,07,42,247,23,15,34,158,20,7*75
$GAGSV,2,2,08,27,32,303,20,08,22,187,15,02,20,070,26,36,12,042,24,7*7A
$GAGSV,2,1,06,30,51,014,44,34,42,090,36,07,42,247,38,15,34,158,20,1*79
$GAGSV,2,2,06,02,20,070,30,36,12,042,29,1*7C
$GBGSV,5,1,18,06,86,249,44,16,84,179,44,34,76,159,34,09,73,316,40,1*79
$GBGSV,5,2,18,39,72,167,39,40,68,307,43,07,64,285,40,12,62,061,41,1*7F
$GBGSV,5,3,18,24,54,074,42,11,53,190,21,10,53,269,37,25,47,334,40,1*7C
$GBGSV,5,4,18,44,39,046,41,43,31,206,28,26,13,110,27,33,09,222,,1*70
$GBGSV,5,5,18,41,08,270,,23,05,307,,1*77
$GBGSV,2,1,07,34,76,159,40,39,72,167,38,40,68,307,46,24,54,074,43,4*73
$GBGSV,2,2,07,25,47,334,40,44,39,046,40,43,31,206,30,4*4E
$GNACCURACY,2.9*1D
$PAIRSAT,1,35,2,0,201,3,0,200,4,0,221,5,0,200,6,0,200,7,0,201,8,0,221,9,0,221,10,0,200,11,0,200,12,0,200,13,0,200,14,0,200,15,0,200,16,0,201,17,0,200,18,0,200,19,0,200,20,0,200,21,0,201,22,0,200,23,0,200,24,0,200,25,0,200,26,0,221,27,0,221,28,0,200,29,0,200,30,0,200,31,0,201,32,0,200,194,0,621,195,0,621,196,0,620,199,0,621*58
$PAIRSAT,2,24,65,0,200,66,0,200,67,0,200,68,0,200,69,0,201,70,0,200,71,0,201,72,0,200,73,0,200,74,0,200,75,0,200,76,0,200,77,0,200,78,0,200,79,0,201,80,0,201,81,0,201,82,0,201,83,0,201,84,0,200,85,0,200,86,0,200,87,0,200,88,0,200*7B
$PAIRSAT,3,23,2,0,1221,3,0,1200,4,0,1200,5,0,200,7,0,1221,8,0,1221,9,0,1200,10,0,1200,11,0,1200,12,0,1200,13,0,1200,15,0,1221,19,0,1200,21,0,1200,24,0,1200,25,0,1200,26,0,1200,27,0,1221,30,0,1221,31,0,1200,33,0,1200,34,0,1221,36,0,1221*6A
$PAIRSAT,4,46,1,0,200,2,0,200,3,0,600,4,0,200,5,0,200,6,0,201,7,0,201,8,0,200,9,0,201,10,0,201,11,0,201,12,0,201,13,0,200,14,0,200,16,0,201,19,0,600,20,0,600,21,0,600,22,0,600,23,0,600,24,0,621,25,0,621,26,0,621,27,0,600,28,0,600,29,0,600,30,0,600,32,0,600,33,0,621,34,0,621,35,0,600,36,0,600,37,0,600,38,0,600,39,0,621,40,0,621,41,0,621,42,0,600,43,0,621,44,0,621,45,0,600,46,0,600,59,0,400,60,0,400,61,0,400,62,0,400*48
$PAIRDGP,10,2,4,7,8,9,16,21,26,27,31*43
$GNGGA,033042.200,2500.7757628,N,12132.4582149,E,4,62,0.47,17.027,M,15.25,M,1,3335*4E
$GNRMC,033042.200,A,2500.7757628,N,12132.4582149,E,0.74,45.11,030324,,,R,V*24
$GPHDT,48.128,T*02
$GNACCURACY,2.9*1D
$GNGGA,033042.300,2500.7757815,N,12132.4582450,E,4,62,0.47,17.058,M,15.25,M,1,3335*4A
$GNRMC,033042.300,A,2500.7757815,N,12132.4582450,E,0.76,43.76,030324,,,R,V*2D
$GPHDT,,T*1B
$GNACCURACY,2.9*1D
$GNGGA,033042.400,2500.7758045,N,12132.4582705,E,4,61,0.47,17.086,M,15.25,M,1,3335*4C
$GNRMC,033042.400,A,2500.7758045,N,12132.4582705,E,0.84,42.64,030324,,,R,V*24
$GPHDT,47.880,T*06
$GNACCURACY,2.9*1D
$GNGGA,033042.500,2500.7758401,N,12132.4582994,E,4,61,0.47,17.097,M,15.25,M,1,3335*4F
$GNRMC,033042.500,A,2500.7758401,N,12132.4582994,E,0.89,42.62,030324,,,R,V*2C
$GPHDT,,T*1B
$GNACCURACY,2.9*1D
$GNGGA,033042.600,2500.7758629,N,12132.4583321,E,4,61,0.47,17.094,M,15.25,M,0,3335*43
$GNRMC,033042.600,A,2500.7758629,N,12132.4583321,E,0.95,41.93,030324,,,R,V*22
$GPHDT,44.530,T*03
$GNACCURACY,2.9*1D
$GNGGA,033042.700,2500.7759030,N,12132.4583583,E,4,61,0.47,17.078,M,15.25,M,0,3335*41
$GNRMC,033042.700,A,2500.7759030,N,12132.4583583,E,1.01,40.72,030324,,,R,V*20
$GPHDT,,T*1B
$GNACCURACY,2.9*1D
$GNGGA,033042.800,2500.7759362,N,12132.4583767,E,4,62,0.46,17.063,M,15.25,M,0,3335*4A
$GNRMC,033042.800,A,2500.7759362,N,12132.4583767,E,1.07,39.27,030324,,,R,V*2B
$GPHDT,45.474,T*03
$GNACCURACY,2.9*1D
$GNGGA,033042.900,2500.7759777,N,12132.4583987,E,4,60,0.48,17.047,M,15.25,M,0,3335*41
$GNRMC,033042.900,A,2500.7759777,N,12132.4583987,E,1.21,39.44,030324,,,R,V*2B
$GPHDT,,T*1B
$GNACCURACY,2.9*1D
$GNGGA,033043.000,2500.7760102,N,12132.4584454,E,4,62,0.46,17.044,M,15.25,M,1,3335*4D
$GNRMC,033043.000,A,2500.7760102,N,12132.4584454,E,1.36,41.00,030324,,,R,V*20
$GPHDT,49.702,T*0D
$GNACCURACY,2.9*1D
$GNGGA,033043.100,2500.7760434,N,12132.4584744,E,4,61,0.47,17.015,M,15.25,M,1,3335*48
$GNRMC,033043.100,A,2500.7760434,N,12132.4584744,E,1.46,42.20,030324,,,R,V*25
$GPHDT,,T*1B
$GNGSA,A,3,08,194,199,27,195,04,16,09,21,31,26,196,0.75,0.47,0.59,1*00
$GNGSA,A,3,07,,,,,,,,,,,,0.75,0.47,0.59,1*0B
$GNGSA,A,3,82,80,79,81,,,,,,,,,0.75,0.47,0.59,2*0A
$GNGSA,A,3,30,07,34,15,27,08,02,36,,,,,0.75,0.47,0.59,3*03
$GNGSA,A,3,06,16,34,09,39,40,07,12,24,10,11,25,0.75,0.47,0.59,4*0C
$GNGSA,A,3,44,43,,,,,,,,,,,0.75,0.47,0.59,4*0E
$GPGSV,4,1,14,08,71,269,46,194,63,044,41,199,60,167,18,27,60,023,46,1*67
$GPGSV,4,2,14,195,54,127,37,04,40,226,42,16,39,044,39,09,32,279,27,1*5D
$GPGSV,4,3,14,21,29,173,30,31,23,131,29,26,22,075,34,196,22,175,17,1*59
$GPGSV,4,4,14,02,19,184,17,07,17,320,32,1*61
$GPGSV,3,1,09,08,71,269,46,194,63,044,44,27,60,023,47,199,60,167,35,8*6E
$GPGSV,3,2,09,195,54,127,40,04,40,226,45,09,32,279,28,26,22,075,37,8*52
$GPGSV,3,3,09,196,22,175,17,8*6F
$GLGSV,2,1,08,82,69,104,42,83,40,177,,80,39,353,25,79,38,066,38,1*75
$GLGSV,2,2,08,81,33,036,40,70,16,272,,69,08,212,12,71,05,318,,1*73
$GAGSV,2,1,08,30,51,014,43,07,42,247,32,34,42,090,39,15,34,158,20,7*73
$GAGSV,2,2,08,27,32,303,19,08,22,187,14,02,20,070,28,36,12,042,26,7*7D
$GAGSV,2,1,06,30,51,014,45,34,42,090,39,07,42,247,37,15,34,158,20,1*78
$GAGSV,2,2,06,02,20,070,35,36,12,042,29,1*79
$GBGSV,5,1,17,06,86,249,43,16,84,179,44,34,76,159,40,09,73,316,41,1*73
$GBGSV,5,2,17,39,72,167,36,40,68,307,44,07,64,285,41,12,62,061,41,1*79
$GBGSV,5,3,17,24,54,074,43,10,53,269,35,11,53,190,21,25,47,334,41,1*71
$GBGSV,5,4,17,44,39,046,39,43,31,206,24,26,13,110,29,33,09,222,,1*72
$GBGSV,5,5,17,41,08,270,,1*48
$GBGSV,2,1,07,34,76,159,42,39,72,167,40,40,68,307,45,24,54,074,42,4*7C
$GBGSV,2,2,07,25,47,334,39,44,39,046,40,43,31,206,26,4*47
$GNACCURACY,2.9*1D
$PAIRSAT,1,35,2,0,201,3,0,200,4,0,221,5,0,200,6,0,200,7,0,201,8,0,221,9,0,221,10,0,200,11,0,200,12,0,200,13,0,200,14,0,200,15,0,200,16,0,201,17,0,200,18,0,200,19,0,200,20,0,200,21,0,201,22,0,200,23,0,200,24,0,200,25,0,200,26,0,221,27,0,221,28,0,200,29,0,200,30,0,200,31,0,201,32,0,200,194,0,621,195,0,621,196,0,620,199,0,621*58
$PAIRSAT,2,24,65,0,200,66,0,200,67,0,200,68,0,200,69,0,201,70,0,200,71,0,201,72,0,200,73,0,200,74,0,200,75,0,200,76,0,200,77,0,200,78,0,200,79,0,201,80,0,201,81,0,201,82,0,201,83,0,201,84,0,200,85,0,200,86,0,200,87,0,200,88,0,200*7B
$PAIRSAT,3,23,2,0,1221,3,0,1200,4,0,1200,5,0,200,7,0,1221,8,0,1221,9,0,1200,10,0,1200,11,0,1200,12,0,1200,13,0,1200,15,0,1221,19,0,1200,21,0,1200,24,0,1200,25,0,1200,26,0,1200,27,0,1221,30,0,1221,31,0,1200,33,0,1200,34,0,1221,36,0,1221*6A
$PAIRSAT,4,46,1,0,200,2,0,200,3,0,600,4,0,200,5,0,200,6,0,201,7,0,201,8,0,200,9,0,201,10,0,201,11,0,201,12,0,201,13,0,200,14,0,200,16,0,201,19,0,600,20,0,600,21,0,600,22,0,600,23,0,600,24,0,621,25,0,621,26,0,621,27,0,600,28,0,600,29,0,600,30,0,600,32,0,600,33,0,621,34,0,621,35,0,600,36,0,600,37,0,600,38,0,600,39,0,621,40,0,621,41,0,621,42,0,600,43,0,621,44,0,621,45,0,600,46,0,600,59,0,400,60,0,400,61,0,400,62,0,400*48
$PAIRDGP,10,2,4,7,8,9,16,21,26,27,31*43
$GNGGA,033043.200,2500.7760785,N,12132.4585135,E,4,61,0.47,17.065,M,15.25,M,1,3335*44
$GNRMC,033043.200,A,2500.7760785,N,12132.4585135,E,1.53,41.35,030324,,,R,V*2D
$GPHDT,50.566,T*05
$GNACCURACY,2.9*1D
$GNGGA,033043.300,2500.7761134,N,12132.4585587,E,4,61,0.47,17.033,M,15.25,M,1,3335*46
$GNRMC,033043.300,A,2500.7761134,N,12132.4585587,E,1.58,42.75,030324,,,R,V*20
$GPHDT,,T*1B
$GNACCURACY,2.9*1D
$GNGGA,033043.400,2500.7761361,N,12132.4586090,E,4,62,0.46,17.039,M,15.25,M,1,3335*4B
$GNRMC,033043.400,A,2500.7761361,N,12132.4586090,E,1.61,43.97,030324,,,R,V*22
$GPHDT,49.329,T*00
$GNACCURACY,2.9*1D
$GNGGA,033043.500,2500.7761769,N,12132.4586487,E,4,61,0.47,16.991,M,15.25,M,1,3335*4C
$GNRMC,033043.500,A,2500.7761769,N,12132.4586487,E,1.67,47.50,030324,,,R,V*24
$GPHDT,,T*1B
$GNACCURACY,2.9*1D
$GNGGA,033043.600,2500.7762156,N,12132.4586912,E,4,62,0.46,17.047,M,15.25,M,0,3335*47
$GNRMC,033043.600,A,2500.7762156,N,12132.4586912,E,1.73,45.91,030324,,,R,V*25
$GPHDT,49.823,T*01
$GNACCURACY,2.9*1D
$GNGGA,033043.700,2500.7762587,N,12132.4587293,E,4,62,0.46,17.059,M,15.25,M,0,3335*42
$GNRMC,033043.700,A,2500.7762587,N,12132.4587293,E,1.83,45.30,030324,,,R,V*2B
$GPHDT,,T*1B
$GNACCURACY,2.9*1D
$GNGGA,033043.800,2500.7762876,N,12132.4587703,E,4,62,0.46,17.035,M,15.25,M,0,3335*48
$GNRMC,033043.800,A,2500.7762876,N,12132.4587703,E,1.80,45.70,030324,,,R,V*2C
$GPHDT,50.021,T*03
$GNACCURACY,2.9*1D
$GNGGA,033043.900,2500.7763358,N,12132.4588039,E,4,62,0.46,17.039,M,15.25,M,0,3335*42
$GNRMC,033043.900,A,2500.7763358,N,12132.4588039,E,1.84,44.19,030324,,,R,V*20
$GPHDT,,T*1B
$GNACCURACY,2.9*1D
$GNGGA,033044.000,2500.7763774,N,12132.4588387,E,4,60,0.47,17.031,M,15.25,M,1,3335*4A
$GNRMC,033044.000,A,2500.7763774,N,12132.4588387,E,1.90,41.97,030324,,,R,V*24
$GPHDT,51.883,T*02
$GNACCURACY,2.9*1D
$GNGGA,033044.100,2500.7764105,N,12132.4588865,E,4,61,0.47,17.009,M,15.25,M,1,3335*41
$GNRMC,033044.100,A,2500.7764105,N,12132.4588865,E,1.92,42.74,030324,,,R,V*29
$GPHDT,,T*1B
$GNGSA,A,3,08,194,199,27,195,04,16,09,21,31,26,196,0.75,0.47,0.59,1*00
$GNGSA,A,3,07,,,,,,,,,,,,0.75,0.47,0.59,1*0B
$GNGSA,A,3,82,80,79,81,,,,,,,,,0.75,0.47,0.59,2*0A
$GNGSA,A,3,30,07,34,15,27,08,02,36,,,,,0.75,0.47,0.59,3*03
$GNGSA,A,3,06,16,34,09,39,40,07,12,24,10,11,25,0.75,0.47,0.59,4*0C
$GNGSA,A,3,44,43,,,,,,,,,,,0.75,0.47,0.59,4*0E
$GPGSV,4,1,14,08,71,269,47,194,63,044,41,199,60,167,29,27,60,023,46,1*64
$GPGSV,4,2,14,195,54,127,38,04,40,226,43,16,39,044,40,09,32,279,21,1*5B
$GPGSV,4,3,14,21,29,173,26,31,23,131,32,26,22,075,35,196,22,175,17,1*55
$GPGSV,4,4,14,02,19,184,17,07,17,320,27,1*65
$GPGSV,3,1,09,08,71,269,46,194,63,044,45,27,60,023,47,199,60,167,34,8*6E
$GPGSV,3,2,09,195,54,127,43,04,40,226,43,09,32,279,32,26,22,075,38,8*53
$GPGSV,3,3,09,196,22,175,16,8*6E
$GLGSV,2,1,07,82,69,104,42,83,40,177,,80,39,353,24,79,38,066,38,1*7B
$GLGSV,2,2,07,81,33,036,39,69,08,212,13,71,05,318,,1*44
$GAGSV,2,1,08,30,51,014,43,07,42,247,27,34,42,090,37,15,34,158,24,7*7D
$GAGSV,2,2,08,27,32,303,19,08,22,187,15,02,20,070,25,36,12,042,25,7*72
$GAGSV,2,1,06,30,51,014,44,34,42,090,38,07,42,247,32,15,34,158,28,1*75
$GAGSV,2,2,06,02,20,070,31,36,12,042,31,1*74
$GBGSV,5,1,17,06,86,248,43,16,84,179,44,34,76,159,44,09,73,316,43,1*74
$GBGSV,5,2,17,39,72,167,41,40,68,307,44,07,64,285,41,12,62,061,41,1*79
$GBGSV,5,3,17,24,54,074,43,10,53,270,38,11,53,191,24,25,47,334,38,1*7E
$GBGSV,5,4,17,44,39,046,39,43,31,206,27,26,13,110,26,33,09,222,,1*7E
$GBGSV,5,5,17,41,08,270,,1*48
$GBGSV,2,1,07,34,76,159,45,39,72,167,45,40,68,307,46,24,54,074,43,4*7C
$GBGSV,2,2,07,25,47,334,38,44,39,046,42,43,31,206,25,4*47
$GNACCURACY,2.9*1D
$PAIRSAT,1,35,2,0,201,3,0,200,4,0,221,5,0,200,6,0,200,7,0,201,8,0,221,9,0,221,10,0,200,11,0,200,12,0,200,13,0,200,14,0,200,15,0,200,16,0,201,17,0,200,18,0,200,19,0,200,20,0,200,21,0,201,22,0,200,23,0,200,24,0,200,25,0,200,26,0,221,27,0,221,28,0,200,29,0,200,30,0,200,31,0,201,32,0,200,194,0,621,195,0,621,196,0,620,199,0,621*58
$PAIRSAT,2,24,65,0,200,66,0,200,67,0,200,68,0,200,69,0,201,70,0,200,71,0,201,72,0,200,73,0,200,74,0,200,75,0,200,76,0,200,77,0,200,78,0,200,79,0,201,80,0,201,81,0,201,82,0,201,83,0,201,84,0,200,85,0,200,86,0,200,87,0,200,88,0,200*7B
$PAIRSAT,3,23,2,0,1221,3,0,1200,4,0,1200,5,0,200,7,0,1221,8,0,1221,9,0,1200,10,0,1200,11,0,1200,12,0,1200,13,0,1200,15,0,1221,19,0,1200,21,0,1200,24,0,1200,25,0,1200,26,0,1200,27,0,1221,30,0,1221,31,0,1200,33,0,1200,34,0,1221,36,0,1221*6A
$PAIRSAT,4,46,1,0,200,2,0,200,3,0,600,4,0,200,5,0,200,6,0,201,7,0,201,8,0,200,9,0,201,10,0,201,11,0,201,12,0,201,13,0,200,14,0,200,16,0,201,19,0,600,20,0,600,21,0,600,22,0,600,23,0,600,24,0,621,25,0,621,26,0,621,27,0,600,28,0,600,29,0,600,30,0,600,32,0,600,33,0,621,34,0,621,35,0,600,36,0,600,37,0,600,38,0,600,39,0,621,40,0,621,41,0,621,42,0,600,43,0,621,44,0,621,45,0,600,46,0,600,59,0,400,60,0,400,61,0,400,62,0,400*48
$PAIRDGP,10,2,4,7,8,9,16,21,26,27,31*43
$GNGGA,033044.200,2500.7764443,N,12132.4589209,E,4,60,0.47,17.053,M,15.25,M,1,3335*4A
$GNRMC,033044.200,A,2500.7764443,N,12132.4589209,E,1.77,44.73,030324,,,R,V*26
$GPHDT,53.386,T*0E
$GNACCURACY,2.9*1D
$GNGGA,033044.300,2500.7764824,N,12132.4589776,E,4,60,0.47,17.032,M,15.25,M,1,3335*4C
$GNRMC,033044.300,A,2500.7764824,N,12132.4589776,E,1.91,43.64,030324,,,R,V*2E
$GPHDT,,T*1B
$GNACCURACY,2.9*1D
$GNGGA,033044.400,2500.7765180,N,12132.4590220,E,4,60,0.47,17.000,M,15.25,M,1,3335*42
$GNRMC,033044.400,A,2500.7765180,N,12132.4590220,E,2.03,47.83,030324,,,R,V*24
$GPHDT,51.167,T*01
$GNACCURACY,2.9*1D
$GNGGA,033044.500,2500.7765432,N,12132.4590778,E,4,59,0.48,17.054,M,15.25,M,1,3335*43
$GNRMC,033044.500,A,2500.7765432,N,12132.4590778,E,2.02,47.93,030324,,,R,V*21
$GPHDT,,T*1B
$GNACCURACY,2.9*1D
$GNGGA,033044.600,2500.7765812,N,12132.4591336,E,4,61,0.46,17.035,M,15.25,M,0,3335*42
$GNRMC,033044.600,A,2500.7765812,N,12132.4591336,E,2.02,51.33,030324,,,R,V*2E
$GPHDT,51.078,T*0E
$GNACCURACY,2.9*1D
$GNGGA,033044.700,2500.7766188,N,12132.4591735,E,4,61,0.46,17.085,M,15.25,M,0,3335*46
$GNRMC,033044.700,A,2500.7766188,N,12132.4591735,E,1.98,48.69,030324,,,R,V*26
$GPHDT,,T*1B
$GNACCURACY,2.9*1D
$GNGGA,033044.800,2500.7766411,N,12132.4592253,E,4,61,0.46,17.056,M,15.25,M,0,3335*44
$GNRMC,033044.800,A,2500.7766411,N,12132.4592253,E,1.87,51.62,030324,,,R,V*27
$GPHDT,50.225,T*05
$GNACCURACY,2.9*1D
$GNGGA,033044.900,2500.7766941,N,12132.4592660,E,4,61,0.46,17.028,M,15.25,M,0,3335*40
$GNRMC,033044.900,A,2500.7766941,N,12132.4592660,E,1.92,47.17,030324,,,R,V*2B
$GPHDT,,T*1B
$GNACCURACY,2.9*1D
$GNGGA,033045.000,2500.7767369,N,12132.4593074,E,4,61,0.46,17.023,M,15.25,M,1,3335*41
$GNRMC,033045.000,A,2500.7767369,N,12132.4593074,E,1.97,44.20,030324,,,R,V*22
$GPHDT,51.678,T*08
$GNACCURACY,2.9*1D
$GNGGA,033045.100,2500.7767774,N,12132.4593517,E,4,60,0.47,16.994,M,15.25,M,1,3335*4C
$GNRMC,033045.100,A,2500.7767774,N,12132.4593517,E,2.01,45.43,030324,,,R,V*23
$GPHDT,,T*1B
$GNGSA,A,3,08,194,199,27,195,04,16,09,21,31,26,196,0.75,0.47,0.59,1*00
$GNGSA,A,3,07,,,,,,,,,,,,0.75,0.47,0.59,1*0B
$GNGSA,A,3,82,80,79,81,,,,,,,,,0.75,0.47,0.59,2*0A
$GNGSA,A,3,30,07,34,15,27,08,02,36,,,,,0.75,0.47,0.59,3*03
$GNGSA,A,3,06,16,34,09,39,40,07,12,24,10,11,25,0.75,0.47,0.59,4*0C
$GNGSA,A,3,44,43,,,,,,,,,,,0.75,0.47,0.59,4*0E
$GPGSV,4,1,14,08,71,269,46,194,63,044,40,199,60,167,25,27,60,023,45,1*6B
$GPGSV,4,2,14,195,54,127,43,04,40,226,44,16,39,044,41,09,32,279,28,1*58
$GPGSV,4,3,14,21,29,173,26,31,23,131,35,26,22,075,31,196,22,175,18,1*59
$GPGSV,4,4,14,02,19,184,17,07,17,320,26,1*64
$GPGSV,3,1,09,08,71,269,45,194,63,044,45,27,60,023,47,199,60,167,32,8*6B
$GPGSV,3,2,09,195,54,127,44,04,40,226,45,09,32,279,35,26,22,075,35,8*58
$GPGSV,3,3,09,196,22,175,15,8*6D
$GLGSV,2,1,08,82,69,104,43,83,40,177,,80,39,353,24,79,38,066,35,1*78
$GLGSV,2,2,08,81,33,036,40,69,08,212,14,71,05,318,,78,03,105,,1*7A
$GAGSV,2,1,08,30,51,014,42,07,42,247,29,34,42,090,37,15,34,158,22,7*74
$GAGSV,2,2,08,27,32,303,20,08,22,187,16,02,20,070,28,36,12,042,25,7*76
$GAGSV,2,1,06,30,51,014,45,34,42,090,38,07,42,247,31,15,34,158,24,1*7B
$GAGSV,2,2,06,02,20,070,32,36,12,042,30,1*76
$GBGSV,5,1,19,06,86,248,43,16,84,180,44,34,76,159,42,09,73,316,40,1*79
$GBGSV,5,2,19,39,72,167,42,40,68,307,43,07,64,285,40,12,62,060,41,1*73
$GBGSV,5,3,19,24,54,074,42,10,53,270,41,11,53,191,24,25,47,334,32,1*75
$GBGSV,5,4,19,44,39,046,42,43,31,206,26,26,13,110,27,33,09,222,,1*7C
$GBGSV,5,5,19,41,08,270,,14,05,198,,23,05,307,,1*46
$GBGSV,2,1,07,34,76,159,43,39,72,167,44,40,68,307,46,24,54,074,42,4*7A
$GBGSV,2,2,07,25,47,334,31,44,39,046,39,43,31,206,25,4*42
$GNACCURACY,2.9*1D
$PAIRSAT,1,35,2,0,201,3,0,200,4,0,221,5,0,200,6,0,200,7,0,201,8,0,221,9,0,221,10,0,200,11,0,200,12,0,200,13,0,200,14,0,200,15,0,200,16,0,201,17,0,200,18,0,200,19,0,200,20,0,200,21,0,201,22,0,200,23,0,200,24,0,200,25,0,200,26,0,221,27,0,221,28,0,200,29,0,200,30,0,200,31,0,201,32,0,200,194,0,621,195,0,621,196,0,620,199,0,621*58
$PAIRSAT,2,24,65,0,200,66,0,200,67,0,200,68,0,200,69,0,201,70,0,200,71,0,201,72,0,200,73,0,200,74,0,200,75,0,200,76,0,200,77,0,200,78,0,200,79,0,201,80,0,201,81,0,201,82,0,201,83,0,201,84,0,200,85,0,200,86,0,200,87,0,200,88,0,200*7B
$PAIRSAT,3,23,2,0,1221,3,0,1200,4,0,1200,5,0,200,7,0,1221,8,0,1221,9,0,1200,10,0,1200,11,0,1200,12,0,1200,13,0,1200,15,0,1221,19,0,1200,21,0,1200,24,0,1200,25,0,1200,26,0,1200,27,0,1221,30,0,1221,31,0,1200,33,0,1200,34,0,1221,36,0,1221*6A
$PAIRSAT,4,46,1,0,200,2,0,200,3,0,600,4,0,200,5,0,200,6,0,201,7,0,201,8,0,200,9,0,201,10,0,201,11,0,201,12,0,201,13,0,200,14,0,200,16,0,201,19,0,600,20,0,600,21,0,600,22,0,600,23,0,600,24,0,621,25,0,621,26,0,621,27,0,600,28,0,600,29,0,600,30,0,600,32,0,600,33,0,621,34,0,621,35,0,600,36,0,600,37,0,600,38,0,600,39,0,621,40,0,621,41,0,621,42,0,600,43,0,621,44,0,621,45,0,600,46,0,600,59,0,400,60,0,400,61,0,400,62,0,400*48
$PAIRDGP,10,2,4,7,8,9,16,21,26,27,31*43
$GNGGA,033045.200,2500.7768212,N,12132.4593972,E,4,60,0.47,17.054,M,15.25,M,1,3335*4E
$GNRMC,033045.200,A,2500.7768212,N,12132.4593972,E,2.09,42.55,030324,,,R,V*2D
$GPHDT,50.763,T*02
$GNACCURACY,2.9*1D
$GNGGA,033045.300,2500.7768459,N,12132.4594520,E,4,61,0.46,17.083,M,15.25,M,1,3335*40
$GNRMC,033045.300,A,2500.7768459,N,12132.4594520,E,2.06,46.41,030324,,,R,V*27
$GPHDT,,T*1B
$GNACCURACY,2.9*1D
$GNGGA,033045.400,2500.7768937,N,12132.4594979,E,4,60,0.47,17.032,M,15.25,M,1,3335*48
$GNRMC,033045.400,A,2500.7768937,N,12132.4594979,E,2.20,47.51,030324,,,R,V*21
$GPHDT,49.488,T*0C
$GNACCURACY,2.9*1D
$GNGGA,033045.500,2500.7769297,N,12132.4595451,E,4,61,0.47,17.093,M,15.25,M,1,3335*45
$GNRMC,033045.500,A,2500.7769297,N,12132.4595451,E,2.14,45.00,030324,,,R,V*27
$GPHDT,,T*1B
$GNACCURACY,2.9*1D
$GNGGA,033045.600,2500.7769812,N,12132.4596006,E,4,61,0.47,17.053,M,15.25,M,0,3335*49
$GNRMC,033045.600,A,2500.7769812,N,12132.4596006,E,2.21,46.86,030324,,,R,V*2D
$GPHDT,50.397,T*0D
$GNACCURACY,2.9*1D
$GNGGA,033045.700,2500.7770170,N,12132.4596541,E,4,60,0.47,17.027,M,15.25,M,0,3335*49
$GNRMC,033045.700,A,2500.7770170,N,12132.4596541,E,2.28,48.11,030324,,,R,V*26
$GPHDT,,T*1B
$GNACCURACY,2.9*1D
$GNGGA,033045.800,2500.7770486,N,12132.4597038,E,4,62,0.46,17.072,M,15.25,M,0,3335*43
$GNRMC,033045.800,A,2500.7770486,N,12132.4597038,E,2.18,50.78,030324,,,R,V*2A
$GPHDT,49.002,T*0A
$GNACCURACY,2.9*1D
$GNGGA,033045.900,2500.7771009,N,12132.4597514,E,4,60,0.47,17.072,M,15.25,M,0,3335*48
$GNRMC,033045.900,A,2500.7771009,N,12132.4597514,E,2.15,50.53,030324,,,R,V*26
$GPHDT,,T*1B
$GNACCURACY,2.9*1D
$GNGGA,033046.000,2500.7771381,N,12132.4598102,E,4,61,0.46,17.013,M,15.25,M,1,3335*4B
$GNRMC,033046.000,A,2500.7771381,N,12132.4598102,E,2.31,47.52,030324,,,R,V*22
$GPHDT,49.268,T*04
$GNACCURACY,2.9*1D
$GNGGA,033046.100,2500.7771854,N,12132.4598465,E,4,60,0.47,16.998,M,15.25,M,1,3335*46
$GNRMC,033046.100,A,2500.7771854,N,12132.4598465,E,2.24,44.86,030324,,,R,V*2A
$GPHDT,,T*1B
$GNGSA,A,3,08,194,199,27,195,04,16,09,21,31,26,196,0.75,0.47,0.59,1*00
$GNGSA,A,3,07,,,,,,,,,,,,0.75,0.47,0.59,1*0B
$GNGSA,A,3,82,80,79,81,,,,,,,,,0.75,0.47,0.59,2*0A
$GNGSA,A,3,30,07,34,27,08,02,36,15,,,,,0.75,0.47,0.59,3*03
$GNGSA,A,3,06,16,34,09,39,40,07,12,24,10,11,25,0.75,0.47,0.59,4*0C
$GNGSA,A,3,44,43,,,,,,,,,,,0.75,0.47,0.59,4*0E
$GPGSV,4,1,14,08,71,269,45,194,63,044,41,199,60,167,32,27,60,023,46,1*6C
$GPGSV,4,2,14,195,54,127,43,04,40,226,45,16,39,044,40,09,32,279,33,1*52
$GPGSV,4,3,14,21,29,173,25,31,23,131,31,26,22,075,30,196,22,175,18,1*5F
$GPGSV,4,4,14,02,19,184,17,07,17,320,29,1*6B
$GPGSV,3,1,09,08,71,269,45,194,63,044,44,27,60,023,47,199,60,167,42,8*6D
$GPGSV,3,2,09,195,54,127,43,04,40,226,45,09,32,279,33,26,22,075,36,8*5A
$GPGSV,3,3,09,196,22,175,16,8*6E
$GLGSV,2,1,08,82,69,104,43,83,40,177,,80,39,353,24,79,38,066,38,1*75
$GLGSV,2,2,08,81,33,036,37,69,08,212,13,71,05,318,,73,04,310,,1*77
$GAGSV,2,1,08,30,51,014,41,07,42,247,33,34,42,090,38,15,34,158,,7*73
$GAGSV,2,2,08,27,32,303,19,08,22,187,15,02,20,070,28,36,12,042,20,7*7A
$GAGSV,2,1,06,30,51,014,45,34,42,090,36,07,42,247,35,15,34,158,29,1*7C
$GAGSV,2,2,06,02,20,070,31,36,12,042,27,1*73
$GBGSV,5,1,17,06,86,248,43,16,84,180,43,34,76,159,47,09,73,316,41,1*74
$GBGSV,5,2,17,39,72,167,44,40,68,307,43,07,64,285,40,12,62,060,41,1*7B
$GBGSV,5,3,17,24,54,075,41,10,53,270,41,11,53,191,23,25,47,334,29,1*74
$GBGSV,5,4,17,44,39,046,42,43,31,206,24,26,13,110,26,33,09,222,,1*71
$GBGSV,5,5,17,41,08,270,,1*48
$GBGSV,2,1,07,34,76,159,44,39,72,167,43,40,68,307,45,24,54,075,42,4*78
$GBGSV,2,2,07,25,47,334,19,44,39,046,38,43,31,206,22,4*4E
$GNACCURACY,2.9*1D
$PAIRSAT,1,35,2,0,201,3,0,200,4,0,221,5,0,200,6,0,200,7,0,201,8,0,221,9,0,221,10,0,200,11,0,200,12,0,200,13,0,200,14,0,200,15,0,200,16,0,201,17,0,200,18,0,200,19,0,200,20,0,200,21,0,201,22,0,200,23,0,200,24,0,200,25,0,200,26,0,221,27,0,221,28,0,200,29,0,200,30,0,200,31,0,201,32,0,200,194,0,621,195,0,621,196,0,620,199,0,621*58
$PAIRSAT,2,24,65,0,200,66,0,200,67,0,200,68,0,200,69,0,201,70,0,200,71,0,201,72,0,200,73,0,200,74,0,200,75,0,200,76,0,200,77,0,200,78,0,200,79,0,201,80,0,201,81,0,201,82,0,201,83,0,201,84,0,200,85,0,200,86,0,200,87,0,200,88,0,200*7B
$PAIRSAT,3,23,2,0,1221,3,0,1200,4,0,1200,5,0,200,7,0,1221,8,0,1221,9,0,1200,10,0,1200,11,0,1200,12,0,1200,13,0,1200,15,0,1221,19,0,1200,21,0,1200,24,0,1200,25,0,1200,26,0,1200,27,0,1221,30,0,1221,31,0,1200,33,0,1200,34,0,1221,36,0,1221*6A
$PAIRSAT,4,46,1,0,200,2,0,200,3,0,600,4,0,200,5,0,200,6,0,201,7,0,201,8,0,200,9,0,201,10,0,201,11,0,201,12,0,201,13,0,200,14,0,200,16,0,201,19,0,600,20,0,600,21,0,600,22,0,600,23,0,600,24,0,621,25,0,621,26,0,621,27,0,600,28,0,600,29,0,600,30,0,600,32,0,600,33,0,621,34,0,621,35,0,600,36,0,600,37,0,600,38,0,600,39,0,621,40,0,621,41,0,621,42,0,600,43,0,621,44,0,621,45,0,600,46,0,600,59,0,400,60,0,400,61,0,400,62,0,400*48
$PAIRDGP,10,2,4,7,8,9,16,21,26,27,31*43
$GNGGA,033046.200,2500.7772457,N,12132.4598797,E,4,60,0.47,17.013,M,15.25,M,1,3335*4C
$GNRMC,033046.200,A,2500.7772457,N,12132.4598797,E,2.31,41.35,030324,,,R,V*22
$GPHDT,52.739,T*0F
$GNACCURACY,2.9*1D
$GNGGA,033046.300,2500.7772890,N,12132.4599275,E,4,59,0.48,17.020,M,15.25,M,1,3335*47
$GNRMC,033046.300,A,2500.7772890,N,12132.4599275,E,2.19,41.43,030324,,,R,V*27
$GPHDT,,T*1B
$GNACCURACY,2.9*1D
$GNGGA,033046.400,2500.7773211,N,12132.4599838,E,4,61,0.46,17.078,M,15.25,M,1,3335*49
$GNRMC,033046.400,A,2500.7773211,N,12132.4599838,E,2.16,42.04,030324,,,R,V*2E
$GPHDT,51.140,T*04
$GNACCURACY,2.9*1D
$GNGGA,033046.500,2500.7773665,N,12132.4600244,E,4,58,0.49,17.078,M,15.25,M,0,3335*49
$GNRMC,033046.500,A,2500.7773665,N,12132.4600244,E,2.04,45.12,030324,,,R,V*29
$GPHDT,,T*1B
$GNACCURACY,2.9*1D
$GNGGA,033046.600,2500.7774042,N,12132.4600802,E,4,59,0.48,17.062,M,15.25,M,0,3335*4D
$GNRMC,033046.600,A,2500.7774042,N,12132.4600802,E,2.06,46.46,030324,,,R,V*26
$GPHDT,51.924,T*0E
$GNACCURACY,2.9*1D
$GNGGA,033046.700,2500.7774553,N,12132.4601313,E,4,61,0.47,17.000,M,15.25,M,0,3335*43
$GNRMC,033046.700,A,2500.7774553,N,12132.4601313,E,2.34,47.39,030324,,,R,V*20
$GPHDT,,T*1B
$GNACCURACY,2.9*1D
$GNGGA,033046.800,2500.7774937,N,12132.4601833,E,4,60,0.48,17.051,M,15.25,M,0,3335*41
$GNRMC,033046.800,A,2500.7774937,N,12132.4601833,E,2.43,49.25,030324,,,R,V*2B
$GPHDT,53.256,T*02
$GNACCURACY,2.9*1D
$GNGGA,033046.900,2500.7775212,N,12132.4602541,E,4,59,0.48,17.065,M,15.25,M,0,3335*4B
$GNRMC,033046.900,A,2500.7775212,N,12132.4602541,E,2.29,54.51,030324,,,R,V*2F
$GPHDT,,T*1B
$GNACCURACY,2.9*1D
$GNGGA,033047.000,2500.7775682,N,12132.4602958,E,4,60,0.47,17.070,M,15.25,M,1,3335*4A
$GNRMC,033047.000,A,2500.7775682,N,12132.4602958,E,2.20,52.82,030324,,,R,V*2F
$GPHDT,51.724,T*00
$GNACCURACY,2.9*1D
$GNGGA,033047.100,2500.7775940,N,12132.4603477,E,4,61,0.46,17.134,M,15.25,M,1,3335*4A
$GNRMC,033047.100,A,2500.7775940,N,12132.4603477,E,2.14,49.31,030324,,,R,V*2B
$GPHDT,,T*1B
$GNGSA,A,3,08,194,199,27,195,04,16,09,21,31,26,196,0.75,0.47,0.59,1*00
$GNGSA,A,3,07,,,,,,,,,,,,0.75,0.47,0.59,1*0B
$GNGSA,A,3,82,80,79,81,,,,,,,,,0.75,0.47,0.59,2*0A
$GNGSA,A,3,30,07,34,27,08,02,36,15,,,,,0.75,0.47,0.59,3*03
$GNGSA,A,3,06,16,34,09,39,40,07,12,24,10,11,25,0.75,0.47,0.59,4*0C
$GNGSA,A,3,44,43,,,,,,,,,,,0.75,0.47,0.59,4*0E
$GPGSV,4,1,14,08,71,269,45,194,63,044,41,199,60,167,33,27,60,023,45,1*6E
$GPGSV,4,2,14,195,54,127,43,04,40,226,43,16,39,044,41,09,32,279,33,1*55
$GPGSV,4,3,14,21,29,173,28,31,23,131,25,26,22,075,26,196,22,175,19,1*51
$GPGSV,4,4,14,02,19,184,17,07,17,320,28,1*6A
$GPGSV,3,1,09,08,71,269,44,194,63,044,44,27,60,023,47,199,60,167,43,8*6D
$GPGSV,3,2,09,195,54,127,43,04,40,226,46,09,32,279,35,26,22,075,35,8*5C
$GPGSV,3,3,09,196,22,175,16,8*6E
$GLGSV,2,1,07,82,69,104,43,83,40,177,,80,39,353,23,79,38,066,36,1*73
$GLGSV,2,2,07,81,33,036,38,69,08,212,15,71,05,318,,1*43
$GAGSV,2,1,08,30,51,014,42,07,42,247,36,34,42,090,39,15,34,158,,7*74
$GAGSV,2,2,08,27,32,303,19,08,22,187,15,02,20,070,28,36,12,042,19,7*70
$GAGSV,2,1,06,30,51,014,43,34,42,090,38,07,42,247,37,15,34,158,37,1*79
$GAGSV,2,2,06,02,20,070,28,36,12,042,24,1*78
$GBGSV,5,1,17,06,86,248,43,16,84,180,44,34,76,159,46,09,73,316,40,1*73
$GBGSV,5,2,17,39,72,167,45,40,68,307,44,07,64,285,39,12,62,060,41,1*73
$GBGSV,5,3,17,24,54,075,43,10,53,270,40,11,53,191,23,25,47,334,27,1*79
$GBGSV,5,4,17,44,39,046,41,43,31,206,24,26,13,110,26,33,09,222,,1*72
$GBGSV,5,5,17,41,08,269,,1*40
$GBGSV,2,1,07,34,76,159,44,39,72,167,45,40,68,307,44,24,54,075,43,4*7E
$GBGSV,2,2,07,25,47,334,21,44,39,046,39,43,31,206,28,4*4E
$GNACCURACY,2.9*1D
$PAIRSAT,1,35,2,0,201,3,0,200,4,0,221,5,0,200,6,0,200,7,0,201,8,0,221,9,0,221,10,0,200,11,0,200,12,0,200,13,0,200,14,0,200,15,0,200,16,0,201,17,0,200,18,0,200,19,0,200,20,0,200,21,0,201,22,0,200,23,0,200,24,0,200,25,0,200,26,0,221,27,0,221,28,0,200,29,0,200,30,0,200,31,0,201,32,0,200,194,0,621,195,0,621,196,0,620,199,0,621*58
$PAIRSAT,2,24,65,0,200,66,0,200,67,0,200,68,0,200,69,0,201,70,0,200,71,0,201,72,0,200,73,0,200,74,0,200,75,0,200,76,0,200,77,0,200,78,0,200,79,0,201,80,0,201,81,0,201,82,0,201,83,0,201,84,0,200,85,0,200,86,0,200,87,0,200,88,0,200*7B
$PAIRSAT,3,23,2,0,1221,3,0,1200,4,0,1200,5,0,200,7,0,1221,8,0,1221,9,0,1200,10,0,1200,11,0,1200,12,0,1200,13,0,1200,15,0,1221,19,0,1200,21,0,1200,24,0,1200,25,0,1200,26,0,1200,27,0,1221,30,0,1221,31,0,1200,33,0,1200,34,0,1221,36,0,1221*6A
$PAIRSAT,4,46,1,0,200,2,0,200,3,0,600,4,0,200,5,0,200,6,0,201,7,0,201,8,0,200,9,0,201,10,0,201,11,0,201,12,0,201,13,0,200,14,0,200,16,0,201,19,0,600,20,0,600,21,0,600,22,0,600,23,0,600,24,0,621,25,0,621,26,0,621,27,0,600,28,0,600,29,0,600,30,0,600,32,0,600,33,0,621,34,0,621,35,0,600,36,0,600,37,0,600,38,0,600,39,0,621,40,0,621,41,0,621,42,0,600,43,0,621,44,0,621,45,0,600,46,0,600,59,0,400,60,0,400,61,0,400,62,0,400*48
$PAIRDGP,10,2,4,7,8,9,16,21,26,27,31*43
$GNGGA,033047.200,2500.7776529,N,12132.4603933,E,4,60,0.47,17.018,M,15.25,M,1,3335*4B
$GNRMC,033047.200,A,2500.7776529,N,12132.4603933,E,2.16,47.00,030324,,,R,V*2B
$GPHDT,52.540,T*03
$GNACCURACY,2.9*1D
$GNGGA,033047.300,2500.7776988,N,12132.4604438,E,4,60,0.47,17.015,M,15.25,M,1,3335*41
$GNRMC,033047.300,A,2500.7776988,N,12132.4604438,E,2.28,46.28,030324,,,R,V*2A
$GPHDT,,T*1B
$GNACCURACY,2.9*1D
$GNGGA,033047.400,2500.7777407,N,12132.4604972,E,4,61,0.46,17.040,M,15.25,M,1,3335*4E
$GNRMC,033047.400,A,2500.7777407,N,12132.4604972,E,2.40,44.64,030324,,,R,V*21
$GPHDT,52.169,T*0C
$GNACCURACY,2.9*1D
$GNGGA,033047.500,2500.7777824,N,12132.4605378,E,4,61,0.46,16.983,M,15.25,M,0,3335*45
$GNRMC,033047.500,A,2500.7777824,N,12132.4605378,E,2.18,45.47,030324,,,R,V*21
$GPHDT,,T*1B
$GNACCURACY,2.9*1D
$GNGGA,033047.600,2500.7778177,N,12132.4605910,E,4,61,0.46,17.034,M,15.25,M,0,3335*46
$GNRMC,033047.600,A,2500.7778177,N,12132.4605910,E,2.13,47.89,030324,,,R,V*2D
$GPHDT,50.923,T*08
$GNACCURACY,2.9*1D
$GNGGA,033047.700,2500.7778747,N,12132.4606353,E,4,61,0.46,17.011,M,15.25,M,0,3335*4B
$GNRMC,033047.700,A,2500.7778747,N,12132.4606353,E,2.19,46.90,030324,,,R,V*24
$GPHDT,,T*1B
$GNACCURACY,2.9*1D
$GNGGA,033047.800,2500.7779078,N,12132.4606969,E,4,61,0.46,16.994,M,15.25,M,0,3335*48
$GNRMC,033047.800,A,2500.7779078,N,12132.4606969,E,2.24,48.13,030324,,,R,V*29
$GPHDT,52.366,T*01
$GNACCURACY,2.9*1D
$GNGGA,033047.900,2500.7779574,N,12132.4607477,E,4,61,0.46,16.975,M,15.25,M,0,3335*4C
$GNRMC,033047.900,A,2500.7779574,N,12132.4607477,E,2.32,48.06,030324,,,R,V*21
$GPHDT,,T*1B
$GNACCURACY,2.9*1D
$GNGGA,033048.000,2500.7779780,N,12132.4608103,E,4,61,0.46,17.060,M,15.25,M,1,3335*47
$GNRMC,033048.000,A,2500.7779780,N,12132.4608103,E,2.16,51.86,030324,,,R,V*21
$GPHDT,49.657,T*0C
$GNACCURACY,2.9*1D
$GNGGA,033048.100,2500.7780256,N,12132.4608525,E,4,61,0.46,16.988,M,15.25,M,1,3335*40
$GNRMC,033048.100,A,2500.7780256,N,12132.4608525,E,2.14,52.81,030324,,,R,V*2E
$GPHDT,,T*1B
$GNGSA,A,3,08,194,27,199,195,04,16,09,21,31,196,26,0.74,0.46,0.58,1*01
$GNGSA,A,3,07,,,,,,,,,,,,0.74,0.46,0.58,1*0A
$GNGSA,A,3,82,80,79,81,,,,,,,,,0.74,0.46,0.58,2*0B
$GNGSA,A,3,30,34,07,15,27,08,02,36,,,,,0.74,0.46,0.58,3*02
$GNGSA,A,3,06,16,34,09,39,40,07,12,24,10,11,25,0.74,0.46,0.58,4*0D
$GNGSA,A,3,44,43,26,,,,,,,,,,0.74,0.46,0.58,4*0B
$GPGSV,4,1,15,08,71,269,46,194,63,044,40,27,60,023,47,199,60,167,38,1*64
$GPGSV,4,2,15,195,54,127,43,45,47,231,37,04,40,226,43,16,39,044,41,1*56
$GPGSV,4,3,15,09,32,279,30,21,29,173,27,31,23,131,29,196,22,175,20,1*5C
$GPGSV,4,4,15,26,22,075,30,02,19,184,17,07,17,320,24,1*52
$GPGSV,2,1,08,08,71,269,47,194,63,044,44,27,60,023,46,199,60,167,46,8*6A
$GPGSV,2,2,08,195,54,127,43,04,40,226,46,09,32,279,36,26,22,075,38,8*52
$GLGSV,2,1,08,82,69,104,43,83,40,177,,80,39,353,23,79,38,066,39,1*73
$GLGSV,2,2,08,81,33,036,37,69,08,212,14,71,05,318,,78,03,105,,1*7A
$GAGSV,2,1,08,30,51,014,40,34,42,090,37,07,42,247,36,15,34,158,39,7*72
$GAGSV,2,2,08,27,32,303,22,08,22,187,16,02,20,070,27,36,12,042,17,7*7A
$GAGSV,2,1,07,30,51,014,42,07,42,247,34,34,42,090,37,15,34,158,42,1*77
$GAGSV,2,2,07,27,32,303,27,02,20,070,32,36,12,042,21,1*46
$GBGSV,5,1,17,06,86,248,43,16,84,180,43,34,76,159,45,09,73,316,41,1*76
$GBGSV,5,2,17,39,72,167,45,40,68,307,41,07,64,285,40,12,62,060,41,1*78
$GBGSV,5,3,17,24,54,075,43,10,53,270,40,11,53,191,24,25,47,334,24,1*7D
$GBGSV,5,4,17,44,39,046,42,43,31,206,27,26,13,110,28,33,09,222,,1*7C
$GBGSV,5,5,17,41,08,269,,1*40
$GBGSV,2,1,06,34,76,159,45,39,72,167,45,40,68,307,44,24,54,075,43,4*7E
$GBGSV,2,2,06,44,39,046,40,43,31,206,27,4*7D
$GNACCURACY,2.9*1D
$PAIRSAT,1,35,2,0,201,3,0,200,4,0,221,5,0,200,6,0,200,7,0,201,8,0,221,9,0,221,10,0,200,11,0,200,12,0,200,13,0,200,14,0,200,15,0,200,16,0,201,17,0,200,18,0,200,19,0,200,20,0,200,21,0,201,22,0,200,23,0,200,24,0,200,25,0,200,26,0,221,27,0,221,28,0,200,29,0,200,30,0,200,31,0,201,32,0,200,194,0,621,195,0,621,196,0,620,199,0,621*58
$PAIRSAT,2,24,65,0,200,66,0,200,67,0,200,68,0,200,69,0,201,70,0,200,71,0,201,72,0,200,73,0,200,74,0,200,75,0,200,76,0,200,77,0,200,78,0,200,79,0,201,80,0,201,81,0,201,82,0,201,83,0,201,84,0,200,85,0,200,86,0,200,87,0,200,88,0,200*7B
$PAIRSAT,3,23,2,0,1221,3,0,1200,4,0,1200,5,0,200,7,0,1221,8,0,1221,9,0,1200,10,0,1200,11,0,1200,12,0,1200,13,0,1200,15,0,1221,19,0,1200,21,0,1200,24,0,1200,25,0,1200,26,0,1200,27,0,1221,30,0,1221,31,0,1200,33,0,1200,34,0,1221,36,0,1221*6A
$PAIRSAT,4,46,1,0,200,2,0,200,3,0,600,4,0,200,5,0,200,6,0,201,7,0,201,8,0,200,9,0,201,10,0,201,11,0,201,12,0,201,13,0,200,14,0,200,16,0,201,19,0,600,20,0,600,21,0,600,22,0,600,23,0,600,24,0,621,25,0,621,26,0,621,27,0,600,28,0,600,29,0,600,30,0,600,32,0,600,33,0,621,34,0,621,35,0,600,36,0,600,37,0,600,38,0,600,39,0,621,40,0,621,41,0,621,42,0,600,43,0,621,44,0,621,45,0,600,46,0,600,59,0,400,60,0,400,61,0,400,62,0,400*48
$PAIRDGP,10,2,4,7,8,9,16,21,26,27,31*43
$GNGGA,033048.200,2500.7780525,N,12132.4609125,E,4,61,0.46,17.039,M,15.25,M,1,3335*47
$GNRMC,033048.200,A,2500.7780525,N,12132.4609125,E,1.99,53.88,030324,,,R,V*25
$GPHDT,49.097,T*06
$GNACCURACY,2.9*1D
$GNGGA,033048.300,2500.7781042,N,12132.4609518,E,4,61,0.46,17.050,M,15.25,M,1,3335*46
$GNRMC,033048.300,A,2500.7781042,N,12132.4609518,E,2.19,45.36,030324,,,R,V*22
$GPHDT,,T*1B
$GNACCURACY,2.9*1D
$GNGGA,033048.400,2500.7781499,N,12132.4610003,E,4,61,0.46,16.988,M,15.25,M,1,3335*49
$GNRMC,033048.400,A,2500.7781499,N,12132.4610003,E,2.26,42.25,030324,,,R,V*29
$GPHDT,50.131,T*03
$GNACCURACY,2.9*1D
$GNGGA,033048.500,2500.7781942,N,12132.4610512,E,4,60,0.46,17.017,M,15.25,M,1,3335*49
$GNRMC,033048.500,A,2500.7781942,N,12132.4610512,E,2.25,44.34,030324,,,R,V*23
$GPHDT,,T*1B
$GNACCURACY,2.9*1D
$GNGGA,033048.600,2500.7782415,N,12132.4611010,E,4,60,0.46,17.035,M,15.25,M,1,3335*40
$GNRMC,033048.600,A,2500.7782415,N,12132.4611010,E,2.23,46.03,030324,,,R,V*2A
$GPHDT,49.106,T*0F
$GNACCURACY,2.9*1D
$GNGGA,033048.700,2500.7782830,N,12132.4611438,E,4,59,0.47,17.030,M,15.25,M,0,3335*4B
$GNRMC,033048.700,A,2500.7782830,N,12132.4611438,E,2.21,46.00,030324,,,R,V*2F
$GPHDT,,T*1B
$GNACCURACY,2.9*1D
$GNGGA,033048.800,2500.7783332,N,12132.4612038,E,4,58,0.48,17.027,M,15.25,M,0,3335*43
$GNRMC,033048.800,A,2500.7783332,N,12132.4612038,E,2.29,45.24,030324,,,R,V*22
$GPHDT,50.614,T*03
$GNACCURACY,2.9*1D
$GNGGA,033048.900,2500.7783700,N,12132.4612467,E,4,57,0.50,17.038,M,15.25,M,0,3335*41
$GNRMC,033048.900,A,2500.7783700,N,12132.4612467,E,2.20,46.47,030324,,,R,V*27
$GPHDT,,T*1B
$GNACCURACY,2.9*1D
$GNGGA,033049.000,2500.7784066,N,12132.4613008,E,4,57,0.50,17.007,M,15.25,M,1,3335*48
$GNRMC,033049.000,A,2500.7784066,N,12132.4613008,E,2.27,48.12,030324,,,R,V*2A
$GPHDT,49.686,T*00
$GNACCURACY,2.9*1D
$GNGGA,033049.100,2500.7784450,N,12132.4613659,E,4,57,0.50,17.055,M,15.25,M,1,3335*4D
$GNRMC,033049.100,A,2500.7784450,N,12132.4613659,E,2.33,50.86,030324,,,R,V*29
$GPHDT,,T*1B
$GNGSA,A,3,08,194,27,199,195,04,16,09,21,196,26,07,0.79,0.50,0.62,1*07
$GNGSA,A,3,82,80,79,81,,,,,,,,,0.79,0.50,0.62,2*08
$GNGSA,A,3,30,07,34,15,27,08,02,,,,,,0.79,0.50,0.62,3*04
$GNGSA,A,3,06,16,34,09,39,40,07,12,24,10,11,25,0.79,0.50,0.62,4*0E
$GNGSA,A,3,44,43,,,,,,,,,,,0.79,0.50,0.62,4*0C
$GPGSV,4,1,15,08,71,269,47,194,63,044,40,27,60,023,46,199,60,167,38,1*64
$GPGSV,4,2,15,195,54,127,43,45,47,231,34,04,40,226,42,16,39,044,39,1*5B
$GPGSV,4,3,15,09,32,279,29,21,29,173,33,31,23,131,23,196,22,175,19,1*51
$GPGSV,4,4,15,26,22,075,32,02,19,184,16,07,17,320,21,1*54
$GPGSV,2,1,08,08,71,269,46,194,63,044,43,27,60,023,46,199,60,167,47,8*6D
$GPGSV,2,2,08,195,54,127,44,04,40,226,45,09,32,279,29,26,22,075,36,8*56
$GLGSV,2,1,07,82,69,104,43,83,40,177,,80,39,353,23,79,38,066,39,1*7C
$GLGSV,2,2,07,81,33,036,33,69,08,212,14,71,05,318,,1*49
$GAGSV,2,1,08,30,51,014,41,07,42,247,40,34,42,090,38,15,34,158,41,7*72
$GAGSV,2,2,08,27,32,303,26,08,22,187,15,02,20,070,28,36,12,042,18,7*7D
$GAGSV,2,1,06,30,51,014,42,34,42,090,37,07,42,247,39,15,34,158,43,1*7A
$GAGSV,2,2,06,27,32,303,30,02,20,070,33,1*73
$GBGSV,5,1,17,06,86,248,41,16,84,180,44,34,76,159,46,09,73,316,39,1*7F
$GBGSV,5,2,17,39,72,167,46,40,68,307,41,07,64,285,40,12,62,060,40,1*7A
$GBGSV,5,3,17,24,54,075,41,10,53,270,40,11,53,191,29,25,47,334,26,1*70
$GBGSV,5,4,17,44,39,046,41,43,31,206,26,26,13,110,25,33,09,222,,1*73
$GBGSV,5,5,17,41,08,269,,1*40
$GBGSV,2,1,06,34,76,159,45,39,72,167,45,40,68,307,44,24,54,075,42,4*7F
$GBGSV,2,2,06,44,39,046,39,43,31,206,27,4*73
$GNACCURACY,2.9*1D
$PAIRSAT,1,35,2,0,201,3,0,200,4,0,221,5,0,200,6,0,200,7,0,201,8,0,221,9,0,221,10,0,200,11,0,200,12,0,200,13,0,200,14,0,200,15,0,200,16,0,201,17,0,200,18,0,200,19,0,200,20,0,200,21,0,201,22,0,200,23,0,200,24,0,200,25,0,200,26,0,221,27,0,221,28,0,200,29,0,200,30,0,200,31,0,201,32,0,200,194,0,621,195,0,621,196,0,620,199,0,621*58
$PAIRSAT,2,24,65,0,200,66,0,200,67,0,200,68,0,200,69,0,201,70,0,200,71,0,201,72,0,200,73,0,200,74,0,200,75,0,200,76,0,200,77,0,200,78,0,200,79,0,201,80,0,201,81,0,201,82,0,201,83,0,201,84,0,200,85,0,200,86,0,200,87,0,200,88,0,200*7B
$PAIRSAT,3,23,2,0,1221,3,0,1200,4,0,1200,5,0,200,7,0,1221,8,0,1221,9,0,1200,10,0,1200,11,0,1200,12,0,1200,13,0,1200,15,0,1221,19,0,1200,21,0,1200,24,0,1200,25,0,1200,26,0,1200,27,0,1221,30,0,1221,31,0,1200,33,0,1200,34,0,1221,36,0,1221*6A
$PAIRSAT,4,46,1,0,200,2,0,200,3,0,600,4,0,200,5,0,200,6,0,201,7,0,201,8,0,200,9,0,201,10,0,201,11,0,201,12,0,201,13,0,200,14,0,200,16,0,201,19,0,600,20,0,600,21,0,600,22,0,600,23,0,600,24,0,621,25,0,621,26,0,621,27,0,600,28,0,600,29,0,600,30,0,600,32,0,600,33,0,621,34,0,621,35,0,600,36,0,600,37,0,600,38,0,600,39,0,621,40,0,621,41,0,621,42,0,600,43,0,621,44,0,621,45,0,600,46,0,600,59,0,400,60,0,400,61,0,400,62,0,400*48
$PAIRDGP,10,2,4,7,8,9,16,21,26,27,31*43
$GNGGA,033049.200,2500.7784851,N,12132.4614087,E,4,57,0.50,17.027,M,15.25,M,1,3335*44
$GNRMC,033049.200,A,2500.7784851,N,12132.4614087,E,2.14,48.87,030324,,,R,V*28
$GPHDT,49.909,T*08
$GNACCURACY,2.9*1D
$GNGGA,033049.300,2500.7785156,N,12132.4614548,E,4,58,0.48,17.050,M,15.25,M,1,3335*4A
$GNRMC,033049.300,A,2500.7785156,N,12132.4614548,E,2.11,48.77,030324,,,R,V*2A
$GPHDT,,T*1B
$GNACCURACY,2.9*1D
$GNGGA,033049.400,2500.7785662,N,12132.4615088,E,4,58,0.48,17.039,M,15.25,M,1,3335*4A
$GNRMC,033049.400,A,2500.7785662,N,12132.4615088,E,2.16,45.04,030324,,,R,V*2B
$GPHDT,49.794,T*02
$GNACCURACY,2.9*1D
$GNGGA,033049.500,2500.7786139,N,12132.4615486,E,4,58,0.48,17.019,M,15.25,M,1,3335*49
$GNRMC,033049.500,A,2500.7786139,N,12132.4615486,E,2.24,40.57,030324,,,R,V*28
$GPHDT,,T*1B
$GNACCURACY,2.9*1D
$GNGGA,033049.600,2500.7786545,N,12132.4616042,E,4,58,0.48,16.972,M,15.25,M,0,3335*4E
$GNRMC,033049.600,A,2500.7786545,N,12132.4616042,E,2.35,41.95,030324,,,R,V*24
$GPHDT,49.192,T*02
$GNACCURACY,2.9*1D
$GNGGA,033049.700,2500.7787018,N,12132.4616490,E,4,59,0.47,17.042,M,15.25,M,0,3335*4D
$GNRMC,033049.700,A,2500.7787018,N,12132.4616490,E,2.17,41.55,030324,,,R,V*2E
$GPHDT,,T*1B
$GNACCURACY,2.9*1D
$GNGGA,033049.800,2500.7787470,N,12132.4616940,E,4,58,0.48,16.997,M,15.25,M,0,3335*46
$GNRMC,033049.800,A,2500.7787470,N,12132.4616940,E,2.09,43.91,030324,,,R,V*2E
$GPHDT,50.658,T*0B
$GNACCURACY,2.9*1D
$GNGGA,033049.900,2500.7787964,N,12132.4617353,E,4,58,0.49,17.024,M,15.25,M,0,3335*47
$GNRMC,033049.900,A,2500.7787964,N,12132.4617353,E,2.11,43.24,030324,,,R,V*29
$GPHDT,,T*1B
$GNACCURACY,2.9*1D
$GNGGA,033050.000,2500.7788264,N,12132.4617995,E,4,59,0.48,17.025,M,15.25,M,1,3335*42
$GNRMC,033050.000,A,2500.7788264,N,12132.4617995,E,2.12,45.41,030324,,,R,V*2A
$GPHDT,50.242,T*04
$GNACCURACY,2.9*1D
$GNGGA,033050.100,2500.7788755,N,12132.4618442,E,4,59,0.48,17.021,M,15.25,M,1,3335*48
$GNRMC,033050.100,A,2500.7788755,N,12132.4618442,E,2.23,46.34,030324,,,R,V*27
$GPHDT,,T*1B
$GNGSA,A,3,08,194,27,199,195,04,16,09,31,196,26,07,0.79,0.49,0.62,1*0E
$GNGSA,A,3,82,80,79,81,,,,,,,,,0.79,0.49,0.62,2*00
$GNGSA,A,3,30,07,34,15,27,08,02,,,,,,0.79,0.49,0.62,3*0C
$GNGSA,A,3,06,16,34,09,39,40,07,12,24,10,11,25,0.79,0.49,0.62,4*06
$GNGSA,A,3,44,43,,,,,,,,,,,0.79,0.49,0.62,4*04
$GPGSV,4,1,15,08,71,269,46,194,63,044,39,27,60,023,46,199,60,167,39,1*6A
$GPGSV,4,2,15,195,54,127,43,45,47,231,39,04,40,225,43,16,39,044,38,1*55
$GPGSV,4,3,15,09,32,279,30,21,29,173,31,31,23,131,30,196,22,175,18,1*58
$GPGSV,4,4,15,26,22,075,28,02,19,184,16,07,17,320,23,1*5D
$GPGSV,3,1,09,08,71,269,46,194,63,044,43,27,60,023,46,199,60,167,47,8*6D
$GPGSV,3,2,09,195,54,127,45,04,40,225,45,09,32,279,31,26,22,075,35,8*5E
$GPGSV,3,3,09,196,22,175,17,8*6F
$GLGSV,2,1,07,82,69,104,43,83,40,177,,80,39,353,24,79,38,066,39,1*7B
$GLGSV,2,2,07,81,33,036,31,69,08,212,14,71,05,318,,1*4B
$GAGSV,2,1,08,30,51,014,41,07,42,247,39,34,42,090,39,15,34,158,42,7*7E
$GAGSV,2,2,08,27,32,303,21,08,22,187,16,02,20,070,24,36,12,042,18,7*75
$GAGSV,2,1,06,30,51,014,44,07,42,247,42,34,42,090,39,15,34,158,43,1*7E
$GAGSV,2,2,06,27,32,303,20,02,20,070,27,1*77
$GBGSV,5,1,17,06,86,248,42,16,84,180,44,34,76,159,46,09,73,316,38,1*7D
$GBGSV,5,2,17,39,72,167,45,40,68,307,41,07,64,285,39,12,62,060,40,1*77
$GBGSV,5,3,17,24,54,075,40,10,53,270,39,11,53,191,33,25,47,334,24,1*76
$GBGSV,5,4,17,44,39,046,40,43,31,206,23,26,13,110,27,33,09,222,,1*75
$GBGSV,5,5,17,41,08,269,,1*40
$GBGSV,2,1,06,34,76,159,45,39,72,167,45,40,68,307,45,24,54,075,42,4*7E
$GBGSV,2,2,06,44,39,046,39,43,31,206,20,4*74
$GNACCURACY,2.9*1D
$PAIRSAT,1,35,2,0,201,3,0,200,4,0,221,5,0,200,6,0,200,7,0,201,8,0,221,9,0,221,10,0,200,11,0,200,12,0,200,13,0,200,14,0,200,15,0,200,16,0,201,17,0,200,18,0,200,19,0,200,20,0,200,21,0,201,22,0,200,23,0,200,24,0,200,25,0,200,26,0,221,27,0,221,28,0,200,29,0,200,30,0,200,31,0,201,32,0,200,194,0,621,195,0,621,196,0,620,199,0,621*58
$PAIRSAT,2,24,65,0,200,66,0,200,67,0,200,68,0,200,69,0,201,70,0,200,71,0,201,72,0,200,73,0,200,74,0,200,75,0,200,76,0,200,77,0,200,78,0,200,79,0,201,80,0,201,81,0,201,82,0,201,83,0,201,84,0,200,85,0,200,86,0,200,87,0,200,88,0,200*7B
$PAIRSAT,3,23,2,0,1221,3,0,1200,4,0,1200,5,0,200,7,0,1221,8,0,1221,9,0,1200,10,0,1200,11,0,1200,12,0,1200,13,0,1200,15,0,1221,19,0,1200,21,0,1200,24,0,1200,25,0,1200,26,0,1200,27,0,1221,30,0,1221,31,0,1200,33,0,1200,34,0,1221,36,0,1221*6A
$PAIRSAT,4,46,1,0,200,2,0,200,3,0,600,4,0,200,5,0,200,6,0,201,7,0,201,8,0,200,9,0,201,10,0,201,11,0,201,12,0,201,13,0,200,14,0,200,16,0,201,19,0,600,20,0,600,21,0,600,22,0,600,23,0,600,24,0,621,25,0,621,26,0,621,27,0,600,28,0,600,29,0,600,30,0,600,32,0,600,33,0,621,34,0,621,35,0,600,36,0,600,37,0,600,38,0,600,39,0,621,40,0,621,41,0,621,42,0,600,43,0,621,44,0,621,45,0,600,46,0,600,59,0,400,60,0,400,61,0,400,62,0,400*48
$PAIRDGP,10,2,4,7,8,9,16,21,26,27,31*43
$GNGGA,033050.200,2500.7788925,N,12132.4619049,E,4,58,0.49,17.051,M,15.25,M,1,3335*4B
$GNRMC,033050.200,A,2500.7788925,N,12132.4619049,E,2.14,53.14,030324,,,R,V*21
$GPHDT,48.650,T*0A
$GNACCURACY,2.9*1D
$GNGGA,033050.300,2500.7789478,N,12132.4619533,E,4,58,0.49,17.054,M,15.25,M,1,3335*43
$GNRMC,033050.300,A,2500.7789478,N,12132.4619533,E,2.02,53.22,030324,,,R,V*2E
$GPHDT,,T*1B
$GNACCURACY,2.9*1D
$GNGGA,033050.400,2500.7789612,N,12132.4620049,E,4,60,0.47,17.059,M,15.25,M,1,3335*40
$GNRMC,033050.400,A,2500.7789612,N,12132.4620049,E,2.09,52.12,030324,,,R,V*2C
$GPHDT,46.646,T*03
$GNACCURACY,2.9*1D
$GNGGA,033050.500,2500.7790223,N,12132.4620492,E,4,60,0.47,17.032,M,15.25,M,1,3335*40
$GNRMC,033050.500,A,2500.7790223,N,12132.4620492,E,2.09,44.55,030324,,,R,V*25
$GPHDT,,T*1B
$GNACCURACY,2.9*1D
$GNGGA,033050.600,2500.7790605,N,12132.4620974,E,4,60,0.47,17.023,M,15.25,M,0,3335*47
$GNRMC,033050.600,A,2500.7790605,N,12132.4620974,E,2.09,45.75,030324,,,R,V*20
$GPHDT,49.350,T*0E
$GNACCURACY,2.9*1D
$GNGGA,033050.700,2500.7791173,N,12132.4621404,E,4,58,0.50,16.993,M,15.25,M,0,3335*44
$GNRMC,033050.700,A,2500.7791173,N,12132.4621404,E,2.22,43.05,030324,,,R,V*25
$GPHDT,,T*1B
$GNACCURACY,2.9*1D
$GNGGA,033050.800,2500.7791625,N,12132.4621844,E,4,58,0.50,17.053,M,15.25,M,0,3335*43
$GNRMC,033050.800,A,2500.7791625,N,12132.4621844,E,2.16,41.80,030324,,,R,V*2E
$GPHDT,50.526,T*01
$GNACCURACY,2.9*1D
$GNGGA,033050.900,2500.7792005,N,12132.4622343,E,4,59,0.48,17.056,M,15.25,M,0,3335*47
$GNRMC,033050.900,A,2500.7792005,N,12132.4622343,E,2.06,42.51,030324,,,R,V*29
$GPHDT,,T*1B
$GNACCURACY,2.9*1D
$GNGGA,033051.000,2500.7792441,N,12132.4622761,E,4,58,0.50,16.997,M,15.25,M,1,3335*43
$GNRMC,033051.000,A,2500.7792441,N,12132.4622761,E,2.05,43.19,030324,,,R,V*2F
$GPHDT,52.319,T*09
$GNACCURACY,2.9*1D
$GNGGA,033051.100,2500.7792808,N,12132.4623250,E,4,59,0.48,17.049,M,15.25,M,1,3335*46
$GNRMC,033051.100,A,2500.7792808,N,12132.4623250,E,2.08,43.79,030324,,,R,V*22
$GPHDT,,T*1B
$GNGSA,A,3,08,194,27,199,195,04,16,09,21,31,196,26,0.78,0.48,0.62,1*0A
$GNGSA,A,3,07,,,,,,,,,,,,0.78,0.48,0.62,1*01
$GNGSA,A,3,82,80,79,81,,,,,,,,,0.78,0.48,0.62,2*00
$GNGSA,A,3,30,07,34,15,27,08,02,,,,,,0.78,0.48,0.62,3*0C
$GNGSA,A,3,06,16,34,09,39,40,07,12,24,10,11,25,0.78,0.48,0.62,4*06
$GNGSA,A,3,44,43,,,,,,,,,,,0.78,0.48,0.62,4*04
$GPGSV,4,1,15,08,71,269,45,194,63,044,40,27,60,023,45,199,60,167,37,1*6A
$GPGSV,4,2,15,195,54,127,43,45,47,231,36,04,40,225,42,16,39,045,40,1*55
$GPGSV,4,3,15,09,32,278,25,21,29,173,37,31,23,131,23,196,22,175,19,1*58
$GPGSV,4,4,15,26,22,075,31,02,19,184,17,07,17,320,24,1*53
$GPGSV,3,1,09,08,71,269,46,194,63,044,44,27,60,023,46,199,60,167,47,8*6A
$GPGSV,3,2,09,195,54,127,46,04,40,225,43,09,32,278,26,26,22,075,35,8*5C
$GPGSV,3,3,09,196,22,175,17,8*6F
$GLGSV,2,1,07,82,69,104,43,83,40,177,,80,39,353,23,79,38,066,37,1*72
$GLGSV,2,2,07,81,33,036,32,69,08,212,14,71,05,318,,1*48
$GAGSV,2,1,08,30,51,014,43,07,42,247,41,34,42,090,39,15,34,158,41,7*70
$GAGSV,2,2,08,27,32,303,19,08,22,187,15,02,20,070,26,36,12,042,,7*76
$GAGSV,2,1,06,30,51,014,46,07,42,247,45,34,42,090,40,15,34,158,45,1*73
$GAGSV,2,2,06,27,32,303,22,02,20,070,26,1*74
$GBGSV,5,1,17,06,86,248,42,16,84,180,43,34,76,159,45,09,73,316,39,1*78
$GBGSV,5,2,17,39,72,167,46,40,68,307,42,07,64,285,39,12,62,060,39,1*79
$GBGSV,5,3,17,24,54,075,40,10,53,270,38,11,53,191,35,25,47,334,23,1*76
$GBGSV,5,4,17,44,39,046,40,43,31,206,24,26,13,110,26,33,09,222,,1*73
$GBGSV,5,5,17,41,08,269,,1*40
$GBGSV,2,1,06,34,76,159,46,39,72,167,46,40,68,307,46,24,54,075,43,4*7C
$GBGSV,2,2,06,44,39,046,39,43,31,206,22,4*76
$GNACCURACY,2.9*1D
$PAIRSAT,1,35,2,0,201,3,0,200,4,0,221,5,0,200,6,0,200,7,0,201,8,0,221,9,0,221,10,0,200,11,0,200,12,0,200,13,0,200,14,0,200,15,0,200,16,0,201,17,0,200,18,0,200,19,0,200,20,0,200,21,0,201,22,0,200,23,0,200,24,0,200,25,0,200,26,0,221,27,0,221,28,0,200,29,0,200,30,0,200,31,0,201,32,0,200,194,0,621,195,0,621,196,0,620,199,0,621*58
$PAIRSAT,2,24,65,0,200,66,0,200,67,0,200,68,0,200,69,0,201,70,0,200,71,0,201,72,0,200,73,0,200,74,0,200,75,0,200,76,0,200,77,0,200,78,0,200,79,0,201,80,0,201,81,0,201,82,0,201,83,0,201,84,0,200,85,0,200,86,0,200,87,0,200,88,0,200*7B
$PAIRSAT,3,23,2,0,1221,3,0,1200,4,0,1200,5,0,200,7,0,1221,8,0,1221,9,0,1200,10,0,1200,11,0,1200,12,0,1200,13,0,1200,15,0,1221,19,0,1200,21,0,1200,24,0,1200,25,0,1200,26,0,1200,27,0,1221,30,0,1221,31,0,1200,33,0,1200,34,0,1221,36,0,1221*6A
$PAIRSAT,4,46,1,0,200,2,0,200,3,0,600,4,0,200,5,0,200,6,0,201,7,0,201,8,0,200,9,0,201,10,0,201,11,0,201,12,0,201,13,0,200,14,0,200,16,0,201,19,0,600,20,0,600,21,0,600,22,0,600,23,0,600,24,0,621,25,0,621,26,0,621,27,0,600,28,0,600,29,0,600,30,0,600,32,0,600,33,0,621,34,0,621,35,0,600,36,0,600,37,0,600,38,0,600,39,0,621,40,0,621,41,0,621,42,0,600,43,0,621,44,0,621,45,0,600,46,0,600,59,0,400,60,0,400,61,0,400,62,0,400*48
$PAIRDGP,10,2,4,7,8,9,16,21,26,27,31*43
$GNGGA,033051.200,2500.7793352,N,12132.4623760,E,4,59,0.48,16.998,M,15.25,M,1,3335*42
$GNRMC,033051.200,A,2500.7793352,N,12132.4623760,E,2.22,43.47,030324,,,R,V*27
$GPHDT,53.439,T*0D
$GNACCURACY,2.9*1D
$GNGGA,033051.300,2500.7793707,N,12132.4624322,E,4,59,0.48,17.022,M,15.25,M,1,3335*4B
$GNRMC,033051.300,A,2500.7793707,N,12132.4624322,E,2.16,45.76,030324,,,R,V*24
$GPHDT,,T*1B
$GNACCURACY,2.9*1D
$GNGGA,033051.400,2500.7794099,N,12132.4624744,E,4,58,0.50,16.993,M,15.25,M,1,3335*45
$GNRMC,033051.400,A,2500.7794099,N,12132.4624744,E,2.11,48.51,030324,,,R,V*2F
$GPHDT,53.217,T*07
$GNACCURACY,2.9*1D
$GNGGA,033051.500,2500.7794464,N,12132.4625252,E,4,59,0.47,17.026,M,15.25,M,1,3335*40
$GNRMC,033051.500,A,2500.7794464,N,12132.4625252,E,2.18,47.06,030324,,,R,V*2F
$GPHDT,,T*1B
$GNACCURACY,2.9*1D
$GNGGA,033051.600,2500.7794819,N,12132.4625837,E,4,58,0.48,17.093,M,15.25,M,1,3335*4C
$GNRMC,033051.600,A,2500.7794819,N,12132.4625837,E,2.07,46.14,030324,,,R,V*2F
$GPHDT,51.864,T*0B
$GNACCURACY,2.9*1D
$GNGGA,033051.700,2500.7795369,N,12132.4626232,E,4,58,0.48,16.962,M,15.25,M,0,3335*4B
$GNRMC,033051.700,A,2500.7795369,N,12132.4626232,E,2.27,42.71,030324,,,R,V*2A
$GPHDT,,T*1B
$GNACCURACY,2.9*1D
$GNGGA,033051.800,2500.7795810,N,12132.4626715,E,4,58,0.48,16.983,M,15.25,M,0,3335*4E
$GNRMC,033051.800,A,2500.7795810,N,12132.4626715,E,2.28,42.62,030324,,,R,V*2D
$GPHDT,51.873,T*0D
$GNACCURACY,2.9*1D
$GNGGA,033051.900,2500.7796249,N,12132.4627093,E,4,58,0.48,17.010,M,15.25,M,0,3335*40
$GNRMC,033051.900,A,2500.7796249,N,12132.4627093,E,2.19,40.42,030324,,,R,V*23
$GPHDT,,T*1B
$GNACCURACY,2.9*1D
$GNGGA,033052.000,2500.7796679,N,12132.4627679,E,4,57,0.50,16.977,M,15.25,M,1,3335*41
$GNRMC,033052.000,A,2500.7796679,N,12132.4627679,E,2.18,44.20,030324,,,R,V*2D
$GPHDT,51.514,T*01
$GNACCURACY,2.9*1D
$GNGGA,033052.100,2500.7797101,N,12132.4628096,E,4,57,0.50,17.007,M,15.25,M,1,3335*4E
$GNRMC,033052.100,A,2500.7797101,N,12132.4628096,E,2.16,42.45,030324,,,R,V*26
$GPHDT,,T*1B
$GNGSA,A,3,08,194,27,199,195,04,16,09,21,196,26,07,0.79,0.50,0.62,1*07
$GNGSA,A,3,82,80,79,81,,,,,,,,,0.79,0.50,0.62,2*08
$GNGSA,A,3,30,07,34,15,27,08,02,,,,,,0.79,0.50,0.62,3*04
$GNGSA,A,3,06,16,34,09,39,40,07,12,24,10,11,25,0.79,0.50,0.62,4*0E
$GNGSA,A,3,44,43,,,,,,,,,,,0.79,0.50,0.62,4*0C
$GPGSV,4,1,15,08,71,269,45,194,63,044,40,27,60,023,46,199,60,167,38,1*66
$GPGSV,4,2,15,195,54,127,43,45,47,231,39,04,40,225,42,16,39,045,41,1*5B
$GPGSV,4,3,15,09,32,278,28,21,30,173,39,31,23,131,22,196,22,175,20,1*58
$GPGSV,4,4,15,26,21,075,26,02,19,184,17,07,17,320,21,1*53
$GPGSV,2,1,08,08,71,269,45,194,63,044,44,27,60,023,46,199,60,167,47,8*69
$GPGSV,2,2,08,195,54,127,45,04,40,225,43,09,32,278,33,26,21,075,33,8*5E
$GLGSV,2,1,07,82,69,104,43,83,40,177,,80,39,353,25,79,38,066,37,1*74
$GLGSV,2,2,07,81,33,036,35,69,08,212,14,71,05,318,,1*4F
$GAGSV,2,1,08,30,51,014,43,07,42,247,42,34,42,090,36,15,34,158,34,7*7E
$GAGSV,2,2,08,27,32,303,18,08,22,187,15,02,20,070,28,36,12,042,15,7*7D
$GAGSV,2,1,06,30,51,014,46,34,42,090,41,07,42,247,45,15,34,158,43,1*74
$GAGSV,2,2,06,27,32,303,16,02,20,070,27,1*72
$GBGSV,5,1,17,06,86,248,42,16,84,180,43,34,76,159,46,09,73,316,37,1*75
$GBGSV,5,2,17,39,72,167,45,40,68,307,43,07,64,285,41,12,62,060,39,1*74
$GBGSV,5,3,17,24,54,075,41,10,53,270,36,11,53,191,41,25,47,334,26,1*7F
$GBGSV,5,4,17,44,39,046,42,43,31,206,23,26,13,110,25,33,09,222,,1*75
$GBGSV,5,5,17,41,08,269,,1*40
$GBGSV,2,1,06,34,76,159,46,39,72,167,46,40,68,307,44,24,54,075,43,4*7E
$GBGSV,2,2,06,44,39,046,40,43,31,206,27,4*7D
$GNACCURACY,2.9*1D
$PAIRSAT,1,35,2,0,201,3,0,200,4,0,221,5,0,200,6,0,200,7,0,201,8,0,221,9,0,221,10,0,200,11,0,200,12,0,200,13,0,200,14,0,200,15,0,200,16,0,201,17,0,200,18,0,200,19,0,200,20,0,200,21,0,201,22,0,200,23,0,200,24,0,200,25,0,200,26,0,221,27,0,221,28,0,200,29,0,200,30,0,200,31,0,201,32,0,200,194,0,621,195,0,621,196,0,620,199,0,621*58
$PAIRSAT,2,24,65,0,200,66,0,200,67,0,200,68,0,200,69,0,201,70,0,200,71,0,201,72,0,200,73,0,200,74,0,200,75,0,200,76,0,200,77,0,200,78,0,200,79,0,201,80,0,201,81,0,201,82,0,201,83,0,201,84,0,200,85,0,200,86,0,200,87,0,200,88,0,200*7B
$PAIRSAT,3,23,2,0,1221,3,0,1200,4,0,1200,5,0,200,7,0,1221,8,0,1221,9,0,1200,10,0,1200,11,0,1200,12,0,1200,13,0,1200,15,0,1221,19,0,1200,21,0,1200,24,0,1200,25,0,1200,26,0,1200,27,0,1221,30,0,1221,31,0,1200,33,0,1200,34,0,1221,36,0,1221*6A
$PAIRSAT,4,46,1,0,200,2,0,200,3,0,600,4,0,200,5,0,200,6,0,201,7,0,201,8,0,200,9,0,201,10,0,201,11,0,201,12,0,201,13,0,200,14,0,200,16,0,201,19,0,600,20,0,600,21,0,600,22,0,600,23,0,600,24,0,621,25,0,621,26,0,621,27,0,600,28,0,600,29,0,600,30,0,600,32,0,600,33,0,621,34,0,621,35,0,600,36,0,600,37,0,600,38,0,600,39,0,621,40,0,621,41,0,621,42,0,600,43,0,621,44,0,621,45,0,600,46,0,600,59,0,400,60,0,400,61,0,400,62,0,400*48
$PAIRDGP,10,2,4,7,8,9,16,21,26,27,31*43
$GNGGA,033052.200,2500.7797628,N,12132.4628524,E,4,57,0.50,16.980,M,15.25,M,1,3335*4A
$GNRMC,033052.200,A,2500.7797628,N,12132.4628524,E,2.14,40.95,030324,,,R,V*28
$GPHDT,55.304,T*02
$GNACCURACY,2.9*1D
$GNGGA,033052.300,2500.7797993,N,12132.4629110,E,4,58,0.48,17.044,M,15.25,M,1,3335*40
$GNRMC,033052.300,A,2500.7797993,N,12132.4629110,E,2.28,46.66,030324,,,R,V*21
$GPHDT,,T*1B
$GNACCURACY,2.9*1D
$GNGGA,033052.400,2500.7798354,N,12132.4629734,E,4,57,0.50,17.000,M,15.25,M,1,3335*4F
$GNRMC,033052.400,A,2500.7798354,N,12132.4629734,E,2.28,50.71,030324,,,R,V*29
$GPHDT,50.816,T*0F
$GNACCURACY,2.9*1D
$GNGGA,033052.500,2500.7798727,N,12132.4630282,E,4,59,0.48,17.022,M,15.25,M,1,3335*49
$GNRMC,033052.500,A,2500.7798727,N,12132.4630282,E,2.24,55.66,030324,,,R,V*27
$GPHDT,,T*1B
$GNACCURACY,2.9*1D
$GNGGA,033052.600,2500.7799114,N,12132.4630763,E,4,59,0.48,17.025,M,15.25,M,0,3335*41
$GNRMC,033052.600,A,2500.7799114,N,12132.4630763,E,2.14,53.73,030324,,,R,V*28
$GPHDT,51.316,T*05
$GNACCURACY,2.9*1D
$GNGGA,033052.700,2500.7799485,N,12132.4631350,E,4,58,0.50,17.032,M,15.25,M,0,3335*46
$GNRMC,033052.700,A,2500.7799485,N,12132.4631350,E,2.19,49.43,030324,,,R,V*24
$GPHDT,,T*1B
$GNACCURACY,2.9*1D
$GNGGA,033052.800,2500.7799994,N,12132.4631762,E,4,59,0.48,16.961,M,15.25,M,0,3335*47
$GNRMC,033052.800,A,2500.7799994,N,12132.4631762,E,2.29,42.53,030324,,,R,V*2A
$GPHDT,50.597,T*0B
$GNACCURACY,2.9*1D
$GNGGA,033052.900,2500.7800572,N,12132.4632243,E,4,58,0.48,16.982,M,15.25,M,0,3335*44
$GNRMC,033052.900,A,2500.7800572,N,12132.4632243,E,2.40,40.89,030324,,,R,V*2F
$GPHDT,,T*1B
$GNACCURACY,2.9*1D
$GNGGA,033053.000,2500.7801051,N,12132.4632704,E,4,57,0.51,16.961,M,15.25,M,1,3335*44
$GNRMC,033053.000,A,2500.7801051,N,12132.4632704,E,2.36,40.52,030324,,,R,V*23
$GPHDT,52.465,T*05
$GNACCURACY,2.9*1D
$GNGGA,033053.100,2500.7801490,N,12132.4633116,E,4,57,0.51,16.983,M,15.25,M,1,3335*44
$GNRMC,033053.100,A,2500.7801490,N,12132.4633116,E,2.23,42.21,030324,,,R,V*2D
$GPHDT,,T*1B
$GNGSA,A,3,08,194,27,199,195,04,16,09,21,31,196,26,0.83,0.51,0.65,1*01
$GNGSA,A,3,82,80,79,81,,,,,,,,,0.83,0.51,0.65,2*0B
$GNGSA,A,3,30,07,34,15,27,08,02,,,,,,0.83,0.51,0.65,3*07
$GNGSA,A,3,06,16,34,09,39,40,07,12,24,10,11,25,0.83,0.51,0.65,4*0D
$GNGSA,A,3,44,43,,,,,,,,,,,0.83,0.51,0.65,4*0F
$GPGSV,4,1,15,08,71,269,45,194,63,044,40,27,60,023,46,199,60,167,38,1*66
$GPGSV,4,2,15,195,54,127,43,45,47,231,37,04,40,225,41,16,39,045,42,1*55
$GPGSV,4,3,15,09,32,278,21,21,30,173,43,31,23,131,24,196,22,175,22,1*58
$GPGSV,4,4,15,26,21,075,28,02,19,184,17,07,17,320,21,1*5D
$GPGSV,3,1,09,08,71,269,45,194,63,044,44,27,60,023,47,199,60,167,45,8*6A
$GPGSV,3,2,09,195,54,127,45,04,40,225,43,09,32,278,32,196,22,175,20,8*65
$GPGSV,3,3,09,26,21,075,35,8*57
$GLGSV,2,1,07,82,69,104,42,83,40,177,,80,39,353,26,79,38,066,36,1*77
$GLGSV,2,2,07,81,33,036,36,69,08,212,14,71,05,318,,1*4C
