$FW : RTK35X,V1.1X0314AS,Lib20210517,1*54
$Tool : LOCOSYS , GNSS Firebird , v1.0.0.19*39
$---------------------------------------------------*2D
,09,196,24,177,32,8*6C
$GLGSV,2,1,06,82,62,130,44,81,40,045,43,79,39,052,37,80,34,342,40,1*73
$GLGSV,2,2,06,83,28,178,19,69,15,219,20,1*7A
$GAGSV,2,1,08,30,52,003,41,07,46,257,34,34,39,100,43,27,29,295,25,7*74
$GAGSV,2,2,08,08,29,190,24,15,27,161,27,02,23,062,27,36,15,048,30,7*78
$GAGSV,2,1,08,30,52,003,42,07,46,257,42,34,39,100,38,08,29,190,32,1*71
$GAGSV,2,2,08,27,29,295,25,15,27,161,34,02,23,062,20,36,15,048,32,1*73
$GBGSV,5,1,17,16,88,123,43,06,86,325,42,39,76,154,45,40,71,296,44,1*7B
$GBGSV,5,2,17,09,70,326,38,34,66,169,46,12,65,080,43,07,65,276,42,1*70
$GBGSV,5,3,17,24,56,059,43,10,53,262,37,44,45,052,43,11,44,189,29,1*77
$GBGSV,5,4,17,25,41,328,39,43,23,204,32,26,18,103,,33,14,229,24,1*74
$GBGSV,5,5,17,56,,,20,1*71
$GBGSV,2,1,08,39,76,154,46,40,71,296,45,34,66,169,46,24,56,059,43,4*7A
$GBGSV,2,2,08,44,45,052,42,25,41,328,42,43,23,204,34,33,14,229,26,4*79
$GNACCURACY,4.0*12
$PAIRSAT,1,34,2,0,200,3,0,200,4,0,221,5,0,200,6,0,200,7,0,201,8,0,221,9,0,221,10,0,200,11,0,200,12,0,200,13,0,200,14,0,200,15,0,200,16,0,201,17,0,200,18,0,200,19,0,200,21,0,201,22,0,200,23,0,200,24,0,200,25,0,200,26,0,221,27,0,221,28,0,200,29,0,200,30,0,200,31,0,201,32,0,200,194,0,621,195,0,621,196,0,620,199,0,621*74
$PAIRSAT,2,17,69,0,1,70,0,200,71,0,200,72,0,200,73,0,200,74,0,200,75,0,200,76,0,200,77,0,200,78,0,200,79,0,201,80,0,201,81,0,201,82,0,201,83,0,200,84,0,200,88,0,200*57
$PAIRSAT,3,23,2,0,1200,3,0,1200,4,0,1200,5,0,200,7,0,1221,8,0,1221,9,0,1200,10,0,1200,11,0,1200,12,0,1200,13,0,1200,15,0,1221,19,0,1200,21,0,1200,24,0,200,25,0,1200,26,0,1000,27,0,1201,30,0,1221,31,0,1200,33,0,1200,34,0,1221,36,0,221*69
$PAIRSAT,4,46,1,0,200,2,0,200,3,0,600,4,0,200,5,0,200,6,0,201,7,0,201,8,0,200,9,0,201,10,0,201,11,0,201,12,0,201,13,0,200,14,0,200,16,0,201,19,0,600,20,0,600,21,0,600,22,0,600,23,0,600,24,0,621,25,0,621,26,0,621,27,0,600,28,0,400,29,0,600,30,0,600,32,0,600,33,0,621,34,0,621,35,0,400,36,0,600,37,0,600,38,0,400,39,0,421,40,0,421,41,0,600,42,0,400,43,0,421,44,0,421,45,0,400,46,0,400,59,0,400,60,0,400,61,0,400,62,0,400*4B
$PAIRDGP,1,21*6B
$GNGGA,031041.200,2500.7990714,N,12132.4853652,E,4,63,0.46,17.041,M,15.25,M,1,3335*48
$GNRMC,031041.200,A,2500.7990714,N,12132.4853652,E,0.03,119.82,030324,,,R,V*10
$GPHDT,225.360,T*35
$GNACCURACY,4.1*13
$GNGGA,031041.300,2500.7990690,N,12132.4853617,E,4,62,0.47,16.994,M,15.25,M,1,3335*45
$GNRMC,031041.300,A,2500.7990690,N,12132.4853617,E,0.03,119.82,030324,,,R,V*1D
$GPHDT,,T*1B
$GNACCURACY,4.1*13
$GNGGA,031041.400,2500.7990699,N,12132.4853629,E,4,62,0.47,17.022,M,15.25,M,1,3335*43
$GNRMC,031041.400,A,2500.7990699,N,12132.4853629,E,0.02,119.82,030324,,,R,V*1F
$GPHDT,224.683,T*3C
$GNACCURACY,4.1*13
$GNGGA,031041.500,2500.7990688,N,12132.4853635,E,4,62,0.47,17.049,M,15.25,M,0,3335*43
$GNRMC,031041.500,A,2500.7990688,N,12132.4853635,E,0.02,119.82,030324,,,R,V*13
$GPHDT,,T*1B
$GNACCURACY,4.1*13
$GNGGA,031041.600,2500.7990712,N,12132.4853653,E,4,62,0.47,17.053,M,15.25,M,0,3335*49
$GNRMC,031041.600,A,2500.7990712,N,12132.4853653,E,0.03,119.82,030324,,,R,V*13
$GPHDT,224.332,T*33
$GNACCURACY,4.0*12
$GNGGA,031041.700,2500.7990742,N,12132.4853655,E,4,63,0.47,17.029,M,15.25,M,0,3335*47
$GNRMC,031041.700,A,2500.7990742,N,12132.4853655,E,0.03,119.82,030324,,,R,V*11
$GPHDT,,T*1B
$GNACCURACY,4.1*13
$GNGGA,031041.800,2500.7990699,N,12132.4853650,E,4,62,0.47,17.038,M,15.25,M,0,3335*4B
$GNRMC,031041.800,A,2500.7990699,N,12132.4853650,E,0.02,119.82,030324,,,R,V*1D
$GPHDT,224.246,T*31
$GNACCURACY,4.1*13
$GNGGA,031041.900,2500.7990581,N,12132.4853643,E,4,63,0.46,17.023,M,15.25,M,0,3335*48
$GNRMC,031041.900,A,2500.7990581,N,12132.4853643,E,0.04,119.82,030324,,,R,V*12
$GPHDT,,T*1B
$GNACCURACY,4.1*13
$GNGGA,031042.000,2500.7990458,N,12132.4853637,E,4,63,0.46,17.022,M,15.25,M,1,3335*44
$GNRMC,031042.000,A,2500.7990458,N,12132.4853637,E,0.07,119.82,030324,,,R,V*1D
$GPHDT,224.455,T*35
$GNACCURACY,4.1*13
$GNGGA,031042.100,2500.7990312,N,12132.4853540,E,4,63,0.46,16.997,M,15.25,M,1,3335*49
$GNRMC,031042.100,A,2500.7990312,N,12132.4853540,E,0.13,119.82,030324,,,R,V*13
$GPHDT,,T*1B
$GNGSA,A,3,27,08,194,199,195,04,16,31,26,196,21,07,0.73,0.46,0.57,1*07
$GNGSA,A,3,09,,,,,,,,,,,,0.73,0.46,0.57,1*0C
$GNGSA,A,3,82,81,79,80,69,,,,,,,,0.73,0.46,0.57,2*0C
$GNGSA,A,3,30,07,34,27,08,15,36,,,,,,0.73,0.46,0.57,3*08
$GNGSA,A,3,16,06,39,40,09,34,12,07,24,10,44,11,0.73,0.46,0.57,4*02
$GNGSA,A,3,25,43,33,,,,,,,,,,0.73,0.46,0.57,4*00
$GPGSV,4,1,16,27,70,021,44,08,65,244,43,194,63,043,43,199,60,167,40,1*63
$GPGSV,4,2,16,195,51,129,39,04,46,236,32,16,43,034,32,09,31,290,20,1*58
$GPGSV,4,3,16,31,30,125,30,26,26,067,25,196,24,177,29,21,21,177,27,1*50
$GPGSV,4,4,16,07,10,318,25,02,10,187,24,18,04,041,,47,,,36,1*5D
$GPGSV,3,1,09,27,70,021,47,08,65,244,43,194,63,043,43,199,60,167,47,8*67
$GPGSV,3,2,09,195,51,129,44,04,46,236,41,09,31,290,32,26,26,067,34,8*55
$GPGSV,3,3,09,196,24,177,34,8*6A
$GLGSV,2,1,06,82,62,130,44,81,40,045,44,79,39,052,35,80,34,342,37,1*76
$GLGSV,2,2,06,83,28,178,19,69,15,219,19,1*70
$GAGSV,2,1,08,30,52,003,41,07,46,257,35,34,39,100,41,27,29,295,25,7*77
$GAGSV,2,2,08,08,29,190,25,15,27,161,25,02,23,062,24,36,15,048,27,7*7E
$GAGSV,2,1,08,30,52,003,41,07,46,257,42,34,39,100,40,08,29,190,31,1*7E
$GAGSV,2,2,08,27,29,295,20,15,27,161,32,02,23,062,21,36,15,048,32,1*71
$GBGSV,5,1,17,16,88,123,44,06,86,325,43,39,76,154,45,40,71,296,44,1*7D
$GBGSV,5,2,17,09,70,326,36,34,66,169,46,12,65,080,43,07,65,276,42,1*7E
$GBGSV,5,3,17,24,56,059,43,10,53,262,38,44,45,052,41,11,44,189,29,1*7A
$GBGSV,5,4,17,25,41,328,41,43,23,204,35,26,18,103,,33,14,229,29,1*71
$GBGSV,5,5,17,56,,,34,1*74
$GBGSV,2,1,08,39,76,154,46,40,71,296,46,34,66,169,46,24,56,059,44,4*7E
$GBGSV,2,2,08,44,45,052,44,25,41,328,43,43,23,204,30,33,14,229,29,4*75
$GNACCURACY,4.0*12
$PAIRSAT,1,34,2,0,200,3,0,200,4,0,221,5,0,200,6,0,200,7,0,201,8,0,221,9,0,221,10,0,200,11,0,200,12,0,200,13,0,200,14,0,200,15,0,200,16,0,201,17,0,200,18,0,200,19,0,200,21,0,201,22,0,200,23,0,200,24,0,200,25,0,200,26,0,221,27,0,221,28,0,200,29,0,200,30,0,200,31,0,201,32,0,200,194,0,621,195,0,621,196,0,620,199,0,621*74
$PAIRSAT,2,17,69,0,1,70,0,200,71,0,200,72,0,200,73,0,200,74,0,200,75,0,200,76,0,200,77,0,200,78,0,200,79,0,201,80,0,201,81,0,201,82,0,201,83,0,200,84,0,200,88,0,200*57
$PAIRSAT,3,23,2,0,1200,3,0,1200,4,0,1200,5,0,200,7,0,1221,8,0,1221,9,0,1200,10,0,1200,11,0,1200,12,0,1200,13,0,1200,15,0,1221,19,0,1200,21,0,1200,24,0,200,25,0,1200,26,0,1000,27,0,1201,30,0,1221,31,0,1200,33,0,1200,34,0,1221,36,0,221*69
$PAIRSAT,4,46,1,0,200,2,0,200,3,0,600,4,0,200,5,0,200,6,0,201,7,0,201,8,0,200,9,0,201,10,0,201,11,0,201,12,0,201,13,0,200,14,0,200,16,0,201,19,0,600,20,0,600,21,0,600,22,0,600,23,0,600,24,0,621,25,0,621,26,0,621,27,0,600,28,0,400,29,0,600,30,0,600,32,0,600,33,0,621,34,0,621,35,0,400,36,0,600,37,0,600,38,0,400,39,0,421,40,0,421,41,0,600,42,0,400,43,0,421,44,0,421,45,0,400,46,0,400,59,0,400,60,0,400,61,0,400,62,0,400*4B
$PAIRDGP,1,21*6B
$GNGGA,031042.200,2500.7990177,N,12132.4853445,E,4,63,0.46,17.056,M,15.25,M,1,3335*4A
$GNRMC,031042.200,A,2500.7990177,N,12132.4853445,E,0.19,119.82,030324,,,R,V*1F
$GPHDT,225.856,T*3B
$GNACCURACY,4.0*12
$GNGGA,031042.300,2500.7989960,N,12132.4853242,E,4,63,0.46,17.010,M,15.25,M,1,3335*4E
$GNRMC,031042.300,A,2500.7989960,N,12132.4853242,E,0.27,119.82,030324,,,R,V*14
$GPHDT,,T*1B
$GNACCURACY,4.0*12
$GNGGA,031042.400,2500.7989696,N,12132.4852895,E,4,63,0.46,16.985,M,15.25,M,1,3335*4A
$GNRMC,031042.400,A,2500.7989696,N,12132.4852895,E,0.34,119.82,030324,,,R,V*16
$GPHDT,225.648,T*3A
$GNACCURACY,4.0*12
$GNGGA,031042.500,2500.7989532,N,12132.4852657,E,4,62,0.48,17.013,M,15.25,M,0,3335*4F
$GNRMC,031042.500,A,2500.7989532,N,12132.4852657,E,0.41,119.82,030324,,,R,V*18
$GPHDT,,T*1B
$GNACCURACY,4.0*12
$GNGGA,031042.600,2500.7989318,N,12132.4852359,E,4,61,0.48,17.000,M,15.25,M,0,3335*48
$GNRMC,031042.600,A,2500.7989318,N,12132.4852359,E,0.50,119.82,030324,,,R,V*1E
$GPHDT,225.379,T*3D
$GNACCURACY,3.9*1C
$GNGGA,031042.700,2500.7988980,N,12132.4852151,E,4,61,0.48,17.017,M,15.25,M,0,3335*4F
$GNRMC,031042.700,A,2500.7988980,N,12132.4852151,E,0.63,217.83,030324,,,R,V*13
$GPHDT,,T*1B
$GNACCURACY,3.9*1C
$GNGGA,031042.800,2500.7988768,N,12132.4851863,E,4,61,0.48,16.973,M,15.25,M,0,3335*49
$GNRMC,031042.800,A,2500.7988768,N,12132.4851863,E,0.71,218.76,030324,,,R,V*19
$GPHDT,226.279,T*3F
$GNACCURACY,3.9*1C
$GNGGA,031042.900,2500.7988459,N,12132.4851518,E,4,62,0.46,16.958,M,15.25,M,0,3335*4C
$GNRMC,031042.900,A,2500.7988459,N,12132.4851518,E,0.83,220.81,030324,,,R,V*16
$GPHDT,,T*1B
$GNACCURACY,3.9*1C
$GNGGA,031043.000,2500.7988047,N,12132.4851248,E,4,62,0.46,16.982,M,15.25,M,1,3335*4B
$GNRMC,031043.000,A,2500.7988047,N,12132.4851248,E,0.96,219.44,030324,,,R,V*10
$GPHDT,226.527,T*33
$GNACCURACY,3.9*1C
$GNGGA,031043.100,2500.7987684,N,12132.4850911,E,4,61,0.46,17.015,M,15.25,M,1,3335*4F
$GNRMC,031043.100,A,2500.7987684,N,12132.4850911,E,1.08,218.63,030324,,,R,V*13
$GPHDT,,T*1B
$GNGSA,A,3,27,08,194,199,195,04,16,09,31,26,196,21,0.73,0.46,0.57,1*09
$GNGSA,A,3,07,,,,,,,,,,,,0.73,0.46,0.57,1*02
$GNGSA,A,3,82,81,79,80,69,,,,,,,,0.73,0.46,0.57,2*0C
$GNGSA,A,3,30,07,34,08,27,15,36,,,,,,0.73,0.46,0.57,3*08
$GNGSA,A,3,16,06,39,40,09,34,12,07,24,10,44,11,0.73,0.46,0.57,4*02
$GNGSA,A,3,25,43,33,,,,,,,,,,0.73,0.46,0.57,4*00
$GPGSV,4,1,15,27,70,021,44,08,65,244,43,194,63,043,43,199,60,167,37,1*60
$GPGSV,4,2,15,195,51,129,41,04,46,236,35,16,43,034,38,09,31,290,22,1*5B
$GPGSV,4,3,15,31,30,125,26,26,26,067,29,196,24,177,28,21,21,177,25,1*5B
$GPGSV,4,4,15,02,10,187,19,07,10,318,26,47,,,36,1*6B
$GPGSV,2,1,08,27,70,021,47,08,65,244,44,194,63,043,45,199,60,167,47,8*66
$GPGSV,2,2,08,195,51,129,44,04,46,236,38,09,31,290,28,26,26,067,30,8*54
$GLGSV,2,1,06,82,62,130,44,81,40,045,44,79,39,052,37,80,34,342,41,1*75
$GLGSV,2,2,06,83,28,178,20,69,15,219,22,1*72
$GAGSV,2,1,08,30,52,003,36,07,46,257,36,34,39,100,42,08,29,190,32,7*7A
$GAGSV,2,2,08,27,29,295,23,15,27,161,30,02,23,062,25,36,15,048,30,7*70
$GAGSV,2,1,08,30,52,003,39,07,46,257,40,34,39,100,42,08,29,190,32,1*72
$GAGSV,2,2,08,27,29,295,25,15,27,161,26,02,23,062,27,36,15,048,26,1*72
$GBGSV,5,1,17,16,88,123,44,06,86,325,44,39,76,154,44,40,71,296,43,1*7C
$GBGSV,5,2,17,09,70,326,37,34,66,169,45,12,65,080,43,07,65,276,41,1*7F
$GBGSV,5,3,17,24,56,059,45,10,53,262,39,44,45,052,43,11,44,189,36,1*71
$GBGSV,5,4,17,25,41,328,43,43,23,204,35,26,18,103,,33,14,229,30,1*7B
$GBGSV,5,5,17,56,,,32,1*72
$GBGSV,2,1,08,39,76,154,46,40,71,296,45,34,66,169,45,24,56,059,45,4*7F
$GBGSV,2,2,08,44,45,052,42,25,41,328,40,43,23,204,35,33,14,229,24,4*78
$GNACCURACY,3.9*1C
$PAIRSAT,1,34,2,0,200,3,0,200,4,0,221,5,0,200,6,0,200,7,0,201,8,0,221,9,0,221,10,0,200,11,0,200,12,0,200,13,0,200,14,0,200,15,0,200,16,0,201,17,0,200,18,0,200,19,0,200,21,0,201,22,0,200,23,0,200,24,0,200,25,0,200,26,0,221,27,0,221,28,0,200,29,0,200,30,0,200,31,0,201,32,0,200,194,0,621,195,0,621,196,0,620,199,0,621*74
$PAIRSAT,2,17,69,0,1,70,0,200,71,0,200,72,0,200,73,0,200,74,0,200,75,0,200,76,0,200,77,0,200,78,0,200,79,0,201,80,0,201,81,0,201,82,0,201,83,0,200,84,0,200,88,0,200*57
$PAIRSAT,3,23,2,0,1200,3,0,1200,4,0,1200,5,0,200,7,0,1221,8,0,1221,9,0,1200,10,0,1200,11,0,1200,12,0,1200,13,0,1200,15,0,1221,19,0,1200,21,0,1200,24,0,200,25,0,1200,26,0,1000,27,0,1201,30,0,1221,31,0,1200,33,0,1200,34,0,1221,36,0,221*69
$PAIRSAT,4,46,1,0,200,2,0,200,3,0,600,4,0,200,5,0,200,6,0,201,7,0,201,8,0,200,9,0,201,10,0,201,11,0,201,12,0,201,13,0,200,14,0,200,16,0,201,19,0,600,20,0,600,21,0,600,22,0,600,23,0,600,24,0,621,25,0,621,26,0,621,27,0,600,28,0,400,29,0,600,30,0,600,32,0,600,33,0,621,34,0,621,35,0,400,36,0,600,37,0,600,38,0,400,39,0,421,40,0,421,41,0,600,42,0,400,43,0,421,44,0,421,45,0,400,46,0,400,59,0,400,60,0,400,61,0,400,62,0,400*4B
$PAIRDGP,1,21*6B
$GNGGA,031043.200,2500.7987205,N,12132.4850581,E,4,63,0.46,16.975,M,15.25,M,1,3335*48
$GNRMC,031043.200,A,2500.7987205,N,12132.4850581,E,1.17,219.94,030324,,,R,V*1F
$GPHDT,227.078,T*3D
$GNACCURACY,3.8*1D
$GNGGA,031043.300,2500.7986892,N,12132.4850311,E,4,63,0.46,17.053,M,15.25,M,1,3335*4F
$GNRMC,031043.300,A,2500.7986892,N,12132.4850311,E,1.21,219.61,030324,,,R,V*1B
$GPHDT,,T*1B
$GNACCURACY,3.8*1D
$GNGGA,031043.400,2500.7986492,N,12132.4849789,E,4,64,0.46,16.985,M,15.25,M,1,3335*4D
$GNRMC,031043.400,A,2500.7986492,N,12132.4849789,E,1.32,221.72,030324,,,R,V*16
$GPHDT,224.980,T*30
$GNACCURACY,3.8*1D
$GNGGA,031043.500,2500.7986171,N,12132.4849471,E,4,64,0.46,17.054,M,15.25,M,0,3335*45
$GNRMC,031043.500,A,2500.7986171,N,12132.4849471,E,1.39,221.77,030324,,,R,V*15
$GPHDT,,T*1B
$GNACCURACY,3.8*1D
$GNGGA,031043.600,2500.7985663,N,12132.4848896,E,4,64,0.46,16.938,M,15.25,M,0,3335*47
$GNRMC,031043.600,A,2500.7985663,N,12132.4848896,E,1.48,223.67,030324,,,R,V*10
$GPHDT,226.424,T*31
$GNACCURACY,3.7*12
$GNGGA,031043.700,2500.7985380,N,12132.4848432,E,4,64,0.46,16.966,M,15.25,M,0,3335*47
$GNRMC,031043.700,A,2500.7985380,N,12132.4848432,E,1.57,226.65,030324,,,R,V*12
$GPHDT,,T*1B
$GNACCURACY,3.7*12
$GNGGA,031043.800,2500.7985155,N,12132.4847913,E,4,64,0.46,17.055,M,15.25,M,0,3335*4B
$GNRMC,031043.800,A,2500.7985155,N,12132.4847913,E,1.64,227.60,030324,,,R,V*12
$GPHDT,223.770,T*36
$GNACCURACY,3.7*12
$GNGGA,031043.900,2500.7984694,N,12132.4847461,E,4,64,0.46,16.962,M,15.25,M,0,3335*45
$GNRMC,031043.900,A,2500.7984694,N,12132.4847461,E,1.66,227.61,030324,,,R,V*13
$GPHDT,,T*1B
$GNACCURACY,3.7*12
$GNGGA,031044.000,2500.7984363,N,12132.4846994,E,4,64,0.46,17.041,M,15.25,M,1,3335*48
$GNRMC,031044.000,A,2500.7984363,N,12132.4846994,E,1.69,228.22,030324,,,R,V*11
$GPHDT,222.628,T*3B
$GNACCURACY,3.7*12
$GNGGA,031044.100,2500.7984033,N,12132.4846644,E,4,64,0.46,17.100,M,15.25,M,1,3335*49
$GNRMC,031044.100,A,2500.7984033,N,12132.4846644,E,1.71,227.26,030324,,,R,V*16
$GPHDT,,T*1B
$GNGSA,A,3,27,08,194,199,195,04,16,31,26,196,21,07,0.73,0.46,0.57,1*07
$GNGSA,A,3,09,,,,,,,,,,,,0.73,0.46,0.57,1*0C
$GNGSA,A,3,82,81,79,80,69,,,,,,,,0.73,0.46,0.57,2*0C
$GNGSA,A,3,30,07,34,08,27,15,36,,,,,,0.73,0.46,0.57,3*08
$GNGSA,A,3,16,06,39,40,09,34,12,07,24,10,44,11,0.73,0.46,0.57,4*02
$GNGSA,A,3,25,43,33,,,,,,,,,,0.73,0.46,0.57,4*00
$GPGSV,4,1,15,27,70,021,42,08,65,244,44,194,63,043,45,199,60,167,28,1*69
$GPGSV,4,2,15,195,51,129,42,04,46,236,38,16,43,034,39,09,31,290,22,1*54
$GPGSV,4,3,15,31,30,125,30,26,26,067,25,196,24,177,25,21,21,177,34,1*5D
$GPGSV,4,4,15,02,10,187,19,07,10,318,32,47,,,35,1*6D
$GPGSV,3,1,09,27,70,021,48,08,65,244,44,194,63,043,45,199,60,167,43,8*6D
$GPGSV,3,2,09,195,51,129,43,04,46,236,42,09,31,290,21,26,26,067,28,8*5E
$GPGSV,3,3,09,196,24,177,29,8*66
$GLGSV,2,1,06,82,62,129,43,81,40,045,45,79,39,052,37,80,34,342,34,1*79
$GLGSV,2,2,06,83,29,178,20,69,15,219,21,1*70
$GAGSV,2,1,08,30,52,003,36,07,46,257,37,34,39,100,42,08,29,190,31,7*78
$GAGSV,2,2,08,27,29,295,26,15,27,161,29,02,23,062,24,36,15,048,27,7*7A
$GAGSV,2,1,08,30,52,003,39,07,46,257,41,34,39,100,41,08,29,190,26,1*75
$GAGSV,2,2,08,27,29,295,27,15,27,161,35,02,23,062,26,36,15,048,27,1*72
$GBGSV,5,1,17,16,88,123,44,06,86,325,43,39,76,154,43,40,71,296,44,1*7B
$GBGSV,5,2,17,09,70,326,41,34,66,169,42,12,65,080,44,07,65,276,42,1*7D
$GBGSV,5,3,17,24,56,059,46,10,53,262,39,44,45,052,43,11,44,189,34,1*70
$GBGSV,5,4,17,25,41,328,46,43,23,204,31,26,18,103,,33,14,229,30,1*7A
$GBGSV,5,5,17,56,,,32,1*72
$GBGSV,2,1,08,39,76,154,47,40,71,296,45,34,66,169,45,24,56,059,44,4*7F
$GBGSV,2,2,08,44,45,052,42,25,41,328,43,43,23,204,32,33,14,229,29,4*71
$GNACCURACY,3.7*12
$PAIRSAT,1,34,2,0,200,3,0,200,4,0,221,5,0,200,6,0,200,7,0,201,8,0,221,9,0,221,10,0,200,11,0,200,12,0,200,13,0,200,14,0,200,15,0,200,16,0,201,17,0,200,18,0,200,19,0,200,21,0,201,22,0,200,23,0,200,24,0,200,25,0,200,26,0,221,27,0,221,28,0,200,29,0,200,30,0,200,31,0,201,32,0,200,194,0,621,195,0,621,196,0,620,199,0,621*74
$PAIRSAT,2,17,69,0,1,70,0,200,71,0,200,72,0,200,73,0,200,74,0,200,75,0,200,76,0,200,77,0,200,78,0,200,79,0,201,80,0,201,81,0,201,82,0,201,83,0,200,84,0,200,88,0,200*57
$PAIRSAT,3,23,2,0,1200,3,0,1200,4,0,1200,5,0,200,7,0,1221,8,0,1221,9,0,1200,10,0,1200,11,0,1200,12,0,1200,13,0,1200,15,0,1221,19,0,1200,21,0,1200,24,0,200,25,0,1200,26,0,1000,27,0,1201,30,0,1221,31,0,1200,33,0,1200,34,0,1221,36,0,221*69
$PAIRSAT,4,46,1,0,200,2,0,200,3,0,600,4,0,200,5,0,200,6,0,201,7,0,201,8,0,200,9,0,201,10,0,201,11,0,201,12,0,201,13,0,200,14,0,200,16,0,201,19,0,600,20,0,600,21,0,600,22,0,600,23,0,600,24,0,621,25,0,621,26,0,621,27,0,600,28,0,400,29,0,600,30,0,600,32,0,600,33,0,621,34,0,621,35,0,400,36,0,600,37,0,600,38,0,400,39,0,421,40,0,421,41,0,600,42,0,400,43,0,421,44,0,421,45,0,400,46,0,400,59,0,400,60,0,400,61,0,400,62,0,400*4B
$PAIRDGP,1,21*6B
$GNGGA,031044.200,2500.7983539,N,12132.4846161,E,4,63,0.46,17.082,M,15.25,M,1,3335*4E
$GNRMC,031044.200,A,2500.7983539,N,12132.4846161,E,1.78,226.37,030324,,,R,V*15
$GPHDT,223.809,T*37
$GNACCURACY,3.7*12
$GNGGA,031044.300,2500.7983152,N,12132.4845786,E,4,63,0.46,17.045,M,15.25,M,1,3335*41
$GNRMC,031044.300,A,2500.7983152,N,12132.4845786,E,1.80,225.53,030324,,,R,V*17
$GPHDT,,T*1B
$GNACCURACY,3.7*12
$GNGGA,031044.400,2500.7982584,N,12132.4845351,E,4,64,0.46,17.025,M,15.25,M,1,3335*47
$GNRMC,031044.400,A,2500.7982584,N,12132.4845351,E,1.82,224.70,030324,,,R,V*12
$GPHDT,223.428,T*38
$GNACCURACY,3.7*12
$GNGGA,031044.500,2500.7982244,N,12132.4844963,E,4,64,0.46,16.970,M,15.25,M,1,3335*4F
$GNRMC,031044.500,A,2500.7982244,N,12132.4844963,E,1.83,223.79,030324,,,R,V*1D
$GPHDT,,T*1B
$GNACCURACY,3.7*12
$GNGGA,031044.600,2500.7981837,N,12132.4844573,E,4,64,0.46,17.006,M,15.25,M,0,3335*44
$GNRMC,031044.600,A,2500.7981837,N,12132.4844573,E,1.84,222.73,030324,,,R,V*12
$GPHDT,223.723,T*30
$GNACCURACY,3.7*12
$GNGGA,031044.700,2500.7981448,N,12132.4844096,E,4,64,0.46,16.983,M,15.25,M,0,3335*4A
$GNRMC,031044.700,A,2500.7981448,N,12132.4844096,E,1.87,223.40,030324,,,R,V*1B
$GPHDT,,T*1B
$GNACCURACY,3.7*12
$GNGGA,031044.800,2500.7980934,N,12132.4843709,E,4,64,0.46,17.065,M,15.25,M,0,3335*44
$GNRMC,031044.800,A,2500.7980934,N,12132.4843709,E,1.91,223.81,030324,,,R,V*1F
$GPHDT,223.044,T*36
$GNACCURACY,3.7*12
$GNGGA,031044.900,2500.7980608,N,12132.4843137,E,4,64,0.46,17.008,M,15.25,M,0,3335*45
$GNRMC,031044.900,A,2500.7980608,N,12132.4843137,E,1.94,224.27,030324,,,R,V*1B
$GPHDT,,T*1B
$GNACCURACY,3.7*12
$GNGGA,031045.000,2500.7980120,N,12132.4842680,E,4,64,0.46,17.052,M,15.25,M,1,3335*44
$GNRMC,031045.000,A,2500.7980120,N,12132.4842680,E,2.01,223.87,030324,,,R,V*16
$GPHDT,222.399,T*34
$GNACCURACY,3.7*12
$GNGGA,031045.100,2500.7979834,N,12132.4842189,E,4,63,0.46,17.049,M,15.25,M,1,3335*4C
$GNRMC,031045.100,A,2500.7979834,N,12132.4842189,E,1.89,228.24,030324,,,R,V*12
$GPHDT,,T*1B
$GNGSA,A,3,27,08,194,199,195,04,16,09,31,26,196,21,0.73,0.46,0.57,1*09
$GNGSA,A,3,07,,,,,,,,,,,,0.73,0.46,0.57,1*02
$GNGSA,A,3,82,81,79,80,69,,,,,,,,0.73,0.46,0.57,2*0C
$GNGSA,A,3,30,07,34,08,27,15,36,,,,,,0.73,0.46,0.57,3*08
$GNGSA,A,3,16,06,39,40,09,34,12,07,24,10,44,11,0.73,0.46,0.57,4*02
$GNGSA,A,3,25,43,33,,,,,,,,,,0.73,0.46,0.57,4*00
$GPGSV,4,1,15,27,70,021,43,08,65,244,45,194,63,043,43,199,60,167,29,1*6E
$GPGSV,4,2,15,195,51,129,40,04,46,236,37,16,43,034,40,09,31,290,24,1*51
$GPGSV,4,3,15,31,30,125,33,26,26,067,26,196,24,177,25,21,21,177,27,1*5F
$GPGSV,4,4,15,02,10,187,18,07,10,318,28,47,,,35,1*67
$GPGSV,2,1,08,27,70,021,48,08,65,244,46,194,63,043,45,199,60,167,42,8*6E
$GPGSV,2,2,08,195,51,129,42,04,46,236,43,09,31,290,26,26,26,067,26,8*57
$GLGSV,2,1,06,82,62,129,44,81,40,045,45,79,39,052,39,80,34,342,42,1*71
$GLGSV,2,2,06,83,29,178,19,69,15,219,22,1*79
$GAGSV,2,1,08,30,52,003,38,07,46,257,37,34,39,100,38,08,29,190,37,7*7D
$GAGSV,2,2,08,27,29,295,19,15,27,161,26,02,23,062,23,36,15,048,28,7*71
$GAGSV,2,1,08,30,52,003,43,07,46,257,40,34,39,100,42,08,29,190,37,1*7A
$GAGSV,2,2,08,27,29,295,25,15,27,161,34,02,23,062,25,36,15,048,29,1*7C
$GBGSV,5,1,17,16,88,123,45,06,86,324,44,39,76,154,43,40,71,296,44,1*7C
$GBGSV,5,2,17,09,70,326,41,34,66,169,42,12,65,080,44,07,65,276,41,1*7E
$GBGSV,5,3,17,24,56,059,46,10,53,262,40,44,45,052,43,11,44,189,33,1*79
$GBGSV,5,4,17,25,41,328,44,43,23,204,36,26,18,103,,33,14,229,33,1*7C
$GBGSV,5,5,17,56,,,26,1*77
$GBGSV,2,1,08,39,76,154,46,40,71,296,45,34,66,169,44,24,56,059,46,4*7D
$GBGSV,2,2,08,44,45,052,44,25,41,328,45,43,23,204,39,33,14,229,34,4*76
$GNACCURACY,3.7*12
$PAIRSAT,1,34,2,0,200,3,0,200,4,0,221,5,0,200,6,0,200,7,0,201,8,0,221,9,0,221,10,0,200,11,0,200,12,0,200,13,0,200,14,0,200,15,0,200,16,0,201,17,0,200,18,0,200,19,0,200,21,0,201,22,0,200,23,0,200,24,0,200,25,0,200,26,0,221,27,0,221,28,0,200,29,0,200,30,0,200,31,0,201,32,0,200,194,0,621,195,0,621,196,0,620,199,0,621*74
$PAIRSAT,2,17,69,0,1,70,0,200,71,0,200,72,0,200,73,0,200,74,0,200,75,0,200,76,0,200,77,0,200,78,0,200,79,0,201,80,0,201,81,0,201,82,0,201,83,0,200,84,0,200,88,0,200*57
$PAIRSAT,3,23,2,0,1200,3,0,1200,4,0,1200,5,0,200,7,0,1221,8,0,1221,9,0,1200,10,0,1200,11,0,1200,12,0,1200,13,0,1200,15,0,1221,19,0,1200,21,0,1200,24,0,200,25,0,1200,26,0,1000,27,0,1201,30,0,1221,31,0,1200,33,0,1200,34,0,1221,36,0,221*69
$PAIRSAT,4,46,1,0,200,2,0,200,3,0,600,4,0,200,5,0,200,6,0,201,7,0,201,8,0,200,9,0,201,10,0,201,11,0,201,12,0,201,13,0,200,14,0,200,16,0,201,19,0,600,20,0,600,21,0,600,22,0,600,23,0,600,24,0,621,25,0,621,26,0,621,27,0,600,28,0,400,29,0,600,30,0,600,32,0,600,33,0,621,34,0,621,35,0,400,36,0,600,37,0,600,38,0,400,39,0,421,40,0,421,41,0,600,42,0,400,43,0,421,44,0,421,45,0,400,46,0,400,59,0,400,60,0,400,61,0,400,62,0,400*4B
$PAIRDGP,1,21*6B
$GNGGA,031045.200,2500.7979298,N,12132.4841773,E,4,63,0.46,17.041,M,15.25,M,1,3335*4B
$GNRMC,031045.200,A,2500.7979298,N,12132.4841773,E,2.00,225.24,030324,,,R,V*12
$GPHDT,225.412,T*37
$GNACCURACY,3.8*1D
$GNGGA,031045.300,2500.7978944,N,12132.4841345,E,4,63,0.46,17.084,M,15.25,M,1,3335*49
$GNRMC,031045.300,A,2500.7978944,N,12132.4841345,E,2.15,223.57,030324,,,R,V*1F
$GPHDT,,T*1B
$GNACCURACY,3.8*1D
$GNGGA,031045.400,2500.7978458,N,12132.4840914,E,4,64,0.46,17.059,M,15.25,M,1,3335*46
$GNRMC,031045.400,A,2500.7978458,N,12132.4840914,E,1.99,223.89,030324,,,R,V*13
$GPHDT,225.904,T*3D
$GNACCURACY,3.8*1D
$GNGGA,031045.500,2500.7978086,N,12132.4840356,E,4,64,0.46,16.982,M,15.25,M,1,3335*42
$GNRMC,031045.500,A,2500.7978086,N,12132.4840356,E,2.03,226.12,030324,,,R,V*1E
$GPHDT,,T*1B
$GNACCURACY,3.8*1D
$GNGGA,031045.600,2500.7977600,N,12132.4839942,E,4,64,0.46,17.049,M,15.25,M,0,3335*49
$GNRMC,031045.600,A,2500.7977600,N,12132.4839942,E,2.01,230.66,030324,,,R,V*1D
$GPHDT,227.726,T*31
$GNACCURACY,3.8*1D
$GNGGA,031045.700,2500.7977207,N,12132.4839422,E,4,64,0.46,16.978,M,15.25,M,0,3335*4A
$GNRMC,031045.700,A,2500.7977207,N,12132.4839422,E,2.01,230.26,030324,,,R,V*10
$GPHDT,,T*1B
$GNACCURACY,3.8*1D
$GNGGA,031045.800,2500.7977029,N,12132.4839007,E,4,64,0.46,17.059,M,15.25,M,0,3335*43
$GNRMC,031045.800,A,2500.7977029,N,12132.4839007,E,1.92,229.40,030324,,,R,V*13
$GPHDT,227.223,T*31
$GNACCURACY,3.8*1D
$GNGGA,031045.900,2500.7976436,N,12132.4838525,E,4,64,0.46,17.062,M,15.25,M,0,3335*45
$GNRMC,031045.900,A,2500.7976436,N,12132.4838525,E,2.09,226.32,030324,,,R,V*16
$GPHDT,,T*1B
$GNACCURACY,3.8*1D
$GNGGA,031046.000,2500.7976251,N,12132.4837933,E,4,64,0.46,17.048,M,15.25,M,1,3335*45
$GNRMC,031046.000,A,2500.7976251,N,12132.4837933,E,2.11,226.79,030324,,,R,V*19
$GPHDT,225.509,T*3C
$GNACCURACY,3.8*1D
$GNGGA,031046.100,2500.7975720,N,12132.4837432,E,4,64,0.46,16.988,M,15.25,M,1,3335*4C
$GNRMC,031046.100,A,2500.7975720,N,12132.4837432,E,2.11,227.64,030324,,,R,V*19
$GPHDT,,T*1B
$GNGSA,A,3,27,08,194,199,195,04,16,09,31,26,196,21,0.73,0.46,0.57,1*09
$GNGSA,A,3,07,,,,,,,,,,,,0.73,0.46,0.57,1*02
$GNGSA,A,3,82,81,79,80,69,,,,,,,,0.73,0.46,0.57,2*0C
$GNGSA,A,3,30,07,34,08,27,15,36,,,,,,0.73,0.46,0.57,3*08
$GNGSA,A,3,16,06,39,40,09,34,12,07,24,10,44,11,0.73,0.46,0.57,4*02
$GNGSA,A,3,25,43,33,,,,,,,,,,0.73,0.46,0.57,4*00
$GPGSV,4,1,15,27,70,021,44,08,65,244,45,194,63,043,42,199,60,167,24,1*65
$GPGSV,4,2,15,195,51,129,37,04,46,236,34,47,45,233,32,16,43,034,32,1*50
$GPGSV,4,3,15,09,31,290,27,31,30,125,31,26,26,067,27,196,24,177,27,1*5F
$GPGSV,4,4,15,21,21,177,28,02,10,187,20,07,10,318,20,1*5A
$GPGSV,3,1,09,27,70,021,47,08,65,244,45,194,63,043,44,199,60,167,36,8*60
$GPGSV,3,2,09,195,51,129,42,04,46,236,42,09,31,290,26,26,26,067,28,8*58
$GPGSV,3,3,09,196,24,177,29,8*66
$GLGSV,2,1,06,82,62,129,40,81,40,045,42,79,39,052,41,80,34,342,42,1*7D
$GLGSV,2,2,06,83,29,178,18,69,15,219,21,1*7B
$GAGSV,2,1,08,30,52,003,31,07,46,257,36,34,39,100,38,08,29,190,30,7*72
$GAGSV,2,2,08,27,29,295,20,15,27,161,24,02,23,062,22,36,15,048,29,7*79
$GAGSV,2,1,08,30,52,003,40,07,46,257,40,34,39,100,38,08,29,190,37,1*74
$GAGSV,2,2,08,27,29,295,25,15,27,161,33,02,23,062,25,36,15,048,28,1*7A
$GBGSV,5,1,17,16,88,124,44,06,86,324,43,39,76,154,39,40,71,296,44,1*70
$GBGSV,5,2,17,09,70,326,44,34,66,169,37,12,65,079,43,07,65,276,41,1*78
$GBGSV,5,3,17,24,56,059,44,10,53,262,39,44,45,052,45,11,44,189,26,1*77
$GBGSV,5,4,17,25,41,328,42,43,23,204,36,26,18,103,,33,14,229,31,1*78
$GBGSV,5,5,17,56,,,32,1*72
$GBGSV,2,1,08,39,76,154,43,40,71,296,45,34,66,169,37,24,56,059,46,4*7C
$GBGSV,2,2,08,44,45,052,43,25,41,328,43,43,23,204,40,33,14,229,37,4*7A
$GNACCURACY,3.8*1D
$PAIRSAT,1,34,2,0,200,3,0,200,4,0,221,5,0,200,6,0,200,7,0,201,8,0,221,9,0,221,10,0,200,11,0,200,12,0,200,13,0,200,14,0,200,15,0,200,16,0,201,17,0,200,18,0,200,19,0,200,21,0,201,22,0,200,23,0,200,24,0,200,25,0,200,26,0,221,27,0,221,28,0,200,29,0,200,30,0,200,31,0,201,32,0,200,194,0,621,195,0,621,196,0,620,199,0,621*74
$PAIRSAT,2,17,69,0,1,70,0,200,71,0,200,72,0,200,73,0,200,74,0,200,75,0,200,76,0,200,77,0,200,78,0,200,79,0,201,80,0,201,81,0,201,82,0,201,83,0,200,84,0,200,88,0,200*57
$PAIRSAT,3,23,2,0,1200,3,0,1200,4,0,1200,5,0,200,7,0,1221,8,0,1221,9,0,1200,10,0,1200,11,0,1200,12,0,1200,13,0,1200,15,0,1221,19,0,1200,21,0,1200,24,0,200,25,0,1200,26,0,1000,27,0,1201,30,0,1221,31,0,1200,33,0,1200,34,0,1221,36,0,221*69
$PAIRSAT,4,46,1,0,200,2,0,200,3,0,600,4,0,200,5,0,200,6,0,201,7,0,201,8,0,200,9,0,201,10,0,201,11,0,201,12,0,201,13,0,200,14,0,200,16,0,201,19,0,600,20,0,600,21,0,600,22,0,600,23,0,600,24,0,621,25,0,621,26,0,621,27,0,600,28,0,400,29,0,600,30,0,600,32,0,600,33,0,621,34,0,621,35,0,400,36,0,600,37,0,600,38,0,400,39,0,421,40,0,421,41,0,600,42,0,400,43,0,421,44,0,421,45,0,400,46,0,400,59,0,400,60,0,400,61,0,400,62,0,400*4B
$PAIRDGP,1,21*6B
$GNGGA,031046.200,2500.7975337,N,12132.4836983,E,4,64,0.46,17.071,M,15.25,M,1,3335*45
$GNRMC,031046.200,A,2500.7975337,N,12132.4836983,E,2.12,231.27,030324,,,R,V*1D
$GPHDT,228.773,T*3E
$GNACCURACY,3.9*1C
$GNGGA,031046.300,2500.7974818,N,12132.4836516,E,4,64,0.46,16.985,M,15.25,M,1,3335*40
$GNRMC,031046.300,A,2500.7974818,N,12132.4836516,E,2.06,231.68,030324,,,R,V*15
$GPHDT,,T*1B
$GNACCURACY,3.9*1C
$GNGGA,031046.400,2500.7974526,N,12132.4835977,E,4,64,0.46,17.033,M,15.25,M,1,3335*4A
$GNRMC,031046.400,A,2500.7974526,N,12132.4835977,E,2.11,227.72,030324,,,R,V*10
$GPHDT,224.983,T*33
$GNACCURACY,3.9*1C
$GNGGA,031046.500,2500.7973896,N,12132.4835556,E,4,64,0.46,16.953,M,15.25,M,0,3335*4A
$GNRMC,031046.500,A,2500.7973896,N,12132.4835556,E,2.13,225.26,030324,,,R,V*1E
$GPHDT,,T*1B
$GNACCURACY,3.9*1C
$GNGGA,031046.600,2500.7973310,N,12132.4835179,E,4,64,0.46,16.975,M,15.25,M,0,3335*41
$GNRMC,031046.600,A,2500.7973310,N,12132.4835179,E,2.19,223.81,030324,,,R,V*10
$GPHDT,227.846,T*38
$GNACCURACY,3.9*1C
$GNGGA,031046.700,2500.7973086,N,12132.4834710,E,4,64,0.46,17.009,M,15.25,M,0,3335*47
$GNRMC,031046.700,A,2500.7973086,N,12132.4834710,E,2.18,224.57,030324,,,R,V*18
$GPHDT,,T*1B
$GNACCURACY,3.9*1C
$GNGGA,031046.800,2500.7972507,N,12132.4834293,E,4,64,0.46,17.016,M,15.25,M,0,3335*45
$GNRMC,031046.800,A,2500.7972507,N,12132.4834293,E,2.07,223.21,030324,,,R,V*1C
$GPHDT,224.913,T*3A
$GNACCURACY,3.9*1C
$GNGGA,031046.900,2500.7972630,N,12132.4833599,E,4,63,0.47,16.998,M,15.25,M,0,3335*41
$GNRMC,031046.900,A,2500.7972630,N,12132.4833599,E,2.12,223.00,030324,,,R,V*17
$GPHDT,,T*1B
$GNACCURACY,3.9*1C
$GNGGA,031047.000,2500.7972005,N,12132.4833201,E,4,63,0.47,17.041,M,15.25,M,1,3335*42
$GNRMC,031047.000,A,2500.7972005,N,12132.4833201,E,2.19,222.45,030324,,,R,V*12
$GPHDT,228.200,T*3F
$GNACCURACY,3.9*1C
$GNGGA,031047.100,2500.7971101,N,12132.4832812,E,4,63,0.47,16.964,M,15.25,M,1,3335*43
$GNRMC,031047.100,A,2500.7971101,N,12132.4832812,E,2.29,223.21,030324,,,R,V*1C
$GPHDT,,T*1B
$GNGSA,A,3,27,08,194,199,195,04,16,09,31,26,196,07,0.74,0.47,0.57,1*0B
$GNGSA,A,3,82,81,79,80,69,,,,,,,,0.74,0.47,0.57,2*0A
$GNGSA,A,3,30,07,34,08,27,15,36,,,,,,0.74,0.47,0.57,3*0E
$GNGSA,A,3,16,06,39,40,09,34,12,07,24,10,44,11,0.74,0.47,0.57,4*04
$GNGSA,A,3,25,43,33,,,,,,,,,,0.74,0.47,0.57,4*06
$GPGSV,4,1,15,27,70,021,39,08,65,244,45,194,63,043,42,199,60,167,30,1*6A
$GPGSV,4,2,15,195,51,129,37,04,46,236,36,47,45,233,32,16,43,034,39,1*59
$GPGSV,4,3,15,09,31,290,24,31,30,125,32,26,26,067,27,196,24,177,35,1*5C
$GPGSV,4,4,15,21,21,177,30,02,10,187,23,07,10,318,17,1*54
$GPGSV,3,1,09,27,70,021,44,08,65,244,44,194,63,043,45,199,60,167,39,8*6C
$GPGSV,3,2,09,195,51,129,36,04,46,236,42,09,31,290,24,26,26,067,24,8*55
$GPGSV,3,3,09,196,24,177,36,8*68
$GLGSV,2,1,06,82,62,129,37,81,40,045,40,79,39,052,40,80,34,342,43,1*7F
$GLGSV,2,2,06,83,29,178,20,69,15,219,21,1*70
$GAGSV,2,1,08,30,52,003,30,07,46,257,36,34,39,100,38,08,29,190,31,7*72
$GAGSV,2,2,08,27,29,295,23,15,27,161,25,02,23,062,21,36,15,048,31,7*71
$GAGSV,2,1,08,30,52,003,33,07,46,257,38,34,39,100,35,08,29,190,41,1*73
$GAGSV,2,2,08,27,29,295,23,15,27,161,28,02,23,062,26,36,15,048,32,1*7E
$GBGSV,5,1,17,16,88,124,43,06,86,324,43,39,76,154,36,40,71,296,44,1*78
$GBGSV,5,2,17,09,70,326,43,34,66,169,35,12,65,079,44,07,65,276,41,1*7A
$GBGSV,5,3,17,24,56,060,44,10,53,262,40,44,45,052,45,11,44,189,28,1*7D
$GBGSV,5,4,17,25,41,328,46,43,23,204,41,26,17,103,,33,14,229,34,1*76
$GBGSV,5,5,17,56,,,33,1*73
$GBGSV,2,1,08,39,76,154,43,40,71,296,46,34,66,169,39,24,56,060,46,4*7B
$GBGSV,2,2,08,44,45,052,42,25,41,328,46,43,23,204,40,33,14,229,35,4*7C
$GNACCURACY,3.9*1C
$PAIRSAT,1,34,2,0,200,3,0,200,4,0,221,5,0,200,6,0,200,7,0,201,8,0,221,9,0,221,10,0,200,11,0,200,12,0,200,13,0,200,14,0,200,15,0,200,16,0,201,17,0,200,18,0,200,19,0,200,21,0,201,22,0,200,23,0,200,24,0,200,25,0,200,26,0,221,27,0,221,28,0,200,29,0,200,30,0,200,31,0,201,32,0,200,194,0,621,195,0,621,196,0,620,199,0,621*74
$PAIRSAT,2,17,69,0,1,70,0,200,71,0,200,72,0,200,73,0,200,74,0,200,75,0,200,76,0,200,77,0,200,78,0,200,79,0,201,80,0,201,81,0,201,82,0,201,83,0,200,84,0,200,88,0,200*57
$PAIRSAT,3,23,2,0,1200,3,0,1200,4,0,1200,5,0,200,7,0,1221,8,0,1221,9,0,1200,10,0,1200,11,0,1200,12,0,1200,13,0,1200,15,0,1221,19,0,1200,21,0,1200,24,0,200,25,0,1200,26,0,1000,27,0,1201,30,0,1221,31,0,1200,33,0,1200,34,0,1221,36,0,221*69
$PAIRSAT,4,46,1,0,200,2,0,200,3,0,600,4,0,200,5,0,200,6,0,201,7,0,201,8,0,200,9,0,201,10,0,201,11,0,201,12,0,201,13,0,200,14,0,200,16,0,201,19,0,600,20,0,600,21,0,600,22,0,600,23,0,600,24,0,621,25,0,621,26,0,621,27,0,600,28,0,400,29,0,600,30,0,600,32,0,600,33,0,621,34,0,621,35,0,400,36,0,600,37,0,600,38,0,400,39,0,421,40,0,421,41,0,600,42,0,400,43,0,421,44,0,421,45,0,400,46,0,400,59,0,400,60,0,400,61,0,400,62,0,400*4B
$PAIRDGP,1,21*6B
$GNGGA,031047.200,2500.7970860,N,12132.4832365,E,4,63,0.47,17.030,M,15.25,M,1,3335*4D
$GNRMC,031047.200,A,2500.7970860,N,12132.4832365,E,2.13,226.07,030324,,,R,V*13
$GPHDT,226.043,T*34
$GNACCURACY,3.9*1C
$GNGGA,031047.300,2500.7970882,N,12132.4831507,E,4,63,0.47,17.007,M,15.25,M,1,3335*45
$GNRMC,031047.300,A,2500.7970882,N,12132.4831507,E,2.14,233.38,030324,,,R,V*10
$GPHDT,,T*1B
$GNACCURACY,4.0*12
$GNGGA,031047.400,2500.7970577,N,12132.4831007,E,4,64,0.46,17.061,M,15.25,M,1,3335*46
$GNRMC,031047.400,A,2500.7970577,N,12132.4831007,E,2.19,232.87,030324,,,R,V*1D
$GPHDT,224.283,T*38
$GNACCURACY,4.0*12
$GNGGA,031047.500,2500.7969699,N,12132.4830620,E,4,64,0.46,17.064,M,15.25,M,0,3335*4A
$GNRMC,031047.500,A,2500.7969699,N,12132.4830620,E,2.26,229.95,030324,,,R,V*10
$GPHDT,,T*1B
$GNACCURACY,4.0*12
$GNGGA,031047.600,2500.7969228,N,12132.4830169,E,4,64,0.46,16.978,M,15.25,M,0,3335*48
$GNRMC,031047.600,A,2500.7969228,N,12132.4830169,E,2.28,227.08,030324,,,R,V*13
$GPHDT,221.644,T*32
$GNACCURACY,4.0*12
$GNGGA,031047.700,2500.7968709,N,12132.4829624,E,4,64,0.46,16.941,M,15.25,M,0,3335*42
$GNRMC,031047.700,A,2500.7968709,N,12132.4829624,E,2.34,225.44,030324,,,R,V*14
$GPHDT,,T*1B
$GNACCURACY,4.0*12
$GNGGA,031047.800,2500.7968489,N,12132.4829101,E,4,64,0.46,17.017,M,15.25,M,0,3335*4D
$GNRMC,031047.800,A,2500.7968489,N,12132.4829101,E,2.25,223.88,030324,,,R,V*16
$GPHDT,221.226,T*32
$GNACCURACY,4.0*12
$GNGGA,031047.900,2500.7968015,N,12132.4828671,E,4,64,0.46,17.005,M,15.25,M,0,3335*4F
$GNRMC,031047.900,A,2500.7968015,N,12132.4828671,E,2.18,223.12,030324,,,R,V*1A
$GPHDT,,T*1B
$GNACCURACY,4.0*12
$GNGGA,031048.000,2500.7967539,N,12132.4828116,E,4,64,0.46,17.008,M,15.25,M,1,3335*47
$GNRMC,031048.000,A,2500.7967539,N,12132.4828116,E,2.25,226.51,030324,,,R,V*12
$GPHDT,221.986,T*33
$GNACCURACY,4.0*12
$GNGGA,031048.100,2500.7966991,N,12132.4827723,E,4,64,0.46,16.948,M,15.25,M,1,3335*4A
$GNRMC,031048.100,A,2500.7966991,N,12132.4827723,E,2.29,223.45,030324,,,R,V*1F
$GPHDT,,T*1B
$GNGSA,A,3,27,08,194,199,195,04,16,09,31,26,196,21,0.73,0.46,0.57,1*09
$GNGSA,A,3,07,,,,,,,,,,,,0.73,0.46,0.57,1*02
$GNGSA,A,3,82,81,79,80,69,,,,,,,,0.73,0.46,0.57,2*0C
$GNGSA,A,3,30,07,34,08,27,15,36,,,,,,0.73,0.46,0.57,3*08
$GNGSA,A,3,16,06,39,40,09,34,12,07,24,10,44,11,0.73,0.46,0.57,4*02
$GNGSA,A,3,25,43,33,,,,,,,,,,0.73,0.46,0.57,4*00
$GPGSV,4,1,15,27,70,021,45,08,65,244,46,194,63,043,43,199,60,167,30,1*63
$GPGSV,4,2,15,195,51,129,31,04,46,236,37,47,45,233,35,16,43,034,41,1*56
$GPGSV,4,3,15,09,31,290,25,31,30,125,36,26,26,067,27,196,24,177,31,1*5D
$GPGSV,4,4,15,21,21,177,28,02,10,187,19,07,10,318,19,1*5A
$GPGSV,3,1,09,27,70,021,46,08,65,244,45,194,63,043,45,199,60,167,43,8*62
$GPGSV,3,2,09,195,51,129,36,04,46,236,42,09,31,290,25,26,26,067,29,8*59
$GPGSV,3,3,09,196,24,177,36,8*68
$GLGSV,2,1,06,82,62,129,34,81,40,045,40,79,39,052,39,80,34,342,42,1*73
$GLGSV,2,2,06,83,29,178,19,69,15,219,20,1*7B
$GAGSV,2,1,08,30,52,003,38,07,46,257,35,34,39,100,30,08,29,190,34,7*74
$GAGSV,2,2,08,27,29,295,22,15,27,161,26,02,23,062,19,36,15,048,31,7*78
$GAGSV,2,1,08,30,52,003,39,07,46,257,37,34,39,100,37,08,29,190,42,1*77
$GAGSV,2,2,08,27,29,295,21,15,27,161,38,02,23,062,25,36,15,048,35,1*79
$GBGSV,5,1,17,16,88,124,43,06,86,324,43,39,76,154,38,40,71,296,44,1*76
$GBGSV,5,2,17,09,70,326,43,34,67,169,35,12,65,079,44,07,65,276,40,1*7A
$GBGSV,5,3,17,24,56,060,44,10,53,262,39,44,45,052,45,11,44,189,38,1*72
$GBGSV,5,4,17,25,41,328,42,43,23,204,39,26,17,103,,33,14,229,33,1*7A
$GBGSV,5,5,17,56,,,28,1*79
$GBGSV,2,1,08,39,76,154,41,40,71,296,46,34,67,169,38,24,56,060,47,4*78
$GBGSV,2,2,08,44,45,052,43,25,41,328,39,43,23,204,41,33,14,229,36,4*77
$GNACCURACY,4.0*12
$PAIRSAT,1,34,2,0,200,3,0,200,4,0,221,5,0,200,6,0,200,7,0,201,8,0,221,9,0,221,10,0,200,11,0,200,12,0,200,13,0,200,14,0,200,15,0,200,16,0,201,17,0,200,18,0,200,19,0,200,21,0,201,22,0,200,23,0,200,24,0,200,25,0,200,26,0,221,27,0,221,28,0,200,29,0,200,30,0,200,31,0,201,32,0,200,194,0,621,195,0,621,196,0,620,199,0,621*74
$PAIRSAT,2,17,69,0,1,70,0,200,71,0,200,72,0,200,73,0,200,74,0,200,75,0,200,76,0,200,77,0,200,78,0,200,79,0,201,80,0,201,81,0,201,82,0,201,83,0,200,84,0,200,88,0,200*57
$PAIRSAT,3,23,2,0,1200,3,0,1200,4,0,1200,5,0,200,7,0,1221,8,0,1221,9,0,1200,10,0,1200,11,0,1200,12,0,1200,13,0,1200,15,0,1221,19,0,1200,21,0,1200,24,0,200,25,0,1200,26,0,1000,27,0,1201,30,0,1221,31,0,1200,33,0,1200,34,0,1221,36,0,221*69
$PAIRSAT,4,46,1,0,200,2,0,200,3,0,600,4,0,200,5,0,200,6,0,201,7,0,201,8,0,200,9,0,201,10,0,201,11,0,201,12,0,201,13,0,200,14,0,200,16,0,201,19,0,600,20,0,600,21,0,600,22,0,600,23,0,600,24,0,621,25,0,621,26,0,621,27,0,600,28,0,400,29,0,600,30,0,600,32,0,600,33,0,621,34,0,621,35,0,400,36,0,600,37,0,600,38,0,400,39,0,421,40,0,421,41,0,600,42,0,400,43,0,421,44,0,421,45,0,400,46,0,400,59,0,400,60,0,400,61,0,400,62,0,400*4B
$PAIRDGP,1,21*6B
$GNGGA,031048.200,2500.7966659,N,12132.4827161,E,4,64,0.46,16.988,M,15.25,M,1,3335*4E
$GNRMC,031048.200,A,2500.7966659,N,12132.4827161,E,2.29,223.31,030324,,,R,V*14
$GPHDT,225.654,T*37
$GNACCURACY,4.0*12
$GNGGA,031048.300,2500.7966197,N,12132.4826646,E,4,64,0.46,16.980,M,15.25,M,1,3335*41
$GNRMC,031048.300,A,2500.7966197,N,12132.4826646,E,2.29,223.14,030324,,,R,V*14
$GPHDT,,T*1B
$GNACCURACY,4.0*12
$GNGGA,031048.400,2500.7965746,N,12132.4826161,E,4,64,0.46,16.956,M,15.25,M,1,3335*46
$GNRMC,031048.400,A,2500.7965746,N,12132.4826161,E,2.19,229.32,030324,,,R,V*15
$GPHDT,225.810,T*39
$GNACCURACY,4.0*12
$GNGGA,031048.500,2500.7965137,N,12132.4825719,E,4,64,0.46,16.987,M,15.25,M,0,3335*40
$GNRMC,031048.500,A,2500.7965137,N,12132.4825719,E,2.15,229.59,030324,,,R,V*1F
$GPHDT,,T*1B
$GNACCURACY,4.0*12
$GNGGA,031048.600,2500.7965209,N,12132.4825118,E,4,64,0.46,17.027,M,15.25,M,0,3335*48
$GNRMC,031048.600,A,2500.7965209,N,12132.4825118,E,2.09,229.52,030324,,,R,V*13
$GPHDT,223.334,T*32
$GNACCURACY,4.0*12
$GNGGA,031048.700,2500.7964522,N,12132.4824636,E,4,64,0.46,16.923,M,15.25,M,0,3335*40
$GNRMC,031048.700,A,2500.7964522,N,12132.4824636,E,2.14,229.27,030324,,,R,V*19
$GPHDT,,T*1B
$GNACCURACY,4.0*12
$GNGGA,031048.800,2500.7964302,N,12132.4824115,E,4,64,0.46,16.955,M,15.25,M,0,3335*4C
$GNRMC,031048.800,A,2500.7964302,N,12132.4824115,E,2.19,227.20,030324,,,R,V*10
$GPHDT,233.288,T*35
$GNACCURACY,4.0*12
$GNGGA,031048.900,2500.7963605,N,12132.4823810,E,4,64,0.46,17.021,M,15.25,M,0,3335*48
$GNRMC,031048.900,A,2500.7963605,N,12132.4823810,E,2.12,226.45,030324,,,R,V*16
$GPHDT,,T*1B
$GNACCURACY,4.0*12
$GNGGA,031049.000,2500.7963283,N,12132.4823281,E,4,64,0.46,16.915,M,15.25,M,1,3335*46
$GNRMC,031049.000,A,2500.7963283,N,12132.4823281,E,2.11,228.06,030324,,,R,V*1C
$GPHDT,224.966,T*38
$GNACCURACY,4.0*12
$GNGGA,031049.100,2500.7962715,N,12132.4822997,E,4,64,0.46,17.030,M,15.25,M,1,3335*4E
$GNRMC,031049.100,A,2500.7962715,N,12132.4822997,E,2.10,222.79,030324,,,R,V*18
$GPHDT,,T*1B
$GNGSA,A,3,27,08,194,199,195,04,16,09,31,26,196,21,0.73,0.46,0.57,1*09
$GNGSA,A,3,07,,,,,,,,,,,,0.73,0.46,0.57,1*02
$GNGSA,A,3,82,81,79,80,69,,,,,,,,0.73,0.46,0.57,2*0C
$GNGSA,A,3,30,07,34,08,27,15,36,,,,,,0.73,0.46,0.57,3*08
$GNGSA,A,3,16,06,39,40,09,34,12,07,24,10,44,11,0.73,0.46,0.57,4*02
$GNGSA,A,3,25,43,33,,,,,,,,,,0.73,0.46,0.57,4*00
$GPGSV,4,1,15,27,70,021,40,08,65,244,46,194,63,043,43,199,60,167,27,1*60
$GPGSV,4,2,15,195,51,129,30,04,46,236,36,47,45,233,36,16,43,034,42,1*56
$GPGSV,4,3,15,09,31,290,25,31,30,125,29,26,26,067,29,196,24,177,28,1*55
$GPGSV,4,4,15,21,21,177,30,02,10,187,18,07,10,318,19,1*52
$GPGSV,3,1,09,27,70,021,46,08,65,244,46,194,63,043,44,199,60,167,30,8*64
$GPGSV,3,2,09,195,51,129,39,04,46,236,42,09,31,290,23,26,26,067,30,8*58
$GPGSV,3,3,09,196,24,177,33,8*6D
$GLGSV,2,1,06,82,62,129,31,81,40,045,43,79,39,052,37,80,34,342,44,1*7D
$GLGSV,2,2,06,83,29,178,25,69,15,219,22,1*76
$GAGSV,2,1,08,30,52,003,35,07,46,257,33,34,39,100,34,08,29,190,36,7*79
$GAGSV,2,2,08,27,29,295,19,15,27,161,33,02,23,062,23,36,15,048,32,7*7E
$GAGSV,2,1,08,30,52,003,41,07,46,257,37,34,39,100,31,08,29,190,39,1*72
$GAGSV,2,2,08,27,29,295,21,15,27,161,37,02,23,062,23,36,15,048,32,1*77
$GBGSV,5,1,17,16,88,124,43,06,86,324,43,39,76,154,39,40,71,296,44,1*77
$GBGSV,5,2,17,09,70,326,43,34,67,169,40,12,65,079,41,07,65,276,41,1*7C
$GBGSV,5,3,17,24,56,060,44,10,53,262,38,44,45,052,44,11,44,189,38,1*72
$GBGSV,5,4,17,25,41,328,29,43,23,204,38,26,17,103,,33,14,229,35,1*70
$GBGSV,5,5,17,56,,,29,1*78
$GBGSV,2,1,08,39,76,154,39,40,71,296,46,34,67,169,38,24,56,060,46,4*76
$GBGSV,2,2,08,44,45,052,43,25,41,328,33,43,23,204,40,33,14,229,35,4*7F
$GNACCURACY,4.0*12
$PAIRSAT,1,34,2,0,200,3,0,200,4,0,221,5,0,200,6,0,200,7,0,201,8,0,221,9,0,221,10,0,200,11,0,200,12,0,200,13,0,200,14,0,200,15,0,200,16,0,201,17,0,200,18,0,200,19,0,200,21,0,201,22,0,200,23,0,200,24,0,200,25,0,200,26,0,221,27,0,221,28,0,200,29,0,200,30,0,200,31,0,201,32,0,200,194,0,621,195,0,621,196,0,620,199,0,621*74
$PAIRSAT,2,17,69,0,1,70,0,200,71,0,200,72,0,200,73,0,200,74,0,200,75,0,200,76,0,200,77,0,200,78,0,200,79,0,201,80,0,201,81,0,201,82,0,201,83,0,200,84,0,200,88,0,200*57
$PAIRSAT,3,23,2,0,1200,3,0,1200,4,0,1200,5,0,200,7,0,1221,8,0,1221,9,0,1200,10,0,1200,11,0,1200,12,0,1200,13,0,1200,15,0,1221,19,0,1200,21,0,1200,24,0,200,25,0,1200,26,0,1000,27,0,1201,30,0,1221,31,0,1200,33,0,1200,34,0,1221,36,0,221*69
$PAIRSAT,4,46,1,0,200,2,0,200,3,0,600,4,0,200,5,0,200,6,0,201,7,0,201,8,0,200,9,0,201,10,0,201,11,0,201,12,0,201,13,0,200,14,0,200,16,0,201,19,0,600,20,0,600,21,0,600,22,0,600,23,0,600,24,0,621,25,0,621,26,0,621,27,0,600,28,0,400,29,0,600,30,0,600,32,0,600,33,0,621,34,0,621,35,0,400,36,0,600,37,0,600,38,0,400,39,0,421,40,0,421,41,0,600,42,0,400,43,0,421,44,0,421,45,0,400,46,0,400,59,0,400,60,0,400,61,0,400,62,0,400*4B
$PAIRDGP,1,21*6B
$GNGGA,031049.200,2500.7962351,N,12132.4822478,E,4,64,0.46,16.936,M,15.25,M,1,3335*4B
$GNRMC,031049.200,A,2500.7962351,N,12132.4822478,E,2.12,224.89,030324,,,R,V*18
$GPHDT,222.232,T*34
$GNACCURACY,4.0*12
$GNGGA,031049.300,2500.7961985,N,12132.4821853,E,4,64,0.46,16.827,M,15.25,M,1,3335*4D
$GNRMC,031049.300,A,2500.7961985,N,12132.4821853,E,2.20,226.83,030324,,,R,V*16
$GPHDT,,T*1B
$GNACCURACY,4.0*12
$GNGGA,031049.400,2500.7961291,N,12132.4821515,E,4,64,0.46,17.030,M,15.25,M,1,3335*44
$GNRMC,031049.400,A,2500.7961291,N,12132.4821515,E,2.28,225.55,030324,,,R,V*10
$GPHDT,226.122,T*32
$GNACCURACY,4.0*12
$GNGGA,031049.500,2500.7961063,N,12132.4820865,E,4,64,0.46,16.970,M,15.25,M,1,3335*4D
$GNRMC,031049.500,A,2500.7961063,N,12132.4820865,E,2.29,231.13,030324,,,R,V*13
$GPHDT,,T*1B
$GNACCURACY,4.0*12
$GNGGA,031049.600,2500.7960635,N,12132.4820267,E,4,64,0.46,17.012,M,15.25,M,0,3335*4F
$GNRMC,031049.600,A,2500.7960635,N,12132.4820267,E,2.23,231.64,030324,,,R,V*16
$GPHDT,223.061,T*31
$GNACCURACY,4.0*12
$GNGGA,031049.700,2500.7960529,N,12132.4819689,E,4,64,0.46,16.979,M,15.25,M,0,3335*4B
$GNRMC,031049.700,A,2500.7960529,N,12132.4819689,E,2.07,232.39,030324,,,R,V*1A
$GPHDT,,T*1B
$GNACCURACY,4.0*12
$GNGGA,031049.800,2500.7959934,N,12132.4819326,E,4,64,0.46,17.114,M,15.25,M,0,3335*4C
$GNRMC,031049.800,A,2500.7959934,N,12132.4819326,E,2.27,228.75,030324,,,R,V*1E
$GPHDT,221.801,T*3D
$GNACCURACY,4.0*12
$GNGGA,031049.900,2500.7959588,N,12132.4818783,E,4,64,0.46,17.058,M,15.25,M,0,3335*45
$GNRMC,031049.900,A,2500.7959588,N,12132.4818783,E,2.28,226.38,030324,,,R,V*16
$GPHDT,,T*1B
$GNACCURACY,4.0*12
$GNGGA,031050.000,2500.7958931,N,12132.4818259,E,4,64,0.46,17.007,M,15.25,M,1,3335*42
$GNRMC,031050.000,A,2500.7958931,N,12132.4818259,E,2.30,226.51,030324,,,R,V*1C
$GPHDT,227.387,T*3E
$GNACCURACY,4.0*12
$GNGGA,031050.100,2500.7958582,N,12132.4817793,E,4,63,0.46,17.001,M,15.25,M,1,3335*4A
$GNRMC,031050.100,A,2500.7958582,N,12132.4817793,E,2.22,225.71,030324,,,R,V*17
$GPHDT,,T*1B
$GNGSA,A,3,27,08,194,199,195,04,16,31,26,196,21,07,0.73,0.46,0.57,1*07
$GNGSA,A,3,09,,,,,,,,,,,,0.73,0.46,0.57,1*0C
$GNGSA,A,3,82,81,79,80,69,,,,,,,,0.73,0.46,0.57,2*0C
$GNGSA,A,3,30,07,34,08,27,15,36,,,,,,0.73,0.46,0.57,3*08
$GNGSA,A,3,16,06,39,40,09,34,12,07,24,10,44,11,0.73,0.46,0.57,4*02
$GNGSA,A,3,25,43,33,,,,,,,,,,0.73,0.46,0.57,4*00
$GPGSV,4,1,15,27,70,021,44,08,65,244,46,194,63,043,42,199,60,167,33,1*60
$GPGSV,4,2,15,195,51,129,39,04,46,236,37,47,45,233,34,16,43,034,42,1*5C
$GPGSV,4,3,15,09,31,290,22,31,30,125,28,26,26,067,26,196,24,177,32,1*57
$GPGSV,4,4,15,21,21,177,35,02,10,187,20,07,10,318,18,1*5D
$GPGSV,3,1,09,27,70,021,47,08,65,244,47,194,63,043,46,199,60,167,40,8*61
$GPGSV,3,2,09,195,51,129,42,04,46,236,42,09,31,290,30,26,26,067,30,8*56
$GPGSV,3,3,09,196,24,177,39,8*67
$GLGSV,2,1,06,82,62,129,34,81,40,045,45,79,39,052,42,80,34,342,43,1*7B
$GLGSV,2,2,06,83,29,178,26,69,15,219,22,1*75
$GAGSV,2,1,08,30,52,003,31,07,46,257,31,34,39,100,30,08,29,190,39,7*74
$GAGSV,2,2,08,27,29,295,20,15,27,161,28,02,23,062,22,36,15,048,33,7*7E
$GAGSV,2,1,08,30,52,003,38,07,46,257,38,34,39,100,26,08,29,190,41,1*7A
$GAGSV,2,2,08,27,29,295,20,15,27,161,37,02,23,062,25,36,15,048,33,1*71
$GBGSV,4,1,16,16,88,124,42,06,86,324,42,39,76,154,38,40,71,296,45,1*77
$GBGSV,4,2,16,09,70,326,43,34,67,169,38,12,65,079,39,07,65,276,43,1*7E
$GBGSV,4,3,16,24,56,060,45,10,53,262,37,44,45,052,44,11,44,189,39,1*7D
$GBGSV,4,4,16,25,41,328,35,43,23,204,38,26,17,103,,33,14,229,34,1*7C
$GBGSV,2,1,08,39,76,154,40,40,71,296,46,34,67,169,41,24,56,060,47,4*77
$GBGSV,2,2,08,44,45,052,43,25,41,328,38,43,23,204,40,33,14,229,34,4*75
$GNACCURACY,4.0*12
$PAIRSAT,1,34,2,0,200,3,0,200,4,0,221,5,0,200,6,0,200,7,0,201,8,0,221,9,0,221,10,0,200,11,0,200,12,0,200,13,0,200,14,0,200,15,0,200,16,0,201,17,0,200,18,0,200,19,0,200,21,0,201,22,0,200,23,0,200,24,0,200,25,0,200,26,0,221,27,0,221,28,0,200,29,0,200,30,0,200,31,0,201,32,0,200,194,0,621,195,0,621,196,0,620,199,0,621*74
$PAIRSAT,2,17,69,0,1,70,0,200,71,0,200,72,0,200,73,0,200,74,0,200,75,0,200,76,0,200,77,0,200,78,0,200,79,0,201,80,0,201,81,0,201,82,0,201,83,0,200,84,0,200,88,0,200*57
$PAIRSAT,3,23,2,0,1200,3,0,1200,4,0,1200,5,0,200,7,0,1221,8,0,1221,9,0,1200,10,0,1200,11,0,1200,12,0,1200,13,0,1200,15,0,1221,19,0,1200,21,0,1200,24,0,200,25,0,1200,26,0,1000,27,0,1201,30,0,1221,31,0,1200,33,0,1200,34,0,1221,36,0,221*69
$PAIRSAT,4,46,1,0,200,2,0,200,3,0,600,4,0,200,5,0,200,6,0,201,7,0,201,8,0,200,9,0,201,10,0,201,11,0,201,12,0,201,13,0,200,14,0,200,16,0,201,19,0,600,20,0,600,21,0,600,22,0,600,23,0,600,24,0,621,25,0,621,26,0,621,27,0,600,28,0,400,29,0,600,30,0,600,32,0,600,33,0,621,34,0,621,35,0,400,36,0,600,37,0,600,38,0,400,39,0,421,40,0,421,41,0,600,42,0,400,43,0,421,44,0,421,45,0,400,46,0,400,59,0,400,60,0,400,61,0,400,62,0,400*4B
$PAIRDGP,1,21*6B
$GNGGA,031050.200,2500.7958249,N,12132.4817337,E,4,63,0.46,17.051,M,15.25,M,1,3335*46
$GNRMC,031050.200,A,2500.7958249,N,12132.4817337,E,2.10,227.78,030324,,,R,V*14
$GPHDT,224.556,T*37
$GNACCURACY,4.0*12
$GNGGA,031050.300,2500.7957845,N,12132.4816743,E,4,63,0.46,17.006,M,15.25,M,1,3335*4A
$GNRMC,031050.300,A,2500.7957845,N,12132.4816743,E,2.16,228.55,030324,,,R,V*1C
$GPHDT,,T*1B
$GNACCURACY,4.0*12
$GNGGA,031050.400,2500.7957112,N,12132.4816549,E,4,63,0.46,17.026,M,15.25,M,1,3335*4C
$GNRMC,031050.400,A,2500.7957112,N,12132.4816549,E,2.24,223.53,030324,,,R,V*14
$GPHDT,226.817,T*3D
$GNACCURACY,4.0*12
$GNGGA,031050.500,2500.7956838,N,12132.4815845,E,4,63,0.46,17.006,M,15.25,M,1,3335*4D
$GNRMC,031050.500,A,2500.7956838,N,12132.4815845,E,2.23,225.28,030324,,,R,V*1A
$GPHDT,,T*1B
$GNACCURACY,4.0*12
$GNGGA,031050.600,2500.7956296,N,12132.4815394,E,4,63,0.46,16.971,M,15.25,M,0,3335*4E
$GNRMC,031050.600,A,2500.7956296,N,12132.4815394,E,2.03,229.90,030324,,,R,V*1D
$GPHDT,227.847,T*39
$GNACCURACY,4.0*12
$GNGGA,031050.700,2500.7956201,N,12132.4814725,E,4,63,0.46,17.065,M,15.25,M,0,3335*43
$GNRMC,031050.700,A,2500.7956201,N,12132.4814725,E,2.00,234.35,030324,,,R,V*1D
$GPHDT,,T*1B
$GNACCURACY,4.0*12
$GNGGA,031050.800,2500.7955683,N,12132.4814220,E,4,64,0.46,17.051,M,15.25,M,0,3335*41
$GNRMC,031050.800,A,2500.7955683,N,12132.4814220,E,2.00,238.88,030324,,,R,V*15
$GPHDT,224.697,T*39
$GNACCURACY,3.9*1C
$GNGGA,031050.900,2500.7955486,N,12132.4813805,E,4,64,0.46,17.076,M,15.25,M,0,3335*48
$GNRMC,031050.900,A,2500.7955486,N,12132.4813805,E,1.96,235.27,030324,,,R,V*1D
$GPHDT,,T*1B
$GNACCURACY,4.0*12
$GNGGA,031051.000,2500.7954963,N,12132.4813238,E,4,64,0.46,17.036,M,15.25,M,1,3335*46
$GNRMC,031051.000,A,2500.7954963,N,12132.4813238,E,2.11,232.25,030324,,,R,V*1F
$GPHDT,222.436,T*36
$GNACCURACY,4.0*12
$GNGGA,031051.100,2500.7954315,N,12132.4812982,E,4,64,0.46,17.006,M,15.25,M,1,3335*44
$GNRMC,031051.100,A,2500.7954315,N,12132.4812982,E,2.11,225.86,030324,,,R,V*11
$GPHDT,,T*1B
$GNGSA,A,3,27,08,194,199,195,04,16,31,26,196,21,07,0.73,0.46,0.57,1*07
$GNGSA,A,3,09,,,,,,,,,,,,0.73,0.46,0.57,1*0C
$GNGSA,A,3,82,81,79,80,69,,,,,,,,0.73,0.46,0.57,2*0C
$GNGSA,A,3,30,07,34,08,27,15,36,,,,,,0.73,0.46,0.57,3*08
$GNGSA,A,3,16,06,39,40,09,34,12,07,24,10,44,11,0.73,0.46,0.57,4*02
$GNGSA,A,3,25,43,33,,,,,,,,,,0.73,0.46,0.57,4*00
$GPGSV,4,1,15,27,70,021,46,08,65,244,45,194,63,043,42,199,60,167,34,1*66
$GPGSV,4,2,15,195,51,129,35,04,46,236,35,47,45,233,32,16,43,034,42,1*54
$GPGSV,4,3,15,09,31,290,22,31,30,125,35,26,26,067,30,196,24,177,33,1*5D
$GPGSV,4,4,15,21,21,177,27,02,11,186,18,07,10,318,18,1*55
$GPGSV,3,1,09,27,70,021,47,08,65,244,46,194,63,043,45,199,60,167,43,8*60
$GPGSV,3,2,09,195,51,129,41,04,46,236,39,09,31,290,23,26,26,067,28,8*52
$GPGSV,3,3,09,196,24,177,38,8*66
$GLGSV,2,1,06,82,62,129,38,81,40,045,42,79,39,052,43,80,34,342,44,1*76
$GLGSV,2,2,06,83,29,178,25,69,15,219,20,1*74
$GAGSV,2,1,08,30,52,003,39,07,46,257,29,34,39,100,27,08,29,190,37,7*7D
$GAGSV,2,2,08,27,29,295,19,15,27,161,31,02,23,062,26,36,15,048,33,7*78
$GAGSV,2,1,08,30,52,003,43,07,46,257,33,34,39,100,32,08,29,190,42,1*7B
$GAGSV,2,2,08,27,29,295,21,15,27,161,33,02,23,062,26,36,15,048,32,1*76
$GBGSV,5,1,17,16,88,124,43,06,86,324,42,39,76,154,37,40,71,296,44,1*78
$GBGSV,5,2,17,09,70,326,44,34,67,169,37,12,65,079,40,07,65,276,42,1*79
$GBGSV,5,3,17,24,56,060,40,10,53,262,37,44,45,052,44,11,44,189,41,1*77
$GBGSV,5,4,17,25,41,328,30,43,23,204,40,26,17,103,,33,14,229,33,1*71
$GBGSV,5,5,17,56,,,24,1*75
$GBGSV,2,1,08,39,76,154,41,40,71,296,46,34,67,169,40,24,56,060,45,4*75
$GBGSV,2,2,08,44,45,052,43,25,41,328,32,43,23,204,40,33,14,229,31,4*7A
$GNACCURACY,4.0*12
$PAIRSAT,1,34,2,0,200,3,0,200,4,0,221,5,0,200,6,0,200,7,0,201,8,0,221,9,0,221,10,0,200,11,0,200,12,0,200,13,0,200,14,0,200,15,0,200,16,0,201,17,0,200,18,0,200,19,0,200,21,0,201,22,0,200,23,0,200,24,0,200,25,0,200,26,0,221,27,0,221,28,0,200,29,0,200,30,0,200,31,0,201,32,0,200,194,0,621,195,0,621,196,0,620,199,0,621*74
$PAIRSAT,2,17,69,0,1,70,0,200,71,0,200,72,0,200,73,0,200,74,0,200,75,0,200,76,0,200,77,0,200,78,0,200,79,0,201,80,0,201,81,0,201,82,0,201,83,0,200,84,0,200,88,0,200*57
$PAIRSAT,3,23,2,0,1200,3,0,1200,4,0,1200,5,0,200,7,0,1221,8,0,1221,9,0,1200,10,0,1200,11,0,1200,12,0,1200,13,0,1200,15,0,1221,19,0,1200,21,0,1200,24,0,200,25,0,1200,26,0,1000,27,0,1201,30,0,1221,31,0,1200,33,0,1200,34,0,1221,36,0,221*69
$PAIRSAT,4,46,1,0,200,2,0,200,3,0,600,4,0,200,5,0,200,6,0,201,7,0,201,8,0,200,9,0,201,10,0,201,11,0,201,12,0,201,13,0,200,14,0,200,16,0,201,19,0,600,20,0,600,21,0,600,22,0,600,23,0,600,24,0,621,25,0,621,26,0,621,27,0,600,28,0,400,29,0,600,30,0,600,32,0,600,33,0,621,34,0,621,35,0,400,36,0,600,37,0,600,38,0,400,39,0,421,40,0,421,41,0,600,42,0,400,43,0,421,44,0,421,45,0,400,46,0,400,59,0,400,60,0,400,61,0,400,62,0,400*4B
$PAIRDGP,1,21*6B
$GNGGA,031051.200,2500.7953856,N,12132.4812352,E,4,63,0.46,17.022,M,15.25,M,1,3335*4A
$GNRMC,031051.200,A,2500.7953856,N,12132.4812352,E,2.17,226.31,030324,,,R,V*17
$GPHDT,224.328,T*38
$GNACCURACY,4.0*12
$GNGGA,031051.300,2500.7953463,N,12132.4811866,E,4,63,0.46,16.992,M,15.25,M,1,3335*4D
$GNRMC,031051.300,A,2500.7953463,N,12132.4811866,E,2.14,226.18,030324,,,R,V*1B
$GPHDT,,T*1B
$GNACCURACY,4.0*12
$GNGGA,031051.400,2500.7953043,N,12132.4811360,E,4,63,0.46,17.000,M,15.25,M,1,3335*42
$GNRMC,031051.400,A,2500.7953043,N,12132.4811360,E,2.11,226.04,030324,,,R,V*1F
$GPHDT,221.230,T*35
$GNACCURACY,4.0*12
$GNGGA,031051.500,2500.7952584,N,12132.4810994,E,4,63,0.46,17.037,M,15.25,M,1,3335*48
$GNRMC,031051.500,A,2500.7952584,N,12132.4810994,E,2.15,222.84,030324,,,R,V*19
$GPHDT,,T*1B
$GNACCURACY,4.0*12
$GNGGA,031051.600,2500.7952181,N,12132.4810256,E,4,63,0.46,16.958,M,15.25,M,0,3335*4F
$GNRMC,031051.600,A,2500.7952181,N,12132.4810256,E,2.28,227.63,030324,,,R,V*1C
$GPHDT,222.149,T*3B
$GNACCURACY,4.0*12
$GNGGA,031051.700,2500.7951679,N,12132.4809874,E,4,64,0.46,17.038,M,15.25,M,0,3335*46
$GNRMC,031051.700,A,2500.7951679,N,12132.4809874,E,2.20,227.65,030324,,,R,V*12
$GPHDT,,T*1B
$GNACCURACY,4.0*12
$GNGGA,031051.800,2500.7951356,N,12132.4809197,E,4,63,0.46,17.005,M,15.25,M,0,3335*4C
$GNRMC,031051.800,A,2500.7951356,N,12132.4809197,E,2.13,230.88,030324,,,R,V*14
$GPHDT,223.105,T*32
$GNACCURACY,4.0*12
$GNGGA,031051.900,2500.7950915,N,12132.4808749,E,4,63,0.46,17.061,M,15.25,M,0,3335*47
$GNRMC,031051.900,A,2500.7950915,N,12132.4808749,E,2.15,230.65,030324,,,R,V*18
$GPHDT,,T*1B
$GNACCURACY,4.0*12
$GNGGA,031052.000,2500.7950581,N,12132.4808127,E,4,63,0.46,16.969,M,15.25,M,1,3335*43
$GNRMC,031052.000,A,2500.7950581,N,12132.4808127,E,2.15,230.13,030324,,,R,V*1C
$GPHDT,220.030,T*36
$GNACCURACY,4.0*12
$GNGGA,031052.100,2500.7950168,N,12132.4807694,E,4,64,0.46,17.001,M,15.25,M,1,3335*40
$GNRMC,031052.100,A,2500.7950168,N,12132.4807694,E,2.11,227.95,030324,,,R,V*12
$GPHDT,,T*1B
$GNGSA,A,3,27,08,194,199,195,04,16,09,31,26,196,21,0.73,0.46,0.57,1*09
$GNGSA,A,3,07,,,,,,,,,,,,0.73,0.46,0.57,1*02
$GNGSA,A,3,82,81,79,80,69,,,,,,,,0.73,0.46,0.57,2*0C
$GNGSA,A,3,30,07,34,08,27,15,36,,,,,,0.73,0.46,0.57,3*08
$GNGSA,A,3,16,06,39,40,09,34,12,07,24,10,44,11,0.73,0.46,0.57,4*02
$GNGSA,A,3,25,43,33,,,,,,,,,,0.73,0.46,0.57,4*00
$GPGSV,4,1,15,27,70,021,45,08,65,244,46,194,63,043,44,199,60,167,35,1*61
$GPGSV,4,2,15,195,51,129,36,04,46,236,35,47,45,233,33,16,43,034,42,1*56
$GPGSV,4,3,15,09,31,289,23,31,30,125,40,26,26,067,33,196,24,177,33,1*55
$GPGSV,4,4,15,21,21,177,29,02,11,186,18,07,10,318,18,1*5B
$GPGSV,3,1,09,27,70,021,46,08,65,244,45,194,63,043,43,199,60,167,45,8*62
$GPGSV,3,2,09,195,51,129,35,04,46,236,36,09,31,289,24,26,26,067,32,8*5A
$GPGSV,3,3,09,196,24,177,37,8*69
$GLGSV,2,1,06,82,62,129,36,81,40,045,46,79,39,052,36,80,34,342,42,1*78
$GLGSV,2,2,06,83,29,178,24,69,15,219,19,1*7F
$GAGSV,2,1,08,30,52,003,41,07,46,257,27,34,39,100,34,08,29,190,37,7*7E
$GAGSV,2,2,08,27,29,295,20,15,27,161,31,02,23,062,21,36,15,048,35,7*73
$GAGSV,2,1,08,30,52,003,44,07,46,257,30,34,39,100,27,08,29,190,40,1*79
$GAGSV,2,2,08,27,29,295,21,15,27,161,38,02,23,062,18,36,15,048,31,1*73
$GBGSV,5,1,17,16,88,124,44,06,86,324,43,39,76,154,43,40,71,296,43,1*7A
$GBGSV,5,2,17,09,70,326,43,34,67,169,45,12,65,079,35,07,65,276,41,1*7A
$GBGSV,5,3,17,24,56,060,43,10,53,262,33,44,45,052,43,11,44,189,42,1*74
$GBGSV,5,4,17,25,41,328,29,43,23,204,38,26,17,103,,33,14,229,31,1*74
$GBGSV,5,5,17,56,,,28,1*79
$GBGSV,2,1,08,39,76,154,44,40,71,296,46,34,67,169,45,24,56,060,44,4*74
$GBGSV,2,2,08,44,45,052,43,25,41,328,27,43,23,204,39,33,14,229,29,4*79
$GNACCURACY,4.0*12
$PAIRSAT,1,34,2,0,200,3,0,200,4,0,221,5,0,200,6,0,200,7,0,201,8,0,221,9,0,221,10,0,200,11,0,200,12,0,200,13,0,200,14,0,200,15,0,200,16,0,201,17,0,200,18,0,200,19,0,200,21,0,201,22,0,200,23,0,200,24,0,200,25,0,200,26,0,221,27,0,221,28,0,200,29,0,200,30,0,200,31,0,201,32,0,200,194,0,621,195,0,621,196,0,620,199,0,621*74
$PAIRSAT,2,17,69,0,1,70,0,200,71,0,200,72,0,200,73,0,200,74,0,200,75,0,200,76,0,200,77,0,200,78,0,200,79,0,201,80,0,201,81,0,201,82,0,201,83,0,200,84,0,200,88,0,200*57
$PAIRSAT,3,23,2,0,1200,3,0,1200,4,0,1200,5,0,200,7,0,1221,8,0,1221,9,0,1200,10,0,1200,11,0,1200,12,0,1200,13,0,1200,15,0,1221,19,0,1200,21,0,1200,24,0,200,25,0,1200,26,0,1000,27,0,1201,30,0,1221,31,0,1200,33,0,1200,34,0,1221,36,0,221*69
$PAIRSAT,4,46,1,0,200,2,0,200,3,0,600,4,0,200,5,0,200,6,0,201,7,0,201,8,0,200,9,0,201,10,0,201,11,0,201,12,0,201,13,0,200,14,0,200,16,0,201,19,0,600,20,0,600,21,0,600,22,0,600,23,0,600,24,0,621,25,0,621,26,0,621,27,0,600,28,0,400,29,0,600,30,0,600,32,0,600,33,0,621,34,0,621,35,0,400,36,0,600,37,0,600,38,0,400,39,0,421,40,0,421,41,0,600,42,0,400,43,0,421,44,0,421,45,0,400,46,0,400,59,0,400,60,0,400,61,0,400,62,0,400*4B
$PAIRDGP,1,21*6B
$GNGGA,031052.200,2500.7949711,N,12132.4807121,E,4,64,0.46,16.960,M,15.25,M,1,3335*45
$GNRMC,031052.200,A,2500.7949711,N,12132.4807121,E,2.21,225.39,030324,,,R,V*1F
$GPHDT,220.094,T*38
$GNACCURACY,4.0*12
$GNGGA,031052.300,2500.7949175,N,12132.4806795,E,4,63,0.46,16.923,M,15.25,M,1,3335*48
$GNRMC,031052.300,A,2500.7949175,N,12132.4806795,E,2.19,221.19,030324,,,R,V*1F
$GPHDT,,T*1B
$GNACCURACY,4.0*12
$GNGGA,031052.400,2500.7948729,N,12132.4806461,E,4,63,0.46,16.922,M,15.25,M,1,3335*48
$GNRMC,031052.400,A,2500.7948729,N,12132.4806461,E,2.11,223.58,030324,,,R,V*11
$GPHDT,221.149,T*38
$GNACCURACY,4.0*12
$GNGGA,031052.500,2500.7948250,N,12132.4805918,E,4,63,0.46,16.920,M,15.25,M,0,3335*41
$GNRMC,031052.500,A,2500.7948250,N,12132.4805918,E,2.06,222.17,030324,,,R,V*17
$GPHDT,,T*1B
$GNACCURACY,4.0*12
$GNGGA,031052.600,2500.7947871,N,12132.4805316,E,4,63,0.46,16.992,M,15.25,M,0,3335*49
$GNRMC,031052.600,A,2500.7947871,N,12132.4805316,E,2.19,221.43,030324,,,R,V*1A
$GPHDT,219.304,T*38
$GNACCURACY,4.0*12
$GNGGA,031052.700,2500.7947311,N,12132.4805157,E,4,63,0.46,16.967,M,15.25,M,0,3335*48
$GNRMC,031052.700,A,2500.7947311,N,12132.4805157,E,2.08,221.70,030324,,,R,V*11
$GPHDT,,T*1B
$GNACCURACY,4.0*12
$GNGGA,031052.800,2500.7946762,N,12132.4804704,E,4,63,0.46,16.995,M,15.25,M,0,3335*4A
$GNRMC,031052.800,A,2500.7946762,N,12132.4804704,E,2.30,218.32,030324,,,R,V*19
$GPHDT,225.133,T*31
$GNACCURACY,4.0*12
$GNGGA,031052.900,2500.7946370,N,12132.4804175,E,4,63,0.46,17.019,M,15.25,M,0,3335*40
$GNRMC,031052.900,A,2500.7946370,N,12132.4804175,E,2.23,221.47,030324,,,R,V*15
$GPHDT,,T*1B
$GNACCURACY,4.0*12
$GNGGA,031053.000,2500.7945918,N,12132.4803518,E,4,63,0.46,16.996,M,15.25,M,1,3335*49
$GNRMC,031053.000,A,2500.7945918,N,12132.4803518,E,2.21,226.03,030324,,,R,V*17
$GPHDT,225.193,T*3B
$GNACCURACY,4.0*12
$GNGGA,031053.100,2500.7945407,N,12132.4803060,E,4,63,0.46,17.014,M,15.25,M,1,3335*43
$GNRMC,031053.100,A,2500.7945407,N,12132.4803060,E,2.23,226.87,030324,,,R,V*11
$GPHDT,,T*1B
$GNGSA,A,3,27,08,194,199,195,04,16,31,26,196,21,07,0.73,0.46,0.57,1*07
$GNGSA,A,3,09,,,,,,,,,,,,0.73,0.46,0.57,1*0C
$GNGSA,A,3,82,81,79,80,69,,,,,,,,0.73,0.46,0.57,2*0C
$GNGSA,A,3,30,07,34,08,27,15,36,,,,,,0.73,0.46,0.57,3*08
$GNGSA,A,3,16,06,39,40,09,34,12,07,24,10,44,11,0.73,0.46,0.57,4*02
$GNGSA,A,3,25,43,33,,,,,,,,,,0.73,0.46,0.57,4*00
$GPGSV,4,1,15,27,70,021,45,08,65,244,46,194,63,043,40,199,60,167,36,1*66
$GPGSV,4,2,15,195,51,129,35,04,46,236,32,47,45,233,30,16,43,034,35,1*51
$GPGSV,4,3,15,09,31,289,23,31,30,125,41,26,26,067,33,196,24,177,31,1*56
$GPGSV,4,4,15,21,21,177,28,02,11,186,19,07,10,318,17,1*54
$GPGSV,3,1,09,27,70,021,47,08,65,244,46,194,63,043,42,199,60,167,47,8*63
$GPGSV,3,2,09,195,51,129,42,04,46,236,37,09,31,289,25,26,26,067,33,8*5B
$GPGSV,3,3,09,196,24,177,36,8*68
$GLGSV,2,1,06,82,62,129,35,81,40,045,45,79,39,052,43,80,34,342,30,1*7F
$GLGSV,2,2,06,83,29,178,23,69,15,219,22,1*70
$GAGSV,2,1,08,30,52,003,41,07,46,257,26,34,39,100,33,08,29,190,35,7*7A
$GAGSV,2,2,08,27,29,295,19,15,27,161,29,02,23,062,24,36,15,048,31,7*71
$GAGSV,2,1,08,30,52,003,47,07,46,257,26,34,39,100,34,08,29,190,40,1*7F
$GAGSV,2,2,08,27,29,295,24,15,27,161,38,02,23,062,24,36,15,048,34,1*7C
$GBGSV,5,1,18,16,88,124,44,06,86,324,43,39,76,154,43,40,71,296,43,1*75
$GBGSV,5,2,18,09,70,326,43,34,67,169,45,12,65,079,36,07,65,276,41,1*76
$GBGSV,5,3,18,24,56,060,42,10,53,262,34,44,45,052,43,11,44,189,42,1*7D
$GBGSV,5,4,18,25,41,328,27,23,39,034,,43,23,204,39,26,17,103,,1*76
$GBGSV,5,5,18,33,14,229,30,56,,,28,1*49
$GBGSV,2,1,08,39,76,154,46,40,71,296,44,34,67,169,47,24,56,060,43,4*71
$GBGSV,2,2,08,44,45,052,43,25,41,328,24,43,23,204,38,33,14,229,27,4*75
$GNACCURACY,4.0*12
$PAIRSAT,1,34,2,0,200,3,0,200,4,0,221,5,0,200,6,0,200,7,0,201,8,0,221,9,0,221,10,0,200,11,0,200,12,0,200,13,0,200,14,0,200,15,0,200,16,0,201,17,0,200,18,0,200,19,0,200,21,0,201,22,0,200,23,0,200,24,0,200,25,0,200,26,0,221,27,0,221,28,0,200,29,0,200,30,0,200,31,0,201,32,0,200,194,0,621,195,0,621,196,0,620,199,0,621*74
$PAIRSAT,2,17,69,0,1,70,0,200,71,0,200,72,0,200,73,0,200,74,0,200,75,0,200,76,0,200,77,0,200,78,0,200,79,0,201,80,0,201,81,0,201,82,0,201,83,0,200,84,0,200,88,0,200*57
$PAIRSAT,3,23,2,0,1200,3,0,1200,4,0,1200,5,0,200,7,0,1221,8,0,1221,9,0,1200,10,0,1200,11,0,1200,12,0,1200,13,0,1200,15,0,1221,19,0,1200,21,0,1200,24,0,200,25,0,1200,26,0,1000,27,0,1201,30,0,1221,31,0,1200,33,0,1200,34,0,1221,36,0,221*69
$PAIRSAT,4,46,1,0,200,2,0,200,3,0,600,4,0,200,5,0,200,6,0,201,7,0,201,8,0,200,9,0,201,10,0,201,11,0,201,12,0,201,13,0,200,14,0,200,16,0,201,19,0,600,20,0,600,21,0,600,22,0,600,23,0,600,24,0,621,25,0,621,26,0,621,27,0,600,28,0,400,29,0,600,30,0,600,32,0,600,33,0,621,34,0,621,35,0,400,36,0,600,37,0,600,38,0,400,39,0,421,40,0,421,41,0,600,42,0,400,43,0,421,44,0,421,45,0,400,46,0,400,59,0,400,60,0,400,61,0,400,62,0,400*4B
$PAIRDGP,1,21*6B
$GNGGA,031053.200,2500.7945152,N,12132.4802577,E,4,63,0.46,16.987,M,15.25,M,1,3335*45
$GNRMC,031053.200,A,2500.7945152,N,12132.4802577,E,2.10,225.86,030324,,,R,V*17
