$FW : RTK35X,V1.1X0314AS,Lib20210517,1*54
$Tool : LOCOSYS , GNSS Firebird , v1.0.0.19*39
$---------------------------------------------------*2D
$GNACCURACY,4.8*1A
$GNGGA,031448.700,2500.8069782,N,12132.4256897,E,4,57,0.50,17.107,M,15.25,M,0,3335*45
$GNRMC,031448.700,A,2500.8069782,N,12132.4256897,E,0.02,117.37,030324,,,R,V*1E
$GPHDT,,T*1B
$GNACCURACY,4.8*1A
$GNGGA,031448.800,2500.8069815,N,12132.4256895,E,4,57,0.50,17.091,M,15.25,M,0,3335*47
$GNRMC,031448.800,A,2500.8069815,N,12132.4256895,E,0.01,117.37,030324,,,R,V*11
$GPHDT,135.414,T*33
$GNACCURACY,4.8*1A
$GNGGA,031448.900,2500.8069885,N,12132.4256897,E,4,57,0.50,17.094,M,15.25,M,0,3335*48
$GNRMC,031448.900,A,2500.8069885,N,12132.4256897,E,0.00,117.37,030324,,,R,V*1A
$GPHDT,,T*1B
$GNACCURACY,4.8*1A
$GNGGA,031449.000,2500.8069924,N,12132.4256892,E,4,57,0.50,17.089,M,15.25,M,1,3335*42
$GNRMC,031449.000,A,2500.8069924,N,12132.4256892,E,0.01,117.37,030324,,,R,V*1C
$GPHDT,135.671,T*32
$GNACCURACY,4.8*1A
$GNGGA,031449.100,2500.8069911,N,12132.4256906,E,4,57,0.50,17.081,M,15.25,M,1,3335*41
$GNRMC,031449.100,A,2500.8069911,N,12132.4256906,E,0.02,117.37,030324,,,R,V*14
$GPHDT,,T*1B
$GNGSA,A,3,27,08,194,199,195,04,16,09,31,26,07,,0.78,0.50,0.59,1*31
$GNGSA,A,3,82,81,79,80,69,,,,,,,,0.78,0.50,0.59,2*0E
$GNGSA,A,3,30,07,34,27,15,02,36,,,,,,0.78,0.50,0.59,3*00
$GNGSA,A,3,06,16,39,09,40,34,12,07,24,10,44,25,0.78,0.50,0.59,4*07
$GNGSA,A,3,26,,,,,,,,,,,,0.78,0.50,0.59,4*06
$GPGSV,4,1,16,27,68,021,46,08,67,248,38,194,63,043,36,199,60,167,35,1*6A
$GPGSV,4,2,16,195,51,129,41,50,50,134,36,04,45,234,19,16,42,036,43,1*5B
$GPGSV,4,3,16,09,31,287,21,31,28,126,42,26,25,068,33,196,24,177,18,1*57
$GPGSV,4,4,16,21,22,176,19,07,12,318,20,18,03,039,,28,03,134,,1*6B
$GPGSV,2,1,08,27,68,021,48,08,67,248,41,194,63,043,48,199,60,167,47,8*66
$GPGSV,2,2,08,195,51,129,43,04,45,234,17,09,31,287,29,26,25,068,42,8*51
$GLGSV,2,1,05,82,64,125,43,81,39,043,43,79,39,055,44,80,35,344,32,1*7C
$GLGSV,2,2,05,69,14,217,21,1*40
$GAGSV,2,1,08,30,52,005,39,07,45,254,19,34,40,098,41,27,30,297,25,7*74
$GAGSV,2,2,08,08,28,189,,15,28,160,20,02,22,064,33,36,14,047,16,7*76
$GAGSV,2,1,06,30,52,005,44,07,45,254,23,34,40,098,44,27,30,297,25,1*7A
$GAGSV,2,2,06,15,28,160,27,02,22,064,36,1*7A
$GBGSV,4,1,16,06,87,310,44,16,87,146,44,39,75,157,44,09,71,324,41,1*70
$GBGSV,4,2,16,40,71,298,45,34,68,168,44,12,65,075,44,07,64,278,43,1*7C
$GBGSV,4,3,16,24,55,062,46,10,53,264,24,11,46,189,,44,44,051,48,1*7D
$GBGSV,4,4,16,25,42,329,38,43,24,204,,26,17,105,23,33,13,228,,1*79
$GBGSV,2,1,07,39,75,157,44,40,71,298,45,34,68,168,45,24,55,062,48,4*75
$GBGSV,2,2,07,44,44,051,44,25,42,329,35,26,17,105,31,4*4B
$GNACCURACY,4.8*1A
$PAIRSAT,1,34,2,0,200,3,0,200,4,0,221,5,0,200,6,0,200,7,0,201,8,0,221,9,0,221,10,0,200,11,0,200,12,0,200,13,0,200,14,0,200,15,0,200,16,0,201,17,0,200,18,0,200,19,0,200,21,0,201,22,0,200,23,0,200,24,0,200,25,0,200,26,0,221,27,0,221,28,0,200,29,0,200,30,0,200,31,0,201,32,0,200,194,0,621,195,0,621,196,0,620,199,0,621*74
$PAIRSAT,2,18,69,0,1,70,0,200,71,0,200,72,0,200,73,0,200,74,0,200,75,0,200,76,0,200,77,0,200,78,0,200,79,0,201,80,0,201,81,0,201,82,0,201,83,0,200,84,0,200,85,0,200,88,0,200*7B
$PAIRSAT,3,23,2,0,1221,3,0,1200,4,0,1200,5,0,200,7,0,1221,8,0,1221,9,0,1200,10,0,1200,11,0,1200,12,0,1200,13,0,1200,15,0,1221,19,0,1200,21,0,1200,24,0,1200,25,0,1200,26,0,1200,27,0,1221,30,0,1221,31,0,1200,33,0,1200,34,0,1221,36,0,221*5B
$PAIRSAT,4,46,1,0,200,2,0,200,3,0,600,4,0,200,5,0,200,6,0,201,7,0,201,8,0,200,9,0,201,10,0,201,11,0,201,12,0,201,13,0,200,14,0,200,16,0,201,19,0,600,20,0,600,21,0,600,22,0,600,23,0,600,24,0,621,25,0,621,26,0,621,27,0,600,28,0,600,29,0,600,30,0,600,32,0,600,33,0,621,34,0,621,35,0,400,36,0,600,37,0,600,38,0,400,39,0,421,40,0,421,41,0,600,42,0,600,43,0,621,44,0,421,45,0,400,46,0,400,59,0,400,60,0,400,61,0,400,62,0,400*49
$PAIRDGP,1,7*5F
$GNGGA,031449.200,2500.8069935,N,12132.4256906,E,4,57,0.50,17.088,M,15.25,M,1,3335*4D
$GNRMC,031449.200,A,2500.8069935,N,12132.4256906,E,0.02,117.37,030324,,,R,V*11
$GPHDT,136.274,T*30
$GNACCURACY,4.8*1A
$GNGGA,031449.300,2500.8069897,N,12132.4256988,E,4,57,0.50,17.088,M,15.25,M,1,3335*43
$GNRMC,031449.300,A,2500.8069897,N,12132.4256988,E,0.03,117.37,030324,,,R,V*1E
$GPHDT,,T*1B
$GNACCURACY,4.8*1A
$GNGGA,031449.400,2500.8069920,N,12132.4257020,E,4,57,0.50,17.082,M,15.25,M,1,3335*49
$GNRMC,031449.400,A,2500.8069920,N,12132.4257020,E,0.04,117.37,030324,,,R,V*19
$GPHDT,137.078,T*3F
$GNACCURACY,4.8*1A
$GNGGA,031449.500,2500.8069920,N,12132.4257083,E,4,57,0.50,17.083,M,15.25,M,1,3335*40
$GNRMC,031449.500,A,2500.8069920,N,12132.4257083,E,0.07,117.37,030324,,,R,V*12
$GPHDT,,T*1B
$GNACCURACY,4.8*1A
$GNGGA,031449.600,2500.8069852,N,12132.4257195,E,4,57,0.50,17.099,M,15.25,M,0,3335*4B
$GNRMC,031449.600,A,2500.8069852,N,12132.4257195,E,0.08,117.37,030324,,,R,V*1C
$GPHDT,139.165,T*3C
$GNACCURACY,4.8*1A
$GNGGA,031449.700,2500.8069737,N,12132.4257293,E,4,57,0.50,17.076,M,15.25,M,0,3335*42
$GNRMC,031449.700,A,2500.8069737,N,12132.4257293,E,0.11,117.37,030324,,,R,V*1C
$GPHDT,,T*1B
$GNACCURACY,4.8*1A
$GNGGA,031449.800,2500.8069563,N,12132.4257414,E,4,57,0.50,17.079,M,15.25,M,0,3335*48
$GNRMC,031449.800,A,2500.8069563,N,12132.4257414,E,0.14,117.37,030324,,,R,V*1C
$GPHDT,137.208,T*3A
$GNACCURACY,4.8*1A
$GNGGA,031449.900,2500.8069440,N,12132.4257534,E,4,57,0.50,17.101,M,15.25,M,0,3335*44
$GNRMC,031449.900,A,2500.8069440,N,12132.4257534,E,0.18,117.37,030324,,,R,V*12
$GPHDT,,T*1B
$GNACCURACY,4.7*15
$GNGGA,031450.000,2500.8069312,N,12132.4257616,E,4,57,0.50,17.083,M,15.25,M,1,3335*4C
$GNRMC,031450.000,A,2500.8069312,N,12132.4257616,E,0.23,117.37,030324,,,R,V*18
$GPHDT,135.802,T*38
$GNACCURACY,4.7*15
$GNGGA,031450.100,2500.8069107,N,12132.4257714,E,4,57,0.50,17.043,M,15.25,M,1,3335*44
$GNRMC,031450.100,A,2500.8069107,N,12132.4257714,E,0.28,117.37,030324,,,R,V*17
$GPHDT,,T*1B
$GNGSA,A,3,27,08,194,199,195,04,16,09,31,26,07,,0.78,0.50,0.59,1*31
$GNGSA,A,3,82,79,81,80,69,,,,,,,,0.78,0.50,0.59,2*0E
$GNGSA,A,3,30,07,34,27,15,02,36,,,,,,0.78,0.50,0.59,3*00
$GNGSA,A,3,16,06,39,09,40,34,12,07,24,10,44,25,0.78,0.50,0.59,4*07
$GNGSA,A,3,26,,,,,,,,,,,,0.78,0.50,0.59,4*06
$GPGSV,4,1,15,27,68,021,46,08,67,248,41,194,63,043,42,199,60,167,34,1*65
$GPGSV,4,2,15,195,51,129,42,50,50,134,37,04,45,234,22,16,42,036,44,1*55
$GPGSV,4,3,15,09,31,287,31,31,28,126,42,26,25,068,27,196,24,177,17,1*5F
$GPGSV,4,4,15,21,22,176,19,07,12,318,23,28,03,134,,1*5B
$GPGSV,2,1,08,27,68,021,49,08,67,248,41,194,63,043,45,199,60,167,47,8*6A
$GPGSV,2,2,08,195,51,129,43,04,45,234,19,09,31,287,29,26,25,068,40,8*5D
$GLGSV,3,1,09,82,64,125,43,79,39,055,41,81,39,043,40,80,35,344,35,1*70
$GLGSV,3,2,09,83,31,177,,70,19,280,,69,14,217,19,78,07,098,,1*72
$GLGSV,3,3,09,71,03,325,,1*40
$GAGSV,2,1,08,30,52,005,41,07,45,254,25,34,40,098,35,27,30,297,22,7*70
$GAGSV,2,2,08,15,28,160,21,08,28,189,,02,22,064,35,36,14,047,12,7*75
$GAGSV,2,1,06,30,52,005,44,07,45,254,20,34,40,098,44,27,30,297,29,1*75
$GAGSV,2,2,06,15,28,160,25,02,22,064,36,1*78
$GBGSV,5,1,18,16,87,146,44,06,87,310,43,39,75,157,44,09,71,324,42,1*7B
$GBGSV,5,2,18,40,71,298,45,34,68,168,44,12,65,075,45,07,64,278,42,1*73
$GBGSV,5,3,18,24,55,063,44,10,53,264,25,11,46,189,,44,44,051,45,1*7D
$GBGSV,5,4,18,25,42,329,34,43,24,204,,26,17,105,32,33,13,228,,1*7A
$GBGSV,5,5,18,23,01,303,,35,01,037,,1*7C
$GBGSV,2,1,07,39,75,157,45,40,71,298,45,34,68,168,45,24,55,063,46,4*7B
$GBGSV,2,2,07,44,44,051,40,25,42,329,37,26,17,105,28,4*45
$GNACCURACY,4.7*15
$PAIRSAT,1,34,2,0,200,3,0,200,4,0,221,5,0,200,6,0,200,7,0,201,8,0,221,9,0,221,10,0,200,11,0,200,12,0,200,13,0,200,14,0,200,15,0,200,16,0,201,17,0,200,18,0,200,19,0,200,21,0,201,22,0,200,23,0,200,24,0,200,25,0,200,26,0,221,27,0,221,28,0,200,29,0,200,30,0,200,31,0,201,32,0,200,194,0,621,195,0,621,196,0,620,199,0,621*74
$PAIRSAT,2,18,69,0,1,70,0,200,71,0,200,72,0,200,73,0,200,74,0,200,75,0,200,76,0,200,77,0,200,78,0,200,79,0,201,80,0,201,81,0,201,82,0,201,83,0,200,84,0,200,85,0,200,88,0,200*7B
$PAIRSAT,3,23,2,0,1221,3,0,1200,4,0,1200,5,0,200,7,0,1221,8,0,1221,9,0,1200,10,0,1200,11,0,1200,12,0,1200,13,0,1200,15,0,1221,19,0,1200,21,0,1200,24,0,1200,25,0,1200,26,0,1200,27,0,1221,30,0,1221,31,0,1200,33,0,1200,34,0,1221,36,0,221*5B
$PAIRSAT,4,46,1,0,200,2,0,200,3,0,600,4,0,200,5,0,200,6,0,201,7,0,201,8,0,200,9,0,201,10,0,201,11,0,201,12,0,201,13,0,200,14,0,200,16,0,201,19,0,600,20,0,600,21,0,600,22,0,600,23,0,600,24,0,621,25,0,621,26,0,621,27,0,600,28,0,600,29,0,600,30,0,600,32,0,600,33,0,621,34,0,621,35,0,400,36,0,600,37,0,600,38,0,400,39,0,421,40,0,421,41,0,600,42,0,600,43,0,621,44,0,421,45,0,400,46,0,400,59,0,400,60,0,400,61,0,400,62,0,400*49
$PAIRDGP,1,7*5F
$GNGGA,031450.200,2500.8068891,N,12132.4257867,E,4,57,0.50,17.060,M,15.25,M,1,3335*4A
$GNRMC,031450.200,A,2500.8068891,N,12132.4257867,E,0.33,117.37,030324,,,R,V*12
$GPHDT,132.945,T*3D
$GNACCURACY,4.7*15
$GNGGA,031450.300,2500.8068668,N,12132.4258060,E,4,57,0.50,17.040,M,15.25,M,1,3335*41
$GNRMC,031450.300,A,2500.8068668,N,12132.4258060,E,0.41,117.37,030324,,,R,V*1E
$GPHDT,,T*1B
$GNACCURACY,4.7*15
$GNGGA,031450.400,2500.8068534,N,12132.4258478,E,4,57,0.50,17.070,M,15.25,M,1,3335*42
$GNRMC,031450.400,A,2500.8068534,N,12132.4258478,E,0.46,117.37,030324,,,R,V*19
$GPHDT,133.954,T*3C
$GNACCURACY,4.7*15
$GNGGA,031450.500,2500.8068302,N,12132.4258745,E,4,57,0.50,17.035,M,15.25,M,1,3335*4C
$GNRMC,031450.500,A,2500.8068302,N,12132.4258745,E,0.54,128.43,030324,,,R,V*1A
$GPHDT,,T*1B
$GNACCURACY,4.7*15
$GNGGA,031450.600,2500.8068201,N,12132.4259214,E,4,57,0.50,17.086,M,15.25,M,0,3335*44
$GNRMC,031450.600,A,2500.8068201,N,12132.4259214,E,0.61,124.75,030324,,,R,V*14
$GPHDT,136.618,T*3E
$GNACCURACY,4.7*15
$GNGGA,031450.700,2500.8068053,N,12132.4259530,E,4,57,0.50,17.091,M,15.25,M,0,3335*47
$GNRMC,031450.700,A,2500.8068053,N,12132.4259530,E,0.67,122.16,030324,,,R,V*14
$GPHDT,,T*1B
$GNACCURACY,4.7*15
$GNGGA,031450.800,2500.8067861,N,12132.4259929,E,4,57,0.50,17.038,M,15.25,M,0,3335*49
$GNRMC,031450.800,A,2500.8067861,N,12132.4259929,E,0.71,122.09,030324,,,R,V*10
$GPHDT,139.661,T*3F
$GNACCURACY,4.7*15
$GNGGA,031450.900,2500.8067567,N,12132.4260362,E,4,57,0.50,17.066,M,15.25,M,0,3335*47
$GNRMC,031450.900,A,2500.8067567,N,12132.4260362,E,0.80,121.06,030324,,,R,V*17
$GPHDT,,T*1B
$GNACCURACY,4.6*14
$GNGGA,031451.000,2500.8067341,N,12132.4260676,E,4,57,0.50,17.006,M,15.25,M,1,3335*4A
$GNRMC,031451.000,A,2500.8067341,N,12132.4260676,E,0.87,122.41,030324,,,R,V*1A
$GPHDT,138.410,T*3A
$GNACCURACY,4.6*14
$GNGGA,031451.100,2500.8066974,N,12132.4261112,E,4,56,0.50,17.061,M,15.25,M,1,3335*42
$GNRMC,031451.100,A,2500.8066974,N,12132.4261112,E,0.90,124.27,030324,,,R,V*12
$GPHDT,,T*1B
$GNGSA,A,3,27,08,194,199,195,04,16,09,31,26,07,,0.77,0.50,0.58,1*3F
$GNGSA,A,3,82,79,81,80,69,,,,,,,,0.77,0.50,0.58,2*00
$GNGSA,A,3,30,07,34,27,15,02,36,,,,,,0.77,0.50,0.58,3*0E
$GNGSA,A,3,16,06,39,09,40,34,12,07,24,10,44,25,0.77,0.50,0.58,4*09
$GNGSA,A,3,26,,,,,,,,,,,,0.77,0.50,0.58,4*08
$GPGSV,4,1,15,27,68,021,45,08,67,248,39,194,63,043,41,199,60,167,34,1*6A
$GPGSV,4,2,15,195,51,129,41,50,50,134,34,04,45,234,19,16,42,036,42,1*5B
$GPGSV,4,3,15,09,31,287,24,31,28,126,42,26,25,068,26,196,24,177,17,1*5A
$GPGSV,4,4,15,21,22,176,18,07,12,318,28,28,03,134,,1*51
$GPGSV,2,1,08,27,68,021,47,08,67,248,41,194,63,043,47,199,60,167,46,8*67
$GPGSV,2,2,08,195,51,129,43,04,45,234,18,09,31,287,19,26,25,068,40,8*5F
$GLGSV,2,1,08,82,64,125,43,79,39,055,41,81,39,043,43,80,35,344,31,1*77
$GLGSV,2,2,08,70,19,280,,69,14,217,18,78,07,098,,71,03,325,,1*7A
$GAGSV,2,1,08,30,52,005,42,07,45,254,23,34,40,098,39,27,30,297,19,7*71
$GAGSV,2,2,08,15,28,160,18,08,28,189,,02,22,064,32,36,14,047,18,7*72
$GAGSV,2,1,05,30,52,005,41,07,45,254,22,34,40,098,44,27,30,297,26,1*7E
$GAGSV,2,2,05,02,22,064,34,1*47
$GBGSV,5,1,17,16,87,146,44,06,87,310,43,39,75,157,44,09,71,324,42,1*74
$GBGSV,5,2,17,40,71,298,44,34,68,167,44,12,65,075,44,07,64,278,42,1*73
$GBGSV,5,3,17,24,55,063,45,10,53,264,24,11,46,189,,44,44,051,45,1*72
$GBGSV,5,4,17,25,42,329,37,43,24,204,,26,17,105,34,33,13,227,,1*7F
$GBGSV,5,5,17,35,01,037,,1*43
$GBGSV,2,1,07,39,75,157,46,40,71,298,45,34,68,167,45,24,55,063,46,4*77
$GBGSV,2,2,07,44,44,051,42,25,42,329,32,26,17,105,28,4*42
$GNACCURACY,4.7*15
$PAIRSAT,1,34,2,0,200,3,0,200,4,0,221,5,0,200,6,0,200,7,0,201,8,0,221,9,0,221,10,0,200,11,0,200,12,0,200,13,0,200,14,0,200,15,0,200,16,0,201,17,0,200,18,0,200,19,0,200,21,0,201,22,0,200,23,0,200,24,0,200,25,0,200,26,0,221,27,0,221,28,0,200,29,0,200,30,0,200,31,0,201,32,0,200,194,0,621,195,0,621,196,0,620,199,0,621*74
$PAIRSAT,2,18,69,0,1,70,0,200,71,0,200,72,0,200,73,0,200,74,0,200,75,0,200,76,0,200,77,0,200,78,0,200,79,0,201,80,0,201,81,0,201,82,0,201,83,0,200,84,0,200,85,0,200,88,0,200*7B
$PAIRSAT,3,23,2,0,1221,3,0,1200,4,0,1200,5,0,200,7,0,1221,8,0,1221,9,0,1200,10,0,1200,11,0,1200,12,0,1200,13,0,1200,15,0,1221,19,0,1200,21,0,1200,24,0,1200,25,0,1200,26,0,1200,27,0,1221,30,0,1221,31,0,1200,33,0,1200,34,0,1221,36,0,221*5B
$PAIRSAT,4,46,1,0,200,2,0,200,3,0,600,4,0,200,5,0,200,6,0,201,7,0,201,8,0,200,9,0,201,10,0,201,11,0,201,12,0,201,13,0,200,14,0,200,16,0,201,19,0,600,20,0,600,21,0,600,22,0,600,23,0,600,24,0,621,25,0,621,26,0,621,27,0,600,28,0,600,29,0,600,30,0,600,32,0,600,33,0,621,34,0,621,35,0,400,36,0,600,37,0,600,38,0,400,39,0,421,40,0,421,41,0,600,42,0,600,43,0,621,44,0,421,45,0,400,46,0,400,59,0,400,60,0,400,61,0,400,62,0,400*49
$PAIRDGP,1,7*5F
$GNGGA,031451.200,2500.8066644,N,12132.4261461,E,4,56,0.50,17.029,M,15.25,M,1,3335*40
$GNRMC,031451.200,A,2500.8066644,N,12132.4261461,E,0.96,126.32,030324,,,R,V*1C
$GPHDT,140.166,T*31
$GNACCURACY,4.6*14
$GNGGA,031451.300,2500.8066275,N,12132.4261817,E,4,55,0.50,17.019,M,15.25,M,1,3335*4A
$GNRMC,031451.300,A,2500.8066275,N,12132.4261817,E,1.03,128.12,030324,,,R,V*17
$GPHDT,,T*1B
$GNACCURACY,4.6*14
$GNGGA,031451.400,2500.8065880,N,12132.4262083,E,4,56,0.50,17.022,M,15.25,M,1,3335*43
$GNRMC,031451.400,A,2500.8065880,N,12132.4262083,E,1.05,130.79,030324,,,R,V*17
$GPHDT,138.789,T*39
$GNACCURACY,4.6*14
$GNGGA,031451.500,2500.8065474,N,12132.4262420,E,4,56,0.50,17.052,M,15.25,M,1,3335*4F
$GNRMC,031451.500,A,2500.8065474,N,12132.4262420,E,1.09,133.34,030324,,,R,V*1A
$GPHDT,,T*1B
$GNACCURACY,4.5*17
$GNGGA,031451.600,2500.8065164,N,12132.4262701,E,4,56,0.50,17.020,M,15.25,M,0,3335*4C
$GNRMC,031451.600,A,2500.8065164,N,12132.4262701,E,1.14,134.52,030324,,,R,V*16
$GPHDT,137.113,T*33
$GNACCURACY,4.5*17
$GNGGA,031451.700,2500.8064736,N,12132.4263107,E,4,56,0.50,17.118,M,15.25,M,0,3335*46
$GNRMC,031451.700,A,2500.8064736,N,12132.4263107,E,1.20,135.26,030324,,,R,V*13
$GPHDT,,T*1B
$GNACCURACY,4.5*17
$GNGGA,031451.800,2500.8064448,N,12132.4263487,E,4,56,0.50,17.124,M,15.25,M,0,3335*41
$GNRMC,031451.800,A,2500.8064448,N,12132.4263487,E,1.24,135.76,030324,,,R,V*1A
$GPHDT,137.087,T*3F
$GNACCURACY,4.5*17
$GNGGA,031451.900,2500.8064148,N,12132.4263848,E,4,56,0.50,17.085,M,15.25,M,0,3335*40
$GNRMC,031451.900,A,2500.8064148,N,12132.4263848,E,1.25,134.94,030324,,,R,V*1D
$GPHDT,,T*1B
$GNACCURACY,4.5*17
$GNGGA,031452.000,2500.8063855,N,12132.4264188,E,4,56,0.50,17.051,M,15.25,M,1,3335*42
$GNRMC,031452.000,A,2500.8063855,N,12132.4264188,E,1.29,134.88,030324,,,R,V*16
$GPHDT,136.989,T*39
$GNACCURACY,4.5*17
$GNGGA,031452.100,2500.8063514,N,12132.4264617,E,4,56,0.50,17.078,M,15.25,M,1,3335*41
$GNRMC,031452.100,A,2500.8063514,N,12132.4264617,E,1.31,134.70,030324,,,R,V*10
$GPHDT,,T*1B
$GNGSA,A,3,27,08,194,199,195,04,16,09,31,26,07,,0.77,0.50,0.58,1*3F
$GNGSA,A,3,82,81,79,80,69,,,,,,,,0.77,0.50,0.58,2*00
$GNGSA,A,3,30,07,34,27,15,02,36,,,,,,0.77,0.50,0.58,3*0E
$GNGSA,A,3,06,16,39,09,40,34,12,07,24,10,44,25,0.77,0.50,0.58,4*09
$GNGSA,A,3,26,,,,,,,,,,,,0.77,0.50,0.58,4*08
$GPGSV,4,1,16,27,68,021,45,08,67,248,37,194,63,043,41,199,60,167,34,1*67
$GPGSV,4,2,16,195,51,129,43,50,50,134,36,04,45,234,20,16,42,036,42,1*52
$GPGSV,4,3,16,09,31,287,27,31,28,126,42,26,25,068,30,196,24,177,17,1*5D
$GPGSV,4,4,16,21,22,176,18,07,12,318,20,18,03,039,,28,03,134,,1*6A
$GPGSV,2,1,08,27,68,021,47,08,67,248,38,194,63,043,45,199,60,167,45,8*68
$GPGSV,2,2,08,195,51,129,45,04,45,234,15,09,31,287,22,26,25,068,41,8*5D
$GLGSV,2,1,05,82,64,125,43,81,39,043,44,79,39,055,44,80,35,344,36,1*7F
$GLGSV,2,2,05,69,14,217,14,1*46
$GAGSV,2,1,08,30,52,005,42,07,45,254,22,34,40,098,37,27,30,297,20,7*74
$GAGSV,2,2,08,08,28,189,,15,28,160,19,02,22,064,34,36,14,047,19,7*74
$GAGSV,2,1,05,30,52,005,45,07,45,254,24,34,40,098,42,27,30,297,26,1*7A
$GAGSV,2,2,05,02,22,064,33,1*40
$GBGSV,4,1,16,06,87,310,44,16,87,146,44,39,75,157,44,09,71,324,42,1*73
$GBGSV,4,2,16,40,71,299,43,34,68,167,44,12,65,075,45,07,64,278,42,1*74
$GBGSV,4,3,16,24,55,063,46,10,53,264,25,11,46,189,,44,44,050,45,1*71
$GBGSV,4,4,16,25,42,329,32,43,24,204,,26,17,105,35,33,13,227,,1*7B
$GBGSV,2,1,07,39,75,157,46,40,71,299,46,34,68,167,44,24,55,063,44,4*76
$GBGSV,2,2,07,44,44,050,44,25,42,329,37,26,17,105,31,4*48
$GNACCURACY,4.6*14
$PAIRSAT,1,34,2,0,200,3,0,200,4,0,221,5,0,200,6,0,200,7,0,201,8,0,221,9,0,221,10,0,200,11,0,200,12,0,200,13,0,200,14,0,200,15,0,200,16,0,201,17,0,200,18,0,200,19,0,200,21,0,201,22,0,200,23,0,200,24,0,200,25,0,200,26,0,221,27,0,221,28,0,200,29,0,200,30,0,200,31,0,201,32,0,200,194,0,621,195,0,621,196,0,620,199,0,621*74
$PAIRSAT,2,18,69,0,1,70,0,200,71,0,200,72,0,200,73,0,200,74,0,200,75,0,200,76,0,200,77,0,200,78,0,200,79,0,201,80,0,201,81,0,201,82,0,201,83,0,200,84,0,200,85,0,200,88,0,200*7B
$PAIRSAT,3,23,2,0,1221,3,0,1200,4,0,1200,5,0,200,7,0,1221,8,0,1221,9,0,1200,10,0,1200,11,0,1200,12,0,1200,13,0,1200,15,0,1221,19,0,1200,21,0,1200,24,0,1200,25,0,1200,26,0,1200,27,0,1221,30,0,1221,31,0,1200,33,0,1200,34,0,1221,36,0,221*5B
$PAIRSAT,4,46,1,0,200,2,0,200,3,0,600,4,0,200,5,0,200,6,0,201,7,0,201,8,0,200,9,0,201,10,0,201,11,0,201,12,0,201,13,0,200,14,0,200,16,0,201,19,0,600,20,0,600,21,0,600,22,0,600,23,0,600,24,0,621,25,0,621,26,0,621,27,0,600,28,0,600,29,0,600,30,0,600,32,0,600,33,0,621,34,0,621,35,0,400,36,0,600,37,0,600,38,0,400,39,0,421,40,0,421,41,0,600,42,0,600,43,0,621,44,0,421,45,0,400,46,0,400,59,0,400,60,0,400,61,0,400,62,0,400*49
$PAIRDGP,1,7*5F
$GNGGA,031452.200,2500.8063203,N,12132.4265074,E,4,56,0.50,17.108,M,15.25,M,1,3335*47
$GNRMC,031452.200,A,2500.8063203,N,12132.4265074,E,1.35,134.77,030324,,,R,V*13
$GPHDT,138.108,T*36
$GNACCURACY,4.6*14
$GNGGA,031452.300,2500.8062861,N,12132.4265356,E,4,56,0.50,17.042,M,15.25,M,1,3335*45
$GNRMC,031452.300,A,2500.8062861,N,12132.4265356,E,1.40,135.17,030324,,,R,V*1B
$GPHDT,,T*1B
$GNACCURACY,4.6*14
$GNGGA,031452.400,2500.8062463,N,12132.4265871,E,4,56,0.50,17.128,M,15.25,M,1,3335*4F
$GNRMC,031452.400,A,2500.8062463,N,12132.4265871,E,1.44,135.38,030324,,,R,V*15
$GPHDT,139.082,T*34
$GNACCURACY,4.6*14
$GNGGA,031452.500,2500.8062230,N,12132.4266243,E,4,56,0.50,17.056,M,15.25,M,1,3335*4E
$GNRMC,031452.500,A,2500.8062230,N,12132.4266243,E,1.48,136.17,030324,,,R,V*1E
$GPHDT,,T*1B
$GNACCURACY,4.6*14
$GNGGA,031452.600,2500.8061800,N,12132.4266731,E,4,56,0.50,17.096,M,15.25,M,1,3335*4B
$GNRMC,031452.600,A,2500.8061800,N,12132.4266731,E,1.52,136.40,030324,,,R,V*1E
$GPHDT,140.029,T*3B
$GNACCURACY,4.6*14
$GNGGA,031452.700,2500.8061393,N,12132.4266955,E,4,56,0.50,17.034,M,15.25,M,1,3335*4F
$GNRMC,031452.700,A,2500.8061393,N,12132.4266955,E,1.55,136.37,030324,,,R,V*15
$GPHDT,,T*1B
$GNACCURACY,4.6*14
$GNGGA,031452.800,2500.8060913,N,12132.4267375,E,4,56,0.50,17.065,M,15.25,M,0,3335*4F
$GNRMC,031452.800,A,2500.8060913,N,12132.4267375,E,1.59,136.74,030324,,,R,V*1B
$GPHDT,137.844,T*38
$GNACCURACY,4.6*14
$GNGGA,031452.900,2500.8060497,N,12132.4267721,E,4,56,0.50,17.067,M,15.25,M,0,3335*48
$GNRMC,031452.900,A,2500.8060497,N,12132.4267721,E,1.59,138.28,030324,,,R,V*19
$GPHDT,,T*1B
$GNACCURACY,4.6*14
$GNGGA,031453.000,2500.8060203,N,12132.4268081,E,4,56,0.50,17.011,M,15.25,M,1,3335*49
$GNRMC,031453.000,A,2500.8060203,N,12132.4268081,E,1.61,137.40,030324,,,R,V*12
$GPHDT,136.433,T*35
$GNACCURACY,4.6*14
$GNGGA,031453.100,2500.8059779,N,12132.4268465,E,4,56,0.50,17.021,M,15.25,M,1,3335*47
$GNRMC,031453.100,A,2500.8059779,N,12132.4268465,E,1.63,138.34,030324,,,R,V*11
$GPHDT,,T*1B
$GNGSA,A,3,27,08,194,199,195,04,16,09,31,26,07,,0.78,0.50,0.59,1*31
$GNGSA,A,3,82,79,81,80,69,,,,,,,,0.78,0.50,0.59,2*0E
$GNGSA,A,3,30,07,34,27,15,02,36,,,,,,0.78,0.50,0.59,3*00
$GNGSA,A,3,16,06,39,40,09,34,12,07,24,10,44,25,0.78,0.50,0.59,4*07
$GNGSA,A,3,26,,,,,,,,,,,,0.78,0.50,0.59,4*06
$GPGSV,4,1,15,27,68,021,45,08,67,248,33,194,63,043,43,199,60,167,34,1*62
$GPGSV,4,2,15,195,51,129,42,50,50,134,37,04,45,234,18,16,42,036,42,1*5A
$GPGSV,4,3,15,09,31,287,24,31,28,126,44,26,25,068,32,196,24,177,17,1*59
$GPGSV,4,4,15,21,22,176,18,07,12,318,20,28,03,134,,1*59
$GPGSV,2,1,08,27,68,021,48,08,67,248,35,194,63,043,48,199,60,167,44,8*66
$GPGSV,2,2,08,195,51,129,44,04,45,234,15,09,31,287,22,26,25,068,39,8*53
$GLGSV,2,1,05,82,64,125,43,79,39,055,44,81,39,043,45,80,35,344,27,1*7E
$GLGSV,2,2,05,69,14,217,16,1*44
$GAGSV,2,1,08,30,52,005,44,07,45,254,21,34,40,098,36,27,30,297,19,7*7A
$GAGSV,2,2,08,08,28,189,,15,28,160,19,02,22,064,40,36,14,047,18,7*76
$GAGSV,2,1,05,30,52,005,41,07,45,254,24,34,40,098,44,27,30,297,32,1*7D
$GAGSV,2,2,05,02,22,064,38,1*4B
$GBGSV,4,1,16,16,87,146,43,06,87,310,42,39,75,157,43,40,71,299,45,1*78
$GBGSV,4,2,16,09,71,324,44,34,68,167,44,12,65,075,45,07,64,278,42,1*79
$GBGSV,4,3,16,24,55,063,47,10,53,264,26,11,46,189,,44,44,050,45,1*73
$GBGSV,4,4,16,25,42,329,33,43,24,204,,26,17,105,32,33,13,227,,1*7D
$GBGSV,2,1,07,39,75,157,44,40,71,299,46,34,68,167,44,24,55,063,48,4*78
$GBGSV,2,2,07,44,44,050,43,25,42,329,33,26,17,105,22,4*49
$GNACCURACY,4.6*14
$PAIRSAT,1,34,2,0,200,3,0,200,4,0,221,5,0,200,6,0,200,7,0,201,8,0,221,9,0,221,10,0,200,11,0,200,12,0,200,13,0,200,14,0,200,15,0,200,16,0,201,17,0,200,18,0,200,19,0,200,21,0,201,22,0,200,23,0,200,24,0,200,25,0,200,26,0,221,27,0,221,28,0,200,29,0,200,30,0,200,31,0,201,32,0,200,194,0,621,195,0,621,196,0,620,199,0,621*74
$PAIRSAT,2,18,69,0,1,70,0,200,71,0,200,72,0,200,73,0,200,74,0,200,75,0,200,76,0,200,77,0,200,78,0,200,79,0,201,80,0,201,81,0,201,82,0,201,83,0,200,84,0,200,85,0,200,88,0,200*7B
$PAIRSAT,3,23,2,0,1221,3,0,1200,4,0,1200,5,0,200,7,0,1221,8,0,1221,9,0,1200,10,0,1200,11,0,1200,12,0,1200,13,0,1200,15,0,1221,19,0,1200,21,0,1200,24,0,1200,25,0,1200,26,0,1200,27,0,1221,30,0,1221,31,0,1200,33,0,1200,34,0,1221,36,0,221*5B
$PAIRSAT,4,46,1,0,200,2,0,200,3,0,600,4,0,200,5,0,200,6,0,201,7,0,201,8,0,200,9,0,201,10,0,201,11,0,201,12,0,201,13,0,200,14,0,200,16,0,201,19,0,600,20,0,600,21,0,600,22,0,600,23,0,600,24,0,621,25,0,621,26,0,621,27,0,600,28,0,600,29,0,600,30,0,600,32,0,600,33,0,621,34,0,621,35,0,400,36,0,600,37,0,600,38,0,400,39,0,421,40,0,421,41,0,600,42,0,600,43,0,621,44,0,421,45,0,400,46,0,400,59,0,400,60,0,400,61,0,400,62,0,400*49
$PAIRDGP,1,7*5F
$GNGGA,031453.200,2500.8059334,N,12132.4268921,E,4,56,0.50,17.060,M,15.25,M,1,3335*41
$GNRMC,031453.200,A,2500.8059334,N,12132.4268921,E,1.66,137.51,030324,,,R,V*1B
$GPHDT,136.238,T*38
$GNACCURACY,4.6*14
$GNGGA,031453.300,2500.8059089,N,12132.4269318,E,4,56,0.50,17.060,M,15.25,M,1,3335*44
$GNRMC,031453.300,A,2500.8059089,N,12132.4269318,E,1.69,136.96,030324,,,R,V*1B
$GPHDT,,T*1B
$GNACCURACY,4.6*14
$GNGGA,031453.400,2500.8058775,N,12132.4269744,E,4,55,0.50,17.088,M,15.25,M,1,3335*4E
$GNRMC,031453.400,A,2500.8058775,N,12132.4269744,E,1.68,136.31,030324,,,R,V*18
$GPHDT,138.116,T*39
$GNACCURACY,4.6*14
$GNGGA,031453.500,2500.8058478,N,12132.4270140,E,4,55,0.50,17.067,M,15.25,M,1,3335*4A
$GNRMC,031453.500,A,2500.8058478,N,12132.4270140,E,1.67,136.08,030324,,,R,V*18
$GPHDT,,T*1B
$GNACCURACY,4.6*14
$GNGGA,031453.600,2500.8058140,N,12132.4270572,E,4,55,0.50,17.095,M,15.25,M,0,3335*4E
$GNRMC,031453.600,A,2500.8058140,N,12132.4270572,E,1.68,135.61,030324,,,R,V*13
$GPHDT,140.451,T*30
$GNACCURACY,4.6*14
$GNGGA,031453.700,2500.8057674,N,12132.4270986,E,4,56,0.50,17.130,M,15.25,M,0,3335*4A
$GNRMC,031453.700,A,2500.8057674,N,12132.4270986,E,1.71,136.80,030324,,,R,V*1E
$GPHDT,,T*1B
$GNACCURACY,4.6*14
$GNGGA,031453.800,2500.8057279,N,12132.4271278,E,4,56,0.50,17.069,M,15.25,M,0,3335*4A
$GNRMC,031453.800,A,2500.8057279,N,12132.4271278,E,1.75,136.44,030324,,,R,V*1F
$GPHDT,138.876,T*36
$GNACCURACY,4.6*14
$GNGGA,031453.900,2500.8056816,N,12132.4271605,E,4,57,0.50,17.066,M,15.25,M,0,3335*49
$GNRMC,031453.900,A,2500.8056816,N,12132.4271605,E,1.77,137.76,030324,,,R,V*10
$GPHDT,,T*1B
$GNACCURACY,4.6*14
$GNGGA,031454.000,2500.8056320,N,12132.4272022,E,4,57,0.50,17.107,M,15.25,M,1,3335*4E
$GNRMC,031454.000,A,2500.8056320,N,12132.4272022,E,1.81,138.65,030324,,,R,V*14
$GPHDT,137.539,T*3F
$GNACCURACY,4.7*15
$GNGGA,031454.100,2500.8055883,N,12132.4272314,E,4,57,0.50,17.082,M,15.25,M,1,3335*44
$GNRMC,031454.100,A,2500.8055883,N,12132.4272314,E,1.84,139.60,030324,,,R,V*13
$GPHDT,,T*1B
$GNGSA,A,3,27,08,194,199,195,04,16,09,31,26,07,,0.77,0.50,0.58,1*3F
$GNGSA,A,3,82,79,81,80,69,,,,,,,,0.77,0.50,0.58,2*00
$GNGSA,A,3,30,07,34,27,15,02,36,,,,,,0.77,0.50,0.58,3*0E
$GNGSA,A,3,16,06,39,40,09,34,12,07,24,10,44,25,0.77,0.50,0.58,4*09
$GNGSA,A,3,26,,,,,,,,,,,,0.77,0.50,0.58,4*08
$GPGSV,4,1,15,27,68,021,42,08,67,248,30,194,63,043,38,199,60,167,34,1*6A
$GPGSV,4,2,15,195,51,129,42,50,50,134,37,04,45,234,18,16,42,036,40,1*58
$GPGSV,4,3,15,09,31,287,22,31,28,126,44,26,25,068,34,196,24,177,18,1*56
$GPGSV,4,4,15,21,22,176,18,07,12,318,23,28,03,134,,1*5A
$GPGSV,2,1,08,27,68,021,46,08,67,248,33,194,63,043,45,199,60,167,43,8*64
$GPGSV,2,2,08,195,51,129,44,04,45,234,14,09,31,287,25,26,25,068,38,8*54
$GLGSV,2,1,05,82,64,125,43,79,39,055,43,81,39,043,43,80,35,344,32,1*7B
$GLGSV,2,2,05,69,14,217,16,1*44
$GAGSV,2,1,08,30,52,005,42,07,45,254,19,34,40,098,36,27,30,297,23,7*7E
$GAGSV,2,2,08,08,28,189,,15,28,160,19,02,22,064,39,36,14,047,19,7*79
$GAGSV,2,1,06,30,52,005,45,07,45,254,18,34,40,098,43,27,30,297,28,1*79
$GAGSV,2,2,06,15,28,160,17,02,22,064,40,1*78
$GBGSV,4,1,16,16,87,146,44,06,87,310,43,39,75,157,42,40,71,299,44,1*7E
$GBGSV,4,2,16,09,71,324,41,34,68,167,45,12,65,075,42,07,64,278,43,1*7B
$GBGSV,4,3,16,24,55,063,47,10,53,264,25,11,46,189,,44,44,050,46,1*73
$GBGSV,4,4,16,25,42,329,38,43,24,204,,26,17,105,27,33,13,227,,1*72
$GBGSV,2,1,07,39,75,157,45,40,71,299,45,34,68,167,43,24,55,063,46,4*73
$GBGSV,2,2,07,44,44,050,45,25,42,329,39,26,17,105,30,4*46
$GNACCURACY,4.7*15
$PAIRSAT,1,34,2,0,200,3,0,200,4,0,221,5,0,200,6,0,200,7,0,201,8,0,221,9,0,221,10,0,200,11,0,200,12,0,200,13,0,200,14,0,200,15,0,200,16,0,201,17,0,200,18,0,200,19,0,200,21,0,201,22,0,200,23,0,200,24,0,200,25,0,200,26,0,221,27,0,221,28,0,200,29,0,200,30,0,200,31,0,201,32,0,200,194,0,621,195,0,621,196,0,620,199,0,621*74
$PAIRSAT,2,18,69,0,1,70,0,200,71,0,200,72,0,200,73,0,200,74,0,200,75,0,200,76,0,200,77,0,200,78,0,200,79,0,201,80,0,201,81,0,201,82,0,201,83,0,200,84,0,200,85,0,200,88,0,200*7B
$PAIRSAT,3,23,2,0,1221,3,0,1200,4,0,1200,5,0,200,7,0,1221,8,0,1221,9,0,1200,10,0,1200,11,0,1200,12,0,1200,13,0,1200,15,0,1221,19,0,1200,21,0,1200,24,0,1200,25,0,1200,26,0,1200,27,0,1221,30,0,1221,31,0,1200,33,0,1200,34,0,1221,36,0,221*5B
$PAIRSAT,4,46,1,0,200,2,0,200,3,0,600,4,0,200,5,0,200,6,0,201,7,0,201,8,0,200,9,0,201,10,0,201,11,0,201,12,0,201,13,0,200,14,0,200,16,0,201,19,0,600,20,0,600,21,0,600,22,0,600,23,0,600,24,0,621,25,0,621,26,0,621,27,0,600,28,0,600,29,0,600,30,0,600,32,0,600,33,0,621,34,0,621,35,0,400,36,0,600,37,0,600,38,0,400,39,0,421,40,0,421,41,0,600,42,0,600,43,0,621,44,0,421,45,0,400,46,0,400,59,0,400,60,0,400,61,0,400,62,0,400*49
$PAIRDGP,1,7*5F
$GNGGA,031454.200,2500.8055544,N,12132.4272779,E,4,57,0.50,17.085,M,15.25,M,1,3335*49
$GNRMC,031454.200,A,2500.8055544,N,12132.4272779,E,1.84,138.82,030324,,,R,V*14
$GPHDT,135.992,T*30
$GNACCURACY,4.7*15
$GNGGA,031454.300,2500.8055130,N,12132.4273147,E,4,57,0.50,17.097,M,15.25,M,1,3335*46
$GNRMC,031454.300,A,2500.8055130,N,12132.4273147,E,1.85,139.61,030324,,,R,V*15
$GPHDT,,T*1B
$GNACCURACY,4.7*15
$GNGGA,031454.400,2500.8054792,N,12132.4273630,E,4,57,0.50,17.070,M,15.25,M,1,3335*40
$GNRMC,031454.400,A,2500.8054792,N,12132.4273630,E,1.86,138.63,030324,,,R,V*1A
$GPHDT,135.789,T*34
$GNACCURACY,4.7*15
$GNGGA,031454.500,2500.8054439,N,12132.4274157,E,4,57,0.50,17.129,M,15.25,M,0,3335*4E
$GNRMC,031454.500,A,2500.8054439,N,12132.4274157,E,1.87,137.20,030324,,,R,V*11
$GPHDT,,T*1B
$GNACCURACY,4.7*15
$GNGGA,031454.600,2500.8054065,N,12132.4274622,E,4,57,0.50,17.137,M,15.25,M,0,3335*4A
$GNRMC,031454.600,A,2500.8054065,N,12132.4274622,E,1.88,136.55,030324,,,R,V*16
$GPHDT,136.074,T*32
$GNACCURACY,4.7*15
$GNGGA,031454.700,2500.8053695,N,12132.4275113,E,4,57,0.50,17.155,M,15.25,M,0,3335*45
$GNRMC,031454.700,A,2500.8053695,N,12132.4275113,E,1.89,136.16,030324,,,R,V*1B
$GPHDT,,T*1B
$GNACCURACY,4.7*15
$GNGGA,031454.800,2500.8053354,N,12132.4275533,E,4,57,0.50,17.130,M,15.25,M,0,3335*47
$GNRMC,031454.800,A,2500.8053354,N,12132.4275533,E,1.91,135.95,030324,,,R,V*1B
$GPHDT,138.035,T*39
$GNACCURACY,4.7*15
$GNGGA,031454.900,2500.8052864,N,12132.4275945,E,4,57,0.50,17.138,M,15.25,M,0,3335*4A
$GNRMC,031454.900,A,2500.8052864,N,12132.4275945,E,1.94,136.30,030324,,,R,V*17
$GPHDT,,T*1B
$GNACCURACY,4.7*15
$GNGGA,031455.000,2500.8052460,N,12132.4276372,E,4,57,0.50,17.114,M,15.25,M,1,3335*48
$GNRMC,031455.000,A,2500.8052460,N,12132.4276372,E,1.95,136.70,030324,,,R,V*1F
$GPHDT,138.007,T*38
$GNACCURACY,4.7*15
$GNGGA,031455.100,2500.8051942,N,12132.4276800,E,4,57,0.50,17.151,M,15.25,M,1,3335*48
$GNRMC,031455.100,A,2500.8051942,N,12132.4276800,E,2.01,135.86,030324,,,R,V*1A
$GPHDT,,T*1B
$GNGSA,A,3,27,08,194,199,195,04,16,09,31,26,07,,0.77,0.50,0.58,1*3F
$GNGSA,A,3,82,81,79,80,69,,,,,,,,0.77,0.50,0.58,2*00
$GNGSA,A,3,30,07,34,27,15,02,36,,,,,,0.77,0.50,0.58,3*0E
$GNGSA,A,3,16,06,39,09,40,34,12,07,24,10,44,25,0.77,0.50,0.58,4*09
$GNGSA,A,3,26,,,,,,,,,,,,0.77,0.50,0.58,4*08
$GPGSV,4,1,15,27,68,021,44,08,67,249,29,194,63,043,39,199,60,167,35,1*65
$GPGSV,4,2,15,195,51,129,41,50,50,134,38,04,45,234,18,16,42,036,41,1*55
$GPGSV,4,3,15,09,31,287,24,31,28,126,44,26,25,068,33,196,24,177,16,1*59
$GPGSV,4,4,15,21,22,176,18,07,12,318,20,28,03,134,,1*59
$GPGSV,2,1,08,27,68,021,46,08,67,249,33,194,63,043,48,199,60,167,43,8*68
$GPGSV,2,2,08,195,51,129,41,04,45,234,14,09,31,287,31,26,25,068,39,8*55
$GLGSV,2,1,05,82,64,125,43,81,39,043,44,79,39,055,46,80,35,344,31,1*7A
$GLGSV,2,2,05,69,14,217,16,1*44
$GAGSV,2,1,08,30,52,005,42,07,45,254,19,34,40,098,37,27,30,297,19,7*76
$GAGSV,2,2,08,08,28,189,,15,28,160,19,02,22,064,39,36,14,047,20,7*73
$GAGSV,2,1,06,30,52,005,44,07,45,254,19,34,40,098,43,27,30,297,32,1*72
$GAGSV,2,2,06,15,28,160,16,02,22,064,40,1*79
$GBGSV,5,1,17,16,87,146,44,06,87,310,43,39,75,157,43,09,71,324,42,1*73
$GBGSV,5,2,17,40,71,299,44,34,68,167,45,12,65,075,42,07,64,278,43,1*74
$GBGSV,5,3,17,24,55,063,47,10,53,264,23,11,46,189,,44,44,050,46,1*75
$GBGSV,5,4,17,25,42,329,34,43,24,204,,26,17,105,30,33,13,227,,1*78
$GBGSV,5,5,17,38,01,175,,1*49
$GBGSV,2,1,07,39,75,157,46,40,71,299,46,34,68,167,43,24,55,063,45,4*70
$GBGSV,2,2,07,44,44,050,47,25,42,329,41,26,17,105,21,4*4B
$GNACCURACY,4.7*15
$PAIRSAT,1,34,2,0,200,3,0,200,4,0,221,5,0,200,6,0,200,7,0,201,8,0,221,9,0,221,10,0,200,11,0,200,12,0,200,13,0,200,14,0,200,15,0,200,16,0,201,17,0,200,18,0,200,19,0,200,21,0,201,22,0,200,23,0,200,24,0,200,25,0,200,26,0,221,27,0,221,28,0,200,29,0,200,30,0,200,31,0,201,32,0,200,194,0,621,195,0,621,196,0,620,199,0,621*74
$PAIRSAT,2,18,69,0,1,70,0,200,71,0,200,72,0,200,73,0,200,74,0,200,75,0,200,76,0,200,77,0,200,78,0,200,79,0,201,80,0,201,81,0,201,82,0,201,83,0,200,84,0,200,85,0,200,88,0,200*7B
$PAIRSAT,3,23,2,0,1221,3,0,1200,4,0,1200,5,0,200,7,0,1221,8,0,1221,9,0,1200,10,0,1200,11,0,1200,12,0,1200,13,0,1200,15,0,1221,19,0,1200,21,0,1200,24,0,1200,25,0,1200,26,0,1200,27,0,1221,30,0,1221,31,0,1200,33,0,1200,34,0,1221,36,0,221*5B
$PAIRSAT,4,46,1,0,200,2,0,200,3,0,600,4,0,200,5,0,200,6,0,201,7,0,201,8,0,200,9,0,201,10,0,201,11,0,201,12,0,201,13,0,200,14,0,200,16,0,201,19,0,600,20,0,600,21,0,600,22,0,600,23,0,600,24,0,621,25,0,621,26,0,621,27,0,600,28,0,600,29,0,600,30,0,600,32,0,600,33,0,621,34,0,621,35,0,400,36,0,600,37,0,600,38,0,400,39,0,421,40,0,421,41,0,600,42,0,600,43,0,621,44,0,421,45,0,400,46,0,400,59,0,400,60,0,400,61,0,400,62,0,400*49
$PAIRDGP,1,7*5F
$GNGGA,031455.200,2500.8051559,N,12132.4277237,E,4,57,0.50,17.118,M,15.25,M,1,3335*4F
$GNRMC,031455.200,A,2500.8051559,N,12132.4277237,E,2.03,138.19,030324,,,R,V*19
$GPHDT,138.391,T*34
$GNACCURACY,4.7*15
$GNGGA,031455.300,2500.8051088,N,12132.4277673,E,4,57,0.50,17.149,M,15.25,M,1,3335*47
$GNRMC,031455.300,A,2500.8051088,N,12132.4277673,E,2.02,141.08,030324,,,R,V*1A
$GPHDT,,T*1B
$GNACCURACY,4.7*15
$GNGGA,031455.400,2500.8050758,N,12132.4278065,E,4,57,0.50,17.120,M,15.25,M,1,3335*4A
$GNRMC,031455.400,A,2500.8050758,N,12132.4278065,E,1.99,139.82,030324,,,R,V*14
$GPHDT,138.883,T*3C
$GNACCURACY,4.8*1A
$GNGGA,031455.500,2500.8050373,N,12132.4278570,E,4,57,0.50,17.154,M,15.25,M,0,3335*45
$GNRMC,031455.500,A,2500.8050373,N,12132.4278570,E,2.01,137.97,030324,,,R,V*11
$GPHDT,,T*1B
$GNACCURACY,4.8*1A
$GNGGA,031455.600,2500.8050063,N,12132.4279110,E,4,57,0.50,17.137,M,15.25,M,0,3335*42
$GNRMC,031455.600,A,2500.8050063,N,12132.4279110,E,2.13,133.45,030324,,,R,V*1B
$GPHDT,140.500,T*35
$GNACCURACY,4.8*1A
$GNGGA,031455.700,2500.8049627,N,12132.4279627,E,4,57,0.50,17.142,M,15.25,M,0,3335*4C
$GNRMC,031455.700,A,2500.8049627,N,12132.4279627,E,2.17,129.21,030324,,,R,V*1A
$GPHDT,,T*1B
$GNACCURACY,4.8*1A
$GNGGA,031455.800,2500.8049287,N,12132.4280026,E,4,57,0.50,17.137,M,15.25,M,0,3335*4E
$GNRMC,031455.800,A,2500.8049287,N,12132.4280026,E,2.09,129.68,030324,,,R,V*18
$GPHDT,139.597,T*35
$GNACCURACY,4.8*1A
$GNGGA,031455.900,2500.8048812,N,12132.4280450,E,4,57,0.50,17.172,M,15.25,M,0,3335*4C
$GNRMC,031455.900,A,2500.8048812,N,12132.4280450,E,2.03,136.01,030324,,,R,V*10
$GPHDT,,T*1B
$GNACCURACY,4.8*1A
$GNGGA,031456.000,2500.8048509,N,12132.4280838,E,4,57,0.50,17.098,M,15.25,M,1,3335*47
$GNRMC,031456.000,A,2500.8048509,N,12132.4280838,E,2.02,137.26,030324,,,R,V*1A
$PAIR010,0,0,2304,11714*0C
$PAIR010,0,1,2304,11714*0D
$GPHDT,141.012,T*32
$GNACCURACY,4.8*1A
$GNGGA,031456.100,2500.8048005,N,12132.4281355,E,4,56,0.50,17.139,M,15.25,M,1,3335*45
$GNRMC,031456.100,A,2500.8048005,N,12132.4281355,E,2.08,140.17,030324,,,R,V*1B
$GPHDT,,T*1B
$GNGSA,A,3,27,08,194,199,195,04,16,09,31,26,07,,0.77,0.50,0.58,1*3F
$GNGSA,A,3,82,79,81,80,69,,,,,,,,0.77,0.50,0.58,2*00
$GNGSA,A,3,30,07,34,27,15,02,36,,,,,,0.77,0.50,0.58,3*0E
$GNGSA,A,3,16,06,39,40,09,34,12,07,24,10,44,25,0.77,0.50,0.58,4*09
$GNGSA,A,3,26,,,,,,,,,,,,0.77,0.50,0.58,4*08
$GPGSV,4,1,15,27,68,021,45,08,67,249,26,194,63,043,42,199,60,167,32,1*60
$GPGSV,4,2,15,195,51,129,36,50,50,134,36,04,45,234,18,16,42,036,42,1*58
$GPGSV,4,3,15,09,31,287,23,31,28,126,44,26,25,068,27,196,24,177,15,1*58
$GPGSV,4,4,15,21,22,176,18,07,12,318,19,28,03,134,,1*53
$GPGSV,2,1,07,27,68,021,48,08,67,249,27,194,63,043,47,199,60,167,43,8*63
$GPGSV,2,2,07,195,51,129,37,09,31,287,26,26,25,068,41,8*67
$GLGSV,2,1,05,82,64,125,42,79,39,055,44,81,39,043,44,80,35,344,28,1*71
$GLGSV,2,2,05,69,14,217,15,1*47
$GAGSV,2,1,08,30,52,005,41,07,45,254,17,34,40,098,37,27,30,297,26,7*77
$GAGSV,2,2,08,08,28,189,,15,28,160,19,02,22,064,37,36,14,047,21,7*7C
$GAGSV,2,1,06,30,52,005,43,07,45,254,18,34,40,098,43,27,30,297,32,1*74
$GAGSV,2,2,06,15,28,160,20,02,22,064,37,1*7C
$GBGSV,4,1,16,16,87,146,44,06,87,310,43,39,75,157,43,40,71,299,44,1*7F
$GBGSV,4,2,16,09,71,324,43,34,68,167,45,12,65,075,42,07,64,278,43,1*79
$GBGSV,4,3,16,24,55,063,46,10,53,264,21,11,46,189,,44,44,050,44,1*74
$GBGSV,4,4,16,25,42,329,39,43,24,204,,26,17,105,31,33,13,227,,1*74
$GBGSV,2,1,06,39,75,157,46,40,71,299,46,34,68,167,46,24,55,063,46,4*77
$GBGSV,2,2,06,44,44,050,46,25,42,329,41,4*7E
$GNACCURACY,4.8*1A
$PAIRSAT,1,34,2,0,200,3,0,200,4,0,221,5,0,200,6,0,200,7,0,201,8,0,221,9,0,221,10,0,200,11,0,200,12,0,200,13,0,200,14,0,200,15,0,200,16,0,201,17,0,200,18,0,200,19,0,200,21,0,201,22,0,200,23,0,200,24,0,200,25,0,200,26,0,221,27,0,221,28,0,200,29,0,200,30,0,200,31,0,201,32,0,200,194,0,621,195,0,621,196,0,620,199,0,621*74
$PAIRSAT,2,18,69,0,1,70,0,200,71,0,200,72,0,200,73,0,200,74,0,200,75,0,200,76,0,200,77,0,200,78,0,200,79,0,201,80,0,201,81,0,201,82,0,201,83,0,200,84,0,200,85,0,200,88,0,200*7B
$PAIRSAT,3,23,2,0,1221,3,0,1200,4,0,1200,5,0,200,7,0,1221,8,0,1221,9,0,1200,10,0,1200,11,0,1200,12,0,1200,13,0,1200,15,0,1221,19,0,1200,21,0,1200,24,0,1200,25,0,1200,26,0,1200,27,0,1221,30,0,1221,31,0,1200,33,0,1200,34,0,1221,36,0,221*5B
$PAIRSAT,4,46,1,0,200,2,0,200,3,0,600,4,0,200,5,0,200,6,0,201,7,0,201,8,0,200,9,0,201,10,0,201,11,0,201,12,0,201,13,0,200,14,0,200,16,0,201,19,0,600,20,0,600,21,0,600,22,0,600,23,0,600,24,0,621,25,0,621,26,0,621,27,0,600,28,0,600,29,0,600,30,0,600,32,0,600,33,0,621,34,0,621,35,0,400,36,0,600,37,0,600,38,0,400,39,0,421,40,0,421,41,0,600,42,0,600,43,0,621,44,0,421,45,0,400,46,0,400,59,0,400,60,0,400,61,0,400,62,0,400*49
$PAIRDGP,1,7*5F
$GNGGA,031456.200,2500.8047640,N,12132.4281668,E,4,55,0.50,17.121,M,15.25,M,1,3335*4F
$GNRMC,031456.200,A,2500.8047640,N,12132.4281668,E,2.00,142.90,030324,,,R,V*1E
$GPHDT,140.007,T*37
$GNACCURACY,4.8*1A
$GNGGA,031456.300,2500.8047086,N,12132.4282049,E,4,55,0.50,17.146,M,15.25,M,1,3335*45
$GNRMC,031456.300,A,2500.8047086,N,12132.4282049,E,1.98,145.47,030324,,,R,V*1A
$GPHDT,,T*1B
$GNACCURACY,4.8*1A
$GNGGA,031456.400,2500.8046633,N,12132.4282350,E,4,55,0.50,17.146,M,15.25,M,1,3335*40
$GNRMC,031456.400,A,2500.8046633,N,12132.4282350,E,1.91,143.91,030324,,,R,V*1B
$GPHDT,137.269,T*3D
$GNACCURACY,4.8*1A
$GNGGA,031456.500,2500.8046261,N,12132.4282655,E,4,55,0.50,17.069,M,15.25,M,0,3335*4F
$GNRMC,031456.500,A,2500.8046261,N,12132.4282655,E,1.92,145.14,030324,,,R,V*11
$GPHDT,,T*1B
$GNACCURACY,4.8*1A
$GNGGA,031456.600,2500.8045827,N,12132.4283131,E,4,55,0.50,17.076,M,15.25,M,0,3335*4D
$GNRMC,031456.600,A,2500.8045827,N,12132.4283131,E,1.91,140.99,030324,,,R,V*1E
$GPHDT,138.110,T*3F
$GNACCURACY,4.8*1A
$GNGGA,031456.700,2500.8045400,N,12132.4283655,E,4,55,0.50,17.081,M,15.25,M,0,3335*48
$GNRMC,031456.700,A,2500.8045400,N,12132.4283655,E,2.06,138.44,030324,,,R,V*11
$GPHDT,,T*1B
$GNACCURACY,4.9*1B
$GNGGA,031456.800,2500.8045011,N,12132.4284188,E,4,55,0.50,17.092,M,15.25,M,0,3335*41
$GNRMC,031456.800,A,2500.8045011,N,12132.4284188,E,2.06,133.35,030324,,,R,V*17
$GPHDT,139.490,T*33
$GNACCURACY,4.8*1A
$GNGGA,031456.900,2500.8044632,N,12132.4284528,E,4,54,0.50,17.067,M,15.25,M,0,3335*43
$GNRMC,031456.900,A,2500.8044632,N,12132.4284528,E,2.07,133.44,030324,,,R,V*19
$GPHDT,,T*1B
$GNACCURACY,4.8*1A
$GNGGA,031457.000,2500.8044253,N,12132.4285090,E,4,55,0.50,17.117,M,15.25,M,1,3335*49
$GNRMC,031457.000,A,2500.8044253,N,12132.4285090,E,1.97,132.33,030324,,,R,V*1E
$GPHDT,138.533,T*3A
$GNACCURACY,4.7*15
$GNGGA,031457.100,2500.8043823,N,12132.4285481,E,4,55,0.50,17.118,M,15.25,M,1,3335*49
$GNRMC,031457.100,A,2500.8043823,N,12132.4285481,E,2.03,133.84,030324,,,R,V*12
$GPHDT,,T*1B
$GNGSA,A,3,27,08,194,199,195,04,16,09,31,26,07,,0.77,0.50,0.58,1*3F
$GNGSA,A,3,82,79,81,80,69,,,,,,,,0.77,0.50,0.58,2*00
$GNGSA,A,3,30,07,34,27,15,02,36,,,,,,0.77,0.50,0.58,3*0E
$GNGSA,A,3,16,06,39,40,09,34,12,07,24,10,44,25,0.77,0.50,0.58,4*09
$GNGSA,A,3,26,,,,,,,,,,,,0.77,0.50,0.58,4*08
$GPGSV,4,1,15,27,68,021,45,08,67,249,25,194,63,043,43,199,60,167,29,1*68
$GPGSV,4,2,15,195,51,129,40,50,50,134,32,04,45,234,17,16,42,036,42,1*52
$GPGSV,4,3,15,09,31,287,24,31,28,126,42,26,25,068,28,196,24,177,17,1*54
$GPGSV,4,4,15,21,22,176,18,07,12,318,23,28,03,134,,1*5A
$GPGSV,2,1,07,27,68,021,49,08,67,249,27,194,63,043,47,199,60,167,40,8*61
$GPGSV,2,2,07,195,51,129,35,09,31,287,26,26,25,068,39,8*6A
$GLGSV,2,1,05,82,64,125,40,79,39,055,45,81,39,043,45,80,35,344,33,1*79
$GLGSV,2,2,05,69,14,217,15,1*47
$GAGSV,2,1,08,30,52,005,44,07,45,254,16,34,40,098,38,27,30,297,21,7*7B
$GAGSV,2,2,08,08,28,189,,15,28,160,20,02,22,064,38,36,14,047,19,7*72
$GAGSV,2,1,06,30,52,005,43,07,45,254,16,34,40,098,44,27,30,297,24,1*7A
$GAGSV,2,2,06,15,28,160,14,02,22,064,38,1*74
$GBGSV,4,1,16,16,87,146,44,06,87,310,42,39,75,157,43,40,71,299,44,1*7E
$GBGSV,4,2,16,09,71,324,43,34,68,167,42,12,65,075,46,07,64,278,41,1*78
$GBGSV,4,3,16,24,55,063,46,10,53,264,21,11,46,189,,44,44,050,46,1*76
$GBGSV,4,4,16,25,42,329,40,43,24,204,,26,17,105,27,33,13,227,,1*7D
$GBGSV,2,1,06,39,75,157,44,40,71,299,47,34,68,167,41,24,55,063,47,4*72
$GBGSV,2,2,06,44,44,050,45,25,42,329,39,4*72
$GNACCURACY,4.7*15
$PAIRSAT,1,34,2,0,200,3,0,200,4,0,221,5,0,200,6,0,200,7,0,201,8,0,221,9,0,221,10,0,200,11,0,200,12,0,200,13,0,200,14,0,200,15,0,200,16,0,201,17,0,200,18,0,200,19,0,200,21,0,201,22,0,200,23,0,200,24,0,200,25,0,200,26,0,221,27,0,221,28,0,200,29,0,200,30,0,200,31,0,201,32,0,200,194,0,621,195,0,621,196,0,620,199,0,621*74
$PAIRSAT,2,18,69,0,1,70,0,200,71,0,200,72,0,200,73,0,200,74,0,200,75,0,200,76,0,200,77,0,200,78,0,200,79,0,201,80,0,201,81,0,201,82,0,201,83,0,200,84,0,200,85,0,200,88,0,200*7B
$PAIRSAT,3,23,2,0,1221,3,0,1200,4,0,1200,5,0,200,7,0,1221,8,0,1221,9,0,1200,10,0,1200,11,0,1200,12,0,1200,13,0,1200,15,0,1221,19,0,1200,21,0,1200,24,0,1200,25,0,1200,26,0,1200,27,0,1221,30,0,1221,31,0,1200,33,0,1200,34,0,1221,36,0,221*5B
$PAIRSAT,4,46,1,0,200,2,0,200,3,0,600,4,0,200,5,0,200,6,0,201,7,0,201,8,0,200,9,0,201,10,0,201,11,0,201,12,0,201,13,0,200,14,0,200,16,0,201,19,0,600,20,0,600,21,0,600,22,0,600,23,0,600,24,0,621,25,0,621,26,0,621,27,0,600,28,0,600,29,0,600,30,0,600,32,0,600,33,0,621,34,0,621,35,0,400,36,0,600,37,0,600,38,0,400,39,0,421,40,0,421,41,0,600,42,0,600,43,0,621,44,0,421,45,0,400,46,0,400,59,0,400,60,0,400,61,0,400,62,0,400*49
$PAIRDGP,1,7*5F
$GNGGA,031457.200,2500.8043351,N,12132.4285928,E,4,55,0.50,17.111,M,15.25,M,1,3335*43
$GNRMC,031457.200,A,2500.8043351,N,12132.4285928,E,2.09,138.59,030324,,,R,V*10
$GPHDT,137.810,T*39
$GNACCURACY,4.7*15
$GNGGA,031457.300,2500.8042855,N,12132.4286367,E,4,56,0.50,17.139,M,15.25,M,1,3335*47
$GNRMC,031457.300,A,2500.8042855,N,12132.4286367,E,2.08,137.23,030324,,,R,V*1E
$GPHDT,,T*1B
$GNACCURACY,4.7*15
$GNGGA,031457.400,2500.8042432,N,12132.4286602,E,4,56,0.50,17.137,M,15.25,M,1,3335*45
$GNRMC,031457.400,A,2500.8042432,N,12132.4286602,E,1.97,137.64,030324,,,R,V*14
$GPHDT,135.668,T*3A
$GNACCURACY,4.7*15
$GNGGA,031457.500,2500.8041982,N,12132.4287017,E,4,55,0.50,17.170,M,15.25,M,0,3335*43
$GNRMC,031457.500,A,2500.8041982,N,12132.4287017,E,1.94,138.62,030324,,,R,V*19
$GPHDT,,T*1B
$GNACCURACY,4.7*15
$GNGGA,031457.600,2500.8041584,N,12132.4287334,E,4,54,0.52,17.122,M,15.25,M,0,3335*4C
$GNRMC,031457.600,A,2500.8041584,N,12132.4287334,E,1.94,142.11,030324,,,R,V*1B
$GPHDT,134.070,T*34
$GNACCURACY,4.7*15
$GNGGA,031457.700,2500.8041267,N,12132.4287728,E,4,53,0.52,17.099,M,15.25,M,0,3335*48
$GNRMC,031457.700,A,2500.8041267,N,12132.4287728,E,1.95,139.65,030324,,,R,V*17
$GPHDT,,T*1B
$GNACCURACY,4.7*15
$GNGGA,031457.800,2500.8040852,N,12132.4288198,E,4,53,0.52,17.055,M,15.25,M,0,3335*48
$GNRMC,031457.800,A,2500.8040852,N,12132.4288198,E,2.06,136.87,030324,,,R,V*1D
$GPHDT,133.102,T*37
$GNACCURACY,4.7*15
$GNGGA,031457.900,2500.8040521,N,12132.4288820,E,4,54,0.52,17.094,M,15.25,M,0,3335*40
$GNRMC,031457.900,A,2500.8040521,N,12132.4288820,E,2.09,134.74,030324,,,R,V*1E
$GPHDT,,T*1B
$GNACCURACY,4.7*15
$GNGGA,031458.000,2500.8040142,N,12132.4289294,E,4,55,0.52,17.120,M,15.25,M,1,3335*4D
$GNRMC,031458.000,A,2500.8040142,N,12132.4289294,E,2.09,130.16,030324,,,R,V*1D
$GPHDT,135.338,T*3A
$GNACCURACY,4.7*15
$GNGGA,031458.100,2500.8039710,N,12132.4289688,E,4,55,0.52,17.088,M,15.25,M,1,3335*49
$GNRMC,031458.100,A,2500.8039710,N,12132.4289688,E,2.02,127.92,030324,,,R,V*1B
$GPHDT,,T*1B
$GNGSA,A,3,27,08,194,199,195,04,16,09,31,26,07,,0.80,0.52,0.60,1*3E
$GNGSA,A,3,82,79,81,80,69,,,,,,,,0.80,0.52,0.60,2*01
$GNGSA,A,3,30,07,34,27,15,02,36,,,,,,0.80,0.52,0.60,3*0F
$GNGSA,A,3,06,16,39,09,40,34,12,07,24,10,44,25,0.80,0.52,0.60,4*08
$GPGSV,4,1,15,27,68,021,45,08,67,249,24,194,63,043,41,199,60,167,31,1*62
$GPGSV,4,2,15,195,51,129,41,50,50,134,33,04,45,234,18,16,42,036,40,1*5F
$GPGSV,4,3,15,09,31,287,26,31,28,126,42,26,25,068,34,196,24,177,20,1*5F
$GPGSV,4,4,15,21,22,176,18,07,12,318,24,28,03,134,,1*5D
$GPGSV,2,1,07,27,68,021,48,08,67,249,21,194,63,043,47,199,60,167,37,8*66
$GPGSV,2,2,07,195,51,129,37,09,31,287,27,26,25,068,37,8*67
$GLGSV,2,1,05,82,64,125,36,79,39,055,44,81,39,043,44,80,35,344,35,1*7E
$GLGSV,2,2,05,69,14,217,15,1*47
$GAGSV,2,1,08,30,52,005,44,07,45,254,15,34,40,098,38,27,30,297,24,7*7D
$GAGSV,2,2,08,08,28,189,,15,28,160,22,02,22,064,38,36,14,047,17,7*7E
$GAGSV,2,1,07,30,52,005,41,07,45,254,17,34,40,098,42,27,30,297,27,1*7D
$GAGSV,2,2,07,15,28,160,29,02,22,064,39,36,14,047,17,1*4F
$GBGSV,4,1,15,06,87,310,43,16,87,146,44,39,75,157,38,09,71,324,42,1*7C
$GBGSV,4,2,15,40,71,299,44,34,68,167,37,12,65,075,44,07,64,278,38,1*78
$GBGSV,4,3,15,24,55,063,46,10,53,264,19,11,46,189,,44,44,050,44,1*7C
$GBGSV,4,4,15,25,42,329,43,43,24,204,,33,13,227,,1*4E
$GBGSV,2,1,06,39,75,157,32,40,71,299,46,34,68,167,37,24,55,063,46,4*72
$GBGSV,2,2,06,44,44,050,46,25,42,329,38,4*70
$GNACCURACY,4.7*15
$PAIRSAT,1,34,2,0,200,3,0,200,4,0,221,5,0,200,6,0,200,7,0,201,8,0,221,9,0,221,10,0,200,11,0,200,12,0,200,13,0,200,14,0,200,15,0,200,16,0,201,17,0,200,18,0,200,19,0,200,21,0,201,22,0,200,23,0,200,24,0,200,25,0,200,26,0,221,27,0,221,28,0,200,29,0,200,30,0,200,31,0,201,32,0,200,194,0,621,195,0,621,196,0,620,199,0,621*74
$PAIRSAT,2,18,69,0,1,70,0,200,71,0,200,72,0,200,73,0,200,74,0,200,75,0,200,76,0,200,77,0,200,78,0,200,79,0,201,80,0,201,81,0,201,82,0,201,83,0,200,84,0,200,85,0,200,88,0,200*7B
$PAIRSAT,3,23,2,0,1221,3,0,1200,4,0,1200,5,0,200,7,0,1221,8,0,1221,9,0,1200,10,0,1200,11,0,1200,12,0,1200,13,0,1200,15,0,1221,19,0,1200,21,0,1200,24,0,1200,25,0,1200,26,0,1200,27,0,1221,30,0,1221,31,0,1200,33,0,1200,34,0,1221,36,0,221*5B
$PAIRSAT,4,46,1,0,200,2,0,200,3,0,600,4,0,200,5,0,200,6,0,201,7,0,201,8,0,200,9,0,201,10,0,201,11,0,201,12,0,201,13,0,200,14,0,200,16,0,201,19,0,600,20,0,600,21,0,600,22,0,600,23,0,600,24,0,621,25,0,621,26,0,621,27,0,600,28,0,600,29,0,600,30,0,600,32,0,600,33,0,621,34,0,621,35,0,400,36,0,600,37,0,600,38,0,400,39,0,421,40,0,421,41,0,600,42,0,600,43,0,621,44,0,421,45,0,400,46,0,400,59,0,400,60,0,400,61,0,400,62,0,400*49
$PAIRDGP,1,7*5F
$GNGGA,031458.200,2500.8039382,N,12132.4290306,E,4,55,0.52,17.123,M,15.25,M,1,3335*4E
$GNRMC,031458.200,A,2500.8039382,N,12132.4290306,E,2.00,129.36,030324,,,R,V*1E
$GPHDT,138.185,T*33
$GNACCURACY,4.7*15
$GNGGA,031458.300,2500.8038987,N,12132.4290769,E,4,55,0.52,17.112,M,15.25,M,1,3335*4E
$GNRMC,031458.300,A,2500.8038987,N,12132.4290769,E,2.00,133.46,030324,,,R,V*10
$GPHDT,,T*1B
$GNACCURACY,4.7*15
$GNGGA,031458.400,2500.8038450,N,12132.4291089,E,4,54,0.56,17.084,M,15.25,M,1,3335*4D
$GNRMC,031458.400,A,2500.8038450,N,12132.4291089,E,2.10,136.62,030324,,,R,V*1A
$GPHDT,138.576,T*3B
$GNACCURACY,4.7*15
$GNGGA,031458.500,2500.8038071,N,12132.4291513,E,4,54,0.56,17.067,M,15.25,M,1,3335*40
$GNRMC,031458.500,A,2500.8038071,N,12132.4291513,E,2.17,134.05,030324,,,R,V*1E
$GPHDT,,T*1B
$GNACCURACY,4.7*15
$GNGGA,031458.600,2500.8037499,N,12132.4292005,E,4,55,0.52,17.107,M,15.25,M,0,3335*4C
$GNRMC,031458.600,A,2500.8037499,N,12132.4292005,E,2.14,132.72,030324,,,R,V*14
$GPHDT,138.364,T*3E
$GNACCURACY,4.7*15
$GNGGA,031458.700,2500.8037208,N,12132.4292609,E,4,54,0.56,17.139,M,15.25,M,0,3335*41
$GNRMC,031458.700,A,2500.8037208,N,12132.4292609,E,2.03,133.06,030324,,,R,V*15
$GPHDT,,T*1B
$GNACCURACY,4.7*15
$GNGGA,031458.800,2500.8036768,N,12132.4292822,E,4,54,0.56,17.067,M,15.25,M,0,3335*41
$GNRMC,031458.800,A,2500.8036768,N,12132.4292822,E,2.10,135.86,030324,,,R,V*13
$GPHDT,139.351,T*39
$GNACCURACY,4.7*15
$GNGGA,031458.900,2500.8036398,N,12132.4293513,E,4,54,0.56,17.125,M,15.25,M,0,3335*42
$GNRMC,031458.900,A,2500.8036398,N,12132.4293513,E,2.17,134.96,030324,,,R,V*10
$GPHDT,,T*1B
$GNACCURACY,4.7*15
$GNGGA,031459.000,2500.8035987,N,12132.4293884,E,4,55,0.52,17.087,M,15.25,M,1,3335*43
$GNRMC,031459.000,A,2500.8035987,N,12132.4293884,E,2.09,135.19,030324,,,R,V*15
$GPHDT,143.303,T*33
$GNACCURACY,4.8*1A
$GNGGA,031459.100,2500.8035579,N,12132.4294346,E,4,54,0.52,17.054,M,15.25,M,1,3335*42
$GNRMC,031459.100,A,2500.8035579,N,12132.4294346,E,2.05,129.33,030324,,,R,V*12
$GPHDT,,T*1B
$GNGSA,A,3,27,08,194,199,195,04,16,09,31,26,196,07,0.81,0.52,0.62,1*03
$GNGSA,A,3,82,79,81,80,,,,,,,,,0.81,0.52,0.62,2*0D
$GNGSA,A,3,30,07,34,27,15,02,36,,,,,,0.81,0.52,0.62,3*0C
$GNGSA,A,3,06,16,39,40,09,34,12,07,24,10,44,25,0.81,0.52,0.62,4*0B
$GPGSV,4,1,14,27,68,021,45,08,67,249,23,194,63,043,41,199,60,167,25,1*61
$GPGSV,4,2,14,195,51,129,37,50,50,134,27,04,45,234,18,16,42,036,40,1*5A
$GPGSV,4,3,14,09,31,287,26,31,28,126,38,26,25,068,34,196,24,177,17,1*57
$GPGSV,4,4,14,21,22,176,18,07,12,318,21,1*66
$GPGSV,2,1,07,27,68,021,47,08,67,249,26,194,63,043,47,199,60,167,27,8*6F
$GPGSV,2,2,07,195,51,129,39,09,31,287,29,26,25,068,38,8*68
$GLGSV,2,1,05,82,64,125,33,79,39,055,45,81,39,043,44,80,35,344,37,1*78
$GLGSV,2,2,05,69,14,217,17,1*45
$GAGSV,2,1,08,30,52,005,42,07,45,254,16,34,40,098,34,27,30,297,24,7*74
$GAGSV,2,2,08,15,28,160,22,08,28,189,,02,22,064,38,36,14,047,,7*78
$GAGSV,2,1,07,30,52,005,43,07,45,254,17,34,40,098,41,27,30,297,33,1*79
$GAGSV,2,2,07,15,28,160,27,02,22,064,38,36,14,047,16,1*41
$GBGSV,4,1,16,06,87,310,33,16,87,146,34,39,75,157,29,40,71,299,47,1*70
$GBGSV,4,2,16,09,71,324,43,34,68,167,35,12,65,075,39,07,64,278,34,1*72
$GBGSV,4,3,16,24,55,063,46,10,53,264,19,11,46,189,,44,44,050,45,1*7E
$GBGSV,4,4,16,25,42,329,45,43,24,204,,26,17,105,,33,13,227,,1*7D
$GBGSV,2,1,06,39,75,157,32,40,71,299,46,34,68,167,36,24,55,063,46,4*73
$GBGSV,2,2,06,44,44,050,45,25,42,329,41,4*7D
$GNACCURACY,4.8*1A
$PAIRSAT,1,34,2,0,200,3,0,200,4,0,221,5,0,200,6,0,200,7,0,201,8,0,221,9,0,221,10,0,200,11,0,200,12,0,200,13,0,200,14,0,200,15,0,200,16,0,201,17,0,200,18,0,200,19,0,200,21,0,201,22,0,200,23,0,200,24,0,200,25,0,200,26,0,221,27,0,221,28,0,200,29,0,200,30,0,200,31,0,201,32,0,200,194,0,621,195,0,621,196,0,620,199,0,621*74
$PAIRSAT,2,18,69,0,1,70,0,200,71,0,200,72,0,200,73,0,200,74,0,200,75,0,200,76,0,200,77,0,200,78,0,200,79,0,201,80,0,201,81,0,201,82,0,201,83,0,200,84,0,200,85,0,200,88,0,200*7B
$PAIRSAT,3,23,2,0,1221,3,0,1200,4,0,1200,5,0,200,7,0,1221,8,0,1221,9,0,1200,10,0,1200,11,0,1200,12,0,1200,13,0,1200,15,0,1221,19,0,1200,21,0,1200,24,0,1200,25,0,1200,26,0,1200,27,0,1221,30,0,1221,31,0,1200,33,0,1200,34,0,1221,36,0,221*5B
$PAIRSAT,4,46,1,0,200,2,0,200,3,0,600,4,0,200,5,0,200,6,0,201,7,0,201,8,0,200,9,0,201,10,0,201,11,0,201,12,0,201,13,0,200,14,0,200,16,0,201,19,0,600,20,0,600,21,0,600,22,0,600,23,0,600,24,0,621,25,0,621,26,0,621,27,0,600,28,0,600,29,0,600,30,0,600,32,0,600,33,0,621,34,0,621,35,0,400,36,0,600,37,0,600,38,0,400,39,0,421,40,0,421,41,0,600,42,0,600,43,0,621,44,0,421,45,0,400,46,0,400,59,0,400,60,0,400,61,0,400,62,0,400*49
$PAIRDGP,1,7*5F
$GNGGA,031459.200,2500.8035244,N,12132.4294748,E,4,54,0.52,17.100,M,15.25,M,1,3335*42
$GNRMC,031459.200,A,2500.8035244,N,12132.4294748,E,1.84,126.62,030324,,,R,V*13
$GPHDT,138.586,T*34
$GNACCURACY,4.8*1A
$GNGGA,031459.300,2500.8034900,N,12132.4295243,E,4,54,0.52,17.111,M,15.25,M,1,3335*46
$GNRMC,031459.300,A,2500.8034900,N,12132.4295243,E,1.80,124.46,030324,,,R,V*17
$GPHDT,,T*1B
$GNACCURACY,4.8*1A
$GNGGA,031459.400,2500.8034502,N,12132.4295667,E,4,53,0.56,17.112,M,15.25,M,1,3335*4D
$GNRMC,031459.400,A,2500.8034502,N,12132.4295667,E,1.80,127.46,030324,,,R,V*1F
$GPHDT,124.469,T*39
$GNACCURACY,4.8*1A
$GNGGA,031459.500,2500.8033998,N,12132.4296073,E,4,54,0.52,17.093,M,15.25,M,1,3335*4F
$GNRMC,031459.500,A,2500.8033998,N,12132.4296073,E,1.95,131.92,030324,,,R,V*1C
$GPHDT,,T*1B
$GNACCURACY,4.8*1A
$GNGGA,031459.600,2500.8033525,N,12132.4296412,E,4,53,0.56,17.098,M,15.25,M,1,3335*4D
$GNRMC,031459.600,A,2500.8033525,N,12132.4296412,E,1.95,139.28,030324,,,R,V*1F
$GPHDT,118.778,T*35
$GNACCURACY,4.8*1A
$GNGGA,031459.700,2500.8032998,N,12132.4296647,E,4,53,0.56,17.088,M,15.25,M,0,3335*45
$GNRMC,031459.700,A,2500.8032998,N,12132.4296647,E,1.87,135.13,030324,,,R,V*10
$GPHDT,,T*1B
$GNACCURACY,4.8*1A
$GNGGA,031459.800,2500.8032621,N,12132.4297236,E,4,54,0.52,17.156,M,15.25,M,0,3335*45
$GNRMC,031459.800,A,2500.8032621,N,12132.4297236,E,1.92,133.73,030324,,,R,V*15
$GPHDT,125.193,T*38
$GNACCURACY,4.8*1A
$GNGGA,031459.900,2500.8032206,N,12132.4297600,E,4,53,0.52,17.171,M,15.25,M,0,3335*46
$GNRMC,031459.900,A,2500.8032206,N,12132.4297600,E,1.88,132.99,030324,,,R,V*1A
$GPHDT,,T*1B
$GNACCURACY,4.8*1A
$GNGGA,031500.000,2500.8031743,N,12132.4297854,E,4,54,0.52,17.140,M,15.25,M,1,3335*4E
$GNRMC,031500.000,A,2500.8031743,N,12132.4297854,E,1.82,142.52,030324,,,R,V*1C
$GPHDT,115.388,T*33
$GNACCURACY,4.9*1B
$GNGGA,031500.100,2500.8031307,N,12132.4298323,E,4,54,0.52,17.103,M,15.25,M,1,3335*48
$GNRMC,031500.100,A,2500.8031307,N,12132.4298323,E,2.00,144.29,030324,,,R,V*1E
$GPHDT,,T*1B
$GNGSA,A,3,27,08,194,199,195,04,16,09,31,26,196,07,0.81,0.52,0.62,1*03
$GNGSA,A,3,82,79,81,80,,,,,,,,,0.81,0.52,0.62,2*0D
$GNGSA,A,3,30,07,34,27,15,02,36,,,,,,0.81,0.52,0.62,3*0C
$GNGSA,A,3,06,16,39,40,09,34,12,07,24,10,44,25,0.81,0.52,0.62,4*0B
$GPGSV,4,1,14,27,68,021,49,08,67,249,23,194,63,043,41,199,60,167,22,1*6A
$GPGSV,4,2,14,195,51,129,35,50,50,134,25,04,45,234,18,16,42,036,39,1*54
$GPGSV,4,3,14,09,31,287,24,31,28,126,41,26,25,068,38,196,24,177,16,1*56
$GPGSV,4,4,14,21,22,176,18,07,12,318,21,1*66
$GPGSV,2,1,07,27,68,021,49,08,67,249,21,194,63,043,45,199,60,167,38,8*6A
$GPGSV,2,2,07,195,51,129,43,09,31,287,28,26,25,068,38,8*64
$GLGSV,2,1,05,82,64,125,40,79,39,055,44,81,39,043,44,80,35,344,42,1*7F
$GLGSV,2,2,05,69,14,217,13,1*41
$GAGSV,2,1,08,30,52,005,42,07,45,254,16,34,40,098,36,27,30,297,28,7*7A
$GAGSV,2,2,08,15,28,160,23,08,28,189,,02,22,064,35,36,14,047,,7*74
$GAGSV,2,1,07,30,52,005,43,07,45,254,17,34,40,098,43,27,30,297,26,1*7F
$GAGSV,2,2,07,15,28,160,30,02,22,064,38,36,14,047,16,1*47
$GBGSV,4,1,16,06,87,310,29,16,87,146,29,39,75,157,32,40,71,299,30,1*7D
$GBGSV,4,2,16,09,71,324,34,34,68,167,30,12,65,075,42,07,64,278,29,1*77
$GBGSV,4,3,16,24,55,063,45,10,53,264,18,11,46,189,,44,44,050,44,1*7D
$GBGSV,4,4,16,25,42,329,45,43,24,204,,26,17,105,27,33,13,227,,1*78
$GBGSV,2,1,06,39,75,157,34,40,71,299,36,34,68,167,31,24,55,063,47,4*74
$GBGSV,2,2,06,44,44,050,44,25,42,329,43,4*7E
$GNACCURACY,4.9*1B
$PAIRSAT,1,34,2,0,200,3,0,200,4,0,221,5,0,200,6,0,200,7,0,201,8,0,221,9,0,221,10,0,200,11,0,200,12,0,200,13,0,200,14,0,200,15,0,200,16,0,201,17,0,200,18,0,200,19,0,200,21,0,201,22,0,200,23,0,200,24,0,200,25,0,200,26,0,221,27,0,221,28,0,200,29,0,200,30,0,200,31,0,201,32,0,200,194,0,621,195,0,621,196,0,620,199,0,621*74
$PAIRSAT,2,18,69,0,1,70,0,200,71,0,200,72,0,200,73,0,200,74,0,200,75,0,200,76,0,200,77,0,200,78,0,200,79,0,201,80,0,201,81,0,201,82,0,201,83,0,200,84,0,200,85,0,200,88,0,200*7B
$PAIRSAT,3,23,2,0,1221,3,0,1200,4,0,1200,5,0,200,7,0,1221,8,0,1221,9,0,1200,10,0,1200,11,0,1200,12,0,1200,13,0,1200,15,0,1221,19,0,1200,21,0,1200,24,0,1200,25,0,1200,26,0,1200,27,0,1221,30,0,1221,31,0,1200,33,0,1200,34,0,1221,36,0,221*5B
$PAIRSAT,4,46,1,0,200,2,0,200,3,0,600,4,0,200,5,0,200,6,0,201,7,0,201,8,0,200,9,0,201,10,0,201,11,0,201,12,0,201,13,0,200,14,0,200,16,0,201,19,0,600,20,0,600,21,0,600,22,0,600,23,0,600,24,0,621,25,0,621,26,0,621,27,0,600,28,0,600,29,0,600,30,0,600,32,0,600,33,0,621,34,0,621,35,0,400,36,0,600,37,0,600,38,0,400,39,0,421,40,0,421,41,0,600,42,0,600,43,0,621,44,0,421,45,0,400,46,0,400,59,0,400,60,0,400,61,0,400,62,0,400*49
$PAIRDGP,1,7*5F
$GNGGA,031500.200,2500.8031003,N,12132.4298924,E,4,54,0.52,17.081,M,15.25,M,1,3335*4A
$GNRMC,031500.200,A,2500.8031003,N,12132.4298924,E,2.10,140.95,030324,,,R,V*15
$GPHDT,144.620,T*30
$GNACCURACY,4.9*1B
$GNGGA,031500.300,2500.8030597,N,12132.4299370,E,4,53,0.52,17.091,M,15.25,M,1,3335*4E
$GNRMC,031500.300,A,2500.8030597,N,12132.4299370,E,2.06,136.53,030324,,,R,V*1B
$GPHDT,,T*1B
$GNACCURACY,4.9*1B
$GNGGA,031500.400,2500.8030295,N,12132.4299839,E,4,53,0.52,17.109,M,15.25,M,1,3335*4A
$GNRMC,031500.400,A,2500.8030295,N,12132.4299839,E,2.07,131.76,030324,,,R,V*1E
$GPHDT,117.514,T*32
$GNACCURACY,4.9*1B
$GNGGA,031500.500,2500.8029941,N,12132.4300269,E,4,53,0.52,17.100,M,15.25,M,1,3335*46
$GNRMC,031500.500,A,2500.8029941,N,12132.4300269,E,2.04,134.88,030324,,,R,V*1C
$GPHDT,,T*1B
$GNACCURACY,4.9*1B
$GNGGA,031500.600,2500.8029525,N,12132.4300760,E,4,53,0.52,17.122,M,15.25,M,0,3335*46
$GNRMC,031500.600,A,2500.8029525,N,12132.4300760,E,2.09,137.15,030324,,,R,V*17
$GPHDT,117.366,T*31
$GNACCURACY,4.9*1B
$GNGGA,031500.700,2500.8028958,N,12132.4301065,E,4,52,0.56,17.086,M,15.25,M,0,3335*49
$GNRMC,031500.700,A,2500.8028958,N,12132.4301065,E,2.14,140.24,030324,,,R,V*1C
$GPHDT,,T*1B
$GNACCURACY,4.9*1B
$GNGGA,031500.800,2500.8028499,N,12132.4301602,E,4,52,0.56,17.093,M,15.25,M,0,3335*45
$GNRMC,031500.800,A,2500.8028499,N,12132.4301602,E,2.12,138.30,030324,,,R,V*18
$GPHDT,114.486,T*3B
$GNACCURACY,4.9*1B
$GNGGA,031500.900,2500.8027973,N,12132.4301917,E,4,52,0.56,17.110,M,15.25,M,0,3335*43
$GNRMC,031500.900,A,2500.8027973,N,12132.4301917,E,2.08,135.46,030324,,,R,V*13
$GPHDT,,T*1B
$GNACCURACY,4.9*1B
$GNGGA,031501.000,2500.8027605,N,12132.4302500,E,4,53,0.56,17.123,M,15.25,M,1,3335*4C
$GNRMC,031501.000,A,2500.8027605,N,12132.4302500,E,2.09,135.30,030324,,,R,V*1C
$GPHDT,115.441,T*31
$GNACCURACY,4.9*1B
$GNGGA,031501.100,2500.8027277,N,12132.4302736,E,4,54,0.55,17.072,M,15.25,M,1,3335*4A
$GNRMC,031501.100,A,2500.8027277,N,12132.4302736,E,2.06,138.44,030324,,,R,V*1A
$GPHDT,,T*1B
$GNGSA,A,3,27,08,194,199,195,04,16,09,31,26,07,,0.86,0.56,0.65,1*39
$GNGSA,A,3,82,79,81,80,,,,,,,,,0.86,0.56,0.65,2*09
$GNGSA,A,3,30,07,34,27,15,02,36,,,,,,0.86,0.56,0.65,3*08
$GNGSA,A,3,06,16,39,40,09,34,12,07,24,10,44,25,0.86,0.56,0.65,4*0F
$GPGSV,4,1,14,27,68,021,47,08,67,249,21,194,63,043,42,199,60,167,22,1*65
$GPGSV,4,2,14,195,51,129,41,50,50,134,26,04,45,234,18,16,42,036,42,1*58
$GPGSV,4,3,14,09,31,287,21,31,28,126,40,26,25,068,36,196,24,177,17,1*5D
$GPGSV,4,4,14,21,22,176,18,07,12,318,18,1*6C
$GPGSV,2,1,07,27,68,021,49,08,67,249,20,194,63,043,45,199,60,167,40,8*64
$GPGSV,2,2,07,195,51,129,43,09,31,287,26,26,25,068,36,8*64
$GLGSV,2,1,05,82,64,125,44,79,39,055,46,81,39,043,43,80,35,344,42,1*7E
$GLGSV,2,2,05,69,14,217,14,1*46
$GAGSV,2,1,08,30,52,005,42,07,45,254,16,34,40,098,37,27,30,297,23,7*70
$GAGSV,2,2,08,15,28,160,29,08,28,189,,02,22,064,38,36,14,047,,7*73
$GAGSV,2,1,07,30,52,005,44,07,45,254,15,34,40,098,42,27,30,297,29,1*74
$GAGSV,2,2,07,15,28,160,37,02,22,064,36,36,14,047,16,1*4E
$GBGSV,4,1,16,06,87,310,24,16,87,146,24,39,75,157,33,40,71,299,41,1*7A
$GBGSV,4,2,16,09,71,324,34,34,68,167,25,12,65,075,43,07,64,278,21,1*7A
$GBGSV,4,3,16,24,55,063,45,10,53,264,18,11,46,189,,44,44,050,45,1*7C
$GBGSV,4,4,16,25,42,329,45,43,24,204,,26,17,105,26,33,13,227,,1*79
$GBGSV,2,1,06,39,75,157,32,40,71,299,38,34,68,167,30,24,55,063,46,4*7C
$GBGSV,2,2,06,44,44,050,45,25,42,329,43,4*7F
$GNACCURACY,4.9*1B
$PAIRSAT,1,34,2,0,200,3,0,200,4,0,221,5,0,200,6,0,200,7,0,201,8,0,221,9,0,221,10,0,200,11,0,200,12,0,200,13,0,200,14,0,200,15,0,200,16,0,201,17,0,200,18,0,200,19,0,200,21,0,201,22,0,200,23,0,200,24,0,200,25,0,200,26,0,221,27,0,221,28,0,200,29,0,200,30,0,200,31,0,201,32,0,200,194,0,621,195,0,621,196,0,620,199,0,621*74
$PAIRSAT,2,18,69,0,1,70,0,200,71,0,200,72,0,200,73,0,200,74,0,200,75,0,200,76,0,200,77,0,200,78,0,200,79,0,201,80,0,201,81,0,201,82,0,201,83,0,200,84,0,200,85,0,200,88,0,200*7B
$PAIRSAT,3,23,2,0,1221,3,0,1200,4,0,1200,5,0,200,7,0,1221,8,0,1221,9,0,1200,10,0,1200,11,0,1200,12,0,1200,13,0,1200,15,0,1221,19,0,1200,21,0,1200,24,0,1200,25,0,1200,26,0,1200,27,0,1221,30,0,1221,31,0,1200,33,0,1200,34,0,1221,36,0,221*5B
$PAIRSAT,4,46,1,0,200,2,0,200,3,0,600,4,0,200,5,0,200,6,0,201,7,0,201,8,0,200,9,0,201,10,0,201,11,0,201,12,0,201,13,0,200,14,0,200,16,0,201,19,0,600,20,0,600,21,0,600,22,0,600,23,0,600,24,0,621,25,0,621,26,0,621,27,0,600,28,0,600,29,0,600,30,0,600,32,0,600,33,0,621,34,0,621,35,0,400,36,0,600,37,0,600,38,0,400,39,0,421,40,0,421,41,0,600,42,0,600,43,0,621,44,0,421,45,0,400,46,0,400,59,0,400,60,0,400,61,0,400,62,0,400*49
$PAIRDGP,1,7*5F
$GNGGA,031501.200,2500.8026736,N,12132.4303175,E,4,53,0.56,17.097,M,15.25,M,1,3335*47
$GNRMC,031501.200,A,2500.8026736,N,12132.4303175,E,2.00,141.47,030324,,,R,V*13
$GPHDT,140.316,T*34
$GNACCURACY,4.8*1A
$GNGGA,031501.300,2500.8026402,N,12132.4303745,E,4,53,0.56,17.101,M,15.25,M,1,3335*49
$GNRMC,031501.300,A,2500.8026402,N,12132.4303745,E,2.11,143.84,030324,,,R,V*1E
$GPHDT,,T*1B
$GNACCURACY,4.8*1A
