$FW : RTK35X,V1.1X0314AS,Lib20210517,1*54
$Tool : LOCOSYS , GNSS Firebird , v1.0.0.19*39
$---------------------------------------------------*2D
$GNACCURACY,4.7*15
$GNGGA,030744.700,2500.8070432,N,12132.4257067,E,4,48,0.60,17.058,M,15.25,M,0,3335*4B
$GNRMC,030744.700,A,2500.8070432,N,12132.4257067,E,0.04,48.20,030324,,,R,V*2D
$GPHDT,,T*1B
$GNACCURACY,4.8*1A
$GNGGA,030744.800,2500.8070437,N,12132.4257080,E,4,49,0.57,17.051,M,15.25,M,0,3335*44
$GNRMC,030744.800,A,2500.8070437,N,12132.4257080,E,0.05,48.20,030324,,,R,V*2F
$GPHDT,135.629,T*3F
$GNACCURACY,4.8*1A
$GNGGA,030744.900,2500.8070423,N,12132.4257092,E,4,49,0.57,17.054,M,15.25,M,0,3335*46
$GNRMC,030744.900,A,2500.8070423,N,12132.4257092,E,0.06,48.20,030324,,,R,V*2B
$GPHDT,,T*1B
$GNACCURACY,4.8*1A
$GNGGA,030745.000,2500.8070407,N,12132.4257080,E,4,49,0.57,17.056,M,15.25,M,1,3335*48
$GNRMC,030745.000,A,2500.8070407,N,12132.4257080,E,0.05,48.20,030324,,,R,V*25
$GPHDT,135.321,T*32
$GNACCURACY,4.8*1A
$GNGGA,030745.100,2500.8070410,N,12132.4257081,E,4,49,0.57,17.050,M,15.25,M,1,3335*48
$GNRMC,030745.100,A,2500.8070410,N,12132.4257081,E,0.04,48.20,030324,,,R,V*22
$GPHDT,,T*1B
$GNGSA,A,3,27,08,194,199,195,16,09,31,26,,,,1.02,0.57,0.85,1*38
$GNGSA,A,3,82,81,79,80,69,,,,,,,,1.02,0.57,0.85,2*04
$GNGSA,A,3,30,07,34,15,36,,,,,,,,1.02,0.57,0.85,3*0D
$GNGSA,A,3,16,06,39,40,09,34,07,12,24,10,44,25,1.02,0.57,0.85,4*0D
$GNGSA,A,3,26,,,,,,,,,,,,1.02,0.57,0.85,4*0C
$GPGSV,4,1,13,27,71,020,45,08,64,241,34,194,63,042,41,199,60,167,36,1*61
$GPGSV,4,2,13,195,50,130,41,04,47,238,17,16,43,032,44,09,31,291,31,1*55
$GPGSV,4,3,13,31,31,124,41,26,26,065,36,196,24,177,,21,19,178,,1*59
$GPGSV,4,4,13,07,09,317,,1*5D
$GPGSV,2,1,08,27,71,020,48,08,64,241,34,194,63,042,43,199,60,167,47,8*6D
$GPGSV,2,2,08,195,50,130,41,09,31,291,25,26,26,065,39,196,24,177,08,8*64
$GLGSV,2,1,05,82,61,132,43,81,41,047,37,79,39,050,43,80,33,340,32,1*77
$GLGSV,2,2,05,69,16,220,18,1*4C
$GAGSV,2,1,08,30,52,001,41,07,46,258,28,34,39,101,44,08,30,190,,7*76
$GAGSV,2,2,08,27,29,294,18,15,26,162,17,02,26,323,,36,15,049,18,7*71
$GAGSV,1,1,04,30,52,001,40,07,46,258,27,34,39,101,45,27,29,294,27,1*77
$GBGSV,4,1,16,16,88,103,44,06,86,332,41,39,77,151,43,40,71,294,46,1*79
$GBGSV,4,2,16,09,70,327,40,34,65,170,44,07,65,275,39,12,65,083,43,1*7B
$GBGSV,4,3,16,24,56,057,41,10,53,261,19,44,46,053,42,11,43,189,13,1*79
$GBGSV,4,4,16,25,40,327,38,43,22,204,,26,18,102,39,33,15,230,,1*7F
$GBGSV,2,1,07,39,77,151,43,40,71,294,43,34,65,170,43,24,56,057,49,4*7A
$GBGSV,2,2,07,44,46,053,44,25,40,327,24,26,18,102,39,4*47
$GNACCURACY,4.8*1A
$PAIRSAT,1,28,4,0,21,7,0,201,8,0,221,9,0,221,10,0,200,11,0,200,12,0,200,13,0,200,14,0,200,15,0,200,16,0,201,17,0,200,18,0,200,19,0,200,21,0,201,22,0,200,23,0,200,24,0,200,26,0,21,27,0,21,29,0,200,30,0,200,31,0,201,32,0,200,194,0,621,195,0,621,196,0,620,199,0,621*44
$PAIRSAT,2,17,69,0,1,70,0,200,71,0,200,72,0,200,73,0,200,74,0,200,75,0,200,76,0,200,77,0,200,78,0,200,79,0,201,80,0,201,81,0,201,82,0,201,83,0,200,84,0,200,88,0,200*57
$PAIRSAT,3,22,2,0,1200,3,0,1200,4,0,1200,5,0,200,7,0,1021,8,0,1021,9,0,1000,10,0,1000,12,0,1000,13,0,1000,15,0,1221,19,0,1200,21,0,1200,24,0,200,25,0,1200,26,0,1000,27,0,1200,30,0,1221,31,0,1200,33,0,1200,34,0,1221,36,0,221*76
$PAIRSAT,4,46,1,0,200,2,0,200,3,0,600,4,0,200,5,0,200,6,0,201,7,0,201,8,0,200,9,0,201,10,0,201,11,0,201,12,0,201,13,0,200,14,0,200,16,0,1,19,0,400,20,0,400,21,0,600,22,0,600,23,0,600,24,0,621,25,0,621,26,0,621,27,0,600,28,0,400,29,0,600,30,0,600,32,0,600,33,0,621,34,0,621,35,0,400,36,0,400,37,0,400,38,0,400,39,0,421,40,0,421,41,0,400,42,0,400,43,0,421,44,0,421,45,0,400,46,0,400,59,0,400,60,0,400,61,0,400,62,0,400*4B
$PAIRDGP,3,16,21,31*6C
$GNGGA,030745.200,2500.8070374,N,12132.4257051,E,4,49,0.57,17.041,M,15.25,M,1,3335*43
$GNRMC,030745.200,A,2500.8070374,N,12132.4257051,E,0.08,48.20,030324,,,R,V*25
$GPHDT,134.304,T*34
$GNACCURACY,4.8*1A
$GNGGA,030745.300,2500.8070375,N,12132.4257082,E,4,49,0.57,17.027,M,15.25,M,1,3335*4D
$GNRMC,030745.300,A,2500.8070375,N,12132.4257082,E,0.07,48.20,030324,,,R,V*24
$GPHDT,,T*1B
$GNACCURACY,4.8*1A
$GNGGA,030745.400,2500.8070345,N,12132.4257075,E,4,49,0.57,17.033,M,15.25,M,1,3335*44
$GNRMC,030745.400,A,2500.8070345,N,12132.4257075,E,0.05,48.20,030324,,,R,V*2A
$GPHDT,135.106,T*35
$GNACCURACY,4.8*1A
$GNGGA,030745.500,2500.8070350,N,12132.4257094,E,4,49,0.57,17.045,M,15.25,M,1,3335*4F
$GNRMC,030745.500,A,2500.8070350,N,12132.4257094,E,0.04,48.20,030324,,,R,V*21
$GPHDT,,T*1B
$GNACCURACY,4.8*1A
$GNGGA,030745.600,2500.8070393,N,12132.4257059,E,4,49,0.57,17.027,M,15.25,M,1,3335*46
$GNRMC,030745.600,A,2500.8070393,N,12132.4257059,E,0.02,48.20,030324,,,R,V*2A
$GPHDT,134.954,T*3B
$GNACCURACY,4.7*15
$GNGGA,030745.700,2500.8070368,N,12132.4257051,E,4,48,0.57,17.027,M,15.25,M,0,3335*4B
$GNRMC,030745.700,A,2500.8070368,N,12132.4257051,E,0.06,48.20,030324,,,R,V*23
$GPHDT,,T*1B
$GNACCURACY,4.7*15
$GNGGA,030745.800,2500.8070253,N,12132.4257121,E,4,48,0.57,17.079,M,15.25,M,0,3335*40
$GNRMC,030745.800,A,2500.8070253,N,12132.4257121,E,0.25,48.20,030324,,,R,V*22
$GPHDT,133.367,T*36
$GNACCURACY,4.7*15
$GNGGA,030745.900,2500.8070272,N,12132.4257238,E,4,48,0.57,17.117,M,15.25,M,0,3335*40
$GNRMC,030745.900,A,2500.8070272,N,12132.4257238,E,0.38,48.20,030324,,,R,V*27
$GPHDT,,T*1B
$GNACCURACY,4.7*15
$GNGGA,030746.000,2500.8070082,N,12132.4257293,E,4,48,0.57,17.115,M,15.25,M,1,3335*45
$GNRMC,030746.000,A,2500.8070082,N,12132.4257293,E,0.58,146.31,030324,,,R,V*18
$GPHDT,132.301,T*37
$GNACCURACY,4.7*15
$GNGGA,030746.100,2500.8069923,N,12132.4257552,E,4,49,0.57,17.124,M,15.25,M,1,3335*47
$GNRMC,030746.100,A,2500.8069923,N,12132.4257552,E,0.78,128.13,030324,,,R,V*13
$GPHDT,,T*1B
$GNGSA,A,3,27,08,194,199,195,16,31,09,26,,,,1.02,0.57,0.85,1*38
$GNGSA,A,3,82,81,79,80,69,,,,,,,,1.02,0.57,0.85,2*04
$GNGSA,A,3,30,07,34,15,36,,,,,,,,1.02,0.57,0.85,3*0D
$GNGSA,A,3,16,06,39,40,09,12,07,34,24,10,44,25,1.02,0.57,0.85,4*0D
$GNGSA,A,3,26,,,,,,,,,,,,1.02,0.57,0.85,4*0C
$GPGSV,4,1,13,27,71,020,44,08,64,241,34,194,63,042,44,199,60,167,36,1*65
$GPGSV,4,2,13,195,50,130,41,04,47,238,14,16,43,032,42,31,31,124,42,1*52
$GPGSV,4,3,13,09,31,291,31,26,26,065,39,196,24,177,,21,19,178,,1*57
$GPGSV,4,4,13,07,09,317,,1*5D
$GPGSV,2,1,08,27,71,020,48,08,64,241,33,194,63,042,44,199,60,167,46,8*6C
$GPGSV,2,2,08,195,50,130,43,09,31,291,25,26,26,065,41,196,24,177,08,8*69
$GLGSV,2,1,05,82,61,132,41,81,41,046,42,79,39,050,38,80,34,341,29,1*76
$GLGSV,2,2,05,69,16,220,18,1*4C
$GAGSV,2,1,07,30,52,001,40,07,46,258,25,34,39,101,43,08,30,190,,7*72
$GAGSV,2,2,07,27,29,294,22,15,26,162,17,36,15,049,17,7*4C
$GAGSV,1,1,04,30,52,001,44,07,46,258,23,34,39,101,43,27,29,294,26,1*70
$GBGSV,4,1,16,16,88,103,44,06,86,332,43,39,77,151,43,40,71,294,44,1*79
$GBGSV,4,2,16,09,70,327,40,12,65,083,44,07,65,275,41,34,65,170,44,1*73
$GBGSV,4,3,16,24,56,057,43,10,53,261,22,44,46,053,41,11,43,189,12,1*71
$GBGSV,4,4,16,25,40,327,36,43,22,204,,26,18,102,41,33,15,230,,1*7E
$GBGSV,2,1,07,39,77,151,44,40,71,294,44,34,65,170,43,24,56,057,48,4*7B
$GBGSV,2,2,07,44,46,053,43,25,40,327,30,26,18,102,42,4*49
$GNACCURACY,4.7*15
$PAIRSAT,1,28,4,0,21,7,0,201,8,0,221,9,0,221,10,0,200,11,0,200,12,0,200,13,0,200,14,0,200,15,0,200,16,0,201,17,0,200,18,0,200,19,0,200,21,0,201,22,0,200,23,0,200,24,0,200,26,0,21,27,0,21,29,0,200,30,0,200,31,0,201,32,0,200,194,0,621,195,0,621,196,0,620,199,0,621*44
$PAIRSAT,2,17,69,0,1,70,0,200,71,0,200,72,0,200,73,0,200,74,0,200,75,0,200,76,0,200,77,0,200,78,0,200,79,0,201,80,0,201,81,0,201,82,0,201,83,0,200,84,0,200,88,0,200*57
$PAIRSAT,3,22,2,0,1200,3,0,1200,4,0,1200,5,0,200,7,0,1021,8,0,1021,9,0,1000,10,0,1000,12,0,1000,13,0,1000,15,0,1221,19,0,1200,21,0,1200,24,0,200,25,0,1200,26,0,1000,27,0,1200,30,0,1221,31,0,1200,33,0,1200,34,0,1221,36,0,221*76
$PAIRSAT,4,46,1,0,200,2,0,200,3,0,600,4,0,200,5,0,200,6,0,201,7,0,201,8,0,200,9,0,201,10,0,201,11,0,201,12,0,201,13,0,200,14,0,200,16,0,1,19,0,400,20,0,400,21,0,600,22,0,600,23,0,600,24,0,621,25,0,621,26,0,621,27,0,600,28,0,400,29,0,600,30,0,600,32,0,600,33,0,621,34,0,621,35,0,400,36,0,400,37,0,400,38,0,400,39,0,421,40,0,421,41,0,400,42,0,400,43,0,421,44,0,421,45,0,400,46,0,400,59,0,400,60,0,400,61,0,400,62,0,400*4B
$PAIRDGP,3,16,21,31*6C
$GNGGA,030746.200,2500.8069872,N,12132.4257904,E,4,49,0.57,17.118,M,15.25,M,1,3335*41
$GNRMC,030746.200,A,2500.8069872,N,12132.4257904,E,0.78,120.40,030324,,,R,V*14
$GPHDT,135.738,T*3E
$GNACCURACY,4.7*15
$GNGGA,030746.300,2500.8069692,N,12132.4258089,E,4,49,0.57,17.115,M,15.25,M,1,3335*4E
$GNRMC,030746.300,A,2500.8069692,N,12132.4258089,E,0.80,123.54,030324,,,R,V*17
$GPHDT,,T*1B
$GNACCURACY,4.7*15
$GNGGA,030746.400,2500.8069453,N,12132.4258174,E,4,49,0.57,17.058,M,15.25,M,1,3335*4D
$GNRMC,030746.400,A,2500.8069453,N,12132.4258174,E,0.84,127.72,030324,,,R,V*18
$GPHDT,138.332,T*3D
$GNACCURACY,4.7*15
$GNGGA,030746.500,2500.8069221,N,12132.4258403,E,4,49,0.57,17.075,M,15.25,M,1,3335*45
$GNRMC,030746.500,A,2500.8069221,N,12132.4258403,E,0.87,130.84,030324,,,R,V*13
$GPHDT,,T*1B
$GNACCURACY,4.7*15
$GNGGA,030746.600,2500.8068943,N,12132.4258690,E,4,49,0.57,17.096,M,15.25,M,0,3335*4C
$GNRMC,030746.600,A,2500.8068943,N,12132.4258690,E,0.92,133.63,030324,,,R,V*18
$GPHDT,137.815,T*3C
$GNACCURACY,4.7*15
$GNGGA,030746.700,2500.8068762,N,12132.4258992,E,4,49,0.57,17.113,M,15.25,M,0,3335*41
$GNRMC,030746.700,A,2500.8068762,N,12132.4258992,E,0.96,134.18,030324,,,R,V*16
$GPHDT,,T*1B
$GNACCURACY,4.6*14
$GNGGA,030746.800,2500.8068543,N,12132.4259225,E,4,49,0.57,17.111,M,15.25,M,0,3335*4B
$GNRMC,030746.800,A,2500.8068543,N,12132.4259225,E,0.95,133.09,030324,,,R,V*1A
$GPHDT,137.485,T*39
$GNACCURACY,4.6*14
$GNGGA,030746.900,2500.8068318,N,12132.4259628,E,4,49,0.57,17.143,M,15.25,M,0,3335*4C
$GNRMC,030746.900,A,2500.8068318,N,12132.4259628,E,0.98,133.40,030324,,,R,V*1A
$GPHDT,,T*1B
$GNACCURACY,4.6*14
$GNGGA,030747.000,2500.8068106,N,12132.4260014,E,4,50,0.55,17.128,M,15.25,M,1,3335*4C
$GNRMC,030747.000,A,2500.8068106,N,12132.4260014,E,1.01,132.59,030324,,,R,V*14
$GPHDT,139.002,T*3C
$GNACCURACY,4.6*14
$GNGGA,030747.100,2500.8067880,N,12132.4260386,E,4,49,0.57,17.112,M,15.25,M,1,3335*4E
$GNRMC,030747.100,A,2500.8067880,N,12132.4260386,E,1.04,132.27,030324,,,R,V*19
$GPHDT,,T*1B
$GNGSA,A,3,27,08,194,199,195,16,31,09,26,,,,1.02,0.57,0.85,1*38
$GNGSA,A,3,82,81,79,80,69,,,,,,,,1.02,0.57,0.85,2*04
$GNGSA,A,3,30,07,34,15,36,,,,,,,,1.02,0.57,0.85,3*0D
$GNGSA,A,3,16,06,39,40,09,12,07,34,24,10,44,25,1.02,0.57,0.85,4*0D
$GNGSA,A,3,26,,,,,,,,,,,,1.02,0.57,0.85,4*0C
$GPGSV,4,1,13,27,71,020,47,08,64,241,30,194,63,042,41,199,60,167,35,1*64
$GPGSV,4,2,13,195,50,130,41,04,47,238,17,16,43,032,41,31,31,124,39,1*5E
$GPGSV,4,3,13,09,31,291,32,26,26,065,39,196,24,177,,21,19,178,,1*54
$GPGSV,4,4,13,07,09,317,,1*5D
$GPGSV,2,1,07,27,71,020,48,08,64,241,34,194,63,042,46,199,60,167,46,8*66
$GPGSV,2,2,07,195,50,130,43,09,31,291,29,26,26,065,38,8*65
$GLGSV,2,1,05,82,61,132,42,81,41,046,39,79,39,050,37,80,34,341,29,1*76
$GLGSV,2,2,05,69,16,220,21,1*46
$GAGSV,2,1,07,30,52,001,40,07,46,258,21,34,39,101,42,08,30,190,,7*77
$GAGSV,2,2,07,27,29,294,25,15,26,162,18,36,15,049,15,7*46
$GAGSV,1,1,04,30,52,001,44,07,46,258,27,34,39,101,46,27,29,294,20,1*77
$GBGSV,4,1,16,16,88,103,44,06,86,332,43,39,77,151,43,40,71,294,43,1*7E
$GBGSV,4,2,16,09,70,327,43,12,65,083,45,07,65,275,41,34,65,170,46,1*73
$GBGSV,4,3,16,24,56,057,43,10,53,261,23,44,46,053,39,11,43,189,14,1*79
$GBGSV,4,4,16,25,40,327,38,43,22,204,,26,18,102,39,33,15,230,,1*7F
$GBGSV,2,1,07,39,77,151,43,40,71,294,44,34,65,170,43,24,56,057,44,4*70
$GBGSV,2,2,07,44,46,053,42,25,40,327,34,26,18,102,40,4*4E
$GNACCURACY,4.6*14
$PAIRSAT,1,28,4,0,21,7,0,201,8,0,221,9,0,221,10,0,200,11,0,200,12,0,200,13,0,200,14,0,200,15,0,200,16,0,201,17,0,200,18,0,200,19,0,200,21,0,201,22,0,200,23,0,200,24,0,200,26,0,21,27,0,21,29,0,200,30,0,200,31,0,201,32,0,200,194,0,621,195,0,621,196,0,620,199,0,621*44
$PAIRSAT,2,17,69,0,1,70,0,200,71,0,200,72,0,200,73,0,200,74,0,200,75,0,200,76,0,200,77,0,200,78,0,200,79,0,201,80,0,201,81,0,201,82,0,201,83,0,200,84,0,200,88,0,200*57
$PAIRSAT,3,22,2,0,1200,3,0,1200,4,0,1200,5,0,200,7,0,1021,8,0,1021,9,0,1000,10,0,1000,12,0,1000,13,0,1000,15,0,1221,19,0,1200,21,0,1200,24,0,200,25,0,1200,26,0,1000,27,0,1200,30,0,1221,31,0,1200,33,0,1200,34,0,1221,36,0,221*76
$PAIRSAT,4,46,1,0,200,2,0,200,3,0,600,4,0,200,5,0,200,6,0,201,7,0,201,8,0,200,9,0,201,10,0,201,11,0,201,12,0,201,13,0,200,14,0,200,16,0,1,19,0,400,20,0,400,21,0,600,22,0,600,23,0,600,24,0,621,25,0,621,26,0,621,27,0,600,28,0,400,29,0,600,30,0,600,32,0,600,33,0,621,34,0,621,35,0,400,36,0,400,37,0,400,38,0,400,39,0,421,40,0,421,41,0,400,42,0,400,43,0,421,44,0,421,45,0,400,46,0,400,59,0,400,60,0,400,61,0,400,62,0,400*4B
$PAIRDGP,3,16,21,31*6C
$GNGGA,030747.200,2500.8067645,N,12132.4260743,E,4,49,0.57,17.153,M,15.25,M,1,3335*42
$GNRMC,030747.200,A,2500.8067645,N,12132.4260743,E,1.08,132.45,030324,,,R,V*18
$GPHDT,139.670,T*3F
$GNACCURACY,4.6*14
$GNGGA,030747.300,2500.8067297,N,12132.4261015,E,4,49,0.57,17.135,M,15.25,M,1,3335*4D
$GNRMC,030747.300,A,2500.8067297,N,12132.4261015,E,1.11,133.01,030324,,,R,V*1E
$GPHDT,,T*1B
$GNACCURACY,4.6*14
$GNGGA,030747.400,2500.8067044,N,12132.4261192,E,4,48,0.57,17.092,M,15.25,M,1,3335*45
$GNRMC,030747.400,A,2500.8067044,N,12132.4261192,E,1.12,133.32,030324,,,R,V*18
$GPHDT,140.528,T*3F
$GNACCURACY,4.6*14
$GNGGA,030747.500,2500.8066724,N,12132.4261517,E,4,48,0.57,17.097,M,15.25,M,0,3335*49
$GNRMC,030747.500,A,2500.8066724,N,12132.4261517,E,1.15,133.91,030324,,,R,V*1E
$GPHDT,,T*1B
$GNACCURACY,4.6*14
$GNGGA,030747.600,2500.8066338,N,12132.4261809,E,4,48,0.57,17.102,M,15.25,M,0,3335*4C
$GNRMC,030747.600,A,2500.8066338,N,12132.4261809,E,1.20,135.53,030324,,,R,V*18
$GPHDT,141.002,T*33
$GNACCURACY,4.5*17
$GNGGA,030747.700,2500.8065982,N,12132.4262127,E,4,47,0.59,17.131,M,15.25,M,0,3335*42
$GNRMC,030747.700,A,2500.8065982,N,12132.4262127,E,1.24,136.84,030324,,,R,V*1A
$GPHDT,,T*1B
$GNACCURACY,4.5*17
$GNGGA,030747.800,2500.8065600,N,12132.4262283,E,4,47,0.59,17.119,M,15.25,M,0,3335*4F
$GNRMC,030747.800,A,2500.8065600,N,12132.4262283,E,1.25,138.60,030324,,,R,V*18
$GPHDT,138.872,T*32
$GNACCURACY,4.5*17
$GNGGA,030747.900,2500.8065195,N,12132.4262647,E,4,47,0.59,17.131,M,15.25,M,0,3335*43
$GNRMC,030747.900,A,2500.8065195,N,12132.4262647,E,1.29,139.28,030324,,,R,V*1F
$GPHDT,,T*1B
$GNACCURACY,4.5*17
$GNGGA,030748.000,2500.8064922,N,12132.4262925,E,4,48,0.58,17.100,M,15.25,M,1,3335*46
$GNRMC,030748.000,A,2500.8064922,N,12132.4262925,E,1.34,138.81,030324,,,R,V*19
$GPHDT,138.421,T*38
$GNACCURACY,4.5*17
$GNGGA,030748.100,2500.8064580,N,12132.4263313,E,4,48,0.58,17.101,M,15.25,M,1,3335*4C
$GNRMC,030748.100,A,2500.8064580,N,12132.4263313,E,1.41,138.01,030324,,,R,V*18
$GPHDT,,T*1B
$GNGSA,A,3,27,08,194,199,195,16,31,26,,,,,0.88,0.59,0.66,1*31
$GNGSA,A,3,82,81,79,80,69,,,,,,,,0.88,0.59,0.66,2*04
$GNGSA,A,3,30,07,34,15,36,,,,,,,,0.88,0.59,0.66,3*0D
$GNGSA,A,3,16,06,39,40,09,12,07,34,24,10,44,25,0.88,0.59,0.66,4*0D
$GNGSA,A,3,26,,,,,,,,,,,,0.88,0.59,0.66,4*0C
$GPGSV,4,1,13,27,71,020,45,08,64,241,29,194,63,042,44,199,60,167,35,1*6B
$GPGSV,4,2,13,195,50,130,42,04,47,238,21,16,43,032,44,31,31,124,43,1*50
$GPGSV,4,3,13,09,31,291,23,26,26,065,38,196,24,177,,21,19,178,,1*55
$GPGSV,4,4,13,07,09,317,17,1*5B
$GPGSV,2,1,06,27,71,020,48,08,64,241,30,194,63,042,45,199,60,167,46,8*60
$GPGSV,2,2,06,195,50,130,43,26,26,065,41,8*50
$GLGSV,2,1,05,82,61,132,42,81,41,046,41,79,39,050,40,80,34,341,33,1*72
$GLGSV,2,2,05,69,16,220,21,1*46
$GAGSV,2,1,07,30,52,001,43,07,46,258,20,34,39,101,43,08,30,190,,7*74
$GAGSV,2,2,07,27,29,294,22,15,26,162,17,36,15,049,17,7*4C
$GAGSV,1,1,04,30,52,001,46,07,46,258,24,34,39,101,44,27,29,294,27,1*73
$GBGSV,4,1,16,16,88,105,44,06,86,332,43,39,77,151,43,40,71,294,43,1*78
$GBGSV,4,2,16,09,70,327,41,12,65,083,46,07,65,275,42,34,65,170,47,1*70
$GBGSV,4,3,16,24,56,057,46,10,53,261,25,44,46,053,42,11,43,189,12,1*70
$GBGSV,4,4,16,25,40,327,36,43,22,204,,26,18,102,42,33,15,230,,1*7D
$GBGSV,2,1,07,39,77,151,43,40,71,294,45,34,65,170,43,24,56,057,46,4*73
$GBGSV,2,2,07,44,46,053,43,25,40,327,29,26,18,102,38,4*4C
$GNACCURACY,4.5*17
$PAIRSAT,1,28,4,0,21,7,0,201,8,0,221,9,0,221,10,0,200,11,0,200,12,0,200,13,0,200,14,0,200,15,0,200,16,0,201,17,0,200,18,0,200,19,0,200,21,0,201,22,0,200,23,0,200,24,0,200,26,0,21,27,0,21,29,0,200,30,0,200,31,0,201,32,0,200,194,0,621,195,0,621,196,0,620,199,0,621*44
$PAIRSAT,2,17,69,0,1,70,0,200,71,0,200,72,0,200,73,0,200,74,0,200,75,0,200,76,0,200,77,0,200,78,0,200,79,0,201,80,0,201,81,0,201,82,0,201,83,0,200,84,0,200,88,0,200*57
$PAIRSAT,3,22,2,0,1200,3,0,1200,4,0,1200,5,0,200,7,0,1021,8,0,1021,9,0,1000,10,0,1000,12,0,1000,13,0,1000,15,0,1221,19,0,1200,21,0,1200,24,0,200,25,0,1200,26,0,1000,27,0,1200,30,0,1221,31,0,1200,33,0,1200,34,0,1221,36,0,221*76
$PAIRSAT,4,46,1,0,200,2,0,200,3,0,600,4,0,200,5,0,200,6,0,201,7,0,201,8,0,200,9,0,201,10,0,201,11,0,201,12,0,201,13,0,200,14,0,200,16,0,1,19,0,400,20,0,400,21,0,600,22,0,600,23,0,600,24,0,621,25,0,621,26,0,621,27,0,600,28,0,400,29,0,600,30,0,600,32,0,600,33,0,621,34,0,621,35,0,400,36,0,400,37,0,400,38,0,400,39,0,421,40,0,421,41,0,400,42,0,400,43,0,421,44,0,421,45,0,400,46,0,400,59,0,400,60,0,400,61,0,400,62,0,400*4B
$PAIRDGP,3,16,21,31*6C
$GNGGA,030748.200,2500.8064241,N,12132.4263704,E,4,47,0.59,17.084,M,15.25,M,1,3335*45
$GNRMC,030748.200,A,2500.8064241,N,12132.4263704,E,1.45,137.22,030324,,,R,V*19
$GPHDT,138.412,T*38
$GNACCURACY,4.5*17
$GNGGA,030748.300,2500.8063912,N,12132.4264196,E,4,47,0.59,17.098,M,15.25,M,1,3335*49
$GNRMC,030748.300,A,2500.8063912,N,12132.4264196,E,1.49,135.90,030324,,,R,V*1F
$GPHDT,,T*1B
$GNACCURACY,4.5*17
$GNGGA,030748.400,2500.8063591,N,12132.4264636,E,4,47,0.59,17.094,M,15.25,M,1,3335*48
$GNRMC,030748.400,A,2500.8063591,N,12132.4264636,E,1.55,135.71,030324,,,R,V*10
$GPHDT,139.175,T*3D
$GNACCURACY,4.5*17
$GNGGA,030748.500,2500.8063276,N,12132.4265006,E,4,47,0.59,17.131,M,15.25,M,1,3335*4D
$GNRMC,030748.500,A,2500.8063276,N,12132.4265006,E,1.62,135.15,030324,,,R,V*1D
$GPHDT,,T*1B
$GNACCURACY,4.6*14
$GNGGA,030748.600,2500.8062857,N,12132.4265354,E,4,48,0.57,17.141,M,15.25,M,0,3335*45
$GNRMC,030748.600,A,2500.8062857,N,12132.4265354,E,1.62,135.58,030324,,,R,V*1B
$GPHDT,138.238,T*36
$GNACCURACY,4.6*14
$GNGGA,030748.700,2500.8062527,N,12132.4265694,E,4,48,0.57,17.098,M,15.25,M,0,3335*42
$GNRMC,030748.700,A,2500.8062527,N,12132.4265694,E,1.62,135.24,030324,,,R,V*12
$GPHDT,,T*1B
$GNACCURACY,4.6*14
$GNGGA,030748.800,2500.8062180,N,12132.4266112,E,4,48,0.57,17.097,M,15.25,M,0,3335*41
$GNRMC,030748.800,A,2500.8062180,N,12132.4266112,E,1.63,135.15,030324,,,R,V*1D
$GPHDT,139.594,T*36
$GNACCURACY,4.6*14
$GNGGA,030748.900,2500.8061841,N,12132.4266398,E,4,48,0.57,17.096,M,15.25,M,0,3335*46
$GNRMC,030748.900,A,2500.8061841,N,12132.4266398,E,1.66,135.76,030324,,,R,V*1B
$GPHDT,,T*1B
$GNACCURACY,4.6*14
$GNGGA,030749.000,2500.8061442,N,12132.4266800,E,4,47,0.59,17.111,M,15.25,M,1,3335*45
$GNRMC,030749.000,A,2500.8061442,N,12132.4266800,E,1.67,136.61,030324,,,R,V*12
$GPHDT,139.334,T*3A
$GNACCURACY,4.6*14
$GNGGA,030749.100,2500.8061146,N,12132.4267207,E,4,47,0.59,17.129,M,15.25,M,1,3335*42
$GNRMC,030749.100,A,2500.8061146,N,12132.4267207,E,1.67,136.37,030324,,,R,V*1D
$GPHDT,,T*1B
$GNGSA,A,3,27,08,194,199,195,16,31,26,,,,,0.88,0.59,0.66,1*31
$GNGSA,A,3,82,81,79,80,69,,,,,,,,0.88,0.59,0.66,2*04
$GNGSA,A,3,30,07,34,15,36,,,,,,,,0.88,0.59,0.66,3*0D
$GNGSA,A,3,16,06,39,40,09,12,07,34,24,10,44,25,0.88,0.59,0.66,4*0D
$GNGSA,A,3,26,,,,,,,,,,,,0.88,0.59,0.66,4*0C
$GPGSV,4,1,13,27,71,020,45,08,64,241,26,194,63,042,43,199,60,167,36,1*60
$GPGSV,4,2,13,195,50,130,42,04,47,238,18,16,43,032,46,31,31,124,43,1*58
$GPGSV,4,3,13,09,31,291,30,26,26,065,37,196,24,177,,21,19,178,,1*58
$GPGSV,4,4,13,07,09,317,17,1*5B
$GPGSV,2,1,06,27,71,020,47,08,64,241,28,194,63,042,47,199,60,167,44,8*66
$GPGSV,2,2,06,195,50,130,46,26,26,065,42,8*56
$GLGSV,2,1,05,82,61,132,43,81,41,046,42,79,39,050,40,80,34,341,27,1*75
$GLGSV,2,2,05,69,16,220,18,1*4C
$GAGSV,2,1,07,30,52,001,38,07,46,258,20,34,39,101,40,08,30,190,,7*7B
$GAGSV,2,2,07,27,29,294,19,15,26,162,17,36,15,049,19,7*4A
$GAGSV,1,1,04,30,52,001,44,07,46,258,25,34,39,101,44,27,29,294,30,1*76
$GBGSV,4,1,16,16,88,105,44,06,86,332,43,39,77,151,43,40,71,294,41,1*7A
$GBGSV,4,2,16,09,70,327,41,12,65,083,45,07,65,275,43,34,65,170,47,1*72
$GBGSV,4,3,16,24,56,057,46,10,53,261,25,44,46,053,40,11,43,189,,1*71
$GBGSV,4,4,16,25,40,327,25,43,22,204,,26,18,102,39,33,15,230,,1*73
$GBGSV,2,1,07,39,77,151,45,40,71,294,45,34,65,170,44,24,56,057,46,4*72
$GBGSV,2,2,07,44,46,053,43,25,40,327,29,26,18,102,36,4*42
$GNACCURACY,4.6*14
$PAIRSAT,1,28,4,0,21,7,0,201,8,0,221,9,0,221,10,0,200,11,0,200,12,0,200,13,0,200,14,0,200,15,0,200,16,0,201,17,0,200,18,0,200,19,0,200,21,0,201,22,0,200,23,0,200,24,0,200,26,0,21,27,0,21,29,0,200,30,0,200,31,0,201,32,0,200,194,0,621,195,0,621,196,0,620,199,0,621*44
$PAIRSAT,2,17,69,0,1,70,0,200,71,0,200,72,0,200,73,0,200,74,0,200,75,0,200,76,0,200,77,0,200,78,0,200,79,0,201,80,0,201,81,0,201,82,0,201,83,0,200,84,0,200,88,0,200*57
$PAIRSAT,3,22,2,0,1200,3,0,1200,4,0,1200,5,0,200,7,0,1021,8,0,1021,9,0,1000,10,0,1000,12,0,1000,13,0,1000,15,0,1221,19,0,1200,21,0,1200,24,0,200,25,0,1200,26,0,1000,27,0,1200,30,0,1221,31,0,1200,33,0,1200,34,0,1221,36,0,221*76
$PAIRSAT,4,46,1,0,200,2,0,200,3,0,600,4,0,200,5,0,200,6,0,201,7,0,201,8,0,200,9,0,201,10,0,201,11,0,201,12,0,201,13,0,200,14,0,200,16,0,1,19,0,400,20,0,400,21,0,600,22,0,600,23,0,600,24,0,621,25,0,621,26,0,621,27,0,600,28,0,400,29,0,600,30,0,600,32,0,600,33,0,621,34,0,621,35,0,400,36,0,400,37,0,400,38,0,400,39,0,421,40,0,421,41,0,400,42,0,400,43,0,421,44,0,421,45,0,400,46,0,400,59,0,400,60,0,400,61,0,400,62,0,400*4B
$PAIRDGP,3,16,21,31*6C
$GNGGA,030749.200,2500.8060866,N,12132.4267497,E,4,47,0.59,17.073,M,15.25,M,1,3335*4A
$GNRMC,030749.200,A,2500.8060866,N,12132.4267497,E,1.66,136.38,030324,,,R,V*15
$GPHDT,140.907,T*3E
$GNACCURACY,4.7*15
$GNGGA,030749.300,2500.8060511,N,12132.4267963,E,4,49,0.57,17.122,M,15.25,M,1,3335*45
$GNRMC,030749.300,A,2500.8060511,N,12132.4267963,E,1.67,136.70,030324,,,R,V*12
$GPHDT,,T*1B
$GNACCURACY,4.7*15
$GNGGA,030749.400,2500.8060100,N,12132.4268292,E,4,49,0.57,17.018,M,15.25,M,1,3335*44
$GNRMC,030749.400,A,2500.8060100,N,12132.4268292,E,1.68,136.87,030324,,,R,V*1C
$GPHDT,139.655,T*38
$GNACCURACY,4.7*15
$GNGGA,030749.500,2500.8059796,N,12132.4268777,E,4,49,0.57,17.000,M,15.25,M,1,3335*41
$GNRMC,030749.500,A,2500.8059796,N,12132.4268777,E,1.70,136.16,030324,,,R,V*11
$GPHDT,,T*1B
$GNACCURACY,4.7*15
$GNGGA,030749.600,2500.8059435,N,12132.4269222,E,4,49,0.57,17.015,M,15.25,M,0,3335*49
$GNRMC,030749.600,A,2500.8059435,N,12132.4269222,E,1.72,134.54,030324,,,R,V*1A
$GPHDT,139.057,T*3C
$GNACCURACY,4.7*15
$GNGGA,030749.700,2500.8059150,N,12132.4269688,E,4,49,0.57,17.039,M,15.25,M,0,3335*44
$GNRMC,030749.700,A,2500.8059150,N,12132.4269688,E,1.74,133.96,030324,,,R,V*16
$GPHDT,,T*1B
$GNACCURACY,4.7*15
$GNGGA,030749.800,2500.8058768,N,12132.4270168,E,4,49,0.57,17.091,M,15.25,M,0,3335*44
$GNRMC,030749.800,A,2500.8058768,N,12132.4270168,E,1.75,133.65,030324,,,R,V*19
$GPHDT,140.427,T*31
$GNACCURACY,4.7*15
$GNGGA,030749.900,2500.8058483,N,12132.4270543,E,4,49,0.57,17.048,M,15.25,M,0,3335*4A
$GNRMC,030749.900,A,2500.8058483,N,12132.4270543,E,1.77,133.67,030324,,,R,V*13
$GPHDT,,T*1B
$GNACCURACY,4.6*14
$GNGGA,030750.000,2500.8058094,N,12132.4271038,E,4,48,0.57,17.068,M,15.25,M,1,3335*43
$GNRMC,030750.000,A,2500.8058094,N,12132.4271038,E,1.81,134.26,030324,,,R,V*13
$GPHDT,141.197,T*3E
$GNACCURACY,4.6*14
$GNGGA,030750.100,2500.8057651,N,12132.4271436,E,4,48,0.57,17.049,M,15.25,M,1,3335*4B
$GNRMC,030750.100,A,2500.8057651,N,12132.4271436,E,1.82,134.96,030324,,,R,V*10
$GPHDT,,T*1B
$GNGSA,A,3,27,08,194,199,195,16,31,09,26,,,,0.86,0.57,0.65,1*3B
$GNGSA,A,3,82,81,79,80,69,,,,,,,,0.86,0.57,0.65,2*07
$GNGSA,A,3,30,07,34,15,36,,,,,,,,0.86,0.57,0.65,3*0E
$GNGSA,A,3,16,06,39,40,09,12,07,34,24,10,44,25,0.86,0.57,0.65,4*0E
$GNGSA,A,3,26,,,,,,,,,,,,0.86,0.57,0.65,4*0F
$GPGSV,4,1,13,27,71,020,46,08,64,241,26,194,63,042,41,199,60,167,36,1*61
$GPGSV,4,2,13,195,50,130,43,04,47,238,20,16,43,032,46,31,31,124,44,1*55
$GPGSV,4,3,13,09,31,291,30,26,26,065,33,196,24,177,20,21,19,178,,1*5E
$GPGSV,4,4,13,07,09,317,18,1*54
$GPGSV,2,1,07,27,71,020,46,08,64,241,29,194,63,042,46,199,60,167,44,8*66
$GPGSV,2,2,07,195,50,130,45,09,31,291,27,26,26,065,37,8*62
$GLGSV,2,1,05,82,61,132,42,81,41,046,43,79,39,050,43,80,34,341,32,1*72
$GLGSV,2,2,05,69,16,220,22,1*45
$GAGSV,2,1,07,30,52,001,41,07,46,258,22,34,39,101,37,08,30,190,,7*77
$GAGSV,2,2,07,27,29,294,17,15,26,162,15,36,15,049,19,7*46
$GAGSV,1,1,04,30,52,001,43,07,46,258,25,34,39,101,43,27,29,294,25,1*72
$GBGSV,4,1,16,16,88,105,44,06,86,332,43,39,77,151,44,40,71,294,42,1*7E
$GBGSV,4,2,16,09,70,327,43,12,65,083,41,07,65,275,43,34,65,170,44,1*77
$GBGSV,4,3,16,24,56,057,46,10,53,261,25,44,46,053,44,11,43,189,,1*75
$GBGSV,4,4,16,25,40,327,25,43,22,204,,26,18,102,32,33,14,230,,1*79
$GBGSV,2,1,07,39,77,151,46,40,71,294,45,34,65,170,44,24,56,057,47,4*70
$GBGSV,2,2,07,44,46,053,44,25,40,327,26,26,18,102,30,4*4C
$GNACCURACY,4.6*14
$PAIRSAT,1,28,4,0,21,7,0,201,8,0,221,9,0,221,10,0,200,11,0,200,12,0,200,13,0,200,14,0,200,15,0,200,16,0,201,17,0,200,18,0,200,19,0,200,21,0,201,22,0,200,23,0,200,24,0,200,26,0,21,27,0,21,29,0,200,30,0,200,31,0,201,32,0,200,194,0,621,195,0,621,196,0,620,199,0,621*44
$PAIRSAT,2,17,69,0,1,70,0,200,71,0,200,72,0,200,73,0,200,74,0,200,75,0,200,76,0,200,77,0,200,78,0,200,79,0,201,80,0,201,81,0,201,82,0,201,83,0,200,84,0,200,88,0,200*57
$PAIRSAT,3,22,2,0,1200,3,0,1200,4,0,1200,5,0,200,7,0,1021,8,0,1021,9,0,1000,10,0,1000,12,0,1000,13,0,1000,15,0,1221,19,0,1200,21,0,1200,24,0,200,25,0,1200,26,0,1000,27,0,1200,30,0,1221,31,0,1200,33,0,1200,34,0,1221,36,0,221*76
$PAIRSAT,4,46,1,0,200,2,0,200,3,0,600,4,0,200,5,0,200,6,0,201,7,0,201,8,0,200,9,0,201,10,0,201,11,0,201,12,0,201,13,0,200,14,0,200,16,0,1,19,0,400,20,0,400,21,0,600,22,0,600,23,0,600,24,0,621,25,0,621,26,0,621,27,0,600,28,0,400,29,0,600,30,0,600,32,0,600,33,0,621,34,0,621,35,0,400,36,0,400,37,0,400,38,0,400,39,0,421,40,0,421,41,0,400,42,0,400,43,0,421,44,0,421,45,0,400,46,0,400,59,0,400,60,0,400,61,0,400,62,0,400*4B
$PAIRDGP,3,16,21,31*6C
$GNGGA,030750.200,2500.8057220,N,12132.4271763,E,4,49,0.57,17.059,M,15.25,M,1,3335*49
$GNRMC,030750.200,A,2500.8057220,N,12132.4271763,E,1.82,135.78,030324,,,R,V*13
$GPHDT,139.132,T*3E
$GNACCURACY,4.7*15
$GNGGA,030750.300,2500.8056736,N,12132.4272201,E,4,49,0.57,17.095,M,15.25,M,1,3335*49
$GNRMC,030750.300,A,2500.8056736,N,12132.4272201,E,1.85,136.45,030324,,,R,V*19
$GPHDT,,T*1B
$GNACCURACY,4.6*14
$GNGGA,030750.400,2500.8056371,N,12132.4272659,E,4,49,0.57,17.147,M,15.25,M,1,3335*4E
$GNRMC,030750.400,A,2500.8056371,N,12132.4272659,E,1.81,137.13,030324,,,R,V*16
$GPHDT,139.527,T*3E
$GNACCURACY,4.6*14
$GNGGA,030750.500,2500.8055929,N,12132.4272858,E,4,48,0.57,17.081,M,15.25,M,0,3335*4F
$GNRMC,030750.500,A,2500.8055929,N,12132.4272858,E,1.82,137.38,030324,,,R,V*16
$GPHDT,,T*1B
$GNACCURACY,4.5*17
$GNGGA,030750.600,2500.8055562,N,12132.4273446,E,4,47,0.59,17.071,M,15.25,M,0,3335*43
$GNRMC,030750.600,A,2500.8055562,N,12132.4273446,E,1.84,136.71,030324,,,R,V*1E
$GPHDT,139.264,T*3E
$GNACCURACY,4.5*17
$GNGGA,030750.700,2500.8055235,N,12132.4273925,E,4,46,0.59,17.045,M,15.25,M,0,3335*49
$GNRMC,030750.700,A,2500.8055235,N,12132.4273925,E,1.87,135.55,030324,,,R,V*14
$GPHDT,,T*1B
$GNACCURACY,4.6*14
$GNGGA,030750.800,2500.8054821,N,12132.4274343,E,4,46,0.59,17.038,M,15.25,M,0,3335*4F
$GNRMC,030750.800,A,2500.8054821,N,12132.4274343,E,1.88,135.08,030324,,,R,V*1F
$GPHDT,140.754,T*36
$GNACCURACY,4.6*14
$GNGGA,030750.900,2500.8054380,N,12132.4274858,E,4,45,0.59,17.077,M,15.25,M,0,3335*47
$GNRMC,030750.900,A,2500.8054380,N,12132.4274858,E,1.89,134.58,030324,,,R,V*1A
$GPHDT,,T*1B
$GNACCURACY,4.5*17
$GNGGA,030751.000,2500.8053976,N,12132.4275263,E,4,46,0.57,17.048,M,15.25,M,1,3335*48
$GNRMC,030751.000,A,2500.8053976,N,12132.4275263,E,1.91,134.63,030324,,,R,V*14
$GPHDT,140.457,T*36
$GNACCURACY,4.4*16
$GNGGA,030751.100,2500.8053660,N,12132.4275710,E,4,47,0.57,17.064,M,15.25,M,1,3335*4F
$GNRMC,030751.100,A,2500.8053660,N,12132.4275710,E,1.90,134.38,030324,,,R,V*13
$GPHDT,,T*1B
$GNGSA,A,3,27,08,194,199,195,16,31,09,26,,,,0.86,0.57,0.65,1*3B
$GNGSA,A,3,82,81,79,80,69,,,,,,,,0.86,0.57,0.65,2*07
$GNGSA,A,3,30,34,15,36,07,,,,,,,,0.86,0.57,0.65,3*0E
$GNGSA,A,3,16,06,39,40,09,12,07,34,24,10,44,25,0.86,0.57,0.65,4*0E
$GNGSA,A,3,26,,,,,,,,,,,,0.86,0.57,0.65,4*0F
$GPGSV,4,1,13,27,71,020,46,08,64,241,26,194,63,042,41,199,60,167,36,1*61
$GPGSV,4,2,13,195,50,130,41,04,47,238,18,16,43,032,44,31,31,124,45,1*5F
$GPGSV,4,3,13,09,31,291,31,26,26,065,33,196,24,177,,21,19,178,,1*5D
$GPGSV,4,4,13,07,09,317,17,1*5B
$GPGSV,2,1,06,27,71,020,46,08,64,241,29,194,63,042,47,199,60,167,44,8*66
$GPGSV,2,2,06,195,50,130,44,26,26,065,38,8*59
$GLGSV,2,1,05,82,61,132,42,81,41,046,43,79,39,050,44,80,34,341,31,1*76
$GLGSV,2,2,05,69,16,220,19,1*4D
$GAGSV,2,1,07,30,52,001,42,07,46,258,,34,39,101,39,08,30,190,,7*7A
$GAGSV,2,2,07,27,29,294,23,15,26,162,15,36,15,049,19,7*41
$GAGSV,2,1,05,30,52,001,42,07,46,258,21,34,39,101,44,27,29,294,30,1*76
$GAGSV,2,2,05,36,15,049,17,1*4A
$GBGSV,4,1,16,16,88,105,44,06,86,332,42,39,77,151,44,40,71,294,44,1*79
$GBGSV,4,2,16,09,70,327,42,12,65,083,44,07,65,275,43,34,65,170,45,1*72
$GBGSV,4,3,16,24,56,057,47,10,53,261,22,44,46,053,45,11,43,189,,1*72
$GBGSV,4,4,16,25,40,327,29,43,22,204,,26,18,102,32,33,14,230,,1*75
$GBGSV,2,1,07,39,77,151,44,40,71,294,44,34,65,170,43,24,56,057,45,4*76
$GBGSV,2,2,07,44,46,053,44,25,40,327,26,26,18,102,28,4*45
$GNACCURACY,4.4*16
$PAIRSAT,1,28,4,0,21,7,0,201,8,0,221,9,0,221,10,0,200,11,0,200,12,0,200,13,0,200,14,0,200,15,0,200,16,0,201,17,0,200,18,0,200,19,0,200,21,0,201,22,0,200,23,0,200,24,0,200,26,0,21,27,0,21,29,0,200,30,0,200,31,0,201,32,0,200,194,0,621,195,0,621,196,0,620,199,0,621*44
$PAIRSAT,2,17,69,0,1,70,0,200,71,0,200,72,0,200,73,0,200,74,0,200,75,0,200,76,0,200,77,0,200,78,0,200,79,0,201,80,0,201,81,0,201,82,0,201,83,0,200,84,0,200,88,0,200*57
$PAIRSAT,3,22,2,0,1200,3,0,1200,4,0,1200,5,0,200,7,0,1021,8,0,1021,9,0,1000,10,0,1000,12,0,1000,13,0,1000,15,0,1221,19,0,1200,21,0,1200,24,0,200,25,0,1200,26,0,1000,27,0,1200,30,0,1221,31,0,1200,33,0,1200,34,0,1221,36,0,221*76
$PAIRSAT,4,46,1,0,200,2,0,200,3,0,600,4,0,200,5,0,200,6,0,201,7,0,201,8,0,200,9,0,201,10,0,201,11,0,201,12,0,201,13,0,200,14,0,200,16,0,201,19,0,400,20,0,400,21,0,600,22,0,600,23,0,600,24,0,621,25,0,621,26,0,621,27,0,600,28,0,400,29,0,600,30,0,600,32,0,600,33,0,621,34,0,621,35,0,400,36,0,400,37,0,400,38,0,400,39,0,421,40,0,421,41,0,400,42,0,400,43,0,421,44,0,421,45,0,400,46,0,400,59,0,400,60,0,400,61,0,400,62,0,400*49
$PAIRDGP,3,16,21,31*6C
$GNGGA,030751.200,2500.8053188,N,12132.4276053,E,4,48,0.57,17.041,M,15.25,M,1,3335*46
$GNRMC,030751.200,A,2500.8053188,N,12132.4276053,E,1.93,135.57,030324,,,R,V*19
$GPHDT,141.105,T*35
$GNACCURACY,4.4*16
$GNGGA,030751.300,2500.8052771,N,12132.4276554,E,4,48,0.57,17.038,M,15.25,M,1,3335*4A
$GNRMC,030751.300,A,2500.8052771,N,12132.4276554,E,1.95,135.81,030324,,,R,V*16
$GPHDT,,T*1B
$GNACCURACY,4.4*16
$GNGGA,030751.400,2500.8052347,N,12132.4276949,E,4,48,0.57,17.062,M,15.25,M,1,3335*43
$GNRMC,030751.400,A,2500.8052347,N,12132.4276949,E,1.96,137.17,030324,,,R,V*1E
$GPHDT,142.093,T*38
$GNACCURACY,4.4*16
$GNGGA,030751.500,2500.8051825,N,12132.4277329,E,4,48,0.57,17.117,M,15.25,M,1,3335*40
$GNRMC,030751.500,A,2500.8051825,N,12132.4277329,E,2.03,138.46,030324,,,R,V*1A
$GPHDT,,T*1B
$GNACCURACY,4.4*16
$GNGGA,030751.600,2500.8051537,N,12132.4277675,E,4,47,0.59,17.063,M,15.25,M,1,3335*42
$GNRMC,030751.600,A,2500.8051537,N,12132.4277675,E,1.95,137.75,030324,,,R,V*18
$GPHDT,141.204,T*37
$GNACCURACY,4.5*17
$GNGGA,030751.700,2500.8051111,N,12132.4277965,E,4,48,0.57,17.059,M,15.25,M,0,3335*44
$GNRMC,030751.700,A,2500.8051111,N,12132.4277965,E,1.86,142.51,030324,,,R,V*11
$GPHDT,,T*1B
$GNACCURACY,4.6*14
$GNGGA,030751.800,2500.8050686,N,12132.4278425,E,4,48,0.59,17.058,M,15.25,M,0,3335*4A
$GNRMC,030751.800,A,2500.8050686,N,12132.4278425,E,1.88,141.93,030324,,,R,V*13
$GPHDT,141.306,T*34
$GNACCURACY,4.5*17
$GNGGA,030751.900,2500.8050313,N,12132.4278916,E,4,49,0.57,17.050,M,15.25,M,0,3335*48
$GNRMC,030751.900,A,2500.8050313,N,12132.4278916,E,1.92,137.21,030324,,,R,V*15
$GPHDT,,T*1B
$GNACCURACY,4.5*17
$GNGGA,030752.000,2500.8049967,N,12132.4279453,E,4,49,0.57,17.045,M,15.25,M,1,3335*4B
$GNRMC,030752.000,A,2500.8049967,N,12132.4279453,E,2.01,129.59,030324,,,R,V*1A
$GPHDT,141.796,T*39
$GNACCURACY,4.5*17
$GNGGA,030752.100,2500.8049542,N,12132.4279785,E,4,49,0.57,17.050,M,15.25,M,1,3335*4D
$GNRMC,030752.100,A,2500.8049542,N,12132.4279785,E,2.04,131.99,030324,,,R,V*18
$GPHDT,,T*1B
$GNGSA,A,3,27,08,194,199,195,16,31,09,26,,,,0.86,0.57,0.65,1*3B
$GNGSA,A,3,82,81,79,80,69,,,,,,,,0.86,0.57,0.65,2*07
$GNGSA,A,3,30,07,34,15,36,,,,,,,,0.86,0.57,0.65,3*0E
$GNGSA,A,3,16,06,39,40,09,12,07,34,24,10,44,25,0.86,0.57,0.65,4*0E
$GNGSA,A,3,26,,,,,,,,,,,,0.86,0.57,0.65,4*0F
$GPGSV,4,1,13,27,71,020,47,08,64,241,25,194,63,042,43,199,60,167,36,1*61
$GPGSV,4,2,13,195,50,130,36,04,47,238,19,16,43,032,44,31,31,124,44,1*5F
$GPGSV,4,3,13,09,31,291,29,26,26,065,34,196,24,177,17,21,19,178,,1*55
$GPGSV,4,4,13,07,09,317,17,1*5B
$GPGSV,2,1,06,27,71,020,46,08,64,241,28,194,63,042,46,199,60,167,46,8*64
$GPGSV,2,2,06,195,50,130,40,26,26,065,41,8*53
$GLGSV,2,1,05,82,61,132,41,81,41,046,43,79,39,050,43,80,34,341,32,1*71
$GLGSV,2,2,05,69,16,220,20,1*47
$GAGSV,2,1,07,30,52,001,41,07,46,258,18,34,39,101,38,08,30,190,,7*71
$GAGSV,2,2,07,27,29,294,19,15,26,162,15,36,15,049,17,7*46
$GAGSV,2,1,05,30,52,001,44,07,46,258,18,34,39,101,44,27,29,294,23,1*78
$GAGSV,2,2,05,36,15,049,16,1*4B
$GBGSV,4,1,16,16,88,105,44,06,86,332,44,39,77,151,44,40,71,294,43,1*78
$GBGSV,4,2,16,09,70,327,43,12,65,083,44,07,65,275,43,34,65,170,46,1*70
$GBGSV,4,3,16,24,56,057,46,10,53,261,20,44,46,053,44,11,43,189,,1*70
$GBGSV,4,4,16,25,40,327,34,43,22,204,,26,18,102,33,33,14,230,,1*78
$GBGSV,2,1,07,39,77,151,45,40,71,294,45,34,65,170,43,24,56,057,48,4*7B
$GBGSV,2,2,07,44,46,053,45,25,40,327,35,26,18,102,29,4*47
$GNACCURACY,4.5*17
$PAIRSAT,1,28,4,0,21,7,0,201,8,0,221,9,0,221,10,0,200,11,0,200,12,0,200,13,0,200,14,0,200,15,0,200,16,0,201,17,0,200,18,0,200,19,0,200,21,0,201,22,0,200,23,0,200,24,0,200,26,0,21,27,0,21,29,0,200,30,0,200,31,0,201,32,0,200,194,0,621,195,0,621,196,0,620,199,0,621*44
$PAIRSAT,2,17,69,0,1,70,0,200,71,0,200,72,0,200,73,0,200,74,0,200,75,0,200,76,0,200,77,0,200,78,0,200,79,0,201,80,0,201,81,0,201,82,0,201,83,0,200,84,0,200,88,0,200*57
$PAIRSAT,3,22,2,0,1200,3,0,1200,4,0,1200,5,0,200,7,0,1021,8,0,1021,9,0,1000,10,0,1000,12,0,1000,13,0,1000,15,0,1221,19,0,1200,21,0,1200,24,0,200,25,0,1200,26,0,1000,27,0,1200,30,0,1221,31,0,1200,33,0,1200,34,0,1221,36,0,221*76
$PAIRSAT,4,46,1,0,200,2,0,200,3,0,600,4,0,200,5,0,200,6,0,201,7,0,201,8,0,200,9,0,201,10,0,201,11,0,201,12,0,201,13,0,200,14,0,200,16,0,201,19,0,400,20,0,400,21,0,600,22,0,600,23,0,600,24,0,621,25,0,621,26,0,621,27,0,600,28,0,400,29,0,600,30,0,600,32,0,600,33,0,621,34,0,621,35,0,400,36,0,400,37,0,400,38,0,400,39,0,421,40,0,421,41,0,400,42,0,400,43,0,421,44,0,421,45,0,400,46,0,400,59,0,400,60,0,400,61,0,400,62,0,400*49
$PAIRDGP,3,16,21,31*6C
$GNGGA,030752.200,2500.8049197,N,12132.4280029,E,4,49,0.57,17.011,M,15.25,M,1,3335*40
$GNRMC,030752.200,A,2500.8049197,N,12132.4280029,E,1.92,134.67,030324,,,R,V*18
$GPHDT,137.584,T*39
$GNACCURACY,4.5*17
$GNGGA,030752.300,2500.8048740,N,12132.4280650,E,4,50,0.57,17.082,M,15.25,M,1,3335*46
$GNRMC,030752.300,A,2500.8048740,N,12132.4280650,E,1.91,133.93,030324,,,R,V*13
$GPHDT,,T*1B
$GNACCURACY,4.5*17
$GNGGA,030752.400,2500.8048345,N,12132.4280994,E,4,50,0.57,17.043,M,15.25,M,1,3335*4A
$GNRMC,030752.400,A,2500.8048345,N,12132.4280994,E,1.94,139.15,030324,,,R,V*13
$GPHDT,138.064,T*3D
$GNACCURACY,4.5*17
$GNGGA,030752.500,2500.8047951,N,12132.4281473,E,4,50,0.57,17.068,M,15.25,M,1,3335*47
$GNRMC,030752.500,A,2500.8047951,N,12132.4281473,E,2.04,135.96,030324,,,R,V*1A
$GPHDT,,T*1B
$GNACCURACY,4.5*17
$GNGGA,030752.600,2500.8047454,N,12132.4281892,E,4,49,0.57,17.053,M,15.25,M,1,3335*4F
$GNRMC,030752.600,A,2500.8047454,N,12132.4281892,E,2.09,135.49,030324,,,R,V*1D
$GPHDT,138.801,T*36
$GNACCURACY,4.5*17
$GNGGA,030752.700,2500.8047026,N,12132.4282224,E,4,50,0.57,17.088,M,15.25,M,0,3335*44
$GNRMC,030752.700,A,2500.8047026,N,12132.4282224,E,2.12,138.45,030324,,,R,V*12
$GPHDT,,T*1B
$GNACCURACY,4.5*17
$GNGGA,030752.800,2500.8046743,N,12132.4282691,E,4,49,0.57,17.053,M,15.25,M,0,3335*4A
$GNRMC,030752.800,A,2500.8046743,N,12132.4282691,E,2.07,137.47,030324,,,R,V*1B
$GPHDT,140.784,T*3B
$GNACCURACY,4.6*14
$GNGGA,030752.900,2500.8046245,N,12132.4283108,E,4,49,0.57,17.114,M,15.25,M,0,3335*4C
$GNRMC,030752.900,A,2500.8046245,N,12132.4283108,E,2.04,138.56,030324,,,R,V*13
$GPHDT,,T*1B
$GNACCURACY,4.6*14
$GNGGA,030753.000,2500.8045924,N,12132.4283451,E,4,49,0.57,17.048,M,15.25,M,1,3335*4B
$GNRMC,030753.000,A,2500.8045924,N,12132.4283451,E,2.05,140.19,030324,,,R,V*18
$GPHDT,140.498,T*35
$GNACCURACY,4.6*14
$GNGGA,030753.100,2500.8045483,N,12132.4283978,E,4,49,0.57,17.039,M,15.25,M,1,3335*4A
$GNRMC,030753.100,A,2500.8045483,N,12132.4283978,E,2.14,139.31,030324,,,R,V*1B
$GPHDT,,T*1B
$GNGSA,A,3,27,08,194,199,195,16,31,26,09,,,,0.86,0.57,0.65,1*3B
$GNGSA,A,3,82,81,79,80,69,,,,,,,,0.86,0.57,0.65,2*07
$GNGSA,A,3,30,07,34,15,36,,,,,,,,0.86,0.57,0.65,3*0E
$GNGSA,A,3,16,06,39,40,09,12,07,34,24,10,44,25,0.86,0.57,0.65,4*0E
$GNGSA,A,3,26,,,,,,,,,,,,0.86,0.57,0.65,4*0F
$GPGSV,4,1,13,27,71,020,45,08,64,242,25,194,63,042,41,199,60,167,31,1*65
$GPGSV,4,2,13,195,50,130,41,04,47,238,18,16,43,032,43,31,31,124,43,1*5E
$GPGSV,4,3,13,09,31,291,20,26,26,065,37,196,24,177,17,21,19,178,,1*5F
$GPGSV,4,4,13,07,09,317,16,1*5A
$GPGSV,2,1,07,27,71,020,44,08,64,242,27,194,63,042,46,199,60,167,42,8*6F
$GPGSV,2,2,07,195,50,130,42,09,31,291,30,26,26,065,39,8*6D
$GLGSV,2,1,05,82,61,132,35,81,41,046,43,79,39,050,44,80,34,341,28,1*7E
$GLGSV,2,2,05,69,16,220,18,1*4C
$GAGSV,2,1,07,30,52,001,42,07,46,258,17,34,39,101,40,08,30,190,,7*72
$GAGSV,2,2,07,27,29,294,20,15,26,162,17,36,15,049,17,7*4E
$GAGSV,2,1,05,30,52,001,43,07,46,258,18,34,39,101,45,27,29,294,20,1*7D
$GAGSV,2,2,05,36,15,049,16,1*4B
$GBGSV,4,1,16,16,88,105,44,06,86,332,42,39,77,151,44,40,71,294,43,1*7E
$GBGSV,4,2,16,09,70,327,43,12,65,083,46,07,65,275,40,34,65,170,41,1*76
$GBGSV,4,3,16,24,56,057,45,10,53,261,18,44,46,053,45,11,43,189,,1*79
$GBGSV,4,4,16,25,40,327,37,43,22,204,,26,18,102,30,33,14,230,,1*78
$GBGSV,2,1,07,39,77,151,45,40,71,294,46,34,65,170,39,24,56,057,46,4*7B
$GBGSV,2,2,07,44,46,053,43,25,40,327,38,26,18,102,27,4*42
$GNACCURACY,4.6*14
$PAIRSAT,1,28,4,0,21,7,0,201,8,0,221,9,0,221,10,0,200,11,0,200,12,0,200,13,0,200,14,0,200,15,0,200,16,0,201,17,0,200,18,0,200,19,0,200,21,0,201,22,0,200,23,0,200,24,0,200,26,0,21,27,0,21,29,0,200,30,0,200,31,0,201,32,0,200,194,0,621,195,0,621,196,0,620,199,0,621*44
$PAIRSAT,2,17,69,0,1,70,0,200,71,0,200,72,0,200,73,0,200,74,0,200,75,0,200,76,0,200,77,0,200,78,0,200,79,0,201,80,0,201,81,0,201,82,0,201,83,0,200,84,0,200,88,0,200*57
$PAIRSAT,3,22,2,0,1200,3,0,1200,4,0,1200,5,0,200,7,0,1221,8,0,1021,9,0,1000,10,0,1000,12,0,1000,13,0,1000,15,0,1221,19,0,1200,21,0,1200,24,0,200,25,0,1200,26,0,1000,27,0,1200,30,0,1221,31,0,1200,33,0,1200,34,0,1221,36,0,221*74
$PAIRSAT,4,46,1,0,200,2,0,200,3,0,600,4,0,200,5,0,200,6,0,201,7,0,201,8,0,200,9,0,201,10,0,201,11,0,201,12,0,201,13,0,200,14,0,200,16,0,201,19,0,400,20,0,400,21,0,600,22,0,600,23,0,600,24,0,621,25,0,621,26,0,621,27,0,600,28,0,400,29,0,600,30,0,600,32,0,600,33,0,621,34,0,621,35,0,400,36,0,400,37,0,400,38,0,400,39,0,421,40,0,421,41,0,400,42,0,400,43,0,421,44,0,421,45,0,400,46,0,400,59,0,400,60,0,400,61,0,400,62,0,400*49
$PAIRDGP,3,16,21,31*6C
$GNGGA,030753.200,2500.8045077,N,12132.4284477,E,4,49,0.57,17.085,M,15.25,M,1,3335*44
$GNRMC,030753.200,A,2500.8045077,N,12132.4284477,E,2.18,133.88,030324,,,R,V*16
$GPHDT,138.895,T*3B
$GNACCURACY,4.6*14
$GNGGA,030753.300,2500.8044629,N,12132.4284976,E,4,49,0.57,17.113,M,15.25,M,1,3335*4B
$GNRMC,030753.300,A,2500.8044629,N,12132.4284976,E,2.14,136.84,030324,,,R,V*12
$GPHDT,,T*1B
$GNACCURACY,4.6*14
$GNGGA,030753.400,2500.8044270,N,12132.4285304,E,4,49,0.57,17.038,M,15.25,M,1,3335*42
$GNRMC,030753.400,A,2500.8044270,N,12132.4285304,E,2.06,135.23,030324,,,R,V*1E
$GPHDT,136.856,T*3A
$GNACCURACY,4.6*14
$GNGGA,030753.500,2500.8043763,N,12132.4285847,E,4,49,0.57,17.122,M,15.25,M,1,3335*45
$GNRMC,030753.500,A,2500.8043763,N,12132.4285847,E,2.02,140.54,030324,,,R,V*15
$GPHDT,,T*1B
$GNACCURACY,4.6*14
$GNGGA,030753.600,2500.8043460,N,12132.4286253,E,4,49,0.57,17.101,M,15.25,M,0,3335*4A
$GNRMC,030753.600,A,2500.8043460,N,12132.4286253,E,2.04,143.11,030324,,,R,V*1E
$GPHDT,138.610,T*38
$GNACCURACY,4.6*14
$GNGGA,030753.700,2500.8042963,N,12132.4286667,E,4,49,0.57,17.072,M,15.25,M,0,3335*42
$GNRMC,030753.700,A,2500.8042963,N,12132.4286667,E,2.05,138.46,030324,,,R,V*1C
$GPHDT,,T*1B
$GNACCURACY,4.6*14
$GNGGA,030753.800,2500.8042576,N,12132.4287104,E,4,49,0.57,17.080,M,15.25,M,0,3335*4B
$GNRMC,030753.800,A,2500.8042576,N,12132.4287104,E,2.01,130.22,030324,,,R,V*16
$GPHDT,137.993,T*33
$GNACCURACY,4.6*14
$GNGGA,030753.900,2500.8042211,N,12132.4287522,E,4,49,0.57,17.088,M,15.25,M,0,3335*44
$GNRMC,030753.900,A,2500.8042211,N,12132.4287522,E,2.06,133.85,030324,,,R,V*18
$GPHDT,,T*1B
$GNACCURACY,4.6*14
$GNGGA,030754.000,2500.8041802,N,12132.4288025,E,4,49,0.57,17.129,M,15.25,M,1,3335*47
$GNRMC,030754.000,A,2500.8041802,N,12132.4288025,E,1.91,136.56,030324,,,R,V*16
$GPHDT,137.392,T*38
$GNACCURACY,4.7*15
$GNGGA,030754.100,2500.8041407,N,12132.4288442,E,4,49,0.57,17.104,M,15.25,M,1,3335*45
$GNRMC,030754.100,A,2500.8041407,N,12132.4288442,E,2.01,138.77,030324,,,R,V*1C
$GPHDT,,T*1B
$GNGSA,A,3,27,08,194,199,195,16,31,26,09,,,,0.86,0.57,0.65,1*3B
$GNGSA,A,3,82,81,79,80,69,,,,,,,,0.86,0.57,0.65,2*07
$GNGSA,A,3,30,07,34,15,36,,,,,,,,0.86,0.57,0.65,3*0E
$GNGSA,A,3,16,06,39,40,09,12,07,34,24,10,44,25,0.86,0.57,0.65,4*0E
$GNGSA,A,3,26,,,,,,,,,,,,0.86,0.57,0.65,4*0F
$GPGSV,4,1,13,27,71,020,46,08,64,242,21,194,63,042,41,199,60,167,31,1*62
$GPGSV,4,2,13,195,50,130,40,04,47,238,18,16,43,032,45,31,31,124,44,1*5E
$GPGSV,4,3,13,09,31,291,24,26,26,065,35,196,24,177,18,21,19,178,,1*56
$GPGSV,4,4,13,07,09,317,15,1*59
$GPGSV,2,1,07,27,71,020,44,08,64,242,26,194,63,042,45,199,60,167,36,8*6E
$GPGSV,2,2,07,195,50,130,43,09,31,291,31,26,26,065,41,8*62
$GLGSV,2,1,05,82,61,132,29,81,41,046,45,79,39,050,44,80,34,341,29,1*74
$GLGSV,2,2,05,69,16,220,17,1*43
$GAGSV,2,1,07,30,52,001,43,07,46,258,16,34,39,101,42,08,30,190,,7*70
$GAGSV,2,2,07,27,29,294,20,15,26,162,19,36,15,049,20,7*44
$GAGSV,2,1,05,30,52,001,45,07,46,258,17,34,39,101,44,27,29,294,24,1*71
$GAGSV,2,2,05,36,15,049,16,1*4B
$GBGSV,4,1,16,16,88,105,46,06,86,332,42,39,77,151,38,40,71,294,43,1*77
$GBGSV,4,2,16,09,70,327,42,12,65,083,37,07,65,275,37,34,65,170,38,1*7F
$GBGSV,4,3,16,24,56,057,45,10,53,261,20,44,46,053,43,11,43,189,,1*74
$GBGSV,4,4,16,25,40,327,38,43,22,204,,26,18,102,33,33,14,230,,1*74
$GBGSV,2,1,07,39,77,151,39,40,71,294,45,34,65,170,36,24,56,057,45,4*7F
$GBGSV,2,2,07,44,46,053,43,25,40,327,37,26,18,102,34,4*4F
$GNACCURACY,4.7*15
$PAIRSAT,1,28,4,0,21,7,0,201,8,0,221,9,0,221,10,0,200,11,0,200,12,0,200,13,0,200,14,0,200,15,0,200,16,0,201,17,0,200,18,0,200,19,0,200,21,0,201,22,0,200,23,0,200,24,0,200,26,0,21,27,0,21,29,0,200,30,0,200,31,0,201,32,0,200,194,0,621,195,0,621,196,0,620,199,0,621*44
$PAIRSAT,2,17,69,0,1,70,0,200,71,0,200,72,0,200,73,0,200,74,0,200,75,0,200,76,0,200,77,0,200,78,0,200,79,0,201,80,0,201,81,0,201,82,0,201,83,0,200,84,0,200,88,0,200*57
$PAIRSAT,3,22,2,0,1200,3,0,1200,4,0,1200,5,0,200,7,0,1221,8,0,1021,9,0,1000,10,0,1000,12,0,1000,13,0,1000,15,0,1221,19,0,1200,21,0,1200,24,0,200,25,0,1200,26,0,1000,27,0,1200,30,0,1221,31,0,1200,33,0,1200,34,0,1221,36,0,221*74
$PAIRSAT,4,46,1,0,200,2,0,200,3,0,600,4,0,200,5,0,200,6,0,201,7,0,201,8,0,200,9,0,201,10,0,201,11,0,201,12,0,201,13,0,200,14,0,200,16,0,201,19,0,400,20,0,400,21,0,600,22,0,600,23,0,600,24,0,621,25,0,621,26,0,621,27,0,600,28,0,400,29,0,600,30,0,600,32,0,600,33,0,621,34,0,621,35,0,400,36,0,400,37,0,400,38,0,400,39,0,421,40,0,421,41,0,400,42,0,400,43,0,421,44,0,421,45,0,400,46,0,400,59,0,400,60,0,400,61,0,400,62,0,400*49
$PAIRDGP,3,16,21,31*6C
$GNGGA,030754.200,2500.8041066,N,12132.4288747,E,4,49,0.57,16.969,M,15.25,M,1,3335*41
$GNRMC,030754.200,A,2500.8041066,N,12132.4288747,E,2.02,143.48,030324,,,R,V*19
$GPHDT,138.106,T*38
$GNACCURACY,4.7*15
$GNGGA,030754.300,2500.8040635,N,12132.4289354,E,4,49,0.57,17.035,M,15.25,M,1,3335*47
$GNRMC,030754.300,A,2500.8040635,N,12132.4289354,E,2.11,139.47,030324,,,R,V*1E
$GPHDT,,T*1B
$GNACCURACY,4.7*15
$GNGGA,030754.400,2500.8040139,N,12132.4289806,E,4,49,0.57,17.076,M,15.25,M,1,3335*40
$GNRMC,030754.400,A,2500.8040139,N,12132.4289806,E,2.04,134.19,030324,,,R,V*1C
$GPHDT,135.156,T*30
$GNACCURACY,4.7*15
$GNGGA,030754.500,2500.8039754,N,12132.4290272,E,4,49,0.57,17.073,M,15.25,M,1,3335*46
$GNRMC,030754.500,A,2500.8039754,N,12132.4290272,E,2.02,131.68,030324,,,R,V*1A
$GPHDT,,T*1B
$GNACCURACY,4.8*1A
$GNGGA,030754.600,2500.8039817,N,12132.4290481,E,4,49,0.57,16.922,M,15.25,M,0,3335*4A
$GNRMC,030754.600,A,2500.8039817,N,12132.4290481,E,1.97,134.88,030324,,,R,V*1F
$GPHDT,136.939,T*32
$GNACCURACY,4.8*1A
$GNGGA,030754.700,2500.8039209,N,12132.4291284,E,4,49,0.57,17.068,M,15.25,M,0,3335*4A
$GNRMC,030754.700,A,2500.8039209,N,12132.4291284,E,1.87,134.96,030324,,,R,V*17
$GPHDT,,T*1B
$GNACCURACY,4.8*1A
$GNGGA,030754.800,2500.8038606,N,12132.4291731,E,4,50,0.57,17.139,M,15.25,M,0,3335*49
$GNRMC,030754.800,A,2500.8038606,N,12132.4291731,E,1.98,141.85,030324,,,R,V*17
$GPHDT,138.987,T*39
$GNACCURACY,4.7*15
$GNGGA,030754.900,2500.8038164,N,12132.4292007,E,4,50,0.57,17.078,M,15.25,M,0,3335*4E
$GNRMC,030754.900,A,2500.8038164,N,12132.4292007,E,1.95,139.36,030324,,,R,V*1E
$GPHDT,,T*1B
$GNACCURACY,4.7*15
$GNGGA,030755.000,2500.8037670,N,12132.4292326,E,4,50,0.57,17.060,M,15.25,M,1,3335*43
$GNRMC,030755.000,A,2500.8037670,N,12132.4292326,E,1.96,133.64,030324,,,R,V*15
$GPHDT,138.088,T*3F
$GNACCURACY,4.7*15
$GNGGA,030755.100,2500.8037268,N,12132.4292877,E,4,50,0.57,17.191,M,15.25,M,1,3335*4F
$GNRMC,030755.100,A,2500.8037268,N,12132.4292877,E,1.94,131.02,030324,,,R,V*16
$GPHDT,,T*1B
$GNGSA,A,3,27,08,194,199,195,16,31,26,09,,,,0.86,0.57,0.65,1*3B
$GNGSA,A,3,82,81,79,80,69,,,,,,,,0.86,0.57,0.65,2*07
$GNGSA,A,3,30,07,34,15,36,,,,,,,,0.86,0.57,0.65,3*0E
$GNGSA,A,3,16,06,39,40,09,12,07,34,24,10,44,25,0.86,0.57,0.65,4*0E
$GNGSA,A,3,26,,,,,,,,,,,,0.86,0.57,0.65,4*0F
$GPGSV,4,1,13,27,71,020,44,08,64,242,23,194,63,042,43,199,60,167,25,1*65
$GPGSV,4,2,13,195,50,130,36,04,47,238,17,16,43,032,46,31,31,124,43,1*54
$GPGSV,4,3,13,09,31,291,23,26,26,065,37,196,24,177,17,21,19,178,,1*5C
$GPGSV,4,4,13,07,09,317,17,1*5B
$GPGSV,2,1,07,27,71,020,46,08,64,242,21,194,63,042,45,199,60,167,35,8*68
$GPGSV,2,2,07,195,50,130,43,09,31,291,24,26,26,065,41,8*66
$GLGSV,2,1,05,82,61,132,33,81,41,046,44,79,39,050,42,80,34,341,30,1*70
$GLGSV,2,2,05,69,16,220,16,1*42
$GAGSV,2,1,07,30,52,001,43,07,46,258,18,34,39,101,41,08,30,190,,7*7D
$GAGSV,2,2,07,27,29,294,22,15,26,162,18,36,15,049,20,7*47
$GAGSV,2,1,05,30,52,001,42,07,46,258,15,34,39,101,43,27,29,294,21,1*76
$GAGSV,2,2,05,36,15,049,14,1*49
$GBGSV,4,1,16,16,88,105,35,06,86,332,40,39,77,151,27,40,71,294,42,1*7E
$GBGSV,4,2,16,09,70,327,42,12,65,083,42,07,65,275,34,34,65,170,31,1*77
$GBGSV,4,3,16,24,56,057,45,10,53,261,19,44,46,053,43,11,43,189,,1*7E
$GBGSV,4,4,16,25,40,327,43,43,22,204,,26,18,102,35,33,14,230,,1*7E
$GBGSV,2,1,07,39,77,151,29,40,71,294,45,34,65,170,38,24,56,057,46,4*73
$GBGSV,2,2,07,44,46,053,43,25,40,327,39,26,18,102,35,4*40
$GNACCURACY,4.7*15
$PAIRSAT,1,28,4,0,21,7,0,201,8,0,221,9,0,221,10,0,200,11,0,200,12,0,200,13,0,200,14,0,200,15,0,200,16,0,201,17,0,200,18,0,200,19,0,200,21,0,201,22,0,200,23,0,200,24,0,200,26,0,21,27,0,21,29,0,200,30,0,200,31,0,201,32,0,200,194,0,621,195,0,621,196,0,620,199,0,621*44
$PAIRSAT,2,17,69,0,1,70,0,200,71,0,200,72,0,200,73,0,200,74,0,200,75,0,200,76,0,200,77,0,200,78,0,200,79,0,201,80,0,201,81,0,201,82,0,201,83,0,200,84,0,200,88,0,200*57
$PAIRSAT,3,22,2,0,1200,3,0,1200,4,0,1200,5,0,200,7,0,1221,8,0,1021,9,0,1000,10,0,1000,12,0,1000,13,0,1000,15,0,1221,19,0,1200,21,0,1200,24,0,200,25,0,1200,26,0,1000,27,0,1200,30,0,1221,31,0,1200,33,0,1200,34,0,1221,36,0,221*74
$PAIRSAT,4,46,1,0,200,2,0,200,3,0,600,4,0,200,5,0,200,6,0,201,7,0,201,8,0,200,9,0,201,10,0,201,11,0,201,12,0,201,13,0,200,14,0,200,16,0,201,19,0,400,20,0,400,21,0,600,22,0,600,23,0,600,24,0,621,25,0,621,26,0,621,27,0,600,28,0,400,29,0,600,30,0,600,32,0,600,33,0,621,34,0,621,35,0,400,36,0,400,37,0,400,38,0,400,39,0,421,40,0,421,41,0,400,42,0,400,43,0,421,44,0,421,45,0,400,46,0,400,59,0,400,60,0,400,61,0,400,62,0,400*49
$PAIRDGP,3,16,21,31*6C
$GNGGA,030755.200,2500.8036923,N,12132.4293330,E,4,49,0.57,17.187,M,15.25,M,1,3335*4F
$GNRMC,030755.200,A,2500.8036923,N,12132.4293330,E,1.73,136.00,030324,,,R,V*15
$GPHDT,141.311,T*32
$GNACCURACY,4.7*15
$GNGGA,030755.300,2500.8036585,N,12132.4293876,E,4,49,0.57,17.179,M,15.25,M,1,3335*46
$GNRMC,030755.300,A,2500.8036585,N,12132.4293876,E,1.92,136.36,030324,,,R,V*17
$GPHDT,,T*1B
$GNACCURACY,4.7*15
$GNGGA,030755.400,2500.8036064,N,12132.4294240,E,4,49,0.57,17.123,M,15.25,M,1,3335*4C
$GNRMC,030755.400,A,2500.8036064,N,12132.4294240,E,1.99,139.71,030324,,,R,V*15
$GPHDT,139.528,T*31
$GNACCURACY,4.7*15
$GNGGA,030755.500,2500.8035722,N,12132.4294602,E,4,49,0.57,17.093,M,15.25,M,1,3335*43
$GNRMC,030755.500,A,2500.8035722,N,12132.4294602,E,2.01,136.77,030324,,,R,V*1B
$GPHDT,,T*1B
$GNACCURACY,4.7*15
$GNGGA,030755.600,2500.8035296,N,12132.4295079,E,4,49,0.57,17.089,M,15.25,M,0,3335*4B
$GNRMC,030755.600,A,2500.8035296,N,12132.4295079,E,1.98,129.70,030324,,,R,V*13
$GPHDT,135.804,T*3E
$GNACCURACY,4.7*15
$GNGGA,030755.700,2500.8034880,N,12132.4295487,E,4,49,0.57,17.069,M,15.25,M,0,3335*4D
$GNRMC,030755.700,A,2500.8034880,N,12132.4295487,E,1.96,124.61,030324,,,R,V*18
$GPHDT,,T*1B
$GNACCURACY,4.7*15
$GNGGA,030755.800,2500.8034612,N,12132.4295939,E,4,49,0.57,17.122,M,15.25,M,0,3335*41
$GNRMC,030755.800,A,2500.8034612,N,12132.4295939,E,1.88,130.48,030324,,,R,V*1B
$GPHDT,133.044,T*34
$GNACCURACY,4.8*1A
$GNGGA,030755.900,2500.8034061,N,12132.4296360,E,4,48,0.59,17.126,M,15.25,M,0,3335*4C
$GNRMC,030755.900,A,2500.8034061,N,12132.4296360,E,1.90,138.73,030324,,,R,V*14
$GPHDT,,T*1B
$GNACCURACY,4.8*1A
$GNGGA,030756.000,2500.8033511,N,12132.4296646,E,4,48,0.59,17.075,M,15.25,M,1,3335*44
$GNRMC,030756.000,A,2500.8033511,N,12132.4296646,E,1.99,139.32,030324,,,R,V*17
$PAIR010,0,1,2304,11294*00
$GPHDT,131.288,T*34
$GNACCURACY,4.8*1A
$GNGGA,030756.100,2500.8033101,N,12132.4297034,E,4,49,0.59,17.109,M,15.25,M,1,3335*49
$GNRMC,030756.100,A,2500.8033101,N,12132.4297034,E,1.98,135.72,030324,,,R,V*18
$GPHDT,,T*1B
$GNGSA,A,3,27,08,194,199,195,16,31,26,09,,,,0.88,0.59,0.66,1*38
$GNGSA,A,3,82,81,79,69,,,,,,,,,0.88,0.59,0.66,2*0C
$GNGSA,A,3,30,07,34,15,36,,,,,,,,0.88,0.59,0.66,3*0D
$GNGSA,A,3,16,06,39,40,09,12,07,34,24,10,44,25,0.88,0.59,0.66,4*0D
$GNGSA,A,3,26,,,,,,,,,,,,0.88,0.59,0.66,4*0C
$GPGSV,4,1,13,27,71,020,48,08,64,242,21,194,63,042,43,199,60,167,24,1*6A
$GPGSV,4,2,13,195,50,130,35,04,47,238,17,16,43,032,45,09,31,291,24,1*53
$GPGSV,4,3,13,31,30,124,42,26,26,065,35,196,24,177,18,21,19,178,,1*51
$GPGSV,4,4,13,07,09,317,17,1*5B
$GPGSV,2,1,07,27,71,020,47,08,64,242,22,194,63,042,45,199,60,167,39,8*66
$GPGSV,2,2,07,195,50,130,40,09,31,291,31,26,26,065,41,8*61
$GLGSV,2,1,05,82,61,132,37,81,41,046,43,79,39,050,43,80,34,341,40,1*75
$GLGSV,2,2,05,69,16,220,16,1*42
$GAGSV,2,1,07,30,52,001,42,07,46,258,17,34,39,101,41,08,30,190,,7*73
$GAGSV,2,2,07,27,29,294,22,15,26,162,18,36,15,049,19,7*4D
$GAGSV,2,1,06,30,52,001,43,07,46,258,16,34,39,101,46,27,29,294,24,1*77
$GAGSV,2,2,06,15,26,162,28,36,15,049,14,1*75
$GBGSV,4,1,16,16,88,105,26,06,86,332,34,39,77,151,36,40,71,294,41,1*7C
$GBGSV,4,2,16,09,70,327,39,12,65,083,44,07,65,275,29,34,65,170,35,1*75
$GBGSV,4,3,16,24,56,057,44,10,53,261,20,44,46,053,44,11,43,189,,1*72
$GBGSV,4,4,16,25,40,327,44,43,22,204,,26,18,102,31,33,14,230,,1*7D
$GBGSV,2,1,07,39,77,151,33,40,71,294,42,34,65,170,34,24,56,057,46,4*73
$GBGSV,2,2,07,44,46,053,45,25,40,327,41,26,18,102,31,4*4D
$GNACCURACY,4.8*1A
$PAIRSAT,1,28,4,0,21,7,0,201,8,0,221,9,0,221,10,0,200,11,0,200,12,0,200,13,0,200,14,0,200,15,0,200,16,0,201,17,0,200,18,0,200,19,0,200,21,0,201,22,0,200,23,0,200,24,0,200,26,0,21,27,0,21,29,0,200,30,0,200,31,0,201,32,0,200,194,0,621,195,0,621,196,0,620,199,0,621*44
$PAIRSAT,2,17,69,0,1,70,0,200,71,0,200,72,0,200,73,0,200,74,0,200,75,0,200,76,0,200,77,0,200,78,0,200,79,0,201,80,0,201,81,0,201,82,0,201,83,0,200,84,0,200,88,0,200*57
$PAIRSAT,3,22,2,0,1200,3,0,1200,4,0,1200,5,0,200,7,0,1221,8,0,1021,9,0,1000,10,0,1000,12,0,1000,13,0,1000,15,0,1221,19,0,1200,21,0,1200,24,0,200,25,0,1200,26,0,1000,27,0,1200,30,0,1221,31,0,1200,33,0,1200,34,0,1221,36,0,221*74
$PAIRSAT,4,46,1,0,200,2,0,200,3,0,600,4,0,200,5,0,200,6,0,201,7,0,201,8,0,200,9,0,201,10,0,201,11,0,201,12,0,201,13,0,200,14,0,200,16,0,201,19,0,400,20,0,400,21,0,600,22,0,600,23,0,600,24,0,621,25,0,621,26,0,621,27,0,600,28,0,400,29,0,600,30,0,600,32,0,600,33,0,621,34,0,621,35,0,400,36,0,400,37,0,400,38,0,400,39,0,421,40,0,421,41,0,400,42,0,400,43,0,421,44,0,421,45,0,400,46,0,400,59,0,400,60,0,400,61,0,400,62,0,400*49
$PAIRDGP,3,16,21,31*6C
$GNGGA,030756.200,2500.8032509,N,12132.4297232,E,4,49,0.59,17.118,M,15.25,M,1,3335*43
$GNRMC,030756.200,A,2500.8032509,N,12132.4297232,E,1.93,137.62,030324,,,R,V*1A
$GPHDT,129.285,T*30
$GNACCURACY,4.8*1A
$GNGGA,030756.300,2500.8032118,N,12132.4297721,E,4,49,0.57,17.142,M,15.25,M,1,3335*40
$GNRMC,030756.300,A,2500.8032118,N,12132.4297721,E,1.82,140.42,030324,,,R,V*1A
$GPHDT,,T*1B
$GNACCURACY,4.8*1A
$GNGGA,030756.400,2500.8032091,N,12132.4298537,E,4,48,0.57,17.238,M,15.25,M,1,3335*42
$GNRMC,030756.400,A,2500.8032091,N,12132.4298537,E,1.85,137.69,030324,,,R,V*19
$GPHDT,134.286,T*3F
$GNACCURACY,4.9*1B
$GNGGA,030756.500,2500.8031547,N,12132.4298674,E,4,48,0.57,17.080,M,15.25,M,0,3335*4A
$GNRMC,030756.500,A,2500.8031547,N,12132.4298674,E,1.93,139.28,030324,,,R,V*1D
$GPHDT,,T*1B
$GNACCURACY,4.8*1A
$GNGGA,030756.600,2500.8031229,N,12132.4299243,E,4,49,0.57,17.072,M,15.25,M,0,3335*4B
$GNRMC,030756.600,A,2500.8031229,N,12132.4299243,E,2.04,134.88,030324,,,R,V*1A
$GPHDT,135.402,T*34
$GNACCURACY,4.9*1B
$GNGGA,030756.700,2500.8030667,N,12132.4299679,E,4,49,0.57,17.145,M,15.25,M,0,3335*4D
$GNRMC,030756.700,A,2500.8030667,N,12132.4299679,E,2.12,131.87,030324,,,R,V*14
$GPHDT,,T*1B
$GNACCURACY,4.9*1B
$GNGGA,030756.800,2500.8030349,N,12132.4300305,E,4,49,0.57,17.104,M,15.25,M,0,3335*41
$GNRMC,030756.800,A,2500.8030349,N,12132.4300305,E,2.17,129.48,030324,,,R,V*12
$GPHDT,137.635,T*30
$GNACCURACY,4.9*1B
$GNGGA,030756.900,2500.8030074,N,12132.4300825,E,4,49,0.57,17.120,M,15.25,M,0,3335*42
$GNRMC,030756.900,A,2500.8030074,N,12132.4300825,E,2.07,128.59,030324,,,R,V*17
$GPHDT,,T*1B
$GNACCURACY,4.9*1B
$GNGGA,030757.000,2500.8029729,N,12132.4301215,E,4,49,0.57,17.112,M,15.25,M,1,3335*45
$GNRMC,030757.000,A,2500.8029729,N,12132.4301215,E,1.95,134.52,030324,,,R,V*1E
$GPHDT,136.295,T*3F
$GNACCURACY,4.9*1B
$GNGGA,030757.100,2500.8029443,N,12132.4301784,E,4,50,0.57,17.066,M,15.25,M,1,3335*4C
$GNRMC,030757.100,A,2500.8029443,N,12132.4301784,E,1.97,135.52,030324,,,R,V*1E
$GPHDT,,T*1B
$GNGSA,A,3,27,08,194,199,195,16,31,26,09,,,,0.88,0.57,0.67,1*37
$GNGSA,A,3,82,81,79,80,69,,,,,,,,0.88,0.57,0.67,2*0B
$GNGSA,A,3,30,07,34,15,,,,,,,,,0.88,0.57,0.67,3*07
$GNGSA,A,3,16,06,39,40,09,12,07,34,24,10,44,25,0.88,0.57,0.67,4*02
$GNGSA,A,3,26,,,,,,,,,,,,0.88,0.57,0.67,4*03
$GPGSV,4,1,13,27,71,020,45,08,64,242,20,194,63,042,43,199,60,167,22,1*60
$GPGSV,4,2,13,195,50,130,44,04,47,238,17,16,43,032,44,09,31,291,24,1*54
$GPGSV,4,3,13,31,30,124,43,26,26,065,33,196,24,177,18,21,19,178,,1*56
$GPGSV,4,4,13,07,09,317,18,1*54
$GPGSV,2,1,07,27,71,020,47,08,64,242,19,194,63,042,46,199,60,167,40,8*63
$GPGSV,2,2,07,195,50,130,42,09,31,291,27,26,26,065,42,8*67
$GLGSV,2,1,05,82,61,132,31,81,41,046,44,79,39,050,42,80,34,341,38,1*7A
$GLGSV,2,2,05,69,16,220,16,1*42
$GAGSV,2,1,07,30,52,001,42,07,46,258,15,34,39,101,41,08,30,190,,7*71
$GAGSV,2,2,07,27,29,294,21,15,26,162,21,36,15,049,,7*4C
$GAGSV,2,1,05,30,52,001,41,07,46,258,17,34,39,101,44,27,29,294,30,1*70
$GAGSV,2,2,05,15,26,162,23,1*44
$GBGSV,4,1,16,16,88,105,26,06,86,332,25,39,77,151,32,40,71,294,37,1*79
$GBGSV,4,2,16,09,70,327,39,12,65,083,44,07,65,275,21,34,65,170,36,1*7E
$GBGSV,4,3,16,24,56,057,46,10,53,261,18,44,46,053,44,11,43,189,,1*7B
$GBGSV,4,4,16,25,40,327,45,43,22,204,,26,18,102,27,33,14,230,,1*7B
$GBGSV,2,1,07,39,77,151,36,40,71,294,39,34,65,170,32,24,56,057,44,4*7E
$GBGSV,2,2,07,44,46,053,44,25,40,327,43,26,18,102,27,4*49
$GNACCURACY,4.9*1B
$PAIRSAT,1,28,4,0,21,7,0,201,8,0,221,9,0,221,10,0,200,11,0,200,12,0,200,13,0,200,14,0,200,15,0,200,16,0,201,17,0,200,18,0,200,19,0,200,21,0,201,22,0,200,23,0,200,24,0,200,26,0,21,27,0,21,29,0,200,30,0,200,31,0,201,32,0,200,194,0,621,195,0,621,196,0,620,199,0,621*44
$PAIRSAT,2,17,69,0,1,70,0,200,71,0,200,72,0,200,73,0,200,74,0,200,75,0,200,76,0,200,77,0,200,78,0,200,79,0,201,80,0,201,81,0,201,82,0,201,83,0,200,84,0,200,88,0,200*57
$PAIRSAT,3,22,2,0,1200,3,0,1200,4,0,1200,5,0,200,7,0,1221,8,0,1021,9,0,1000,10,0,1000,12,0,1000,13,0,1000,15,0,1221,19,0,1200,21,0,1200,24,0,200,25,0,1200,26,0,1000,27,0,1200,30,0,1221,31,0,1200,33,0,1200,34,0,1221,36,0,221*74
$PAIRSAT,4,46,1,0,200,2,0,200,3,0,600,4,0,200,5,0,200,6,0,201,7,0,201,8,0,200,9,0,201,10,0,201,11,0,201,12,0,201,13,0,200,14,0,200,16,0,201,19,0,400,20,0,400,21,0,600,22,0,600,23,0,600,24,0,621,25,0,621,26,0,621,27,0,600,28,0,400,29,0,600,30,0,600,32,0,600,33,0,621,34,0,621,35,0,400,36,0,600,37,0,400,38,0,400,39,0,421,40,0,421,41,0,400,42,0,400,43,0,421,44,0,421,45,0,400,46,0,400,59,0,400,60,0,400,61,0,400,62,0,400*4B
$PAIRDGP,3,16,21,31*6C
$GNGGA,030757.200,2500.8028958,N,12132.4302220,E,4,48,0.57,17.084,M,15.25,M,1,3335*44
$GNRMC,030757.200,A,2500.8028958,N,12132.4302220,E,2.00,136.65,030324,,,R,V*19
$GPHDT,140.635,T*30
$GNACCURACY,4.9*1B
$GNGGA,030757.300,2500.8028546,N,12132.4302714,E,4,49,0.57,17.140,M,15.25,M,1,3335*4C
$GNRMC,030757.300,A,2500.8028546,N,12132.4302714,E,2.16,130.01,030324,,,R,V*1A
$GPHDT,,T*1B
$GNACCURACY,4.9*1B
$GNGGA,030757.400,2500.8027952,N,12132.4302936,E,4,49,0.57,17.188,M,15.25,M,1,3335*47
$GNRMC,030757.400,A,2500.8027952,N,12132.4302936,E,2.15,131.12,030324,,,R,V*15
$GPHDT,138.593,T*30
$GNACCURACY,4.9*1B
$GNGGA,030757.500,2500.8027406,N,12132.4303276,E,4,49,0.57,17.157,M,15.25,M,1,3335*46
$GNRMC,030757.500,A,2500.8027406,N,12132.4303276,E,1.99,137.34,030324,,,R,V*13
$GPHDT,,T*1B
$GNACCURACY,4.9*1B
$GNGGA,030757.600,2500.8027049,N,12132.4303620,E,4,49,0.55,17.150,M,15.25,M,1,3335*48
$GNRMC,030757.600,A,2500.8027049,N,12132.4303620,E,1.94,141.70,030324,,,R,V*14
$GPHDT,142.076,T*33
$GNACCURACY,4.9*1B
$GNGGA,030757.700,2500.8026561,N,12132.4303981,E,4,48,0.57,17.111,M,15.25,M,0,3335*44
$GNRMC,030757.700,A,2500.8026561,N,12132.4303981,E,2.00,139.69,030324,,,R,V*16
$GPHDT,,T*1B
$GNACCURACY,4.9*1B
$GNGGA,030757.800,2500.8026148,N,12132.4304555,E,4,47,0.57,17.128,M,15.25,M,0,3335*43
$GNRMC,030757.800,A,2500.8026148,N,12132.4304555,E,1.99,136.19,030324,,,R,V*1F
$GPHDT,144.873,T*38
$GNACCURACY,4.9*1B
$GNGGA,030757.900,2500.8026029,N,12132.4305203,E,4,47,0.57,17.161,M,15.25,M,0,3335*4C
$GNRMC,030757.900,A,2500.8026029,N,12132.4305203,E,2.04,128.67,030324,,,R,V*1C
$GPHDT,,T*1B
$GNACCURACY,4.9*1B
$GNGGA,030758.000,2500.8025352,N,12132.4305600,E,4,47,0.57,17.143,M,15.25,M,1,3335*40
$GNRMC,030758.000,A,2500.8025352,N,12132.4305600,E,2.06,133.13,030324,,,R,V*1A
$GPHDT,,T*1B
$GNACCURACY,4.9*1B
$GNGGA,030758.100,2500.8024931,N,12132.4305983,E,4,47,0.57,17.132,M,15.25,M,1,3335*4D
$GNRMC,030758.100,A,2500.8024931,N,12132.4305983,E,1.87,139.04,030324,,,R,V*17
$GPHDT,,T*1B
$GNGSA,A,3,27,08,194,199,195,16,31,26,09,,,,0.88,0.57,0.67,1*37
$GNGSA,A,3,82,81,79,80,69,,,,,,,,0.88,0.57,0.67,2*0B
$GNGSA,A,3,30,07,34,15,,,,,,,,,0.88,0.57,0.67,3*07
$GNGSA,A,3,16,06,39,40,09,12,07,34,24,10,44,25,0.88,0.57,0.67,4*02
$GNGSA,A,3,26,,,,,,,,,,,,0.88,0.57,0.67,4*03
$GPGSV,4,1,13,27,71,020,44,08,64,242,19,194,63,042,40,199,60,167,26,1*6C
