$FW : RTK35X,V1.1X0314AS,Lib20210517,1*54
$Tool : LOCOSYS , GNSS Firebird , v1.0.0.19*39
$---------------------------------------------------*2D
$GPHDT,132.956,T*3F
$GNACCURACY,3.6*13
$GNGGA,032603.900,2500.8303552,N,12132.4527238,E,4,65,0.45,17.170,M,15.25,M,0,3335*4E
$GNRMC,032603.900,A,2500.8303552,N,12132.4527238,E,0.06,249.12,030324,,,R,V*1B
$GPHDT,,T*1B
$GNACCURACY,3.6*13
$GNGGA,032604.000,2500.8303584,N,12132.4527285,E,4,65,0.45,17.165,M,15.25,M,1,3335*48
$GNRMC,032604.000,A,2500.8303584,N,12132.4527285,E,0.06,249.12,030324,,,R,V*18
$GPHDT,135.753,T*33
$GNACCURACY,3.6*13
$GNGGA,032604.100,2500.8303633,N,12132.4527346,E,4,65,0.45,17.163,M,15.25,M,1,3335*4E
$GNRMC,032604.100,A,2500.8303633,N,12132.4527346,E,0.05,249.12,030324,,,R,V*1B
$GPHDT,,T*1B
$GNGSA,A,3,08,194,27,199,195,04,16,09,21,31,196,26,0.72,0.45,0.56,1*0A
$GNGSA,A,3,02,07,,,,,,,,,,,0.72,0.45,0.56,1*03
$GNGSA,A,3,82,79,80,83,81,69,,,,,,,0.72,0.45,0.56,2*04
$GNGSA,A,3,30,07,34,15,27,08,02,36,,,,,0.72,0.45,0.56,3*09
$GNGSA,A,3,06,16,34,39,09,40,07,12,24,10,11,25,0.72,0.45,0.56,4*06
$GNGSA,A,3,44,43,,,,,,,,,,,0.72,0.45,0.56,4*04
$GPGSV,4,1,15,08,70,262,45,194,63,044,26,27,62,022,31,50,60,167,33,1*50
$GPGSV,4,2,15,199,60,167,30,195,53,127,33,04,41,228,43,16,40,042,27,1*63
$GPGSV,4,3,15,09,32,281,23,21,27,174,40,31,24,130,31,196,23,176,36,1*5B
$GPGSV,4,4,15,26,22,073,19,02,17,184,25,07,15,319,33,1*5E
$GPGSV,3,1,09,08,70,262,45,194,63,044,35,27,62,022,36,199,60,167,44,8*62
$GPGSV,3,2,09,195,53,127,40,04,41,228,44,09,32,281,20,196,23,176,36,8*6C
$GPGSV,3,3,09,26,22,073,21,8*57
$GLGSV,2,1,07,82,68,111,30,79,38,063,28,80,38,350,36,83,37,177,22,1*7E
$GLGSV,2,2,07,81,35,038,19,69,10,213,11,71,05,320,31,1*4D
$GAGSV,2,1,08,30,52,011,33,07,43,249,43,34,41,092,31,15,32,158,38,7*7D
$GAGSV,2,2,08,27,31,301,42,08,24,188,21,02,21,068,24,36,13,044,,7*7A
$GAGSV,2,1,08,30,52,011,33,07,43,249,45,34,41,092,27,15,32,158,39,1*7B
$GAGSV,2,2,08,27,31,301,43,08,24,188,38,02,21,068,17,36,13,044,28,1*7F
$GBGSV,5,1,17,06,87,263,42,16,85,174,43,34,74,162,44,39,73,164,39,1*75
$GBGSV,5,2,17,09,72,319,38,40,69,304,44,07,64,283,40,12,63,064,38,1*70
$GBGSV,5,3,17,24,55,071,31,10,53,268,39,11,51,190,41,25,46,333,42,1*7C
$GBGSV,5,4,17,44,40,047,27,43,29,206,40,26,14,109,,33,10,224,,1*73
$GBGSV,5,5,17,41,09,271,22,1*48
$GBGSV,2,1,08,34,74,162,42,39,73,164,43,40,69,304,48,24,55,071,42,4*73
$GBGSV,2,2,08,25,46,333,32,44,40,047,26,43,29,206,42,41,09,271,25,4*7E
$GNACCURACY,3.6*13
$PAIRSAT,1,35,2,0,201,3,0,200,4,0,221,5,0,200,6,0,200,7,0,201,8,0,221,9,0,221,10,0,200,11,0,200,12,0,200,13,0,200,14,0,200,15,0,200,16,0,201,17,0,200,18,0,200,19,0,200,20,0,200,21,0,201,22,0,200,23,0,200,24,0,200,25,0,200,26,0,221,27,0,221,28,0,200,29,0,200,30,0,200,31,0,201,32,0,200,194,0,621,195,0,621,196,0,620,199,0,621*58
$PAIRSAT,2,24,65,0,200,66,0,200,67,0,200,68,0,200,69,0,201,70,0,200,71,0,201,72,0,200,73,0,200,74,0,200,75,0,200,76,0,200,77,0,200,78,0,200,79,0,201,80,0,201,81,0,201,82,0,201,83,0,201,84,0,200,85,0,200,86,0,200,87,0,200,88,0,200*7B
$PAIRSAT,3,23,2,0,1221,3,0,1200,4,0,1200,5,0,200,7,0,1221,8,0,1221,9,0,1200,10,0,1200,11,0,1200,12,0,1200,13,0,1200,15,0,1221,19,0,1200,21,0,1200,24,0,1200,25,0,1200,26,0,1200,27,0,1221,30,0,1221,31,0,1200,33,0,1200,34,0,1221,36,0,1221*6A
$PAIRSAT,4,46,1,0,200,2,0,200,3,0,600,4,0,200,5,0,200,6,0,201,7,0,201,8,0,200,9,0,201,10,0,201,11,0,201,12,0,201,13,0,200,14,0,200,16,0,201,19,0,600,20,0,600,21,0,600,22,0,600,23,0,600,24,0,621,25,0,621,26,0,621,27,0,600,28,0,600,29,0,600,30,0,600,32,0,600,33,0,621,34,0,621,35,0,600,36,0,600,37,0,600,38,0,600,39,0,621,40,0,621,41,0,621,42,0,600,43,0,621,44,0,421,45,0,400,46,0,400,59,0,400,60,0,400,61,0,400,62,0,400*4A
$PAIRDGP,10,2,4,7,8,9,16,21,26,27,31*43
$GNGGA,032604.200,2500.8303627,N,12132.4527383,E,4,65,0.45,17.154,M,15.25,M,1,3335*45
$GNRMC,032604.200,A,2500.8303627,N,12132.4527383,E,0.06,249.12,030324,,,R,V*17
$GPHDT,137.322,T*33
$GNACCURACY,3.6*13
$GNGGA,032604.300,2500.8303625,N,12132.4527411,E,4,65,0.45,17.149,M,15.25,M,1,3335*46
$GNRMC,032604.300,A,2500.8303625,N,12132.4527411,E,0.02,249.12,030324,,,R,V*1C
$GPHDT,,T*1B
$GNACCURACY,3.6*13
$GNGGA,032604.400,2500.8303591,N,12132.4527443,E,4,65,0.45,17.135,M,15.25,M,1,3335*41
$GNRMC,032604.400,A,2500.8303591,N,12132.4527443,E,0.02,249.12,030324,,,R,V*10
$GPHDT,137.526,T*31
$GNACCURACY,3.6*13
$GNGGA,032604.500,2500.8303517,N,12132.4527508,E,4,65,0.45,17.141,M,15.25,M,1,3335*43
$GNRMC,032604.500,A,2500.8303517,N,12132.4527508,E,0.04,249.12,030324,,,R,V*17
$GPHDT,,T*1B
$GNACCURACY,3.6*13
$GNGGA,032604.600,2500.8303369,N,12132.4527638,E,4,65,0.45,17.105,M,15.25,M,0,3335*4E
$GNRMC,032604.600,A,2500.8303369,N,12132.4527638,E,0.06,249.12,030324,,,R,V*19
$GPHDT,137.296,T*3D
$GNACCURACY,3.6*13
$GNGGA,032604.700,2500.8303151,N,12132.4527836,E,4,64,0.45,17.155,M,15.25,M,0,3335*42
$GNRMC,032604.700,A,2500.8303151,N,12132.4527836,E,0.08,249.12,030324,,,R,V*1F
$GPHDT,,T*1B
$GNACCURACY,3.6*13
$GNGGA,032604.800,2500.8303025,N,12132.4528123,E,4,65,0.45,17.141,M,15.25,M,0,3335*49
$GNRMC,032604.800,A,2500.8303025,N,12132.4528123,E,0.08,249.12,030324,,,R,V*10
$GPHDT,138.168,T*30
$GNACCURACY,3.6*13
$GNGGA,032604.900,2500.8302783,N,12132.4528337,E,4,65,0.45,17.121,M,15.25,M,0,3335*43
$GNRMC,032604.900,A,2500.8302783,N,12132.4528337,E,0.09,249.12,030324,,,R,V*1D
$GPHDT,,T*1B
$GNACCURACY,3.6*13
$GNGGA,032605.000,2500.8302550,N,12132.4528551,E,4,65,0.45,17.131,M,15.25,M,1,3335*41
$GNRMC,032605.000,A,2500.8302550,N,12132.4528551,E,0.08,249.12,030324,,,R,V*1E
$GPHDT,138.635,T*3F
$GNACCURACY,3.6*13
$GNGGA,032605.100,2500.8302299,N,12132.4528725,E,4,65,0.45,17.140,M,15.25,M,1,3335*45
$GNRMC,032605.100,A,2500.8302299,N,12132.4528725,E,0.07,249.12,030324,,,R,V*13
$GPHDT,,T*1B
$GNGSA,A,3,08,194,27,199,195,04,16,09,21,31,196,26,0.81,0.45,0.67,1*04
$GNGSA,A,3,02,07,,,,,,,,,,,0.81,0.45,0.67,1*0D
$GNGSA,A,3,82,79,80,83,81,69,,,,,,,0.81,0.45,0.67,2*0A
$GNGSA,A,3,30,07,34,15,27,08,02,36,,,,,0.81,0.45,0.67,3*07
$GNGSA,A,3,06,16,34,39,09,40,07,12,24,10,11,25,0.81,0.45,0.67,4*08
$GNGSA,A,3,44,43,,,,,,,,,,,0.81,0.45,0.67,4*0A
$GPGSV,4,1,15,08,70,262,45,194,63,044,23,27,62,022,33,50,60,167,36,1*52
$GPGSV,4,2,15,199,60,167,36,195,53,127,32,04,41,228,44,16,40,042,27,1*63
$GPGSV,4,3,15,09,32,281,26,21,27,174,36,31,24,130,29,196,23,176,34,1*54
$GPGSV,4,4,15,26,22,073,26,02,17,184,32,07,15,319,28,1*5E
$GPGSV,3,1,09,08,70,262,46,194,63,044,35,27,62,022,35,199,60,167,43,8*65
$GPGSV,3,2,09,195,53,127,28,04,41,228,43,09,32,281,35,196,23,176,38,8*6F
$GPGSV,3,3,09,26,22,073,23,8*55
$GLGSV,2,1,07,82,68,111,37,79,38,063,26,80,38,350,32,83,37,177,24,1*75
$GLGSV,2,2,07,81,35,038,19,69,10,213,15,71,05,320,32,1*4A
$GAGSV,2,1,08,30,51,012,26,07,43,249,44,34,41,092,26,15,32,158,33,7*73
$GAGSV,2,2,08,27,31,301,43,08,24,188,29,02,21,068,23,36,13,044,,7*74
$GAGSV,2,1,08,30,51,012,32,07,43,249,45,34,41,092,25,15,32,158,40,1*76
$GAGSV,2,2,08,27,31,301,43,08,24,188,37,02,21,068,16,36,13,044,21,1*78
$GBGSV,5,1,17,06,87,263,43,16,85,174,44,34,74,162,45,39,73,164,43,1*7F
$GBGSV,5,2,17,09,72,319,38,40,69,304,42,07,64,283,40,12,63,064,33,1*7D
$GBGSV,5,3,17,24,55,071,38,10,53,268,39,11,51,190,42,25,46,333,41,1*75
$GBGSV,5,4,17,44,40,047,24,43,29,206,43,26,14,109,,33,10,224,,1*73
$GBGSV,5,5,17,41,09,271,21,1*4B
$GBGSV,2,1,08,34,74,162,43,39,73,164,43,40,69,304,44,24,55,071,36,4*7D
$GBGSV,2,2,08,25,46,333,37,44,40,047,26,43,29,206,42,41,09,271,29,4*77
$GNACCURACY,3.6*13
$PAIRSAT,1,35,2,0,201,3,0,200,4,0,221,5,0,200,6,0,200,7,0,201,8,0,221,9,0,221,10,0,200,11,0,200,12,0,200,13,0,200,14,0,200,15,0,200,16,0,201,17,0,200,18,0,200,19,0,200,20,0,200,21,0,201,22,0,200,23,0,200,24,0,200,25,0,200,26,0,221,27,0,221,28,0,200,29,0,200,30,0,200,31,0,201,32,0,200,194,0,621,195,0,621,196,0,620,199,0,621*58
$PAIRSAT,2,24,65,0,200,66,0,200,67,0,200,68,0,200,69,0,201,70,0,200,71,0,201,72,0,200,73,0,200,74,0,200,75,0,200,76,0,200,77,0,200,78,0,200,79,0,201,80,0,201,81,0,201,82,0,201,83,0,201,84,0,200,85,0,200,86,0,200,87,0,200,88,0,200*7B
$PAIRSAT,3,23,2,0,1221,3,0,1200,4,0,1200,5,0,200,7,0,1221,8,0,1221,9,0,1200,10,0,1200,11,0,1200,12,0,1200,13,0,1200,15,0,1221,19,0,1200,21,0,1200,24,0,1200,25,0,1200,26,0,1200,27,0,1221,30,0,1221,31,0,1200,33,0,1200,34,0,1221,36,0,1221*6A
$PAIRSAT,4,46,1,0,200,2,0,200,3,0,600,4,0,200,5,0,200,6,0,201,7,0,201,8,0,200,9,0,201,10,0,201,11,0,201,12,0,201,13,0,200,14,0,200,16,0,201,19,0,600,20,0,600,21,0,600,22,0,600,23,0,600,24,0,621,25,0,621,26,0,621,27,0,600,28,0,600,29,0,600,30,0,600,32,0,600,33,0,621,34,0,621,35,0,600,36,0,600,37,0,600,38,0,600,39,0,621,40,0,621,41,0,621,42,0,600,43,0,621,44,0,421,45,0,400,46,0,400,59,0,400,60,0,400,61,0,400,62,0,400*4A
$PAIRDGP,10,2,4,7,8,9,16,21,26,27,31*43
$GNGGA,032605.200,2500.8301922,N,12132.4528989,E,4,65,0.45,17.105,M,15.25,M,1,3335*47
$GNRMC,032605.200,A,2500.8301922,N,12132.4528989,E,0.06,249.12,030324,,,R,V*11
$GPHDT,137.860,T*3E
$GNACCURACY,3.6*13
$GNGGA,032605.300,2500.8301697,N,12132.4529211,E,4,65,0.45,17.124,M,15.25,M,1,3335*4F
$GNRMC,032605.300,A,2500.8301697,N,12132.4529211,E,0.06,249.12,030324,,,R,V*1A
$GPHDT,,T*1B
$GNACCURACY,3.6*13
$GNGGA,032605.400,2500.8301493,N,12132.4529464,E,4,65,0.45,17.132,M,15.25,M,1,3335*4D
$GNRMC,032605.400,A,2500.8301493,N,12132.4529464,E,0.07,249.12,030324,,,R,V*1E
$GPHDT,138.202,T*3F
$GNACCURACY,3.6*13
$GNGGA,032605.500,2500.8301194,N,12132.4529728,E,4,65,0.45,17.133,M,15.25,M,1,3335*44
$GNRMC,032605.500,A,2500.8301194,N,12132.4529728,E,0.13,249.12,030324,,,R,V*13
$GPHDT,,T*1B
$GNACCURACY,3.6*13
$GNGGA,032605.600,2500.8300995,N,12132.4530087,E,4,65,0.45,17.131,M,15.25,M,0,3335*46
$GNRMC,032605.600,A,2500.8300995,N,12132.4530087,E,0.08,249.12,030324,,,R,V*18
$GPHDT,139.053,T*38
$GNACCURACY,3.6*13
$GNGGA,032605.700,2500.8300778,N,12132.4530466,E,4,65,0.45,17.110,M,15.25,M,0,3335*42
$GNRMC,032605.700,A,2500.8300778,N,12132.4530466,E,0.14,249.12,030324,,,R,V*12
$GPHDT,,T*1B
$GNACCURACY,3.6*13
$GNGGA,032605.800,2500.8300549,N,12132.4530970,E,4,65,0.45,17.091,M,15.25,M,0,3335*4F
$GNRMC,032605.800,A,2500.8300549,N,12132.4530970,E,0.07,249.12,030324,,,R,V*15
$GPHDT,138.347,T*3F
$GNACCURACY,3.8*1D
$GNGGA,032605.900,2500.8300378,N,12132.4531270,E,4,62,0.47,17.086,M,15.25,M,0,3335*43
$GNRMC,032605.900,A,2500.8300378,N,12132.4531270,E,0.06,249.12,030324,,,R,V*1B
$GPHDT,,T*1B
$GNACCURACY,3.6*13
$GNGGA,032606.000,2500.8300111,N,12132.4531766,E,4,63,0.45,17.071,M,15.25,M,1,3335*4C
$GNRMC,032606.000,A,2500.8300111,N,12132.4531766,E,0.12,249.12,030324,,,R,V*1B
$GPHDT,140.749,T*3A
$GNACCURACY,3.6*13
$GNGGA,032606.100,2500.8299838,N,12132.4531986,E,4,63,0.45,17.057,M,15.25,M,1,3335*4A
$GNRMC,032606.100,A,2500.8299838,N,12132.4531986,E,0.23,249.12,030324,,,R,V*1B
$GPHDT,,T*1B
$GNGSA,A,3,08,194,27,199,195,04,16,09,21,31,196,26,0.74,0.45,0.58,1*02
$GNGSA,A,3,02,07,,,,,,,,,,,0.74,0.45,0.58,1*0B
$GNGSA,A,3,82,79,80,83,81,,,,,,,,0.74,0.45,0.58,2*03
$GNGSA,A,3,30,07,34,15,27,08,02,36,,,,,0.74,0.45,0.58,3*01
$GNGSA,A,3,06,16,34,39,09,40,07,12,24,10,11,25,0.74,0.45,0.58,4*0E
$GNGSA,A,3,44,43,,,,,,,,,,,0.74,0.45,0.58,4*0C
$GPGSV,4,1,15,08,70,262,47,194,63,044,24,27,62,022,28,50,60,167,38,1*53
$GPGSV,4,2,15,199,60,167,36,195,53,127,38,04,41,228,43,16,40,042,29,1*60
$GPGSV,4,3,15,09,32,281,30,21,27,174,36,31,24,130,33,196,23,176,34,1*58
$GPGSV,4,4,15,26,22,073,29,02,17,184,30,07,15,319,28,1*53
$GPGSV,2,1,08,08,70,262,46,194,63,044,28,27,62,022,33,199,60,167,41,8*6D
$GPGSV,2,2,08,195,53,127,42,04,41,228,43,09,32,281,32,196,23,176,40,8*6B
$GLGSV,2,1,07,82,68,111,39,79,38,063,27,80,38,350,29,83,37,177,26,1*72
$GLGSV,2,2,07,81,35,038,25,69,09,213,12,71,05,320,31,1*49
$GAGSV,2,1,08,30,51,012,23,07,43,249,43,34,41,092,25,15,32,158,33,7*72
$GAGSV,2,2,08,27,31,301,38,08,24,188,30,02,21,068,23,36,13,044,,7*70
$GAGSV,2,1,08,30,51,012,28,07,43,249,45,34,41,092,27,15,32,158,37,1*7F
$GAGSV,2,2,08,27,31,301,43,08,24,188,29,02,21,068,21,36,13,044,20,1*72
$GBGSV,5,1,17,06,87,263,43,16,85,174,43,34,74,162,45,39,73,164,41,1*7A
$GBGSV,5,2,17,09,72,319,42,40,69,304,45,07,64,283,39,12,63,064,24,1*7F
$GBGSV,5,3,17,24,55,071,35,10,53,268,39,11,51,190,43,25,46,333,41,1*79
$GBGSV,5,4,17,44,40,047,25,43,29,206,40,26,14,109,,33,10,224,,1*71
$GBGSV,5,5,17,41,09,271,24,1*4E
$GBGSV,2,1,08,34,74,162,43,39,73,164,43,40,69,304,45,24,55,071,37,4*7D
$GBGSV,2,2,08,25,46,333,39,44,40,047,22,43,29,206,39,41,09,271,24,4*7C
$GNACCURACY,3.6*13
$PAIRSAT,1,35,2,0,201,3,0,200,4,0,221,5,0,200,6,0,200,7,0,201,8,0,221,9,0,221,10,0,200,11,0,200,12,0,200,13,0,200,14,0,200,15,0,200,16,0,201,17,0,200,18,0,200,19,0,200,20,0,200,21,0,201,22,0,200,23,0,200,24,0,200,25,0,200,26,0,221,27,0,221,28,0,200,29,0,200,30,0,200,31,0,201,32,0,200,194,0,621,195,0,621,196,0,620,199,0,621*58
$PAIRSAT,2,24,65,0,200,66,0,200,67,0,200,68,0,200,69,0,201,70,0,200,71,0,201,72,0,200,73,0,200,74,0,200,75,0,200,76,0,200,77,0,200,78,0,200,79,0,201,80,0,201,81,0,201,82,0,201,83,0,201,84,0,200,85,0,200,86,0,200,87,0,200,88,0,200*7B
$PAIRSAT,3,23,2,0,1221,3,0,1200,4,0,1200,5,0,200,7,0,1221,8,0,1221,9,0,1200,10,0,1200,11,0,1200,12,0,1200,13,0,1200,15,0,1221,19,0,1200,21,0,1200,24,0,1200,25,0,1200,26,0,1200,27,0,1221,30,0,1221,31,0,1200,33,0,1200,34,0,1221,36,0,1221*6A
$PAIRSAT,4,46,1,0,200,2,0,200,3,0,600,4,0,200,5,0,200,6,0,201,7,0,201,8,0,200,9,0,201,10,0,201,11,0,201,12,0,201,13,0,200,14,0,200,16,0,201,19,0,600,20,0,600,21,0,600,22,0,600,23,0,600,24,0,621,25,0,621,26,0,621,27,0,600,28,0,600,29,0,600,30,0,600,32,0,600,33,0,621,34,0,621,35,0,600,36,0,600,37,0,600,38,0,600,39,0,621,40,0,621,41,0,621,42,0,600,43,0,621,44,0,421,45,0,400,46,0,400,59,0,400,60,0,400,61,0,400,62,0,400*4A
$PAIRDGP,10,2,4,7,8,9,16,21,26,27,31*43
$GNGGA,032606.200,2500.8299464,N,12132.4532437,E,4,63,0.45,17.041,M,15.25,M,1,3335*4F
$GNRMC,032606.200,A,2500.8299464,N,12132.4532437,E,0.37,249.12,030324,,,R,V*1C
$GPHDT,142.225,T*37
$GNACCURACY,3.6*13
$GNGGA,032606.300,2500.8299081,N,12132.4532616,E,4,64,0.45,17.061,M,15.25,M,1,3335*45
$GNRMC,032606.300,A,2500.8299081,N,12132.4532616,E,0.49,249.12,030324,,,R,V*1A
$GPHDT,,T*1B
$GNACCURACY,3.6*13
$GNGGA,032606.400,2500.8298545,N,12132.4532956,E,4,63,0.45,17.154,M,15.25,M,1,3335*45
$GNRMC,032606.400,A,2500.8298545,N,12132.4532956,E,0.63,147.94,030324,,,R,V*11
$GPHDT,139.362,T*39
$GNACCURACY,3.6*13
$GNGGA,032606.500,2500.8298154,N,12132.4533128,E,4,63,0.45,17.123,M,15.25,M,1,3335*40
$GNRMC,032606.500,A,2500.8298154,N,12132.4533128,E,0.21,147.94,030324,,,R,V*12
$GPHDT,,T*1B
$GNACCURACY,3.6*13
$GNGGA,032606.600,2500.8297739,N,12132.4533624,E,4,64,0.45,17.150,M,15.25,M,0,3335*48
$GNRMC,032606.600,A,2500.8297739,N,12132.4533624,E,0.36,147.94,030324,,,R,V*1E
$GPHDT,139.584,T*37
$GNACCURACY,3.6*13
$GNGGA,032606.700,2500.8297441,N,12132.4533899,E,4,63,0.47,17.101,M,15.25,M,0,3335*4C
$GNRMC,032606.700,A,2500.8297441,N,12132.4533899,E,0.50,147.94,030324,,,R,V*1B
$GPHDT,,T*1B
$GNACCURACY,3.6*13
$GNGGA,032606.800,2500.8297065,N,12132.4534383,E,4,63,0.47,17.102,M,15.25,M,0,3335*45
$GNRMC,032606.800,A,2500.8297065,N,12132.4534383,E,0.62,142.59,030324,,,R,V*14
$GPHDT,139.628,T*32
$GNACCURACY,3.6*13
$GNGGA,032606.900,2500.8296737,N,12132.4534686,E,4,63,0.47,17.110,M,15.25,M,0,3335*46
$GNRMC,032606.900,A,2500.8296737,N,12132.4534686,E,0.75,140.65,030324,,,R,V*1F
$GPHDT,,T*1B
$GNACCURACY,3.6*13
$GNGGA,032607.000,2500.8296625,N,12132.4535151,E,4,63,0.47,17.090,M,15.25,M,1,3335*48
$GNRMC,032607.000,A,2500.8296625,N,12132.4535151,E,0.86,138.67,030324,,,R,V*18
$GPHDT,138.004,T*3B
$GNACCURACY,3.6*13
$GNGGA,032607.100,2500.8296163,N,12132.4535589,E,4,64,0.45,17.128,M,15.25,M,1,3335*4A
$GNRMC,032607.100,A,2500.8296163,N,12132.4535589,E,0.95,137.98,030324,,,R,V*10
$GPHDT,,T*1B
$GNGSA,A,3,08,194,27,199,195,04,09,21,31,196,26,02,0.74,0.47,0.58,1*05
$GNGSA,A,3,07,,,,,,,,,,,,0.74,0.47,0.58,1*0B
$GNGSA,A,3,82,79,80,83,81,,,,,,,,0.74,0.47,0.58,2*01
$GNGSA,A,3,30,07,34,15,27,08,02,36,,,,,0.74,0.47,0.58,3*03
$GNGSA,A,3,06,16,34,39,09,40,07,12,24,10,11,25,0.74,0.47,0.58,4*0C
$GNGSA,A,3,44,43,,,,,,,,,,,0.74,0.47,0.58,4*0E
$GPGSV,4,1,15,08,70,262,46,194,63,044,22,27,62,022,31,50,60,167,38,1*5C
$GPGSV,4,2,15,199,60,167,35,195,53,127,38,04,41,228,42,16,40,042,20,1*6B
$GPGSV,4,3,15,09,32,281,30,21,27,174,39,31,24,130,30,196,23,176,33,1*53
$GPGSV,4,4,15,26,22,073,23,02,17,184,31,07,15,319,31,1*50
$GPGSV,3,1,09,08,70,262,46,194,63,044,29,27,62,022,35,199,60,167,43,8*68
$GPGSV,3,2,09,195,53,127,42,04,41,228,43,09,32,281,38,196,23,176,38,8*6E
$GPGSV,3,3,09,26,22,073,21,8*57
$GLGSV,2,1,07,82,68,111,38,79,38,063,27,80,38,351,28,83,37,177,25,1*70
$GLGSV,2,2,07,81,35,038,22,69,09,213,14,71,05,320,27,1*4F
$GAGSV,2,1,08,30,51,012,34,07,43,249,43,34,41,092,28,15,32,158,36,7*7C
$GAGSV,2,2,08,27,31,301,39,08,24,188,32,02,21,068,21,36,13,044,19,7*79
$GAGSV,2,1,08,30,51,012,33,07,43,249,46,34,41,092,35,15,32,158,41,1*74
$GAGSV,2,2,08,27,31,301,40,08,24,188,34,02,21,068,22,36,13,044,20,1*7E
$GBGSV,5,1,17,06,87,263,43,16,85,174,44,34,74,162,45,39,73,164,41,1*7D
$GBGSV,5,2,17,09,72,319,41,40,69,304,44,07,64,283,40,12,63,064,31,1*77
$GBGSV,5,3,17,24,55,071,36,10,53,268,40,11,51,190,43,25,46,333,38,1*7A
$GBGSV,5,4,17,44,40,047,27,43,29,206,42,26,14,109,,33,10,224,,1*71
$GBGSV,5,5,17,41,09,271,24,1*4E
$GBGSV,2,1,08,34,74,162,43,39,73,164,44,40,69,304,44,24,55,071,35,4*79
$GBGSV,2,2,08,25,46,333,40,44,40,047,21,43,29,206,39,41,09,271,28,4*7D
$GNACCURACY,3.6*13
$PAIRSAT,1,35,2,0,201,3,0,200,4,0,221,5,0,200,6,0,200,7,0,201,8,0,221,9,0,221,10,0,200,11,0,200,12,0,200,13,0,200,14,0,200,15,0,200,16,0,201,17,0,200,18,0,200,19,0,200,20,0,200,21,0,201,22,0,200,23,0,200,24,0,200,25,0,200,26,0,221,27,0,221,28,0,200,29,0,200,30,0,200,31,0,201,32,0,200,194,0,621,195,0,621,196,0,620,199,0,621*58
$PAIRSAT,2,24,65,0,200,66,0,200,67,0,200,68,0,200,69,0,201,70,0,200,71,0,201,72,0,200,73,0,200,74,0,200,75,0,200,76,0,200,77,0,200,78,0,200,79,0,201,80,0,201,81,0,201,82,0,201,83,0,201,84,0,200,85,0,200,86,0,200,87,0,200,88,0,200*7B
$PAIRSAT,3,23,2,0,1221,3,0,1200,4,0,1200,5,0,200,7,0,1221,8,0,1221,9,0,1200,10,0,1200,11,0,1200,12,0,1200,13,0,1200,15,0,1221,19,0,1200,21,0,1200,24,0,1200,25,0,1200,26,0,1200,27,0,1221,30,0,1221,31,0,1200,33,0,1200,34,0,1221,36,0,1221*6A
$PAIRSAT,4,46,1,0,200,2,0,200,3,0,600,4,0,200,5,0,200,6,0,201,7,0,201,8,0,200,9,0,201,10,0,201,11,0,201,12,0,201,13,0,200,14,0,200,16,0,201,19,0,600,20,0,600,21,0,600,22,0,600,23,0,600,24,0,621,25,0,621,26,0,621,27,0,600,28,0,600,29,0,600,30,0,600,32,0,600,33,0,621,34,0,621,35,0,600,36,0,600,37,0,600,38,0,600,39,0,621,40,0,621,41,0,621,42,0,600,43,0,621,44,0,421,45,0,400,46,0,400,59,0,400,60,0,400,61,0,400,62,0,400*4A
$PAIRDGP,10,2,4,7,8,9,16,21,26,27,31*43
$GNGGA,032607.200,2500.8295800,N,12132.4536064,E,4,64,0.47,17.092,M,15.25,M,1,3335*41
$GNRMC,032607.200,A,2500.8295800,N,12132.4536064,E,1.05,137.86,030324,,,R,V*1E
$GPHDT,135.452,T*31
$GNACCURACY,3.6*13
$GNGGA,032607.300,2500.8295376,N,12132.4536366,E,4,64,0.47,17.150,M,15.25,M,1,3335*44
$GNRMC,032607.300,A,2500.8295376,N,12132.4536366,E,1.16,137.64,030324,,,R,V*1A
$GPHDT,,T*1B
$GNACCURACY,3.6*13
$GNGGA,032607.400,2500.8294968,N,12132.4536832,E,4,64,0.47,17.081,M,15.25,M,1,3335*40
$GNRMC,032607.400,A,2500.8294968,N,12132.4536832,E,1.26,138.24,030324,,,R,V*1B
$GPHDT,139.512,T*38
$GNACCURACY,3.6*13
$GNGGA,032607.500,2500.8294553,N,12132.4537207,E,4,64,0.47,17.097,M,15.25,M,0,3335*4E
$GNRMC,032607.500,A,2500.8294553,N,12132.4537207,E,1.35,138.85,030324,,,R,V*1A
$GPHDT,,T*1B
$GNACCURACY,3.6*13
$GNGGA,032607.600,2500.8294147,N,12132.4537801,E,4,65,0.45,17.093,M,15.25,M,0,3335*47
$GNRMC,032607.600,A,2500.8294147,N,12132.4537801,E,1.40,140.11,030324,,,R,V*14
$GPHDT,141.222,T*33
$GNACCURACY,3.6*13
$GNGGA,032607.700,2500.8293665,N,12132.4537945,E,4,64,0.45,17.138,M,15.25,M,0,3335*46
$GNRMC,032607.700,A,2500.8293665,N,12132.4537945,E,1.45,139.52,030324,,,R,V*18
$GPHDT,,T*1B
$GNACCURACY,3.6*13
$GNGGA,032607.800,2500.8293301,N,12132.4538316,E,4,65,0.45,17.144,M,15.25,M,0,3335*47
$GNRMC,032607.800,A,2500.8293301,N,12132.4538316,E,1.49,138.32,030324,,,R,V*18
$GPHDT,142.082,T*38
$GNACCURACY,3.6*13
$GNGGA,032607.900,2500.8292917,N,12132.4538739,E,4,65,0.45,17.108,M,15.25,M,0,3335*4B
$GNRMC,032607.900,A,2500.8292917,N,12132.4538739,E,1.53,138.96,030324,,,R,V*19
$GPHDT,,T*1B
$GNACCURACY,3.6*13
$GNGGA,032608.000,2500.8292572,N,12132.4539338,E,4,64,0.45,17.078,M,15.25,M,1,3335*40
$GNRMC,032608.000,A,2500.8292572,N,12132.4539338,E,1.57,137.11,030324,,,R,V*10
$GPHDT,139.820,T*34
$GNACCURACY,3.6*13
$GNGGA,032608.100,2500.8292234,N,12132.4539511,E,4,64,0.45,17.129,M,15.25,M,1,3335*4C
$GNRMC,032608.100,A,2500.8292234,N,12132.4539511,E,1.58,136.00,030324,,,R,V*17
$GPHDT,,T*1B
$GNGSA,A,3,08,194,27,199,195,04,16,09,21,31,196,02,0.74,0.45,0.58,1*04
$GNGSA,A,3,07,26,,,,,,,,,,,0.74,0.45,0.58,1*0D
$GNGSA,A,3,82,79,80,83,81,,,,,,,,0.74,0.45,0.58,2*03
$GNGSA,A,3,30,07,34,15,27,08,02,36,,,,,0.74,0.45,0.58,3*01
$GNGSA,A,3,06,16,34,39,09,40,07,12,24,10,11,25,0.74,0.45,0.58,4*0E
$GNGSA,A,3,44,43,,,,,,,,,,,0.74,0.45,0.58,4*0C
$GPGSV,4,1,15,08,70,262,46,194,63,044,23,27,62,022,35,50,60,167,38,1*59
$GPGSV,4,2,15,199,60,167,36,195,53,127,36,04,41,228,42,16,40,042,27,1*61
$GPGSV,4,3,15,09,32,281,26,21,27,174,36,31,24,130,32,196,23,176,35,1*5F
$GPGSV,4,4,15,26,22,073,22,02,17,184,30,07,15,319,27,1*57
$GPGSV,3,1,09,08,70,262,47,194,63,044,37,27,62,022,37,199,60,167,44,8*63
$GPGSV,3,2,09,195,53,127,40,04,41,228,43,09,32,281,28,196,23,176,39,8*6C
$GPGSV,3,3,09,26,22,073,24,8*52
$GLGSV,2,1,07,82,68,111,38,79,38,063,22,80,38,351,28,83,37,177,25,1*75
$GLGSV,2,2,07,81,35,038,22,69,09,213,16,71,05,320,29,1*43
$GAGSV,2,1,08,30,51,012,23,07,43,249,43,34,41,092,24,15,32,158,32,7*72
$GAGSV,2,2,08,27,31,301,36,08,24,188,30,02,21,068,24,36,13,044,28,7*73
$GAGSV,2,1,08,30,51,012,36,07,43,249,45,34,41,092,26,15,32,158,35,1*73
$GAGSV,2,2,08,27,31,301,41,08,24,188,34,02,21,068,22,36,13,044,23,1*7C
$GBGSV,5,1,17,06,87,263,42,16,85,174,45,34,74,162,45,39,73,164,43,1*7F
$GBGSV,5,2,17,09,72,319,41,40,69,304,45,07,64,283,41,12,63,064,27,1*70
$GBGSV,5,3,17,24,55,071,31,10,53,268,40,11,51,190,42,25,46,333,41,1*72
$GBGSV,5,4,17,44,40,047,24,43,29,206,41,26,14,109,,33,10,224,,1*71
$GBGSV,5,5,17,41,09,271,24,1*4E
$GBGSV,2,1,08,34,74,162,42,39,73,164,42,40,69,304,45,24,55,071,38,4*72
$GBGSV,2,2,08,25,46,333,41,44,40,047,24,43,29,206,38,41,09,271,23,4*73
$GNACCURACY,3.6*13
$PAIRSAT,1,35,2,0,201,3,0,200,4,0,221,5,0,200,6,0,200,7,0,201,8,0,221,9,0,221,10,0,200,11,0,200,12,0,200,13,0,200,14,0,200,15,0,200,16,0,201,17,0,200,18,0,200,19,0,200,20,0,200,21,0,201,22,0,200,23,0,200,24,0,200,25,0,200,26,0,221,27,0,221,28,0,200,29,0,200,30,0,200,31,0,201,32,0,200,194,0,621,195,0,621,196,0,620,199,0,621*58
$PAIRSAT,2,24,65,0,200,66,0,200,67,0,200,68,0,200,69,0,201,70,0,200,71,0,201,72,0,200,73,0,200,74,0,200,75,0,200,76,0,200,77,0,200,78,0,200,79,0,201,80,0,201,81,0,201,82,0,201,83,0,201,84,0,200,85,0,200,86,0,200,87,0,200,88,0,200*7B
$PAIRSAT,3,23,2,0,1221,3,0,1200,4,0,1200,5,0,200,7,0,1221,8,0,1221,9,0,1200,10,0,1200,11,0,1200,12,0,1200,13,0,1200,15,0,1221,19,0,1200,21,0,1200,24,0,1200,25,0,1200,26,0,1200,27,0,1221,30,0,1221,31,0,1200,33,0,1200,34,0,1221,36,0,1221*6A
$PAIRSAT,4,46,1,0,200,2,0,200,3,0,600,4,0,200,5,0,200,6,0,201,7,0,201,8,0,200,9,0,201,10,0,201,11,0,201,12,0,201,13,0,200,14,0,200,16,0,201,19,0,600,20,0,600,21,0,600,22,0,600,23,0,600,24,0,621,25,0,621,26,0,621,27,0,600,28,0,600,29,0,600,30,0,600,32,0,600,33,0,621,34,0,621,35,0,600,36,0,600,37,0,600,38,0,600,39,0,621,40,0,621,41,0,621,42,0,600,43,0,621,44,0,421,45,0,400,46,0,400,59,0,400,60,0,400,61,0,400,62,0,400*4A
$PAIRDGP,10,2,4,7,8,9,16,21,26,27,31*43
$GNGGA,032608.200,2500.8291894,N,12132.4539955,E,4,63,0.45,17.096,M,15.25,M,1,3335*42
$GNRMC,032608.200,A,2500.8291894,N,12132.4539955,E,1.61,135.59,030324,,,R,V*1E
$GPHDT,139.761,T*3E
$GNACCURACY,3.6*13
$GNGGA,032608.300,2500.8291511,N,12132.4540269,E,4,64,0.45,17.103,M,15.25,M,1,3335*43
$GNRMC,032608.300,A,2500.8291511,N,12132.4540269,E,1.60,135.54,030324,,,R,V*19
$GPHDT,,T*1B
$GNACCURACY,3.6*13
$GNGGA,032608.400,2500.8291335,N,12132.4540998,E,4,62,0.45,17.041,M,15.25,M,1,3335*40
$GNRMC,032608.400,A,2500.8291335,N,12132.4540998,E,1.61,136.27,030324,,,R,V*1D
$GPHDT,147.379,T*3A
$GNACCURACY,3.6*13
$GNGGA,032608.500,2500.8290971,N,12132.4541523,E,4,64,0.45,17.001,M,15.25,M,1,3335*45
$GNRMC,032608.500,A,2500.8290971,N,12132.4541523,E,1.67,136.74,030324,,,R,V*1A
$GPHDT,,T*1B
$GNACCURACY,3.6*13
$GNGGA,032608.600,2500.8290322,N,12132.4541591,E,4,64,0.45,17.106,M,15.25,M,0,3335*44
$GNRMC,032608.600,A,2500.8290322,N,12132.4541591,E,1.67,136.51,030324,,,R,V*1B
$GPHDT,138.064,T*3D
$GNACCURACY,3.6*13
$GNGGA,032608.700,2500.8289774,N,12132.4541903,E,4,64,0.45,17.163,M,15.25,M,0,3335*4E
$GNRMC,032608.700,A,2500.8289774,N,12132.4541903,E,1.67,137.93,030324,,,R,V*1D
$GPHDT,,T*1B
$GNACCURACY,3.6*13
$GNGGA,032608.800,2500.8289366,N,12132.4542406,E,4,64,0.45,17.182,M,15.25,M,0,3335*42
$GNRMC,032608.800,A,2500.8289366,N,12132.4542406,E,1.71,138.97,030324,,,R,V*12
$GPHDT,138.447,T*38
$GNACCURACY,3.6*13
$GNGGA,032608.900,2500.8288921,N,12132.4542678,E,4,64,0.45,17.181,M,15.25,M,0,3335*43
$GNRMC,032608.900,A,2500.8288921,N,12132.4542678,E,1.80,139.90,030324,,,R,V*18
$GPHDT,,T*1B
$GNACCURACY,3.6*13
$GNGGA,032609.000,2500.8288738,N,12132.4543199,E,4,64,0.45,17.039,M,15.25,M,1,3335*47
$GNRMC,032609.000,A,2500.8288738,N,12132.4543199,E,1.79,142.22,030324,,,R,V*1C
$GPHDT,141.462,T*31
$GNACCURACY,3.6*13
$GNGGA,032609.100,2500.8288310,N,12132.4543735,E,4,64,0.45,17.080,M,15.25,M,1,3335*4A
$GNRMC,032609.100,A,2500.8288310,N,12132.4543735,E,1.85,135.38,030324,,,R,V*1B
$GPHDT,,T*1B
$GNGSA,A,3,08,194,27,199,195,04,16,09,21,31,196,26,0.74,0.45,0.58,1*02
$GNGSA,A,3,02,07,,,,,,,,,,,0.74,0.45,0.58,1*0B
$GNGSA,A,3,82,79,80,83,81,,,,,,,,0.74,0.45,0.58,2*03
$GNGSA,A,3,30,07,34,15,27,08,02,36,,,,,0.74,0.45,0.58,3*01
$GNGSA,A,3,06,16,34,39,09,40,07,12,24,10,11,25,0.74,0.45,0.58,4*0E
$GNGSA,A,3,44,43,,,,,,,,,,,0.74,0.45,0.58,4*0C
$GPGSV,4,1,15,08,70,262,45,194,63,044,29,27,62,022,30,50,60,167,39,1*54
$GPGSV,4,2,15,199,60,167,36,195,53,127,39,04,41,228,44,16,40,042,21,1*6E
$GPGSV,4,3,15,09,32,281,32,21,27,174,39,31,24,130,27,196,23,176,35,1*51
$GPGSV,4,4,15,26,22,073,23,02,17,184,28,07,15,319,28,1*50
$GPGSV,3,1,09,08,70,262,46,194,63,044,34,27,62,022,28,199,60,167,45,8*6E
$GPGSV,3,2,09,195,53,127,42,04,41,228,44,09,32,281,30,196,23,176,41,8*6F
$GPGSV,3,3,09,26,22,073,21,8*57
$GLGSV,2,1,07,82,68,111,44,79,38,063,24,80,38,351,30,83,37,177,24,1*70
$GLGSV,2,2,07,81,35,038,25,69,09,213,13,71,05,320,23,1*4B
$GAGSV,2,1,08,30,51,012,31,07,43,249,43,34,41,092,23,15,32,158,30,7*74
$GAGSV,2,2,08,27,31,301,31,08,24,188,32,02,21,068,21,36,13,044,25,7*7E
$GAGSV,2,1,08,30,51,012,29,07,43,249,45,34,41,092,35,15,32,158,39,1*73
$GAGSV,2,2,08,27,31,301,41,08,24,188,32,02,21,068,20,36,13,044,23,1*78
$GBGSV,5,1,17,06,87,262,42,16,85,174,44,34,74,162,45,39,73,164,44,1*78
$GBGSV,5,2,17,09,72,319,40,40,69,304,43,07,64,283,41,12,63,064,27,1*77
$GBGSV,5,3,17,24,55,071,34,10,53,268,39,11,51,190,43,25,46,333,36,1*78
$GBGSV,5,4,17,44,40,047,27,43,29,206,41,26,14,109,,33,10,224,,1*72
$GBGSV,5,5,17,41,09,271,25,1*4F
$GBGSV,2,1,08,34,74,162,45,39,73,164,44,40,69,304,44,24,55,071,37,4*7D
$GBGSV,2,2,08,25,46,333,38,44,40,047,27,43,29,206,39,41,09,271,26,4*7A
$GNACCURACY,3.6*13
$PAIRSAT,1,35,2,0,201,3,0,200,4,0,221,5,0,200,6,0,200,7,0,201,8,0,221,9,0,221,10,0,200,11,0,200,12,0,200,13,0,200,14,0,200,15,0,200,16,0,201,17,0,200,18,0,200,19,0,200,20,0,200,21,0,201,22,0,200,23,0,200,24,0,200,25,0,200,26,0,221,27,0,221,28,0,200,29,0,200,30,0,200,31,0,201,32,0,200,194,0,621,195,0,621,196,0,620,199,0,621*58
$PAIRSAT,2,24,65,0,200,66,0,200,67,0,200,68,0,200,69,0,201,70,0,200,71,0,201,72,0,200,73,0,200,74,0,200,75,0,200,76,0,200,77,0,200,78,0,200,79,0,201,80,0,201,81,0,201,82,0,201,83,0,201,84,0,200,85,0,200,86,0,200,87,0,200,88,0,200*7B
$PAIRSAT,3,23,2,0,1221,3,0,1200,4,0,1200,5,0,200,7,0,1221,8,0,1221,9,0,1200,10,0,1200,11,0,1200,12,0,1200,13,0,1200,15,0,1221,19,0,1200,21,0,1200,24,0,1200,25,0,1200,26,0,1200,27,0,1221,30,0,1221,31,0,1200,33,0,1200,34,0,1221,36,0,1221*6A
$PAIRSAT,4,46,1,0,200,2,0,200,3,0,600,4,0,200,5,0,200,6,0,201,7,0,201,8,0,200,9,0,201,10,0,201,11,0,201,12,0,201,13,0,200,14,0,200,16,0,201,19,0,600,20,0,600,21,0,600,22,0,600,23,0,600,24,0,621,25,0,621,26,0,621,27,0,600,28,0,600,29,0,600,30,0,600,32,0,600,33,0,621,34,0,621,35,0,600,36,0,600,37,0,600,38,0,600,39,0,621,40,0,621,41,0,621,42,0,600,43,0,621,44,0,421,45,0,400,46,0,400,59,0,400,60,0,400,61,0,400,62,0,400*4A
$PAIRDGP,10,2,4,7,8,9,16,21,26,27,31*43
$GNGGA,032609.200,2500.8287841,N,12132.4543904,E,4,64,0.45,17.133,M,15.25,M,1,3335*4C
$GNRMC,032609.200,A,2500.8287841,N,12132.4543904,E,1.89,130.58,030324,,,R,V*1B
$GPHDT,137.903,T*3A
$GNACCURACY,3.6*13
$GNGGA,032609.300,2500.8287390,N,12132.4544499,E,4,64,0.45,17.121,M,15.25,M,1,3335*47
$GNRMC,032609.300,A,2500.8287390,N,12132.4544499,E,1.95,129.92,030324,,,R,V*10
$GPHDT,,T*1B
$GNACCURACY,3.6*13
$GNGGA,032609.400,2500.8287253,N,12132.4544980,E,4,64,0.45,17.097,M,15.25,M,1,3335*47
$GNRMC,032609.400,A,2500.8287253,N,12132.4544980,E,1.79,132.71,030324,,,R,V*19
$GPHDT,141.694,T*3A
$GNACCURACY,3.6*13
$GNGGA,032609.500,2500.8286868,N,12132.4545311,E,4,64,0.45,17.049,M,15.25,M,1,3335*45
$GNRMC,032609.500,A,2500.8286868,N,12132.4545311,E,1.77,135.75,030324,,,R,V*15
$GPHDT,,T*1B
$GNACCURACY,3.6*13
$GNGGA,032609.600,2500.8286433,N,12132.4545777,E,4,64,0.45,17.122,M,15.25,M,1,3335*4C
$GNRMC,032609.600,A,2500.8286433,N,12132.4545777,E,1.85,140.63,030324,,,R,V*18
$GPHDT,140.640,T*32
$GNACCURACY,3.6*13
$GNGGA,032609.700,2500.8286096,N,12132.4546215,E,4,64,0.45,17.078,M,15.25,M,1,3335*4A
$GNRMC,032609.700,A,2500.8286096,N,12132.4546215,E,1.93,136.55,030324,,,R,V*13
$GPHDT,,T*1B
$GNACCURACY,3.6*13
$GNGGA,032609.800,2500.8285727,N,12132.4546639,E,4,64,0.45,17.122,M,15.25,M,0,3335*4E
$GNRMC,032609.800,A,2500.8285727,N,12132.4546639,E,1.95,134.80,030324,,,R,V*14
$GPHDT,142.238,T*3B
$GNACCURACY,3.6*13
$GNGGA,032609.900,2500.8285269,N,12132.4547066,E,4,64,0.45,17.160,M,15.25,M,0,3335*4B
$GNRMC,032609.900,A,2500.8285269,N,12132.4547066,E,1.96,132.39,030324,,,R,V*10
$GPHDT,,T*1B
$GNACCURACY,3.6*13
$GNGGA,032610.000,2500.8284767,N,12132.4547306,E,4,64,0.45,17.148,M,15.25,M,1,3335*4E
$GNRMC,032610.000,A,2500.8284767,N,12132.4547306,E,1.92,144.75,030324,,,R,V*13
$GPHDT,141.083,T*3A
$GNACCURACY,3.6*13
$GNGGA,032610.100,2500.8284298,N,12132.4547641,E,4,63,0.45,17.188,M,15.25,M,1,3335*47
$GNRMC,032610.100,A,2500.8284298,N,12132.4547641,E,1.89,143.51,030324,,,R,V*1A
$GPHDT,,T*1B
$GNGSA,A,3,08,194,27,199,195,04,16,09,21,31,196,26,0.74,0.45,0.58,1*02
$GNGSA,A,3,02,07,,,,,,,,,,,0.74,0.45,0.58,1*0B
$GNGSA,A,3,82,79,80,83,81,,,,,,,,0.74,0.45,0.58,2*03
$GNGSA,A,3,30,07,34,15,27,08,02,36,,,,,0.74,0.45,0.58,3*01
$GNGSA,A,3,06,16,34,39,09,40,07,12,24,10,11,25,0.74,0.45,0.58,4*0E
$GNGSA,A,3,44,43,,,,,,,,,,,0.74,0.45,0.58,4*0C
$GPGSV,4,1,15,08,70,262,44,194,63,044,26,27,62,022,30,50,60,167,37,1*54
$GPGSV,4,2,15,199,60,167,35,195,53,127,42,04,41,228,44,16,40,042,24,1*64
$GPGSV,4,3,15,09,32,281,34,21,27,174,38,31,24,130,29,196,23,176,34,1*59
$GPGSV,4,4,15,26,22,073,24,02,17,184,30,07,15,319,27,1*51
$GPGSV,3,1,09,08,70,262,48,194,63,044,27,27,62,022,34,199,60,167,43,8*69
$GPGSV,3,2,09,195,53,127,44,04,41,228,44,09,32,281,36,196,23,176,39,8*60
$GPGSV,3,3,09,26,22,073,21,8*57
$GLGSV,2,1,07,82,68,111,39,79,38,063,27,80,38,351,26,83,37,177,25,1*7F
$GLGSV,2,2,07,81,35,038,25,69,09,213,14,71,05,320,23,1*4C
$GAGSV,2,1,08,30,51,012,31,07,43,249,43,34,41,092,24,15,32,158,32,7*71
$GAGSV,2,2,08,27,31,301,31,08,24,188,28,02,21,068,23,36,13,044,26,7*74
$GAGSV,2,1,07,30,51,012,35,07,43,249,46,34,41,092,28,15,32,158,38,1*7F
$GAGSV,2,2,07,27,31,301,40,08,24,188,35,02,21,068,20,1*47
$GBGSV,5,1,17,06,87,262,43,16,85,175,44,34,74,162,45,39,73,164,43,1*7F
$GBGSV,5,2,17,09,72,319,40,40,69,304,43,07,64,283,41,12,63,064,28,1*78
$GBGSV,5,3,17,24,55,071,30,10,53,268,41,11,51,190,41,25,46,333,41,1*71
$GBGSV,5,4,17,44,40,047,26,43,29,206,41,26,14,109,,33,10,224,,1*73
$GBGSV,5,5,17,41,09,271,23,1*49
$GBGSV,2,1,08,34,74,162,45,39,73,164,45,40,69,304,45,24,55,071,34,4*7E
$GBGSV,2,2,08,25,46,333,39,44,40,047,25,43,29,206,39,41,09,271,26,4*79
$GNACCURACY,3.6*13
$PAIRSAT,1,35,2,0,201,3,0,200,4,0,221,5,0,200,6,0,200,7,0,201,8,0,221,9,0,221,10,0,200,11,0,200,12,0,200,13,0,200,14,0,200,15,0,200,16,0,201,17,0,200,18,0,200,19,0,200,20,0,200,21,0,201,22,0,200,23,0,200,24,0,200,25,0,200,26,0,221,27,0,221,28,0,200,29,0,200,30,0,200,31,0,201,32,0,200,194,0,621,195,0,621,196,0,620,199,0,621*58
$PAIRSAT,2,24,65,0,200,66,0,200,67,0,200,68,0,200,69,0,201,70,0,200,71,0,201,72,0,200,73,0,200,74,0,200,75,0,200,76,0,200,77,0,200,78,0,200,79,0,201,80,0,201,81,0,201,82,0,201,83,0,201,84,0,200,85,0,200,86,0,200,87,0,200,88,0,200*7B
$PAIRSAT,3,23,2,0,1221,3,0,1200,4,0,1200,5,0,200,7,0,1221,8,0,1221,9,0,1200,10,0,1200,11,0,1200,12,0,1200,13,0,1200,15,0,1221,19,0,1200,21,0,1200,24,0,1200,25,0,1200,26,0,1200,27,0,1221,30,0,1221,31,0,1200,33,0,1200,34,0,1221,36,0,1221*6A
$PAIRSAT,4,46,1,0,200,2,0,200,3,0,600,4,0,200,5,0,200,6,0,201,7,0,201,8,0,200,9,0,201,10,0,201,11,0,201,12,0,201,13,0,200,14,0,200,16,0,201,19,0,600,20,0,600,21,0,600,22,0,600,23,0,600,24,0,621,25,0,621,26,0,621,27,0,600,28,0,600,29,0,600,30,0,600,32,0,600,33,0,621,34,0,621,35,0,600,36,0,600,37,0,600,38,0,600,39,0,621,40,0,621,41,0,621,42,0,600,43,0,621,44,0,421,45,0,400,46,0,400,59,0,400,60,0,400,61,0,400,62,0,400*4A
$PAIRDGP,10,2,4,7,8,9,16,21,26,27,31*43
$GNGGA,032610.200,2500.8283891,N,12132.4548074,E,4,63,0.45,17.130,M,15.25,M,1,3335*4C
$GNRMC,032610.200,A,2500.8283891,N,12132.4548074,E,1.92,144.60,030324,,,R,V*1D
$GPHDT,139.518,T*32
$GNACCURACY,3.6*13
$GNGGA,032610.300,2500.8283414,N,12132.4548380,E,4,63,0.45,17.201,M,15.25,M,1,3335*45
$GNRMC,032610.300,A,2500.8283414,N,12132.4548380,E,1.98,139.66,030324,,,R,V*13
$GPHDT,,T*1B
$GNACCURACY,3.6*13
$GNGGA,032610.400,2500.8283088,N,12132.4548816,E,4,63,0.45,17.126,M,15.25,M,1,3335*41
$GNRMC,032610.400,A,2500.8283088,N,12132.4548816,E,1.78,133.94,030324,,,R,V*18
$GPHDT,138.903,T*35
$GNACCURACY,3.6*13
$GNGGA,032610.500,2500.8282771,N,12132.4549243,E,4,63,0.45,17.119,M,15.25,M,1,3335*47
$GNRMC,032610.500,A,2500.8282771,N,12132.4549243,E,1.76,134.02,030324,,,R,V*14
$GPHDT,,T*1B
$GNACCURACY,3.6*13
$GNGGA,032610.600,2500.8282298,N,12132.4549664,E,4,63,0.45,17.159,M,15.25,M,0,3335*42
$GNRMC,032610.600,A,2500.8282298,N,12132.4549664,E,1.92,139.06,030324,,,R,V*17
$GPHDT,138.291,T*35
$GNACCURACY,3.6*13
$GNGGA,032610.700,2500.8281870,N,12132.4550164,E,4,64,0.45,17.134,M,15.25,M,0,3335*4F
$GNRMC,032610.700,A,2500.8281870,N,12132.4550164,E,1.90,135.70,030324,,,R,V*19
$GPHDT,,T*1B
$GNACCURACY,3.6*13
$GNGGA,032610.800,2500.8281481,N,12132.4550650,E,4,64,0.45,17.157,M,15.25,M,0,3335*47
$GNRMC,032610.800,A,2500.8281481,N,12132.4550650,E,1.83,132.02,030324,,,R,V*14
$GPHDT,140.074,T*33
$GNACCURACY,3.6*13
$GNGGA,032610.900,2500.8281187,N,12132.4551249,E,4,64,0.45,17.142,M,15.25,M,0,3335*4C
$GNRMC,032610.900,A,2500.8281187,N,12132.4551249,E,1.85,129.13,030324,,,R,V*17
$GPHDT,,T*1B
$GNACCURACY,3.6*13
$GNGGA,032611.000,2500.8280767,N,12132.4551343,E,4,63,0.45,17.137,M,15.25,M,1,3335*42
$GNRMC,032611.000,A,2500.8280767,N,12132.4551343,E,1.88,132.90,030324,,,R,V*11
$GPHDT,140.040,T*34
$GNACCURACY,3.6*13
$GNGGA,032611.100,2500.8280253,N,12132.4552081,E,4,63,0.45,17.127,M,15.25,M,1,3335*4E
$GNRMC,032611.100,A,2500.8280253,N,12132.4552081,E,1.97,136.48,030324,,,R,V*13
$GPHDT,,T*1B
$GNGSA,A,3,08,194,27,199,195,04,16,09,21,31,196,26,0.75,0.46,0.59,1*01
$GNGSA,A,3,07,,,,,,,,,,,,0.75,0.46,0.59,1*0A
$GNGSA,A,3,82,79,80,83,81,,,,,,,,0.75,0.46,0.59,2*00
$GNGSA,A,3,30,07,34,15,27,08,02,36,,,,,0.75,0.46,0.59,3*02
$GNGSA,A,3,06,16,34,39,09,40,07,12,24,10,11,25,0.75,0.46,0.59,4*0D
$GNGSA,A,3,44,43,,,,,,,,,,,0.75,0.46,0.59,4*0F
$GPGSV,4,1,15,08,70,262,46,194,63,044,27,27,62,022,37,50,60,167,37,1*50
$GPGSV,4,2,15,199,60,167,35,195,53,127,35,04,41,228,44,16,40,042,27,1*67
$GPGSV,4,3,15,09,32,281,31,21,27,174,38,31,24,130,32,196,23,176,35,1*57
$GPGSV,4,4,15,26,22,073,25,02,17,184,28,07,15,319,27,1*59
$GPGSV,3,1,09,08,70,262,48,194,63,044,25,27,62,022,37,199,60,167,45,8*6E
$GPGSV,3,2,09,195,53,127,45,04,41,228,45,09,32,281,38,196,23,176,40,8*60
$GPGSV,3,3,09,26,22,073,20,8*56
$GLGSV,3,1,10,82,68,111,39,79,38,063,28,80,38,351,26,83,37,177,25,1*77
$GLGSV,3,2,10,81,35,038,23,70,17,274,,69,09,213,14,71,05,320,30,1*7F
$GLGSV,3,3,10,78,04,103,,73,03,309,,1*7D
$GAGSV,2,1,08,30,51,012,26,07,43,249,43,34,41,092,31,15,32,158,31,7*70
$GAGSV,2,2,08,27,31,301,35,08,24,188,28,02,21,068,28,36,13,044,33,7*7F
$GAGSV,2,1,08,30,51,012,33,07,43,249,46,34,41,092,31,15,32,158,38,1*7E
$GAGSV,2,2,08,27,31,301,39,08,24,188,35,02,21,068,22,36,13,044,30,1*70
$GBGSV,5,1,20,06,87,262,43,16,85,175,45,34,74,162,44,39,73,164,43,1*7B
$GBGSV,5,2,20,09,72,319,41,40,69,304,44,07,64,283,40,12,63,064,25,1*76
$GBGSV,5,3,20,24,55,071,31,10,53,268,39,11,51,190,42,25,46,333,39,1*77
$GBGSV,5,4,20,44,40,047,21,43,29,206,40,26,14,109,,33,10,224,,1*71
$GBGSV,5,5,20,41,09,271,25,14,05,199,,23,04,306,,38,02,174,,1*71
$GBGSV,2,1,08,34,74,162,45,39,73,164,44,40,69,304,44,24,55,071,31,4*7B
$GBGSV,2,2,08,25,46,333,44,44,40,047,23,43,29,206,38,41,09,271,23,4*71
$GNACCURACY,3.6*13
$PAIRSAT,1,35,2,0,201,3,0,200,4,0,221,5,0,200,6,0,200,7,0,201,8,0,221,9,0,221,10,0,200,11,0,200,12,0,200,13,0,200,14,0,200,15,0,200,16,0,201,17,0,200,18,0,200,19,0,200,20,0,200,21,0,201,22,0,200,23,0,200,24,0,200,25,0,200,26,0,221,27,0,221,28,0,200,29,0,200,30,0,200,31,0,201,32,0,200,194,0,621,195,0,621,196,0,620,199,0,621*58
$PAIRSAT,2,24,65,0,200,66,0,200,67,0,200,68,0,200,69,0,201,70,0,200,71,0,201,72,0,200,73,0,200,74,0,200,75,0,200,76,0,200,77,0,200,78,0,200,79,0,201,80,0,201,81,0,201,82,0,201,83,0,201,84,0,200,85,0,200,86,0,200,87,0,200,88,0,200*7B
$PAIRSAT,3,23,2,0,1221,3,0,1200,4,0,1200,5,0,200,7,0,1221,8,0,1221,9,0,1200,10,0,1200,11,0,1200,12,0,1200,13,0,1200,15,0,1221,19,0,1200,21,0,1200,24,0,1200,25,0,1200,26,0,1200,27,0,1221,30,0,1221,31,0,1200,33,0,1200,34,0,1221,36,0,1221*6A
$PAIRSAT,4,46,1,0,200,2,0,200,3,0,600,4,0,200,5,0,200,6,0,201,7,0,201,8,0,200,9,0,201,10,0,201,11,0,201,12,0,201,13,0,200,14,0,200,16,0,201,19,0,600,20,0,600,21,0,600,22,0,600,23,0,600,24,0,621,25,0,621,26,0,621,27,0,600,28,0,600,29,0,600,30,0,600,32,0,600,33,0,621,34,0,621,35,0,600,36,0,600,37,0,600,38,0,600,39,0,621,40,0,621,41,0,621,42,0,600,43,0,621,44,0,421,45,0,400,46,0,400,59,0,400,60,0,400,61,0,400,62,0,400*4A
$PAIRDGP,10,2,4,7,8,9,16,21,26,27,31*43
$GNGGA,032611.200,2500.8279899,N,12132.4552252,E,4,63,0.46,17.130,M,15.25,M,1,3335*4E
$GNRMC,032611.200,A,2500.8279899,N,12132.4552252,E,2.00,143.50,030324,,,R,V*10
$GPHDT,139.005,T*3B
$GNACCURACY,3.6*13
$GNGGA,032611.300,2500.8279433,N,12132.4552989,E,4,63,0.46,17.054,M,15.25,M,1,3335*4D
$GNRMC,032611.300,A,2500.8279433,N,12132.4552989,E,1.96,142.96,030324,,,R,V*17
$GPHDT,,T*1B
$GNACCURACY,3.6*13
$GNGGA,032611.400,2500.8279017,N,12132.4552972,E,4,62,0.46,17.119,M,15.25,M,1,3335*45
$GNRMC,032611.400,A,2500.8279017,N,12132.4552972,E,1.97,141.82,030324,,,R,V*11
$GPHDT,139.432,T*3B
$GNACCURACY,3.6*13
$GNGGA,032611.500,2500.8278615,N,12132.4553731,E,4,62,0.46,17.051,M,15.25,M,0,3335*45
$GNRMC,032611.500,A,2500.8278615,N,12132.4553731,E,1.93,133.65,030324,,,R,V*15
$GPHDT,,T*1B
$GNACCURACY,3.6*13
$GNGGA,032611.600,2500.8278252,N,12132.4554112,E,4,64,0.45,17.092,M,15.25,M,0,3335*4B
$GNRMC,032611.600,A,2500.8278252,N,12132.4554112,E,1.85,126.32,030324,,,R,V*10
$GPHDT,138.192,T*35
$GNACCURACY,3.6*13
$GNGGA,032611.700,2500.8277944,N,12132.4554656,E,4,64,0.45,17.074,M,15.25,M,0,3335*46
$GNRMC,032611.700,A,2500.8277944,N,12132.4554656,E,1.86,125.29,030324,,,R,V*1F
$GPHDT,,T*1B
$GNACCURACY,3.6*13
$GNGGA,032611.800,2500.8277530,N,12132.4554972,E,4,64,0.45,17.106,M,15.25,M,0,3335*4B
$GNRMC,032611.800,A,2500.8277530,N,12132.4554972,E,1.82,131.40,030324,,,R,V*18
$GPHDT,138.210,T*3C
$GNACCURACY,3.6*13
$GNGGA,032611.900,2500.8277168,N,12132.4555406,E,4,63,0.47,17.051,M,15.25,M,0,3335*4A
$GNRMC,032611.900,A,2500.8277168,N,12132.4555406,E,1.80,135.61,030324,,,R,V*1A
$GPHDT,,T*1B
$GNACCURACY,3.6*13
$GNGGA,032612.000,2500.8276921,N,12132.4555857,E,4,64,0.45,17.070,M,15.25,M,1,3335*4B
$GNRMC,032612.000,A,2500.8276921,N,12132.4555857,E,1.77,136.07,030324,,,R,V*17
$GPHDT,137.715,T*33
$GNACCURACY,3.6*13
$GNGGA,032612.100,2500.8276368,N,12132.4556335,E,4,62,0.47,17.082,M,15.25,M,1,3335*48
$GNRMC,032612.100,A,2500.8276368,N,12132.4556335,E,1.81,138.21,030324,,,R,V*1E
$GPHDT,,T*1B
$GNGSA,A,3,08,194,27,199,195,04,16,09,21,31,196,02,0.74,0.45,0.58,1*04
$GNGSA,A,3,07,26,,,,,,,,,,,0.74,0.45,0.58,1*0D
$GNGSA,A,3,82,79,80,83,81,,,,,,,,0.74,0.45,0.58,2*03
$GNGSA,A,3,30,07,34,15,27,08,02,36,,,,,0.74,0.45,0.58,3*01
$GNGSA,A,3,06,16,34,39,09,40,07,12,24,10,11,25,0.74,0.45,0.58,4*0E
$GNGSA,A,3,44,43,,,,,,,,,,,0.74,0.45,0.58,4*0C
$GPGSV,4,1,15,08,70,262,45,194,63,044,25,27,62,022,35,50,60,167,37,1*53
$GPGSV,4,2,15,199,60,167,35,195,53,127,43,04,41,228,43,16,40,042,23,1*65
$GPGSV,4,3,15,09,32,281,41,21,27,174,35,31,24,130,33,196,23,176,32,1*5B
$GPGSV,4,4,15,26,22,073,23,02,17,184,24,07,15,319,28,1*5C
$GPGSV,3,1,09,08,70,262,48,194,63,044,32,27,62,022,37,199,60,167,44,8*69
$GPGSV,3,2,09,195,53,127,44,04,41,228,45,09,32,281,40,196,23,176,38,8*61
$GPGSV,3,3,09,26,22,073,24,8*52
$GLGSV,3,1,09,82,68,111,39,79,38,063,26,80,38,351,26,83,37,177,26,1*72
$GLGSV,3,2,09,81,35,038,26,69,09,213,14,71,05,320,26,78,04,103,,1*7C
$GLGSV,3,3,09,73,03,309,,1*4C
$GAGSV,2,1,08,30,51,012,28,07,43,249,44,34,41,092,27,15,32,158,28,7*76
$GAGSV,2,2,08,27,31,301,34,08,24,188,28,02,21,068,26,36,13,044,29,7*7B
$GAGSV,2,1,08,30,51,012,31,07,43,249,46,34,41,092,24,15,32,158,37,1*77
$GAGSV,2,2,08,27,31,301,37,08,24,188,34,02,21,068,20,36,13,044,33,1*7E
$GBGSV,5,1,17,06,87,262,44,16,85,175,45,34,74,162,45,39,73,165,41,1*7A
$GBGSV,5,2,17,09,72,319,42,40,69,304,44,07,64,283,40,12,63,064,28,1*7C
$GBGSV,5,3,17,24,55,071,25,10,53,268,39,11,51,190,41,25,46,333,39,1*75
$GBGSV,5,4,17,44,40,047,23,43,29,206,40,26,14,109,,33,10,224,,1*77
$GBGSV,5,5,17,41,09,271,22,1*48
$GBGSV,2,1,07,34,74,162,44,39,73,165,46,40,69,304,45,24,55,071,38,4*7E
$GBGSV,2,2,07,25,46,333,41,44,40,047,30,43,29,206,37,4*4F
$GNACCURACY,3.6*13
$PAIRSAT,1,35,2,0,201,3,0,200,4,0,221,5,0,200,6,0,200,7,0,201,8,0,221,9,0,221,10,0,200,11,0,200,12,0,200,13,0,200,14,0,200,15,0,200,16,0,201,17,0,200,18,0,200,19,0,200,20,0,200,21,0,201,22,0,200,23,0,200,24,0,200,25,0,200,26,0,221,27,0,221,28,0,200,29,0,200,30,0,200,31,0,201,32,0,200,194,0,621,195,0,621,196,0,620,199,0,621*58
$PAIRSAT,2,24,65,0,200,66,0,200,67,0,200,68,0,200,69,0,201,70,0,200,71,0,201,72,0,200,73,0,200,74,0,200,75,0,200,76,0,200,77,0,200,78,0,200,79,0,201,80,0,201,81,0,201,82,0,201,83,0,201,84,0,200,85,0,200,86,0,200,87,0,200,88,0,200*7B
$PAIRSAT,3,23,2,0,1221,3,0,1200,4,0,1200,5,0,200,7,0,1221,8,0,1221,9,0,1200,10,0,1200,11,0,1200,12,0,1200,13,0,1200,15,0,1221,19,0,1200,21,0,1200,24,0,1200,25,0,1200,26,0,1200,27,0,1221,30,0,1221,31,0,1200,33,0,1200,34,0,1221,36,0,1221*6A
$PAIRSAT,4,46,1,0,200,2,0,200,3,0,600,4,0,200,5,0,200,6,0,201,7,0,201,8,0,200,9,0,201,10,0,201,11,0,201,12,0,201,13,0,200,14,0,200,16,0,201,19,0,600,20,0,600,21,0,600,22,0,600,23,0,600,24,0,621,25,0,621,26,0,621,27,0,600,28,0,600,29,0,600,30,0,600,32,0,600,33,0,621,34,0,621,35,0,600,36,0,600,37,0,600,38,0,600,39,0,621,40,0,621,41,0,621,42,0,600,43,0,621,44,0,421,45,0,400,46,0,400,59,0,400,60,0,400,61,0,400,62,0,400*4A
$PAIRDGP,10,2,4,7,8,9,16,21,26,27,31*43
$GNGGA,032612.200,2500.8275949,N,12132.4556665,E,4,63,0.45,17.096,M,15.25,M,1,3335*47
$GNRMC,032612.200,A,2500.8275949,N,12132.4556665,E,1.88,137.89,030324,,,R,V*13
$GPHDT,137.514,T*30
$GNACCURACY,3.6*13
$GNGGA,032612.300,2500.8275428,N,12132.4557058,E,4,61,0.47,17.076,M,15.25,M,1,3335*4B
$GNRMC,032612.300,A,2500.8275428,N,12132.4557058,E,1.93,147.41,030324,,,R,V*18
$GPHDT,,T*1B
$GNACCURACY,3.6*13
$GNGGA,032612.400,2500.8274900,N,12132.4557184,E,4,62,0.46,17.155,M,15.25,M,1,3335*48
$GNRMC,032612.400,A,2500.8274900,N,12132.4557184,E,2.02,151.81,030324,,,R,V*19
$GPHDT,141.203,T*30
$GNACCURACY,3.6*13
$GNGGA,032612.500,2500.8274459,N,12132.4557573,E,4,62,0.46,17.166,M,15.25,M,1,3335*44
$GNRMC,032612.500,A,2500.8274459,N,12132.4557573,E,1.92,147.39,030324,,,R,V*1B
$GPHDT,,T*1B
$GNACCURACY,3.6*13
$GNGGA,032612.600,2500.8274106,N,12132.4557802,E,4,62,0.46,17.184,M,15.25,M,0,3335*4E
$GNRMC,032612.600,A,2500.8274106,N,12132.4557802,E,1.87,142.68,030324,,,R,V*19
$GPHDT,147.975,T*3C
$GNACCURACY,3.6*13
$GNGGA,032612.700,2500.8273652,N,12132.4558365,E,4,62,0.46,17.145,M,15.25,M,0,3335*46
$GNRMC,032612.700,A,2500.8273652,N,12132.4558365,E,1.92,136.48,030324,,,R,V*19
$GPHDT,,T*1B
$GNACCURACY,3.6*13
$GNGGA,032612.800,2500.8273417,N,12132.4558904,E,4,62,0.45,17.115,M,15.25,M,0,3335*41
$GNRMC,032612.800,A,2500.8273417,N,12132.4558904,E,1.93,133.53,030324,,,R,V*16
$GPHDT,139.716,T*3E
$GNACCURACY,3.6*13
$GNGGA,032612.900,2500.8272875,N,12132.4559320,E,4,62,0.45,17.123,M,15.25,M,0,3335*41
$GNRMC,032612.900,A,2500.8272875,N,12132.4559320,E,1.98,134.68,030324,,,R,V*17
$GPHDT,,T*1B
$GNACCURACY,3.6*13
$GNGGA,032613.000,2500.8272426,N,12132.4559633,E,4,62,0.45,17.193,M,15.25,M,1,3335*4E
$GNRMC,032613.000,A,2500.8272426,N,12132.4559633,E,1.99,137.53,030324,,,R,V*18
$GPHDT,136.724,T*30
$GNACCURACY,3.6*13
$GNGGA,032613.100,2500.8272088,N,12132.4560126,E,4,62,0.45,17.224,M,15.25,M,1,3335*49
$GNRMC,032613.100,A,2500.8272088,N,12132.4560126,E,1.99,136.82,030324,,,R,V*1D
$GPHDT,,T*1B
$GNGSA,A,3,08,194,27,199,195,04,16,09,21,31,196,02,0.74,0.45,0.58,1*04
$GNGSA,A,3,07,26,,,,,,,,,,,0.74,0.45,0.58,1*0D
$GNGSA,A,3,82,79,80,83,81,,,,,,,,0.74,0.45,0.58,2*03
$GNGSA,A,3,30,07,34,15,27,08,36,02,,,,,0.74,0.45,0.58,3*01
$GNGSA,A,3,06,16,34,39,09,40,07,12,24,10,11,25,0.74,0.45,0.58,4*0E
$GNGSA,A,3,44,43,,,,,,,,,,,0.74,0.45,0.58,4*0C
$GPGSV,4,1,15,08,70,262,45,194,63,044,27,27,62,022,29,50,60,167,38,1*53
$GPGSV,4,2,15,199,60,167,36,195,53,127,42,04,41,228,44,16,40,042,27,1*64
$GPGSV,4,3,15,09,32,281,43,21,27,174,37,31,24,130,35,196,23,176,30,1*5F
$GPGSV,4,4,15,26,22,073,22,02,17,184,28,07,15,319,24,1*5D
$GPGSV,3,1,09,08,70,262,48,194,63,044,32,27,62,022,38,199,60,167,44,8*66
$GPGSV,3,2,09,195,53,127,46,04,41,228,44,09,32,281,42,196,23,176,34,8*6C
$GPGSV,3,3,09,26,22,073,25,8*53
$GLGSV,3,1,09,82,68,111,37,79,38,063,26,80,38,351,27,83,37,177,26,1*7D
$GLGSV,3,2,09,81,35,038,24,69,09,213,17,71,05,320,27,78,04,103,,1*7C
$GLGSV,3,3,09,73,03,309,,1*4C
$GAGSV,2,1,08,30,51,012,29,07,43,249,44,34,41,092,24,15,32,158,32,7*7F
$GAGSV,2,2,08,27,31,301,33,08,24,188,29,02,21,068,,36,13,044,26,7*76
$GAGSV,2,1,08,30,51,012,34,07,43,249,45,34,41,092,31,15,32,158,38,1*7A
$GAGSV,2,2,08,27,31,301,34,08,24,188,34,02,21,068,21,36,13,044,29,1*77
$GBGSV,5,1,17,06,87,262,44,16,85,175,45,34,74,162,44,39,73,165,44,1*7E
$GBGSV,5,2,17,09,72,319,40,40,69,304,41,07,64,283,41,12,63,064,24,1*76
$GBGSV,5,3,17,24,55,071,35,10,53,268,40,11,51,190,42,25,46,333,34,1*74
$GBGSV,5,4,17,44,40,047,28,43,29,206,41,26,14,109,,33,10,224,,1*7D
$GBGSV,5,5,17,41,09,271,20,1*4A
$GBGSV,2,1,07,34,74,162,45,39,73,165,44,40,69,304,46,24,55,071,40,4*71
$GBGSV,2,2,07,25,46,333,42,44,40,047,26,43,29,206,39,4*45
$GNACCURACY,3.6*13
$PAIRSAT,1,35,2,0,201,3,0,200,4,0,221,5,0,200,6,0,200,7,0,201,8,0,221,9,0,221,10,0,200,11,0,200,12,0,200,13,0,200,14,0,200,15,0,200,16,0,201,17,0,200,18,0,200,19,0,200,20,0,200,21,0,201,22,0,200,23,0,200,24,0,200,25,0,200,26,0,221,27,0,221,28,0,200,29,0,200,30,0,200,31,0,201,32,0,200,194,0,621,195,0,621,196,0,620,199,0,621*58
$PAIRSAT,2,24,65,0,200,66,0,200,67,0,200,68,0,200,69,0,201,70,0,200,71,0,201,72,0,200,73,0,200,74,0,200,75,0,200,76,0,200,77,0,200,78,0,200,79,0,201,80,0,201,81,0,201,82,0,201,83,0,201,84,0,200,85,0,200,86,0,200,87,0,200,88,0,200*7B
$PAIRSAT,3,23,2,0,1221,3,0,1200,4,0,1200,5,0,200,7,0,1221,8,0,1221,9,0,1200,10,0,1200,11,0,1200,12,0,1200,13,0,1200,15,0,1221,19,0,1200,21,0,1200,24,0,1200,25,0,1200,26,0,1200,27,0,1221,30,0,1221,31,0,1200,33,0,1200,34,0,1221,36,0,1221*6A
$PAIRSAT,4,46,1,0,200,2,0,200,3,0,600,4,0,200,5,0,200,6,0,201,7,0,201,8,0,200,9,0,201,10,0,201,11,0,201,12,0,201,13,0,200,14,0,200,16,0,201,19,0,600,20,0,600,21,0,600,22,0,600,23,0,600,24,0,621,25,0,621,26,0,621,27,0,600,28,0,600,29,0,600,30,0,600,32,0,600,33,0,621,34,0,621,35,0,600,36,0,600,37,0,600,38,0,600,39,0,621,40,0,621,41,0,621,42,0,600,43,0,621,44,0,421,45,0,400,46,0,400,59,0,400,60,0,400,61,0,400,62,0,400*4A
$PAIRDGP,10,2,4,7,8,9,16,21,26,27,31*43
$GNGGA,032613.200,2500.8271732,N,12132.4560539,E,4,62,0.45,17.180,M,15.25,M,1,3335*48
$GNRMC,032613.200,A,2500.8271732,N,12132.4560539,E,2.03,133.41,030324,,,R,V*1B
$GPHDT,138.689,T*38
$GNACCURACY,3.6*13
$GNGGA,032613.300,2500.8271300,N,12132.4561012,E,4,62,0.45,17.224,M,15.25,M,1,3335*4C
$GNRMC,032613.300,A,2500.8271300,N,12132.4561012,E,1.92,131.96,030324,,,R,V*11
$GPHDT,,T*1B
$GNACCURACY,3.6*13
$GNGGA,032613.400,2500.8270722,N,12132.4561355,E,4,63,0.45,17.211,M,15.25,M,1,3335*49
$GNRMC,032613.400,A,2500.8270722,N,12132.4561355,E,2.00,138.51,030324,,,R,V*19
$GPHDT,136.110,T*31
$GNACCURACY,3.6*13
$GNGGA,032613.500,2500.8270341,N,12132.4561716,E,4,62,0.45,17.250,M,15.25,M,1,3335*4E
$GNRMC,032613.500,A,2500.8270341,N,12132.4561716,E,1.93,143.34,030324,,,R,V*1C
$GPHDT,,T*1B
$GNACCURACY,3.6*13
$GNGGA,032613.600,2500.8270102,N,12132.4562154,E,4,63,0.45,17.159,M,15.25,M,1,3335*40
$GNRMC,032613.600,A,2500.8270102,N,12132.4562154,E,1.76,140.53,030324,,,R,V*10
$GPHDT,138.662,T*3D
$GNACCURACY,3.6*13
$GNGGA,032613.700,2500.8269552,N,12132.4562363,E,4,62,0.45,17.263,M,15.25,M,0,3335*44
$GNRMC,032613.700,A,2500.8269552,N,12132.4562363,E,1.79,139.32,030324,,,R,V*18
$GPHDT,,T*1B
$GNACCURACY,3.6*13
$GNGGA,032613.800,2500.8269200,N,12132.4562894,E,4,62,0.45,17.155,M,15.25,M,0,3335*4E
$GNRMC,032613.800,A,2500.8269200,N,12132.4562894,E,1.80,132.42,030324,,,R,V*1E
$GPHDT,135.832,T*3B
$GNACCURACY,3.6*13
$GNGGA,032613.900,2500.8268897,N,12132.4563436,E,4,64,0.45,17.144,M,15.25,M,0,3335*49
$GNRMC,032613.900,A,2500.8268897,N,12132.4563436,E,1.92,129.50,030324,,,R,V*15
$GPHDT,,T*1B
$GNACCURACY,3.6*13
$GNGGA,032614.000,2500.8268552,N,12132.4563827,E,4,64,0.45,17.194,M,15.25,M,1,3335*43
$GNRMC,032614.000,A,2500.8268552,N,12132.4563827,E,1.92,127.66,030324,,,R,V*18
$GPHDT,135.537,T*33
$GNACCURACY,3.6*13
$GNGGA,032614.100,2500.8268289,N,12132.4564430,E,4,64,0.45,17.157,M,15.25,M,1,3335*41
$GNRMC,032614.100,A,2500.8268289,N,12132.4564430,E,1.91,131.86,030324,,,R,V*1F
$GPHDT,,T*1B
$GNGSA,A,3,08,194,27,199,195,04,16,09,21,31,196,02,0.74,0.45,0.58,1*04
$GNGSA,A,3,07,26,,,,,,,,,,,0.74,0.45,0.58,1*0D
$GNGSA,A,3,82,79,80,83,81,,,,,,,,0.74,0.45,0.58,2*03
$GNGSA,A,3,30,07,34,15,27,08,02,36,,,,,0.74,0.45,0.58,3*01
$GNGSA,A,3,06,16,34,39,09,40,07,12,24,10,11,25,0.74,0.45,0.58,4*0E
$GNGSA,A,3,44,43,,,,,,,,,,,0.74,0.45,0.58,4*0C
$GPGSV,4,1,15,08,70,262,45,194,63,044,34,27,62,022,31,50,60,167,38,1*58
$GPGSV,4,2,15,199,60,167,36,195,53,127,42,04,41,228,43,16,40,042,26,1*62
$GPGSV,4,3,15,09,32,281,43,21,27,174,34,31,24,130,33,196,23,176,31,1*5B
$GPGSV,4,4,15,26,22,073,25,02,17,184,25,07,15,319,24,1*57
$GPGSV,2,1,08,08,70,262,47,194,63,044,33,199,60,167,43,195,53,127,46,8*58
$GPGSV,2,2,08,04,41,228,44,09,32,281,45,196,23,176,34,26,22,073,27,8*53
$GLGSV,2,1,07,82,68,111,34,79,38,063,26,80,38,351,25,83,37,177,26,1*73
$GLGSV,2,2,07,81,35,038,21,69,09,213,17,71,05,320,25,1*4D
$GAGSV,2,1,08,30,51,012,30,07,43,249,43,34,41,092,25,15,32,158,32,7*71
$GAGSV,2,2,08,27,31,301,34,08,24,188,30,02,21,068,20,36,13,044,28,7*75
$GAGSV,2,1,08,30,51,012,29,07,43,249,45,34,41,092,35,15,32,158,37,1*7D
$GAGSV,2,2,08,27,31,301,35,08,24,188,32,02,21,068,22,36,13,044,34,1*7F
$GBGSV,5,1,18,06,87,262,43,16,85,175,45,34,74,162,45,39,73,165,43,1*70
$GBGSV,5,2,18,09,72,319,39,40,69,304,42,07,64,283,39,12,63,064,34,1*7A
$GBGSV,5,3,18,24,55,071,36,10,53,268,40,11,51,190,42,25,46,333,40,1*7B
$GBGSV,5,4,18,44,40,047,25,43,29,206,41,26,14,109,,33,10,224,,1*7F
$GBGSV,5,5,18,41,09,271,22,14,05,199,,1*76
$GBGSV,2,1,08,34,74,162,43,39,73,165,44,40,69,304,45,24,55,071,39,4*75
$GBGSV,2,2,08,25,46,333,39,44,40,047,24,43,29,206,40,41,09,271,28,4*78
$GNACCURACY,3.6*13
$PAIRSAT,1,35,2,0,201,3,0,200,4,0,221,5,0,200,6,0,200,7,0,201,8,0,221,9,0,221,10,0,200,11,0,200,12,0,200,13,0,200,14,0,200,15,0,200,16,0,201,17,0,200,18,0,200,19,0,200,20,0,200,21,0,201,22,0,200,23,0,200,24,0,200,25,0,200,26,0,221,27,0,221,28,0,200,29,0,200,30,0,200,31,0,201,32,0,200,194,0,621,195,0,621,196,0,620,199,0,621*58
$PAIRSAT,2,24,65,0,200,66,0,200,67,0,200,68,0,200,69,0,201,70,0,200,71,0,201,72,0,200,73,0,200,74,0,200,75,0,200,76,0,200,77,0,200,78,0,200,79,0,201,80,0,201,81,0,201,82,0,201,83,0,201,84,0,200,85,0,200,86,0,200,87,0,200,88,0,200*7B
$PAIRSAT,3,23,2,0,1221,3,0,1200,4,0,1200,5,0,200,7,0,1221,8,0,1221,9,0,1200,10,0,1200,11,0,1200,12,0,1200,13,0,1200,15,0,1221,19,0,1200,21,0,1200,24,0,1200,25,0,1200,26,0,1200,27,0,1221,30,0,1221,31,0,1200,33,0,1200,34,0,1221,36,0,1221*6A
$PAIRSAT,4,46,1,0,200,2,0,200,3,0,600,4,0,200,5,0,200,6,0,201,7,0,201,8,0,200,9,0,201,10,0,201,11,0,201,12,0,201,13,0,200,14,0,200,16,0,201,19,0,600,20,0,600,21,0,600,22,0,600,23,0,600,24,0,621,25,0,621,26,0,621,27,0,600,28,0,600,29,0,600,30,0,600,32,0,600,33,0,621,34,0,621,35,0,600,36,0,600,37,0,600,38,0,600,39,0,621,40,0,621,41,0,621,42,0,600,43,0,621,44,0,421,45,0,400,46,0,400,59,0,400,60,0,400,61,0,400,62,0,400*4A
$PAIRDGP,10,2,4,7,8,9,16,21,26,27,31*43
$GNGGA,032614.200,2500.8267817,N,12132.4565090,E,4,63,0.45,17.137,M,15.25,M,1,3335*4E
$GNRMC,032614.200,A,2500.8267817,N,12132.4565090,E,1.91,133.18,030324,,,R,V*14
$GPHDT,138.513,T*38
$GNACCURACY,3.6*13
$GNGGA,032614.300,2500.8267407,N,12132.4565461,E,4,65,0.45,17.191,M,15.25,M,1,3335*42
$GNRMC,032614.300,A,2500.8267407,N,12132.4565461,E,1.96,136.09,030324,,,R,V*10
$GPHDT,,T*1B
$GNACCURACY,3.6*13
$GNGGA,032614.400,2500.8267048,N,12132.4565908,E,4,65,0.45,17.131,M,15.25,M,1,3335*42
$GNRMC,032614.400,A,2500.8267048,N,12132.4565908,E,1.97,132.88,030324,,,R,V*16
$GPHDT,142.580,T*3F
$GNACCURACY,3.6*13
$GNGGA,032614.500,2500.8266634,N,12132.4566409,E,4,65,0.45,17.127,M,15.25,M,1,3335*47
$GNRMC,032614.500,A,2500.8266634,N,12132.4566409,E,1.95,134.76,030324,,,R,V*11
$GPHDT,,T*1B
$GNACCURACY,3.6*13
$GNGGA,032614.600,2500.8266099,N,12132.4566711,E,4,65,0.45,17.130,M,15.25,M,0,3335*48
$GNRMC,032614.600,A,2500.8266099,N,12132.4566711,E,2.10,138.56,030324,,,R,V*19
$GPHDT,138.345,T*3D
$GNACCURACY,3.6*13
$GNGGA,032614.700,2500.8265706,N,12132.4567082,E,4,65,0.45,17.141,M,15.25,M,0,3335*41
$GNRMC,032614.700,A,2500.8265706,N,12132.4567082,E,2.09,148.62,030324,,,R,V*1E
$GPHDT,,T*1B
$GNACCURACY,3.6*13
$GNGGA,032614.800,2500.8265031,N,12132.4567276,E,4,65,0.45,17.237,M,15.25,M,0,3335*46
$GNRMC,032614.800,A,2500.8265031,N,12132.4567276,E,2.01,142.06,030324,,,R,V*1B
$GPHDT,138.888,T*37
$GNACCURACY,3.6*13
$GNGGA,032614.900,2500.8264768,N,12132.4567775,E,4,65,0.45,17.219,M,15.25,M,0,3335*47
$GNRMC,032614.900,A,2500.8264768,N,12132.4567775,E,1.90,139.80,030324,,,R,V*1F
$GPHDT,,T*1B
$GNACCURACY,3.5*10
$GNGGA,032615.000,2500.8264361,N,12132.4568226,E,4,65,0.45,17.154,M,15.25,M,1,3335*45
$GNRMC,032615.000,A,2500.8264361,N,12132.4568226,E,1.91,133.03,030324,,,R,V*16
$GPHDT,138.874,T*34
$GNACCURACY,3.5*10
$GNGGA,032615.100,2500.8263995,N,12132.4568796,E,4,65,0.45,17.130,M,15.25,M,1,3335*4E
$GNRMC,032615.100,A,2500.8263995,N,12132.4568796,E,1.84,131.78,030324,,,R,V*15
$GPHDT,,T*1B
$GNGSA,A,3,08,194,27,199,195,04,16,09,21,31,196,26,0.74,0.45,0.58,1*02
$GNGSA,A,3,02,07,,,,,,,,,,,0.74,0.45,0.58,1*0B
$GNGSA,A,3,82,79,80,83,81,,,,,,,,0.74,0.45,0.58,2*03
$GNGSA,A,3,30,07,34,15,27,08,02,36,,,,,0.74,0.45,0.58,3*01
$GNGSA,A,3,06,16,34,39,09,40,07,12,24,10,11,25,0.74,0.45,0.58,4*0E
$GNGSA,A,3,44,43,,,,,,,,,,,0.74,0.45,0.58,4*0C
$GPGSV,4,1,15,08,70,262,44,194,63,044,30,27,62,022,36,50,60,167,37,1*55
$GPGSV,4,2,15,199,60,167,36,195,53,127,41,04,41,228,43,16,40,042,25,1*62
$GPGSV,4,3,15,09,32,281,44,21,27,174,37,31,24,130,30,196,23,176,29,1*55
$GPGSV,4,4,15,26,22,073,24,02,17,184,29,07,16,319,27,1*5A
$GPGSV,3,1,09,08,70,262,48,194,63,044,24,27,62,022,30,199,60,167,46,8*6B
$GPGSV,3,2,09,195,53,127,45,04,41,228,44,09,32,281,43,196,23,176,35,8*6F
$GPGSV,3,3,09,26,22,073,23,8*55
$GLGSV,2,1,08,82,68,111,37,79,38,063,27,80,38,351,26,83,37,177,27,1*7C
$GLGSV,2,2,08,81,35,038,22,70,17,274,32,69,09,213,18,71,05,320,26,1*7C
$GAGSV,2,1,08,30,51,012,34,07,43,249,43,34,41,092,31,15,32,158,32,7*70
$GAGSV,2,2,08,27,31,301,32,08,24,188,29,02,21,068,24,36,13,044,25,7*72
$GAGSV,2,1,08,30,51,012,39,07,43,249,45,34,41,092,38,15,32,158,38,1*7E
$GAGSV,2,2,08,27,31,301,23,08,24,188,27,02,21,068,22,36,13,044,27,1*7E
$GBGSV,5,1,18,06,87,262,43,16,85,175,45,34,74,162,45,39,73,165,44,1*77
$GBGSV,5,2,18,09,72,319,40,40,69,304,42,07,64,283,40,12,63,064,32,1*7C
$GBGSV,5,3,18,24,55,071,31,10,53,268,41,11,51,190,42,25,46,333,33,1*79
$GBGSV,5,4,18,44,40,047,24,43,29,206,41,26,14,109,,33,10,224,,1*7E
$GBGSV,5,5,18,41,09,271,26,38,02,174,,1*78
$GBGSV,2,1,08,34,74,162,44,39,73,165,44,40,69,304,46,24,55,071,37,4*7F
$GBGSV,2,2,08,25,46,333,40,44,40,047,27,43,29,206,40,41,09,271,22,4*7F
$GNACCURACY,3.6*13
$PAIRSAT,1,35,2,0,201,3,0,200,4,0,221,5,0,200,6,0,200,7,0,201,8,0,221,9,0,221,10,0,200,11,0,200,12,0,200,13,0,200,14,0,200,15,0,200,16,0,201,17,0,200,18,0,200,19,0,200,20,0,200,21,0,201,22,0,200,23,0,200,24,0,200,25,0,200,26,0,221,27,0,221,28,0,200,29,0,200,30,0,200,31,0,201,32,0,200,194,0,621,195,0,621,196,0,620,199,0,621*58
$PAIRSAT,2,24,65,0,200,66,0,200,67,0,200,68,0,200,69,0,201,70,0,200,71,0,201,72,0,200,73,0,200,74,0,200,75,0,200,76,0,200,77,0,200,78,0,200,79,0,201,80,0,201,81,0,201,82,0,201,83,0,201,84,0,200,85,0,200,86,0,200,87,0,200,88,0,200*7B
$PAIRSAT,3,23,2,0,1221,3,0,1200,4,0,1200,5,0,200,7,0,1221,8,0,1221,9,0,1200,10,0,1200,11,0,1200,12,0,1200,13,0,1200,15,0,1221,19,0,1200,21,0,1200,24,0,1200,25,0,1200,26,0,1200,27,0,1221,30,0,1221,31,0,1200,33,0,1200,34,0,1221,36,0,1221*6A
$PAIRSAT,4,46,1,0,200,2,0,200,3,0,600,4,0,200,5,0,200,6,0,201,7,0,201,8,0,200,9,0,201,10,0,201,11,0,201,12,0,201,13,0,200,14,0,200,16,0,201,19,0,600,20,0,600,21,0,600,22,0,600,23,0,600,24,0,621,25,0,621,26,0,621,27,0,600,28,0,600,29,0,600,30,0,600,32,0,600,33,0,621,34,0,621,35,0,600,36,0,600,37,0,600,38,0,600,39,0,621,40,0,621,41,0,621,42,0,600,43,0,621,44,0,421,45,0,400,46,0,400,59,0,400,60,0,400,61,0,400,62,0,400*4A
$PAIRDGP,10,2,4,7,8,9,16,21,26,27,31*43
$GNGGA,032615.200,2500.8263537,N,12132.4569230,E,4,65,0.45,17.130,M,15.25,M,1,3335*41
$GNRMC,032615.200,A,2500.8263537,N,12132.4569230,E,1.92,130.27,030324,,,R,V*16
$GPHDT,136.588,T*34
$GNACCURACY,3.6*13
$GNGGA,032615.300,2500.8263087,N,12132.4569745,E,4,65,0.45,17.152,M,15.25,M,1,3335*4D
$GNRMC,032615.300,A,2500.8263087,N,12132.4569745,E,1.86,135.30,030324,,,R,V*18
$GPHDT,,T*1B
$GNACCURACY,3.6*13
$GNGGA,032615.400,2500.8262793,N,12132.4570087,E,4,65,0.45,17.173,M,15.25,M,1,3335*4B
$GNRMC,032615.400,A,2500.8262793,N,12132.4570087,E,1.86,135.89,030324,,,R,V*1F
$GPHDT,138.368,T*32
$GNACCURACY,3.6*13
$GNGGA,032615.500,2500.8262347,N,12132.4570398,E,4,65,0.45,17.198,M,15.25,M,1,3335*4F
$GNRMC,032615.500,A,2500.8262347,N,12132.4570398,E,1.89,135.58,030324,,,R,V*1D
$GPHDT,,T*1B
$GNACCURACY,3.6*13
$GNGGA,032615.600,2500.8261942,N,12132.4570972,E,4,65,0.45,17.143,M,15.25,M,1,3335*48
$GNRMC,032615.600,A,2500.8261942,N,12132.4570972,E,2.00,137.68,030324,,,R,V*1F
$GPHDT,140.191,T*39
$GNACCURACY,3.6*13
$GNGGA,032615.700,2500.8261417,N,12132.4571263,E,4,64,0.45,17.177,M,15.25,M,1,3335*48
$GNRMC,032615.700,A,2500.8261417,N,12132.4571263,E,2.01,136.89,030324,,,R,V*16
$GPHDT,,T*1B
$GNACCURACY,3.6*13
$GNGGA,032615.800,2500.8261039,N,12132.4571683,E,4,63,0.46,17.147,M,15.25,M,1,3335*42
$GNRMC,032615.800,A,2500.8261039,N,12132.4571683,E,2.03,141.86,030324,,,R,V*16
$GPHDT,137.012,T*33
$GNACCURACY,3.6*13
$GNGGA,032615.900,2500.8260549,N,12132.4572056,E,4,63,0.46,17.190,M,15.25,M,0,3335*46
$GNRMC,032615.900,A,2500.8260549,N,12132.4572056,E,2.03,142.97,030324,,,R,V*1A
$GPHDT,,T*1B
$GNACCURACY,3.6*13
$GNGGA,032616.000,2500.8260343,N,12132.4572492,E,4,63,0.46,17.139,M,15.25,M,1,3335*4E
$GNRMC,032616.000,A,2500.8260343,N,12132.4572492,E,1.89,142.05,030324,,,R,V*1A
$GPHDT,137.355,T*33
$GNACCURACY,3.6*13
$GNGGA,032616.100,2500.8259768,N,12132.4572903,E,4,63,0.46,17.113,M,15.25,M,1,3335*45
