$FW : RTK35X,V1.1X0314AS,Lib20210517,1*54
$Tool : LOCOSYS , GNSS Firebird , v1.0.0.19*39
$---------------------------------------------------*2D
4,63,0.49,17.028,M,15.25,M,1,3335*45
$GNRMC,033341.400,A,2500.8305336,N,12132.4526018,E,0.02,352.83,030324,,,R,V*10
$GPHDT,135.742,T*33
$GNACCURACY,3.0*15
$GNGGA,033341.500,2500.8305253,N,12132.4525965,E,4,63,0.49,17.046,M,15.25,M,1,3335*4E
$GNRMC,033341.500,A,2500.8305253,N,12132.4525965,E,0.02,352.83,030324,,,R,V*13
$GPHDT,,T*1B
$GNACCURACY,3.0*15
$GNGGA,033341.600,2500.8305232,N,12132.4525938,E,4,64,0.46,17.050,M,15.25,M,1,3335*4D
$GNRMC,033341.600,A,2500.8305232,N,12132.4525938,E,0.02,352.83,030324,,,R,V*1F
$GPHDT,135.366,T*31
$GNACCURACY,3.0*15
$GNGGA,033341.700,2500.8305140,N,12132.4525738,E,4,63,0.49,17.209,M,15.25,M,0,3335*43
$GNRMC,033341.700,A,2500.8305140,N,12132.4525738,E,0.02,352.83,030324,,,R,V*16
$GPHDT,,T*1B
$GNACCURACY,3.0*15
$GNGGA,033341.800,2500.8305261,N,12132.4525942,E,4,63,0.49,17.063,M,15.25,M,0,3335*41
$GNRMC,033341.800,A,2500.8305261,N,12132.4525942,E,0.02,352.83,030324,,,R,V*1A
$GPHDT,135.633,T*34
$GNACCURACY,3.0*15
$GNGGA,033341.900,2500.8305232,N,12132.4525950,E,4,63,0.49,17.063,M,15.25,M,0,3335*45
$GNRMC,033341.900,A,2500.8305232,N,12132.4525950,E,0.02,352.83,030324,,,R,V*1E
$GPHDT,,T*1B
$GNACCURACY,3.0*15
$GNGGA,033342.000,2500.8305245,N,12132.4525957,E,4,63,0.49,17.067,M,15.25,M,1,3335*4D
$GNRMC,033342.000,A,2500.8305245,N,12132.4525957,E,0.02,352.83,030324,,,R,V*13
$GPHDT,135.647,T*37
$GNACCURACY,3.0*15
$GNGGA,033342.100,2500.8305265,N,12132.4525980,E,4,63,0.49,17.042,M,15.25,M,1,3335*43
$GNRMC,033342.100,A,2500.8305265,N,12132.4525980,E,0.02,352.83,030324,,,R,V*1A
$GPHDT,,T*1B
$GNGSA,A,3,08,194,199,27,195,04,16,09,21,31,196,26,0.90,0.49,0.76,1*08
$GNGSA,A,3,02,,,,,,,,,,,,0.90,0.49,0.76,1*06
$GNGSA,A,3,82,83,80,79,81,,,,,,,,0.90,0.49,0.76,2*09
$GNGSA,A,3,30,34,07,15,27,08,02,36,,,,,0.90,0.49,0.76,3*0B
$GNGSA,A,3,06,16,34,09,39,40,07,12,11,24,10,25,0.90,0.49,0.76,4*04
$GNGSA,A,3,44,43,,,,,,,,,,,0.90,0.49,0.76,4*06
$GPGSV,4,1,15,08,71,273,47,194,63,045,36,199,60,167,32,27,58,024,28,1*61
$GPGSV,4,2,15,195,55,126,34,45,47,231,41,04,39,224,43,16,38,046,31,1*5F
$GPGSV,4,3,15,09,32,277,37,21,31,173,34,31,22,132,31,196,22,175,36,1*52
$GPGSV,4,4,15,26,21,076,28,02,20,183,36,07,18,320,22,1*5C
$GPGSV,3,1,09,08,71,273,48,194,63,045,32,199,60,167,43,27,58,024,38,8*6E
$GPGSV,3,2,09,195,55,126,42,04,39,224,45,09,32,277,39,196,22,175,33,8*6D
$GPGSV,3,3,09,26,21,076,25,8*55
$GLGSV,3,1,09,82,70,099,28,83,42,177,25,80,40,355,34,79,37,068,29,1*78
$GLGSV,3,2,09,81,31,035,30,70,16,270,15,69,07,211,18,71,05,316,25,1*7C
$GLGSV,3,3,09,78,03,107,,1*4B
$GAGSV,2,1,08,30,51,016,24,34,42,088,25,07,41,245,40,15,35,157,34,7*7B
$GAGSV,2,2,08,27,32,304,39,08,21,187,29,02,20,071,26,36,11,042,22,7*7D
$GAGSV,2,1,08,30,51,016,32,34,42,088,31,07,41,245,41,15,35,157,38,1*72
$GAGSV,2,2,08,27,32,304,43,08,21,187,35,02,20,071,21,36,11,042,24,1*7A
$GBGSV,5,1,19,06,85,241,42,16,83,182,43,34,77,156,42,09,73,314,43,1*7F
$GBGSV,5,2,19,39,72,169,42,40,68,308,45,07,63,287,43,12,61,058,28,1*75
$GBGSV,5,3,19,11,55,191,40,24,54,077,40,10,53,271,40,25,48,335,39,1*75
$GBGSV,5,4,19,44,38,045,24,43,32,207,40,26,12,111,,33,09,221,,1*7A
$GBGSV,5,5,19,41,07,268,,14,04,197,,38,02,173,,1*42
$GBGSV,2,1,06,34,77,156,43,39,72,169,41,40,68,308,46,24,54,077,40,4*70
$GBGSV,2,2,06,25,48,335,38,44,38,045,26,4*7E
$GNACCURACY,3.0*15
$PAIRSAT,1,35,2,0,201,3,0,200,4,0,221,5,0,200,6,0,200,7,0,201,8,0,221,9,0,221,10,0,200,11,0,200,12,0,200,13,0,200,14,0,200,15,0,200,16,0,201,17,0,200,18,0,200,19,0,200,20,0,200,21,0,201,22,0,200,23,0,200,24,0,200,25,0,200,26,0,221,27,0,221,28,0,200,29,0,200,30,0,200,31,0,201,32,0,200,194,0,621,195,0,621,196,0,620,199,0,621*58
$PAIRSAT,2,24,65,0,200,66,0,200,67,0,200,68,0,200,69,0,201,70,0,200,71,0,201,72,0,200,73,0,200,74,0,200,75,0,200,76,0,200,77,0,200,78,0,200,79,0,201,80,0,201,81,0,201,82,0,201,83,0,201,84,0,200,85,0,200,86,0,200,87,0,200,88,0,200*7B
$PAIRSAT,3,23,2,0,1221,3,0,1200,4,0,1200,5,0,200,7,0,1221,8,0,1221,9,0,1200,10,0,1200,11,0,1200,12,0,1200,13,0,1200,15,0,1221,19,0,1200,21,0,1200,24,0,1200,25,0,1200,26,0,1200,27,0,1221,30,0,1221,31,0,1200,33,0,1200,34,0,1221,36,0,1221*6A
$PAIRSAT,4,46,1,0,200,2,0,200,3,0,600,4,0,200,5,0,200,6,0,201,7,0,201,8,0,200,9,0,201,10,0,201,11,0,201,12,0,201,13,0,200,14,0,200,16,0,201,19,0,600,20,0,600,21,0,600,22,0,600,23,0,600,24,0,621,25,0,621,26,0,621,27,0,600,28,0,600,29,0,600,30,0,600,32,0,600,33,0,621,34,0,621,35,0,600,36,0,600,37,0,600,38,0,600,39,0,621,40,0,621,41,0,621,42,0,600,43,0,621,44,0,621,45,0,600,46,0,600,59,0,400,60,0,400,61,0,400,62,0,400*48
$PAIRDGP,10,2,4,7,8,9,16,21,26,27,31*43
$GNGGA,033342.200,2500.8305232,N,12132.4526036,E,4,63,0.49,17.052,M,15.25,M,1,3335*44
$GNRMC,033342.200,A,2500.8305232,N,12132.4526036,E,0.02,352.83,030324,,,R,V*1C
$GPHDT,136.388,T*32
$GNACCURACY,3.0*15
$GNGGA,033342.300,2500.8305140,N,12132.4526117,E,4,63,0.49,17.087,M,15.25,M,1,3335*49
$GNRMC,033342.300,A,2500.8305140,N,12132.4526117,E,0.02,352.83,030324,,,R,V*19
$GPHDT,,T*1B
$GNACCURACY,3.0*15
$GNGGA,033342.400,2500.8305083,N,12132.4526409,E,4,63,0.49,17.068,M,15.25,M,1,3335*4B
$GNRMC,033342.400,A,2500.8305083,N,12132.4526409,E,0.03,352.83,030324,,,R,V*1B
$GPHDT,136.169,T*3F
$GNACCURACY,3.0*15
$GNGGA,033342.500,2500.8304966,N,12132.4526594,E,4,64,0.46,17.011,M,15.25,M,0,3335*4B
$GNRMC,033342.500,A,2500.8304966,N,12132.4526594,E,0.04,352.83,030324,,,R,V*1B
$GPHDT,,T*1B
$GNACCURACY,3.0*15
$GNGGA,033342.600,2500.8304772,N,12132.4526853,E,4,64,0.46,17.059,M,15.25,M,0,3335*49
$GNRMC,033342.600,A,2500.8304772,N,12132.4526853,E,0.05,352.83,030324,,,R,V*14
$GPHDT,139.077,T*3E
$GNACCURACY,3.0*15
$GNGGA,033342.700,2500.8304527,N,12132.4526881,E,4,63,0.49,17.081,M,15.25,M,0,3335*48
$GNRMC,033342.700,A,2500.8304527,N,12132.4526881,E,0.07,352.83,030324,,,R,V*1A
$GPHDT,,T*1B
$GNACCURACY,3.0*15
$GNGGA,033342.800,2500.8304319,N,12132.4526999,E,4,63,0.49,17.057,M,15.25,M,0,3335*4F
$GNRMC,033342.800,A,2500.8304319,N,12132.4526999,E,0.08,352.83,030324,,,R,V*19
$GPHDT,138.819,T*3F
$GNACCURACY,3.0*15
$GNGGA,033342.900,2500.8303982,N,12132.4526972,E,4,63,0.49,17.113,M,15.25,M,0,3335*45
$GNRMC,033342.900,A,2500.8303982,N,12132.4526972,E,0.09,352.83,030324,,,R,V*13
$GPHDT,,T*1B
$GNACCURACY,3.0*15
$GNGGA,033343.000,2500.8303835,N,12132.4526951,E,4,63,0.49,17.207,M,15.25,M,1,3335*46
$GNRMC,033343.000,A,2500.8303835,N,12132.4526951,E,0.10,352.83,030324,,,R,V*1F
$GPHDT,136.543,T*33
$GNACCURACY,3.0*15
$GNGGA,033343.100,2500.8303926,N,12132.4527494,E,4,63,0.49,17.053,M,15.25,M,1,3335*42
$GNRMC,033343.100,A,2500.8303926,N,12132.4527494,E,0.12,352.83,030324,,,R,V*1A
$GPHDT,,T*1B
$GNGSA,A,3,08,194,199,27,195,04,16,09,21,31,196,26,0.78,0.49,0.61,1*08
$GNGSA,A,3,02,,,,,,,,,,,,0.78,0.49,0.61,1*06
$GNGSA,A,3,82,83,80,79,81,,,,,,,,0.78,0.49,0.61,2*09
$GNGSA,A,3,30,34,07,15,27,08,02,36,,,,,0.78,0.49,0.61,3*0B
$GNGSA,A,3,06,16,34,09,39,40,07,12,11,24,10,25,0.78,0.49,0.61,4*04
$GNGSA,A,3,44,43,,,,,,,,,,,0.78,0.49,0.61,4*06
$GPGSV,4,1,15,08,71,273,47,194,63,045,27,199,60,167,35,27,58,024,32,1*6D
$GPGSV,4,2,15,195,55,126,32,45,47,231,41,04,39,224,43,16,38,046,25,1*5C
$GPGSV,4,3,15,09,32,277,33,21,31,173,36,31,22,132,33,196,22,175,31,1*51
$GPGSV,4,4,15,26,21,076,31,02,20,183,33,07,18,320,22,1*51
$GPGSV,3,1,09,08,71,273,48,194,63,045,36,199,60,167,44,27,58,024,38,8*6D
$GPGSV,3,2,09,195,55,126,39,04,39,224,45,09,32,277,29,196,22,175,30,8*63
$GPGSV,3,3,09,26,21,076,25,8*55
$GLGSV,2,1,08,82,70,099,34,83,42,177,23,80,40,355,24,79,37,068,30,1*7A
$GLGSV,2,2,08,81,31,035,24,70,16,270,17,69,07,211,18,71,05,316,25,1*7B
$GAGSV,2,1,08,30,51,016,22,34,42,088,26,07,41,245,42,15,35,157,33,7*7B
$GAGSV,2,2,08,27,32,304,38,08,21,187,33,02,20,071,20,36,11,042,17,7*77
$GAGSV,2,1,08,30,51,016,31,34,42,088,26,07,41,245,43,15,35,157,40,1*7A
$GAGSV,2,2,08,27,32,304,43,08,21,187,31,02,20,071,18,36,11,042,23,1*73
$GBGSV,5,1,17,06,85,241,41,16,83,182,42,34,77,156,46,09,73,314,42,1*76
$GBGSV,5,2,17,39,72,169,43,40,68,308,42,07,63,287,42,12,61,058,25,1*71
$GBGSV,5,3,17,11,55,191,42,24,54,077,37,10,53,271,40,25,48,335,41,1*76
$GBGSV,5,4,17,44,38,045,24,43,32,207,42,26,12,111,,33,09,221,,1*76
$GBGSV,5,5,17,41,07,268,,1*4E
$GBGSV,2,1,06,34,77,156,43,39,72,169,44,40,68,308,47,24,54,077,35,4*76
$GBGSV,2,2,06,25,48,335,30,44,38,045,27,4*77
$GNACCURACY,3.0*15
$PAIRSAT,1,35,2,0,201,3,0,200,4,0,221,5,0,200,6,0,200,7,0,201,8,0,221,9,0,221,10,0,200,11,0,200,12,0,200,13,0,200,14,0,200,15,0,200,16,0,201,17,0,200,18,0,200,19,0,200,20,0,200,21,0,201,22,0,200,23,0,200,24,0,200,25,0,200,26,0,221,27,0,221,28,0,200,29,0,200,30,0,200,31,0,201,32,0,200,194,0,621,195,0,621,196,0,620,199,0,621*58
$PAIRSAT,2,24,65,0,200,66,0,200,67,0,200,68,0,200,69,0,201,70,0,200,71,0,201,72,0,200,73,0,200,74,0,200,75,0,200,76,0,200,77,0,200,78,0,200,79,0,201,80,0,201,81,0,201,82,0,201,83,0,201,84,0,200,85,0,200,86,0,200,87,0,200,88,0,200*7B
$PAIRSAT,3,23,2,0,1221,3,0,1200,4,0,1200,5,0,200,7,0,1221,8,0,1221,9,0,1200,10,0,1200,11,0,1200,12,0,1200,13,0,1200,15,0,1221,19,0,1200,21,0,1200,24,0,1200,25,0,1200,26,0,1200,27,0,1221,30,0,1221,31,0,1200,33,0,1200,34,0,1221,36,0,1221*6A
$PAIRSAT,4,46,1,0,200,2,0,200,3,0,600,4,0,200,5,0,200,6,0,201,7,0,201,8,0,200,9,0,201,10,0,201,11,0,201,12,0,201,13,0,200,14,0,200,16,0,201,19,0,600,20,0,600,21,0,600,22,0,600,23,0,600,24,0,621,25,0,621,26,0,621,27,0,600,28,0,600,29,0,600,30,0,600,32,0,600,33,0,621,34,0,621,35,0,600,36,0,600,37,0,600,38,0,600,39,0,621,40,0,621,41,0,621,42,0,600,43,0,621,44,0,621,45,0,600,46,0,600,59,0,400,60,0,400,61,0,400,62,0,400*48
$PAIRDGP,10,2,4,7,8,9,16,21,26,27,31*43
$GNGGA,033343.200,2500.8303635,N,12132.4527779,E,4,63,0.49,17.131,M,15.25,M,1,3335*49
$GNRMC,033343.200,A,2500.8303635,N,12132.4527779,E,0.15,352.83,030324,,,R,V*13
$GPHDT,133.946,T*3F
$GNACCURACY,3.0*15
$GNGGA,033343.300,2500.8303287,N,12132.4527993,E,4,63,0.49,17.046,M,15.25,M,1,3335*4E
$GNRMC,033343.300,A,2500.8303287,N,12132.4527993,E,0.19,352.83,030324,,,R,V*19
$GPHDT,,T*1B
$GNACCURACY,3.0*15
$GNGGA,033343.400,2500.8303169,N,12132.4528458,E,4,63,0.49,17.085,M,15.25,M,1,3335*40
$GNRMC,033343.400,A,2500.8303169,N,12132.4528458,E,0.24,352.83,030324,,,R,V*16
$GPHDT,135.380,T*39
$GNACCURACY,3.0*15
$GNGGA,033343.500,2500.8302876,N,12132.4528882,E,4,62,0.49,17.116,M,15.25,M,1,3335*46
$GNRMC,033343.500,A,2500.8302876,N,12132.4528882,E,0.30,352.83,030324,,,R,V*1F
$GPHDT,,T*1B
$GNACCURACY,3.0*15
$GNGGA,033343.600,2500.8303091,N,12132.4529911,E,4,63,0.46,16.860,M,15.25,M,0,3335*49
$GNRMC,033343.600,A,2500.8303091,N,12132.4529911,E,0.37,352.83,030324,,,R,V*11
$GPHDT,138.929,T*3D
$GNACCURACY,3.0*15
$GNGGA,033343.700,2500.8303107,N,12132.4530808,E,4,62,0.47,16.666,M,15.25,M,0,3335*4F
$GNRMC,033343.700,A,2500.8303107,N,12132.4530808,E,0.46,352.83,030324,,,R,V*19
$GPHDT,,T*1B
$GNACCURACY,3.0*15
$GNGGA,033343.800,2500.8302731,N,12132.4531047,E,4,61,0.47,16.673,M,15.25,M,0,3335*47
$GNRMC,033343.800,A,2500.8302731,N,12132.4531047,E,0.54,352.83,030324,,,R,V*15
$GPHDT,139.710,T*38
$GNACCURACY,3.0*15
$GNGGA,033343.900,2500.8302441,N,12132.4531453,E,4,61,0.47,16.694,M,15.25,M,0,3335*4A
$GNRMC,033343.900,A,2500.8302441,N,12132.4531453,E,0.64,134.75,030324,,,R,V*19
$GPHDT,,T*1B
$GNACCURACY,3.0*15
$GNGGA,033344.000,2500.8302082,N,12132.4531969,E,4,62,0.46,16.667,M,15.25,M,1,3335*44
$GNRMC,033344.000,A,2500.8302082,N,12132.4531969,E,0.74,135.11,030324,,,R,V*1A
$GPHDT,139.381,T*34
$GNACCURACY,3.0*15
$GNGGA,033344.100,2500.8301777,N,12132.4532357,E,4,63,0.46,16.621,M,15.25,M,1,3335*4C
$GNRMC,033344.100,A,2500.8301777,N,12132.4532357,E,0.84,137.36,030324,,,R,V*19
$GPHDT,,T*1B
$GNGSA,A,3,08,194,199,27,195,04,16,09,21,31,196,26,0.74,0.46,0.58,1*01
$GNGSA,A,3,02,07,,,,,,,,,,,0.74,0.46,0.58,1*08
$GNGSA,A,3,82,83,80,79,81,,,,,,,,0.74,0.46,0.58,2*00
$GNGSA,A,3,30,34,07,15,27,08,36,02,,,,,0.74,0.46,0.58,3*02
$GNGSA,A,3,06,16,34,09,39,40,07,12,11,24,10,25,0.74,0.46,0.58,4*0D
$GNGSA,A,3,44,43,,,,,,,,,,,0.74,0.46,0.58,4*0F
$GPGSV,4,1,15,08,71,273,47,194,63,045,28,199,60,167,34,27,58,024,32,1*63
$GPGSV,4,2,15,195,55,126,31,45,47,231,40,04,39,224,45,16,38,046,27,1*5A
$GPGSV,4,3,15,09,32,277,27,21,31,173,36,31,22,132,26,196,22,175,32,1*53
$GPGSV,4,4,15,26,21,076,29,02,20,183,30,07,18,320,22,1*5B
$GPGSV,3,1,09,08,71,273,47,194,63,045,30,199,60,167,43,27,58,024,39,8*62
$GPGSV,3,2,09,195,55,126,37,04,39,224,45,09,32,277,32,196,22,175,36,8*61
$GPGSV,3,3,09,26,21,076,20,8*50
$GLGSV,2,1,08,82,70,099,35,83,42,177,23,80,40,355,34,79,37,068,22,1*79
$GLGSV,2,2,08,81,31,035,25,70,16,270,17,69,07,211,21,71,05,316,23,1*76
$GAGSV,2,1,08,30,51,016,28,34,42,088,24,07,41,245,41,15,35,157,34,7*77
$GAGSV,2,2,08,27,32,304,40,08,21,187,29,02,20,071,,36,11,042,17,7*71
$GAGSV,2,1,08,30,51,016,30,34,42,088,37,07,41,245,42,15,35,157,38,1*75
$GAGSV,2,2,08,27,32,304,41,08,21,187,28,02,20,071,18,36,11,042,22,1*78
$GBGSV,5,1,17,06,85,241,40,16,83,182,43,34,77,156,45,09,73,314,42,1*75
$GBGSV,5,2,17,39,72,169,44,40,68,308,44,07,63,287,41,12,61,058,32,1*75
$GBGSV,5,3,17,11,55,191,40,24,54,077,28,10,53,271,42,25,48,335,36,1*78
$GBGSV,5,4,17,44,38,045,28,43,32,207,43,26,12,111,,33,09,221,,1*7B
$GBGSV,5,5,17,41,07,268,,1*4E
$GBGSV,2,1,06,34,77,156,45,39,72,169,44,40,68,308,42,24,54,077,32,4*72
$GBGSV,2,2,06,25,48,335,42,44,38,045,29,4*7C
$GNACCURACY,3.0*15
$PAIRSAT,1,35,2,0,201,3,0,200,4,0,221,5,0,200,6,0,200,7,0,201,8,0,221,9,0,221,10,0,200,11,0,200,12,0,200,13,0,200,14,0,200,15,0,200,16,0,201,17,0,200,18,0,200,19,0,200,20,0,200,21,0,201,22,0,200,23,0,200,24,0,200,25,0,200,26,0,221,27,0,221,28,0,200,29,0,200,30,0,200,31,0,201,32,0,200,194,0,621,195,0,621,196,0,620,199,0,621*58
$PAIRSAT,2,24,65,0,200,66,0,200,67,0,200,68,0,200,69,0,201,70,0,200,71,0,201,72,0,200,73,0,200,74,0,200,75,0,200,76,0,200,77,0,200,78,0,200,79,0,201,80,0,201,81,0,201,82,0,201,83,0,201,84,0,200,85,0,200,86,0,200,87,0,200,88,0,200*7B
$PAIRSAT,3,23,2,0,1221,3,0,1200,4,0,1200,5,0,200,7,0,1221,8,0,1221,9,0,1200,10,0,1200,11,0,1200,12,0,1200,13,0,1200,15,0,1221,19,0,1200,21,0,1200,24,0,1200,25,0,1200,26,0,1200,27,0,1221,30,0,1221,31,0,1200,33,0,1200,34,0,1221,36,0,1221*6A
$PAIRSAT,4,46,1,0,200,2,0,200,3,0,600,4,0,200,5,0,200,6,0,201,7,0,201,8,0,200,9,0,201,10,0,201,11,0,201,12,0,201,13,0,200,14,0,200,16,0,201,19,0,600,20,0,600,21,0,600,22,0,600,23,0,600,24,0,621,25,0,621,26,0,621,27,0,600,28,0,600,29,0,600,30,0,600,32,0,600,33,0,621,34,0,621,35,0,600,36,0,600,37,0,600,38,0,600,39,0,621,40,0,621,41,0,621,42,0,600,43,0,621,44,0,621,45,0,600,46,0,600,59,0,400,60,0,400,61,0,400,62,0,400*48
$PAIRDGP,10,2,4,7,8,9,16,21,26,27,31*43
$GNGGA,033344.200,2500.8300797,N,12132.4532002,E,4,63,0.46,16.937,M,15.25,M,1,3335*4B
$GNRMC,033344.200,A,2500.8300797,N,12132.4532002,E,0.92,140.15,030324,,,R,V*10
$GPHDT,135.400,T*36
$GNACCURACY,2.9*1D
$GNGGA,033344.300,2500.8300414,N,12132.4532224,E,4,62,0.49,16.960,M,15.25,M,1,3335*48
$GNRMC,033344.300,A,2500.8300414,N,12132.4532224,E,1.03,141.61,030324,,,R,V*14
$GPHDT,,T*1B
$GNACCURACY,3.0*15
$GNGGA,033344.400,2500.8299815,N,12132.4532187,E,4,63,0.49,17.088,M,15.25,M,1,3335*46
$GNRMC,033344.400,A,2500.8299815,N,12132.4532187,E,1.06,141.45,030324,,,R,V*16
$GPHDT,137.250,T*37
$GNACCURACY,3.0*15
$GNGGA,033344.500,2500.8299805,N,12132.4532826,E,4,62,0.49,16.939,M,15.25,M,0,3335*46
$GNRMC,033344.500,A,2500.8299805,N,12132.4532826,E,1.25,141.13,030324,,,R,V*16
$GPHDT,,T*1B
$GNACCURACY,3.0*15
$GNGGA,033344.600,2500.8299395,N,12132.4533317,E,4,63,0.49,16.965,M,15.25,M,0,3335*47
$GNRMC,033344.600,A,2500.8299395,N,12132.4533317,E,1.36,136.62,030324,,,R,V*1B
$GPHDT,136.782,T*3C
$GNACCURACY,3.0*15
$GNGGA,033344.700,2500.8299250,N,12132.4533805,E,4,63,0.49,16.891,M,15.25,M,0,3335*4C
$GNRMC,033344.700,A,2500.8299250,N,12132.4533805,E,1.38,131.47,030324,,,R,V*14
$GPHDT,,T*1B
$GNACCURACY,3.0*15
$GNGGA,033344.800,2500.8298637,N,12132.4533651,E,4,63,0.49,17.041,M,15.25,M,0,3335*4C
$GNRMC,033344.800,A,2500.8298637,N,12132.4533651,E,1.43,132.86,030324,,,R,V*12
$GPHDT,137.923,T*38
$GNACCURACY,3.0*15
$GNGGA,033344.900,2500.8298108,N,12132.4534039,E,4,63,0.49,17.132,M,15.25,M,0,3335*4C
$GNRMC,033344.900,A,2500.8298108,N,12132.4534039,E,1.50,132.96,030324,,,R,V*14
$GPHDT,,T*1B
$GNACCURACY,3.0*15
$GNGGA,033345.000,2500.8298239,N,12132.4534877,E,4,63,0.49,16.910,M,15.25,M,1,3335*4F
$GNRMC,033345.000,A,2500.8298239,N,12132.4534877,E,1.49,133.68,030324,,,R,V*17
$GPHDT,137.415,T*30
$GNACCURACY,3.0*15
$GNGGA,033345.100,2500.8297861,N,12132.4535013,E,4,63,0.49,16.965,M,15.25,M,1,3335*4F
$GNRMC,033345.100,A,2500.8297861,N,12132.4535013,E,1.52,134.28,030324,,,R,V*1C
$GPHDT,,T*1B
$GNGSA,A,3,08,194,199,27,195,04,16,09,21,31,196,26,0.78,0.49,0.61,1*08
$GNGSA,A,3,02,,,,,,,,,,,,0.78,0.49,0.61,1*06
$GNGSA,A,3,82,83,80,79,81,,,,,,,,0.78,0.49,0.61,2*09
$GNGSA,A,3,30,34,07,15,27,08,02,36,,,,,0.78,0.49,0.61,3*0B
$GNGSA,A,3,06,16,34,09,39,40,07,12,11,24,10,25,0.78,0.49,0.61,4*04
$GNGSA,A,3,44,43,,,,,,,,,,,0.78,0.49,0.61,4*06
$GPGSV,4,1,15,08,71,273,47,194,63,045,28,199,60,167,33,27,58,024,32,1*64
$GPGSV,4,2,15,195,55,126,35,45,47,231,41,04,39,224,45,16,38,046,27,1*5F
$GPGSV,4,3,15,09,32,277,37,21,31,173,35,31,22,132,28,196,22,175,35,1*58
$GPGSV,4,4,15,26,21,076,25,02,20,183,27,07,18,320,20,1*53
$GPGSV,3,1,09,08,71,273,46,194,63,045,29,199,60,167,43,27,58,024,30,8*62
$GPGSV,3,2,09,195,55,126,41,04,39,224,45,09,32,277,38,196,22,175,36,8*6A
$GPGSV,3,3,09,26,21,076,27,8*57
$GLGSV,2,1,08,82,70,099,34,83,42,177,22,80,40,355,34,79,37,068,24,1*7F
$GLGSV,2,2,08,81,31,035,22,70,16,270,22,69,07,211,21,71,05,316,23,1*77
$GAGSV,2,1,08,30,51,016,36,34,42,088,22,07,41,245,41,15,35,157,30,7*7A
$GAGSV,2,2,08,27,32,304,42,08,21,187,28,02,20,071,18,36,11,042,18,7*74
$GAGSV,2,1,08,30,51,016,38,34,42,088,32,07,41,245,43,15,35,157,37,1*76
$GAGSV,2,2,08,27,32,304,40,08,21,187,30,02,20,071,23,36,11,042,22,1*78
$GBGSV,5,1,17,06,85,241,41,16,83,182,43,34,77,156,44,09,73,314,43,1*74
$GBGSV,5,2,17,39,72,169,44,40,68,308,43,07,63,287,43,12,61,058,29,1*7A
$GBGSV,5,3,17,11,55,191,38,24,54,077,28,10,53,271,41,25,48,335,42,1*77
$GBGSV,5,4,17,44,38,045,27,43,32,207,40,26,12,111,,33,08,221,,1*76
$GBGSV,5,5,17,41,07,268,,1*4E
$GBGSV,2,1,06,34,77,156,45,39,72,169,43,40,68,308,44,24,54,077,36,4*77
$GBGSV,2,2,06,25,48,335,42,44,38,045,26,4*73
$GNACCURACY,3.0*15
$PAIRSAT,1,35,2,0,201,3,0,200,4,0,221,5,0,200,6,0,200,7,0,201,8,0,221,9,0,221,10,0,200,11,0,200,12,0,200,13,0,200,14,0,200,15,0,200,16,0,201,17,0,200,18,0,200,19,0,200,20,0,200,21,0,201,22,0,200,23,0,200,24,0,200,25,0,200,26,0,221,27,0,221,28,0,200,29,0,200,30,0,200,31,0,201,32,0,200,194,0,621,195,0,621,196,0,620,199,0,621*58
$PAIRSAT,2,24,65,0,200,66,0,200,67,0,200,68,0,200,69,0,201,70,0,200,71,0,201,72,0,200,73,0,200,74,0,200,75,0,200,76,0,200,77,0,200,78,0,200,79,0,201,80,0,201,81,0,201,82,0,201,83,0,201,84,0,200,85,0,200,86,0,200,87,0,200,88,0,200*7B
$PAIRSAT,3,23,2,0,1221,3,0,1200,4,0,1200,5,0,200,7,0,1221,8,0,1221,9,0,1200,10,0,1200,11,0,1200,12,0,1200,13,0,1200,15,0,1221,19,0,1200,21,0,1200,24,0,1200,25,0,1200,26,0,1200,27,0,1221,30,0,1221,31,0,1200,33,0,1200,34,0,1221,36,0,1221*6A
$PAIRSAT,4,46,1,0,200,2,0,200,3,0,600,4,0,200,5,0,200,6,0,201,7,0,201,8,0,200,9,0,201,10,0,201,11,0,201,12,0,201,13,0,200,14,0,200,16,0,201,19,0,600,20,0,600,21,0,600,22,0,600,23,0,600,24,0,621,25,0,621,26,0,621,27,0,600,28,0,600,29,0,600,30,0,600,32,0,600,33,0,621,34,0,621,35,0,600,36,0,600,37,0,600,38,0,600,39,0,621,40,0,621,41,0,621,42,0,600,43,0,621,44,0,621,45,0,600,46,0,600,59,0,400,60,0,400,61,0,400,62,0,400*48
$PAIRDGP,10,2,4,7,8,9,16,21,26,27,31*43
$GNGGA,033345.200,2500.8297685,N,12132.4535661,E,4,63,0.49,16.853,M,15.25,M,1,3335*4F
$GNRMC,033345.200,A,2500.8297685,N,12132.4535661,E,1.53,134.90,030324,,,R,V*1A
$GPHDT,139.240,T*38
$GNACCURACY,3.0*15
$GNGGA,033345.300,2500.8297104,N,12132.4536015,E,4,63,0.49,16.963,M,15.25,M,1,3335*44
$GNRMC,033345.300,A,2500.8297104,N,12132.4536015,E,1.58,135.50,030324,,,R,V*15
$GPHDT,,T*1B
$GNACCURACY,3.0*15
$GNGGA,033345.400,2500.8297037,N,12132.4536513,E,4,63,0.49,16.793,M,15.25,M,1,3335*40
$GNRMC,033345.400,A,2500.8297037,N,12132.4536513,E,1.61,136.81,030324,,,R,V*15
$GPHDT,141.573,T*30
$GNACCURACY,3.0*15
$GNGGA,033345.500,2500.8295909,N,12132.4536197,E,4,63,0.49,17.139,M,15.25,M,0,3335*49
$GNRMC,033345.500,A,2500.8295909,N,12132.4536197,E,1.65,140.20,030324,,,R,V*14
$GPHDT,,T*1B
$GNACCURACY,3.0*15
$GNGGA,033345.600,2500.8295801,N,12132.4536738,E,4,63,0.49,17.008,M,15.25,M,0,3335*43
$GNRMC,033345.600,A,2500.8295801,N,12132.4536738,E,1.65,140.68,030324,,,R,V*11
$GPHDT,138.975,T*34
$GNACCURACY,3.0*15
$GNGGA,033345.700,2500.8295617,N,12132.4537673,E,4,63,0.49,16.864,M,15.25,M,0,3335*47
$GNRMC,033345.700,A,2500.8295617,N,12132.4537673,E,1.66,141.03,030324,,,R,V*19
$GPHDT,,T*1B
$GNACCURACY,3.0*15
$GNGGA,033345.800,2500.8295337,N,12132.4537825,E,4,63,0.49,16.790,M,15.25,M,0,3335*46
$GNRMC,033345.800,A,2500.8295337,N,12132.4537825,E,1.65,142.18,030324,,,R,V*16
$GPHDT,136.965,T*3B
$GNACCURACY,3.0*15
$GNGGA,033345.900,2500.8294772,N,12132.4537951,E,4,63,0.49,16.945,M,15.25,M,0,3335*47
$GNRMC,033345.900,A,2500.8294772,N,12132.4537951,E,1.64,141.68,030324,,,R,V*14
$GPHDT,,T*1B
$GNACCURACY,2.9*1D
$GNGGA,033346.000,2500.8294412,N,12132.4538311,E,2,63,0.49,16.944,M,15.25,M,1,3335*4F
$GNRMC,033346.000,A,2500.8294412,N,12132.4538311,E,1.64,139.92,030324,,,D,V*06
$GPHDT,136.679,T*39
$GNACCURACY,3.0*15
$GNGGA,033346.100,2500.8293992,N,12132.4538671,E,2,63,0.49,16.945,M,15.25,M,1,3335*4E
$GNRMC,033346.100,A,2500.8293992,N,12132.4538671,E,1.65,139.53,030324,,,D,V*0A
$GPHDT,,T*1B
$GNGSA,A,3,08,194,199,27,195,04,16,09,21,31,196,26,0.78,0.49,0.61,1*08
$GNGSA,A,3,02,,,,,,,,,,,,0.78,0.49,0.61,1*06
$GNGSA,A,3,82,83,80,79,81,,,,,,,,0.78,0.49,0.61,2*09
$GNGSA,A,3,30,34,07,15,27,08,02,36,,,,,0.78,0.49,0.61,3*0B
$GNGSA,A,3,06,16,34,09,39,40,07,12,11,24,10,25,0.78,0.49,0.61,4*04
$GNGSA,A,3,44,43,,,,,,,,,,,0.78,0.49,0.61,4*06
$GPGSV,4,1,15,08,71,273,47,194,63,045,29,199,60,167,34,27,58,024,34,1*64
$GPGSV,4,2,15,195,55,126,39,45,47,231,41,04,39,224,45,16,38,046,24,1*50
$GPGSV,4,3,15,09,32,277,27,21,31,173,35,31,22,132,29,196,22,175,33,1*5E
$GPGSV,4,4,15,26,21,076,24,02,20,183,29,07,18,320,23,1*5F
$GPGSV,3,1,09,08,71,273,47,194,63,045,36,199,60,167,44,27,58,024,42,8*6F
$GPGSV,3,2,09,195,55,126,43,04,39,224,45,09,32,277,33,196,22,175,34,8*61
$GPGSV,3,3,09,26,21,076,23,8*53
$GLGSV,2,1,08,82,70,099,36,83,42,177,22,80,40,355,31,79,37,068,23,1*7F
$GLGSV,2,2,08,81,31,035,23,70,16,270,24,69,07,211,20,71,05,316,25,1*77
$GAGSV,2,1,08,30,51,016,31,34,42,088,24,07,41,245,42,15,35,157,33,7*7B
$GAGSV,2,2,08,27,32,304,42,08,21,187,26,02,20,071,22,36,11,042,17,7*7C
$GAGSV,2,1,08,30,51,016,33,34,42,088,28,07,41,245,44,15,35,157,39,1*7F
$GAGSV,2,2,08,27,32,304,44,08,21,187,28,02,20,071,19,36,11,042,23,1*7D
$GBGSV,5,1,17,06,85,241,42,16,83,182,43,34,77,156,43,09,73,314,42,1*71
$GBGSV,5,2,17,39,72,169,42,40,68,308,40,07,63,287,43,12,61,058,32,1*75
$GBGSV,5,3,17,11,55,191,41,24,54,077,29,10,53,271,42,25,48,335,43,1*7A
$GBGSV,5,4,17,44,38,045,31,43,32,207,39,26,12,111,,33,08,221,,1*7F
$GBGSV,5,5,17,41,07,268,,1*4E
$GBGSV,2,1,06,34,77,156,45,39,72,169,43,40,68,308,46,24,54,077,29,4*7B
$GBGSV,2,2,06,25,48,335,42,44,38,045,26,4*73
$GNACCURACY,3.0*15
$PAIRSAT,1,35,2,0,201,3,0,200,4,0,221,5,0,200,6,0,200,7,0,201,8,0,221,9,0,221,10,0,200,11,0,200,12,0,200,13,0,200,14,0,200,15,0,200,16,0,201,17,0,200,18,0,200,19,0,200,20,0,200,21,0,201,22,0,200,23,0,200,24,0,200,25,0,200,26,0,221,27,0,221,28,0,200,29,0,200,30,0,200,31,0,201,32,0,200,194,0,621,195,0,621,196,0,620,199,0,621*58
$PAIRSAT,2,24,65,0,200,66,0,200,67,0,200,68,0,200,69,0,201,70,0,200,71,0,201,72,0,200,73,0,200,74,0,200,75,0,200,76,0,200,77,0,200,78,0,200,79,0,201,80,0,201,81,0,201,82,0,201,83,0,201,84,0,200,85,0,200,86,0,200,87,0,200,88,0,200*7B
$PAIRSAT,3,23,2,0,1221,3,0,1200,4,0,1200,5,0,200,7,0,1221,8,0,1221,9,0,1200,10,0,1200,11,0,1200,12,0,1200,13,0,1200,15,0,1221,19,0,1200,21,0,1200,24,0,1200,25,0,1200,26,0,1200,27,0,1221,30,0,1221,31,0,1200,33,0,1200,34,0,1221,36,0,1221*6A
$PAIRSAT,4,46,1,0,200,2,0,200,3,0,600,4,0,200,5,0,200,6,0,201,7,0,201,8,0,200,9,0,201,10,0,201,11,0,201,12,0,201,13,0,200,14,0,200,16,0,201,19,0,600,20,0,600,21,0,600,22,0,600,23,0,600,24,0,621,25,0,621,26,0,621,27,0,600,28,0,600,29,0,600,30,0,600,32,0,600,33,0,621,34,0,621,35,0,600,36,0,600,37,0,600,38,0,600,39,0,621,40,0,621,41,0,621,42,0,600,43,0,621,44,0,621,45,0,600,46,0,600,59,0,400,60,0,400,61,0,400,62,0,400*48
$PAIRDGP,10,2,4,7,8,9,16,21,26,27,31*43
$GNGGA,033346.200,2500.8293572,N,12132.4538971,E,2,63,0.49,16.953,M,15.25,M,1,3335*47
$GNRMC,033346.200,A,2500.8293572,N,12132.4538971,E,1.64,139.80,030324,,,D,V*0B
$GPHDT,137.405,T*31
$GNACCURACY,3.0*15
$GNGGA,033346.300,2500.8293272,N,12132.4539331,E,2,63,0.49,16.963,M,15.25,M,1,3335*4D
$GNRMC,033346.300,A,2500.8293272,N,12132.4539331,E,1.62,138.36,030324,,,D,V*08
$GPHDT,,T*1B
$GNACCURACY,2.9*1D
$GNGGA,033346.400,2500.8292912,N,12132.4539691,E,2,63,0.49,16.968,M,15.25,M,1,3335*42
$GNRMC,033346.400,A,2500.8292912,N,12132.4539691,E,1.62,137.72,030324,,,D,V*03
$GPHDT,139.799,T*39
$GNACCURACY,3.0*15
$GNGGA,033346.500,2500.8292552,N,12132.4540051,E,2,63,0.49,16.972,M,15.25,M,0,3335*45
$GNRMC,033346.500,A,2500.8292552,N,12132.4540051,E,1.63,137.66,030324,,,D,V*0A
$GPHDT,,T*1B
$GNACCURACY,3.0*15
$GNGGA,033346.600,2500.8292072,N,12132.4540351,E,2,63,0.49,16.978,M,15.25,M,0,3335*48
$GNRMC,033346.600,A,2500.8292072,N,12132.4540351,E,1.66,138.23,030324,,,D,V*06
$GPHDT,139.881,T*3F
$GNACCURACY,3.0*15
$GNGGA,033346.700,2500.8291712,N,12132.4540651,E,2,64,0.46,16.985,M,15.25,M,0,3335*44
$GNRMC,033346.700,A,2500.8291712,N,12132.4540651,E,1.67,138.45,030324,,,D,V*01
$GPHDT,,T*1B
$GNACCURACY,3.0*15
$GNGGA,033346.800,2500.8291292,N,12132.4540951,E,2,64,0.46,16.997,M,15.25,M,0,3335*4A
$GNRMC,033346.800,A,2500.8291292,N,12132.4540951,E,1.67,139.68,030324,,,D,V*02
$GPHDT,141.499,T*35
$GNACCURACY,3.0*15
$GNGGA,033346.900,2500.8290812,N,12132.4541311,E,2,64,0.46,16.999,M,15.25,M,0,3335*49
$GNRMC,033346.900,A,2500.8290812,N,12132.4541311,E,1.68,139.97,030324,,,D,V*00
$GPHDT,,T*1B
$GNACCURACY,3.0*15
$GNGGA,033347.000,2500.8290452,N,12132.4541551,E,2,64,0.46,17.002,M,15.25,M,1,3335*40
$GNRMC,033347.000,A,2500.8290452,N,12132.4541551,E,1.68,140.36,030324,,,D,V*07
$GPHDT,139.744,T*39
$GNACCURACY,3.0*15
$GNGGA,033347.100,2500.8290032,N,12132.4541851,E,2,64,0.46,17.008,M,15.25,M,1,3335*44
$GNRMC,033347.100,A,2500.8290032,N,12132.4541851,E,1.67,140.09,030324,,,D,V*0A
$GPHDT,,T*1B
$GNGSA,A,3,08,194,199,27,195,04,16,09,21,31,196,26,0.74,0.46,0.58,1*01
$GNGSA,A,3,02,07,,,,,,,,,,,0.74,0.46,0.58,1*08
$GNGSA,A,3,82,83,80,79,81,,,,,,,,0.74,0.46,0.58,2*00
$GNGSA,A,3,30,34,07,15,27,08,02,36,,,,,0.74,0.46,0.58,3*02
$GNGSA,A,3,06,16,34,09,39,40,07,12,11,24,10,25,0.74,0.46,0.58,4*0D
$GNGSA,A,3,44,43,,,,,,,,,,,0.74,0.46,0.58,4*0F
$GPGSV,4,1,15,08,71,273,47,194,63,045,27,199,60,167,34,27,58,024,37,1*69
$GPGSV,4,2,15,195,55,126,32,45,47,231,41,04,39,224,45,16,38,046,21,1*5E
$GPGSV,4,3,15,09,32,277,28,21,31,173,35,31,22,132,30,196,22,175,32,1*58
$GPGSV,4,4,15,26,21,076,22,02,20,183,32,07,18,320,25,1*55
$GPGSV,3,1,09,08,71,273,48,194,63,045,37,199,60,167,43,27,58,024,32,8*61
$GPGSV,3,2,09,195,55,126,41,04,39,224,45,09,32,277,40,196,22,175,37,8*64
$GPGSV,3,3,09,26,21,076,24,8*54
$GLGSV,2,1,08,82,70,099,36,83,42,177,23,80,40,355,33,79,37,068,23,1*7C
$GLGSV,2,2,08,81,31,035,24,70,16,270,27,69,07,211,20,71,05,316,27,1*71
$GAGSV,2,1,08,30,51,016,32,34,42,088,25,07,41,245,41,15,35,157,30,7*79
$GAGSV,2,2,08,27,32,304,43,08,21,187,26,02,20,071,23,36,11,042,,7*7A
$GAGSV,2,1,08,30,51,016,33,34,42,088,23,07,41,245,43,15,35,157,37,1*7D
$GAGSV,2,2,08,27,32,304,44,08,21,187,26,02,20,071,21,36,11,042,21,1*7A
$GBGSV,5,1,17,06,85,241,42,16,83,182,43,34,77,156,43,09,73,314,43,1*70
$GBGSV,5,2,17,39,72,169,42,40,68,308,43,07,63,287,43,12,61,058,31,1*75
$GBGSV,5,3,17,11,55,191,39,24,54,077,34,10,53,271,42,25,48,335,43,1*79
$GBGSV,5,4,17,44,38,045,26,43,32,207,41,26,12,111,,33,08,221,,1*76
$GBGSV,5,5,17,41,07,268,,1*4E
$GBGSV,2,1,06,34,77,156,43,39,72,169,42,40,68,308,45,24,54,077,34,4*73
$GBGSV,2,2,06,25,48,335,41,44,38,045,26,4*70
$GNACCURACY,3.0*15
$PAIRSAT,1,35,2,0,201,3,0,200,4,0,221,5,0,200,6,0,200,7,0,201,8,0,221,9,0,221,10,0,200,11,0,200,12,0,200,13,0,200,14,0,200,15,0,200,16,0,201,17,0,200,18,0,200,19,0,200,20,0,200,21,0,201,22,0,200,23,0,200,24,0,200,25,0,200,26,0,221,27,0,221,28,0,200,29,0,200,30,0,200,31,0,201,32,0,200,194,0,621,195,0,621,196,0,620,199,0,621*58
$PAIRSAT,2,24,65,0,200,66,0,200,67,0,200,68,0,200,69,0,201,70,0,200,71,0,201,72,0,200,73,0,200,74,0,200,75,0,200,76,0,200,77,0,200,78,0,200,79,0,201,80,0,201,81,0,201,82,0,201,83,0,201,84,0,200,85,0,200,86,0,200,87,0,200,88,0,200*7B
$PAIRSAT,3,23,2,0,1221,3,0,1200,4,0,1200,5,0,200,7,0,1221,8,0,1221,9,0,1200,10,0,1200,11,0,1200,12,0,1200,13,0,1200,15,0,1221,19,0,1200,21,0,1200,24,0,1200,25,0,1200,26,0,1200,27,0,1221,30,0,1221,31,0,1200,33,0,1200,34,0,1221,36,0,1221*6A
$PAIRSAT,4,46,1,0,200,2,0,200,3,0,600,4,0,200,5,0,200,6,0,201,7,0,201,8,0,200,9,0,201,10,0,201,11,0,201,12,0,201,13,0,200,14,0,200,16,0,201,19,0,600,20,0,600,21,0,600,22,0,600,23,0,600,24,0,621,25,0,621,26,0,621,27,0,600,28,0,600,29,0,600,30,0,600,32,0,600,33,0,621,34,0,621,35,0,600,36,0,600,37,0,600,38,0,600,39,0,621,40,0,621,41,0,621,42,0,600,43,0,621,44,0,621,45,0,600,46,0,600,59,0,400,60,0,400,61,0,400,62,0,400*48
$PAIRDGP,10,2,4,7,8,9,16,21,26,27,31*43
$GNGGA,033347.200,2500.8289672,N,12132.4542151,E,2,63,0.46,17.015,M,15.25,M,1,3335*4C
$GNRMC,033347.200,A,2500.8289672,N,12132.4542151,E,1.66,139.65,030324,,,D,V*0C
$GPHDT,138.088,T*3F
$GNACCURACY,3.0*15
$GNGGA,033347.300,2500.8289252,N,12132.4542511,E,2,62,0.49,17.020,M,15.25,M,1,3335*43
$GNRMC,033347.300,A,2500.8289252,N,12132.4542511,E,1.68,138.70,030324,,,D,V*00
$GPHDT,,T*1B
$GNACCURACY,3.0*15
$GNGGA,033347.400,2500.8288892,N,12132.4542931,E,2,62,0.49,17.028,M,15.25,M,1,3335*45
$GNRMC,033347.400,A,2500.8288892,N,12132.4542931,E,1.69,138.40,030324,,,D,V*0C
$GPHDT,137.905,T*3C
$GNACCURACY,3.0*15
$GNGGA,033347.500,2500.8288532,N,12132.4543351,E,2,62,0.49,17.040,M,15.25,M,1,3335*40
$GNRMC,033347.500,A,2500.8288532,N,12132.4543351,E,1.68,137.26,030324,,,D,V*09
$GPHDT,,T*1B
$GNACCURACY,3.0*15
$GNGGA,033347.600,2500.8288232,N,12132.4543771,E,2,62,0.49,17.046,M,15.25,M,0,3335*45
$GNRMC,033347.600,A,2500.8288232,N,12132.4543771,E,1.67,136.18,030324,,,D,V*08
$GPHDT,139.951,T*33
$GNACCURACY,3.0*15
$GNGGA,033347.700,2500.8287872,N,12132.4544011,E,2,61,0.49,17.053,M,15.25,M,0,3335*44
$GNRMC,033347.700,A,2500.8287872,N,12132.4544011,E,1.62,135.87,030324,,,D,V*0E
$GPHDT,,T*1B
$GNACCURACY,3.0*15
$GNGGA,033347.800,2500.8287452,N,12132.4544371,E,2,60,0.49,17.062,M,15.25,M,0,3335*43
$GNRMC,033347.800,A,2500.8287452,N,12132.4544371,E,1.64,135.91,030324,,,D,V*0B
$GPHDT,139.472,T*3F
$GNACCURACY,3.0*15
$GNGGA,033347.900,2500.8287092,N,12132.4544731,E,2,61,0.46,17.070,M,15.25,M,0,3335*47
$GNRMC,033347.900,A,2500.8287092,N,12132.4544731,E,1.64,135.48,030324,,,D,V*06
$GPHDT,,T*1B
$GNACCURACY,3.0*15
$GNGGA,033348.000,2500.8286672,N,12132.4545151,E,2,60,0.46,17.077,M,15.25,M,1,3335*4E
$GNRMC,033348.000,A,2500.8286672,N,12132.4545151,E,1.66,136.14,030324,,,D,V*00
$GPHDT,142.365,T*32
$GNACCURACY,3.0*15
$GNGGA,033348.100,2500.8286252,N,12132.4545511,E,2,61,0.46,17.086,M,15.25,M,1,3335*46
$GNRMC,033348.100,A,2500.8286252,N,12132.4545511,E,1.68,136.97,030324,,,D,V*02
$GPHDT,,T*1B
$GNGSA,A,3,08,194,199,195,04,16,09,21,31,196,26,02,0.74,0.46,0.58,1*06
$GNGSA,A,3,07,27,,,,,,,,,,,0.74,0.46,0.58,1*0F
$GNGSA,A,3,82,83,80,79,81,,,,,,,,0.74,0.46,0.58,2*00
$GNGSA,A,3,30,34,07,15,27,08,02,36,,,,,0.74,0.46,0.58,3*02
$GNGSA,A,3,06,16,34,09,39,40,07,12,11,24,10,25,0.74,0.46,0.58,4*0D
$GNGSA,A,3,44,43,,,,,,,,,,,0.74,0.46,0.58,4*0F
$GPGSV,4,1,15,08,71,273,47,194,63,045,30,199,60,167,35,27,58,024,22,1*6A
$GPGSV,4,2,15,195,55,126,34,45,47,231,40,04,39,224,45,16,38,046,22,1*5A
$GPGSV,4,3,15,09,32,277,38,21,31,173,36,31,22,132,37,196,22,175,33,1*5C
$GPGSV,4,4,15,26,21,076,23,02,20,183,31,07,18,320,29,1*5B
$GPGSV,3,1,09,08,71,273,48,194,63,045,31,199,60,167,44,27,58,024,30,8*62
$GPGSV,3,2,09,195,55,126,39,04,39,224,45,09,32,277,40,196,22,175,36,8*6A
$GPGSV,3,3,09,26,21,076,24,8*54
$GLGSV,2,1,08,82,70,099,39,83,42,177,22,80,40,355,30,79,37,068,25,1*77
$GLGSV,2,2,08,81,31,035,21,70,16,270,26,69,07,211,21,71,05,316,24,1*77
$GAGSV,2,1,08,30,51,016,32,34,42,088,23,07,41,245,41,15,35,157,34,7*7B
$GAGSV,2,2,08,27,32,304,42,08,21,187,29,02,20,071,22,36,11,042,,7*75
$GAGSV,2,1,07,30,51,016,36,34,42,088,23,07,41,245,42,15,35,157,37,1*76
$GAGSV,2,2,07,27,32,304,40,08,21,187,30,36,11,042,21,1*43
$GBGSV,5,1,17,06,85,241,42,16,83,182,43,34,77,156,45,09,73,314,43,1*76
$GBGSV,5,2,17,39,72,169,43,40,68,308,43,07,63,287,41,12,61,058,26,1*70
$GBGSV,5,3,17,11,55,191,40,24,54,077,31,10,53,271,42,25,48,335,40,1*71
$GBGSV,5,4,17,44,38,045,24,43,32,207,41,26,12,111,,33,08,221,,1*74
$GBGSV,5,5,17,41,07,268,,1*4E
$GBGSV,2,1,06,34,77,156,44,39,72,169,44,40,68,308,45,24,54,077,33,4*75
$GBGSV,2,2,06,25,48,335,42,44,38,045,23,4*76
$GNACCURACY,3.0*15
$PAIRSAT,1,35,2,0,201,3,0,200,4,0,221,5,0,200,6,0,200,7,0,201,8,0,221,9,0,221,10,0,200,11,0,200,12,0,200,13,0,200,14,0,200,15,0,200,16,0,201,17,0,200,18,0,200,19,0,200,20,0,200,21,0,201,22,0,200,23,0,200,24,0,200,25,0,200,26,0,221,27,0,221,28,0,200,29,0,200,30,0,200,31,0,201,32,0,200,194,0,621,195,0,621,196,0,620,199,0,621*58
$PAIRSAT,2,24,65,0,200,66,0,200,67,0,200,68,0,200,69,0,201,70,0,200,71,0,201,72,0,200,73,0,200,74,0,200,75,0,200,76,0,200,77,0,200,78,0,200,79,0,201,80,0,201,81,0,201,82,0,201,83,0,201,84,0,200,85,0,200,86,0,200,87,0,200,88,0,200*7B
$PAIRSAT,3,23,2,0,1221,3,0,1200,4,0,1200,5,0,200,7,0,1221,8,0,1221,9,0,1200,10,0,1200,11,0,1200,12,0,1200,13,0,1200,15,0,1221,19,0,1200,21,0,1200,24,0,1200,25,0,1200,26,0,1200,27,0,1221,30,0,1221,31,0,1200,33,0,1200,34,0,1221,36,0,1221*6A
$PAIRSAT,4,46,1,0,200,2,0,200,3,0,600,4,0,200,5,0,200,6,0,201,7,0,201,8,0,200,9,0,201,10,0,201,11,0,201,12,0,201,13,0,200,14,0,200,16,0,201,19,0,600,20,0,600,21,0,600,22,0,600,23,0,600,24,0,621,25,0,621,26,0,621,27,0,600,28,0,600,29,0,600,30,0,600,32,0,600,33,0,621,34,0,621,35,0,600,36,0,600,37,0,600,38,0,600,39,0,621,40,0,621,41,0,621,42,0,600,43,0,621,44,0,621,45,0,600,46,0,600,59,0,400,60,0,400,61,0,400,62,0,400*48
$PAIRDGP,10,2,4,7,8,9,16,21,26,27,31*43
$GNGGA,033348.200,2500.8285892,N,12132.4545871,E,2,61,0.46,17.091,M,15.25,M,1,3335*4D
$GNRMC,033348.200,A,2500.8285892,N,12132.4545871,E,1.69,137.28,030324,,,D,V*0B
$GPHDT,142.024,T*34
$GNACCURACY,3.0*15
$GNGGA,033348.300,2500.8285472,N,12132.4546291,E,2,62,0.46,17.097,M,15.25,M,1,3335*4C
$GNRMC,033348.300,A,2500.8285472,N,12132.4546291,E,1.71,137.22,030324,,,D,V*0C
$GPHDT,,T*1B
$GNACCURACY,3.0*15
$GNGGA,033348.400,2500.8285112,N,12132.4546591,E,2,62,0.46,17.106,M,15.25,M,1,3335*46
$GNRMC,033348.400,A,2500.8285112,N,12132.4546591,E,1.70,137.04,030324,,,D,V*0A
$GPHDT,138.499,T*3B
$GNACCURACY,3.0*15
$GNGGA,033348.500,2500.8284752,N,12132.4546951,E,2,62,0.46,17.109,M,15.25,M,1,3335*4B
$GNRMC,033348.500,A,2500.8284752,N,12132.4546951,E,1.71,136.43,030324,,,D,V*0B
$GPHDT,,T*1B
$GNACCURACY,3.0*15
$GNGGA,033348.600,2500.8284332,N,12132.4547371,E,2,62,0.46,17.110,M,15.25,M,0,3335*4A
$GNRMC,033348.600,A,2500.8284332,N,12132.4547371,E,1.76,136.12,030324,,,D,V*00
$GPHDT,140.730,T*34
$GNACCURACY,3.0*15
$GNGGA,033348.700,2500.8283852,N,12132.4547731,E,2,62,0.46,17.114,M,15.25,M,0,3335*45
$GNRMC,033348.700,A,2500.8283852,N,12132.4547731,E,1.77,136.20,030324,,,D,V*0B
$GPHDT,,T*1B
$GNACCURACY,3.0*15
$GNGGA,033348.800,2500.8283432,N,12132.4548091,E,2,62,0.46,17.115,M,15.25,M,0,3335*43
$GNRMC,033348.800,A,2500.8283432,N,12132.4548091,E,1.77,136.69,030324,,,D,V*01
$GPHDT,137.957,T*3B
$GNACCURACY,3.0*15
$GNGGA,033348.900,2500.8283132,N,12132.4548511,E,2,62,0.46,17.113,M,15.25,M,0,3335*4C
$GNRMC,033348.900,A,2500.8283132,N,12132.4548511,E,1.77,135.85,030324,,,D,V*09
$GPHDT,,T*1B
$GNACCURACY,3.0*15
$GNGGA,033349.000,2500.8282712,N,12132.4548811,E,2,61,0.47,17.113,M,15.25,M,1,3335*4F
$GNRMC,033349.000,A,2500.8282712,N,12132.4548811,E,1.75,136.22,030324,,,D,V*05
$GPHDT,139.903,T*34
$GNACCURACY,3.0*15
$GNGGA,033349.100,2500.8282352,N,12132.4549111,E,2,62,0.47,17.112,M,15.25,M,1,3335*44
$GNRMC,033349.100,A,2500.8282352,N,12132.4549111,E,1.77,136.15,030324,,,D,V*0A
$GPHDT,,T*1B
$GNGSA,A,3,08,194,199,27,195,04,09,21,31,196,26,02,0.74,0.47,0.58,1*05
$GNGSA,A,3,07,,,,,,,,,,,,0.74,0.47,0.58,1*0B
$GNGSA,A,3,82,83,80,79,81,,,,,,,,0.74,0.47,0.58,2*01
$GNGSA,A,3,30,34,07,15,27,08,02,36,,,,,0.74,0.47,0.58,3*03
$GNGSA,A,3,06,16,34,09,39,40,07,12,11,24,10,25,0.74,0.47,0.58,4*0C
$GNGSA,A,3,44,43,,,,,,,,,,,0.74,0.47,0.58,4*0E
$GPGSV,4,1,15,08,71,274,47,194,63,045,28,199,60,167,36,27,58,024,31,1*65
$GPGSV,4,2,15,195,55,126,42,45,47,231,39,04,39,224,45,16,38,046,,1*55
$GPGSV,4,3,15,09,32,277,36,21,31,173,38,31,22,132,31,196,22,175,35,1*5C
$GPGSV,4,4,15,26,21,076,22,02,20,183,32,07,18,320,24,1*54
$GPGSV,3,1,09,08,71,274,48,194,63,045,29,199,60,167,43,27,58,024,38,8*63
$GPGSV,3,2,09,195,55,126,44,04,39,224,45,09,32,277,39,196,22,175,34,8*6C
$GPGSV,3,3,09,26,21,076,20,8*50
$GLGSV,2,1,08,82,70,099,38,83,42,177,24,80,40,355,28,79,37,068,25,1*79
$GLGSV,2,2,08,81,31,035,22,70,16,270,27,69,07,211,18,71,05,316,24,1*7F
$GAGSV,2,1,08,30,51,016,29,34,42,088,27,07,41,245,41,15,35,157,31,7*70
$GAGSV,2,2,08,27,32,304,41,08,21,187,26,02,20,071,20,36,11,042,32,7*7A
$GAGSV,2,1,07,30,51,016,32,34,42,088,29,07,41,245,42,15,35,157,34,1*7B
$GAGSV,2,2,07,27,32,304,35,08,21,187,27,36,11,042,20,1*46
$GBGSV,5,1,17,06,85,241,41,16,83,182,43,34,77,156,45,09,73,314,43,1*75
$GBGSV,5,2,17,39,72,169,42,40,68,308,43,07,63,287,42,12,61,058,27,1*73
$GBGSV,5,3,17,11,55,191,40,24,54,077,32,10,53,271,42,25,48,335,40,1*72
$GBGSV,5,4,17,44,38,045,23,43,32,207,43,26,12,111,,33,08,221,,1*71
$GBGSV,5,5,17,41,07,268,,1*4E
$GBGSV,2,1,06,34,77,156,42,39,72,169,44,40,68,308,45,24,54,077,33,4*73
$GBGSV,2,2,06,25,48,335,41,44,38,045,25,4*73
$GNACCURACY,3.0*15
$PAIRSAT,1,35,2,0,201,3,0,200,4,0,221,5,0,200,6,0,200,7,0,201,8,0,221,9,0,221,10,0,200,11,0,200,12,0,200,13,0,200,14,0,200,15,0,200,16,0,201,17,0,200,18,0,200,19,0,200,20,0,200,21,0,201,22,0,200,23,0,200,24,0,200,25,0,200,26,0,221,27,0,221,28,0,200,29,0,200,30,0,200,31,0,201,32,0,200,194,0,621,195,0,621,196,0,620,199,0,621*58
$PAIRSAT,2,24,65,0,200,66,0,200,67,0,200,68,0,200,69,0,201,70,0,200,71,0,201,72,0,200,73,0,200,74,0,200,75,0,200,76,0,200,77,0,200,78,0,200,79,0,201,80,0,201,81,0,201,82,0,201,83,0,201,84,0,200,85,0,200,86,0,200,87,0,200,88,0,200*7B
$PAIRSAT,3,23,2,0,1221,3,0,1200,4,0,1200,5,0,200,7,0,1221,8,0,1221,9,0,1200,10,0,1200,11,0,1200,12,0,1200,13,0,1200,15,0,1221,19,0,1200,21,0,1200,24,0,1200,25,0,1200,26,0,1200,27,0,1221,30,0,1221,31,0,1200,33,0,1200,34,0,1221,36,0,1221*6A
$PAIRSAT,4,46,1,0,200,2,0,200,3,0,600,4,0,200,5,0,200,6,0,201,7,0,201,8,0,200,9,0,201,10,0,201,11,0,201,12,0,201,13,0,200,14,0,200,16,0,201,19,0,600,20,0,600,21,0,600,22,0,600,23,0,600,24,0,621,25,0,621,26,0,621,27,0,600,28,0,600,29,0,600,30,0,600,32,0,600,33,0,621,34,0,621,35,0,600,36,0,600,37,0,600,38,0,600,39,0,621,40,0,621,41,0,621,42,0,600,43,0,621,44,0,621,45,0,600,46,0,600,59,0,400,60,0,400,61,0,400,62,0,400*48
$PAIRDGP,10,2,4,7,8,9,16,21,26,27,31*43
$GNGGA,033349.200,2500.8281932,N,12132.4549411,E,2,62,0.47,17.112,M,15.25,M,1,3335*4D
$GNRMC,033349.200,A,2500.8281932,N,12132.4549411,E,1.80,137.10,030324,,,D,V*0F
$GPHDT,143.128,T*38
$GNACCURACY,3.0*15
$GNGGA,033349.300,2500.8281512,N,12132.4549711,E,2,61,0.47,17.118,M,15.25,M,1,3335*48
$GNRMC,033349.300,A,2500.8281512,N,12132.4549711,E,1.79,137.33,030324,,,D,V*04
$GPHDT,,T*1B
$GNACCURACY,3.0*15
$GNGGA,033349.400,2500.8281092,N,12132.4549951,E,2,61,0.47,17.120,M,15.25,M,1,3335*43
$GNRMC,033349.400,A,2500.8281092,N,12132.4549951,E,1.80,138.85,030324,,,D,V*00
$GPHDT,141.015,T*35
$GNACCURACY,2.9*1D
$GNGGA,033349.500,2500.8280732,N,12132.4550191,E,2,62,0.47,17.127,M,15.25,M,0,3335*47
$GNRMC,033349.500,A,2500.8280732,N,12132.4550191,E,1.78,139.20,030324,,,D,V*08
$GPHDT,,T*1B
$GNACCURACY,3.0*15
$GNGGA,033349.600,2500.8280372,N,12132.4550491,E,2,62,0.47,17.131,M,15.25,M,0,3335*46
$GNRMC,033349.600,A,2500.8280372,N,12132.4550491,E,1.79,139.19,030324,,,D,V*05
$GPHDT,141.623,T*36
$GNACCURACY,3.0*15
$GNGGA,033349.700,2500.8279952,N,12132.4550731,E,2,62,0.47,17.140,M,15.25,M,0,3335*46
$GNRMC,033349.700,A,2500.8279952,N,12132.4550731,E,1.77,139.15,030324,,,D,V*01
$GPHDT,,T*1B
$GNACCURACY,3.0*15
$GNGGA,033349.800,2500.8279592,N,12132.4551031,E,2,62,0.47,17.148,M,15.25,M,0,3335*47
$GNRMC,033349.800,A,2500.8279592,N,12132.4551031,E,1.76,136.25,030324,,,D,V*05
$GPHDT,138.622,T*39
$GNACCURACY,3.0*15
$GNGGA,033349.900,2500.8279232,N,12132.4551391,E,2,62,0.47,17.151,M,15.25,M,0,3335*4A
$GNRMC,033349.900,A,2500.8279232,N,12132.4551391,E,1.82,131.01,030324,,,D,V*0A
$GPHDT,,T*1B
$GNACCURACY,3.0*15
$GNGGA,033350.000,2500.8278872,N,12132.4551811,E,2,62,0.47,17.154,M,15.25,M,1,3335*43
$GNRMC,033350.000,A,2500.8278872,N,12132.4551811,E,1.86,132.04,030324,,,D,V*05
$GPHDT,141.086,T*3F
$GNACCURACY,3.0*15
$GNGGA,033350.100,2500.8278512,N,12132.4552231,E,2,62,0.47,17.155,M,15.25,M,1,3335*43
$GNRMC,033350.100,A,2500.8278512,N,12132.4552231,E,1.87,131.42,030324,,,D,V*04
$GPHDT,,T*1B
$GNGSA,A,3,08,194,199,27,195,04,09,21,31,196,26,02,0.74,0.47,0.58,1*05
$GNGSA,A,3,07,,,,,,,,,,,,0.74,0.47,0.58,1*0B
$GNGSA,A,3,82,83,80,79,81,,,,,,,,0.74,0.47,0.58,2*01
$GNGSA,A,3,30,34,07,15,27,08,02,36,,,,,0.74,0.47,0.58,3*03
$GNGSA,A,3,06,16,34,09,39,40,07,12,11,24,10,25,0.74,0.47,0.58,4*0C
$GNGSA,A,3,44,43,,,,,,,,,,,0.74,0.47,0.58,4*0E
$GPGSV,4,1,15,08,71,274,47,194,63,045,27,199,60,167,35,27,58,024,31,1*69
$GPGSV,4,2,15,195,55,126,32,45,47,231,40,04,39,224,45,16,38,046,,1*5C
$GPGSV,4,3,15,09,32,277,43,21,31,173,36,31,22,132,31,196,22,175,31,1*54
$GPGSV,4,4,15,26,21,076,20,02,20,183,29,07,18,320,28,1*50
$GPGSV,3,1,09,08,71,274,47,194,63,045,30,199,60,167,44,27,58,024,38,8*63
$GPGSV,3,2,09,195,55,126,44,04,39,224,45,09,32,277,44,196,22,175,37,8*65
$GPGSV,3,3,09,26,21,076,28,8*58
$GLGSV,2,1,08,82,70,099,37,83,42,177,24,80,40,355,29,79,37,068,22,1*70
$GLGSV,2,2,08,81,31,035,24,70,16,270,28,69,07,211,18,71,05,316,24,1*76
$GAGSV,2,1,08,30,51,016,30,34,42,088,23,07,41,245,42,15,35,157,30,7*7E
$GAGSV,2,2,08,27,32,304,36,08,21,187,25,02,20,071,21,36,11,042,35,7*7F
$GAGSV,2,1,07,30,51,016,35,34,42,088,23,07,41,245,42,15,35,157,37,1*75
$GAGSV,2,2,07,27,32,304,43,08,21,187,26,36,11,042,21,1*47
$GBGSV,5,1,17,06,85,241,41,16,83,182,43,34,77,156,45,09,73,314,41,1*77
$GBGSV,5,2,17,39,72,169,43,40,68,308,43,07,63,287,42,12,61,058,27,1*72
$GBGSV,5,3,17,11,55,191,40,24,54,077,27,10,53,271,43,25,48,335,37,1*77
$GBGSV,5,4,17,44,38,045,25,43,32,207,42,26,12,111,,33,08,221,,1*76
$GBGSV,5,5,17,41,07,268,,1*4E
$GBGSV,2,1,06,34,77,156,43,39,72,169,43,40,68,308,46,24,54,077,34,4*71
$GBGSV,2,2,06,25,48,335,40,44,38,045,22,4*75
$GNACCURACY,3.0*15
$PAIRSAT,1,35,2,0,201,3,0,200,4,0,221,5,0,200,6,0,200,7,0,201,8,0,221,9,0,221,10,0,200,11,0,200,12,0,200,13,0,200,14,0,200,15,0,200,16,0,201,17,0,200,18,0,200,19,0,200,20,0,200,21,0,201,22,0,200,23,0,200,24,0,200,25,0,200,26,0,221,27,0,221,28,0,200,29,0,200,30,0,200,31,0,201,32,0,200,194,0,621,195,0,621,196,0,620,199,0,621*58
$PAIRSAT,2,24,65,0,200,66,0,200,67,0,200,68,0,200,69,0,201,70,0,200,71,0,201,72,0,200,73,0,200,74,0,200,75,0,200,76,0,200,77,0,200,78,0,200,79,0,201,80,0,201,81,0,201,82,0,201,83,0,201,84,0,200,85,0,200,86,0,200,87,0,200,88,0,200*7B
$PAIRSAT,3,23,2,0,1221,3,0,1200,4,0,1200,5,0,200,7,0,1221,8,0,1221,9,0,1200,10,0,1200,11,0,1200,12,0,1200,13,0,1200,15,0,1221,19,0,1200,21,0,1200,24,0,1200,25,0,1200,26,0,1200,27,0,1221,30,0,1221,31,0,1200,33,0,1200,34,0,1221,36,0,1221*6A
$PAIRSAT,4,46,1,0,200,2,0,200,3,0,600,4,0,200,5,0,200,6,0,201,7,0,201,8,0,200,9,0,201,10,0,201,11,0,201,12,0,201,13,0,200,14,0,200,16,0,201,19,0,600,20,0,600,21,0,600,22,0,600,23,0,600,24,0,621,25,0,621,26,0,621,27,0,600,28,0,600,29,0,600,30,0,600,32,0,600,33,0,621,34,0,621,35,0,600,36,0,600,37,0,600,38,0,600,39,0,621,40,0,621,41,0,621,42,0,600,43,0,621,44,0,621,45,0,600,46,0,600,59,0,400,60,0,400,61,0,400,62,0,400*48
$PAIRDGP,10,2,4,7,8,9,16,21,26,27,31*43
$GNGGA,033350.200,2500.8278152,N,12132.4552591,E,2,62,0.47,17.160,M,15.25,M,1,3335*4B
$GNRMC,033350.200,A,2500.8278152,N,12132.4552591,E,1.84,134.40,030324,,,D,V*0E
$GPHDT,144.198,T*34
$GNACCURACY,3.0*15
$GNGGA,033350.300,2500.8277792,N,12132.4552951,E,2,62,0.47,17.165,M,15.25,M,1,3335*4A
$GNRMC,033350.300,A,2500.8277792,N,12132.4552951,E,1.75,131.08,030324,,,D,V*0D
$GPHDT,,T*1B
$GNACCURACY,3.0*15
$GNGGA,033350.400,2500.8277432,N,12132.4553371,E,2,62,0.47,17.166,M,15.25,M,1,3335*4E
$GNRMC,033350.400,A,2500.8277432,N,12132.4553371,E,1.86,130.17,030324,,,D,V*09
$GPHDT,144.471,T*36
$GNACCURACY,3.0*15
$GNGGA,033350.500,2500.8276952,N,12132.4553671,E,2,62,0.47,17.164,M,15.25,M,1,3335*42
$GNRMC,033350.500,A,2500.8276952,N,12132.4553671,E,1.93,136.88,030324,,,D,V*03
$GPHDT,,T*1B
$GNACCURACY,3.0*15
$GNGGA,033350.600,2500.8276532,N,12132.4554091,E,2,62,0.47,17.164,M,15.25,M,1,3335*44
$GNRMC,033350.600,A,2500.8276532,N,12132.4554091,E,1.96,138.66,030324,,,D,V*0E
$GPHDT,144.859,T*30
$GNACCURACY,3.0*15
$GNGGA,033350.700,2500.8276112,N,12132.4554391,E,2,62,0.47,17.164,M,15.25,M,0,3335*41
$GNRMC,033350.700,A,2500.8276112,N,12132.4554391,E,1.94,145.80,030324,,,D,V*0A
$GPHDT,,T*1B
$GNACCURACY,3.0*15
$GNGGA,033350.800,2500.8275752,N,12132.4554691,E,2,61,0.49,17.161,M,15.25,M,0,3335*42
$GNRMC,033350.800,A,2500.8275752,N,12132.4554691,E,1.76,141.89,030324,,,D,V*00
$GPHDT,144.052,T*33
$GNACCURACY,3.0*15
$GNGGA,033350.900,2500.8275392,N,12132.4555051,E,2,63,0.46,17.158,M,15.25,M,0,3335*47
$GNRMC,033350.900,A,2500.8275392,N,12132.4555051,E,1.73,140.15,030324,,,D,V*03
$GPHDT,,T*1B
$GNACCURACY,3.0*15
$GNGGA,033351.000,2500.8274972,N,12132.4555351,E,2,63,0.46,17.156,M,15.25,M,1,3335*46
$GNRMC,033351.000,A,2500.8274972,N,12132.4555351,E,1.74,140.04,030324,,,D,V*0A
$GPHDT,144.816,T*3B
$GNACCURACY,3.0*15
$GNGGA,033351.100,2500.8274612,N,12132.4555711,E,2,63,0.46,17.153,M,15.25,M,1,3335*4B
$GNRMC,033351.100,A,2500.8274612,N,12132.4555711,E,1.85,136.96,030324,,,D,V*06
$GPHDT,,T*1B
$GNGSA,A,3,08,194,199,27,195,04,16,09,21,31,196,26,0.78,0.49,0.61,1*08
$GNGSA,A,3,02,,,,,,,,,,,,0.78,0.49,0.61,1*06
$GNGSA,A,3,82,83,80,79,81,,,,,,,,0.78,0.49,0.61,2*09
$GNGSA,A,3,30,34,07,15,27,08,02,36,,,,,0.78,0.49,0.61,3*0B
$GNGSA,A,3,06,16,34,09,39,40,07,12,11,24,10,25,0.78,0.49,0.61,4*04
$GNGSA,A,3,44,43,,,,,,,,,,,0.78,0.49,0.61,4*06
$GPGSV,4,1,15,08,71,274,47,194,63,045,26,199,60,167,34,27,58,024,29,1*60
$GPGSV,4,2,15,195,55,126,39,45,47,231,40,04,39,224,44,16,38,046,21,1*55
$GPGSV,4,3,15,09,32,277,43,21,31,173,36,31,22,132,34,196,22,175,31,1*51
$GPGSV,4,4,15,26,21,076,22,02,20,183,31,07,18,320,25,1*56
$GPGSV,3,1,09,08,71,274,48,194,63,045,37,199,60,167,44,27,58,024,29,8*6B
$GPGSV,3,2,09,195,55,126,41,04,39,224,45,09,32,277,45,196,22,175,30,8*66
$GPGSV,3,3,09,26,21,076,24,8*54
$GLGSV,2,1,08,82,70,099,34,83,42,177,24,80,40,355,27,79,37,068,29,1*76
$GLGSV,2,2,08,81,31,035,21,70,16,270,29,69,07,211,17,71,05,316,24,1*7D
$GAGSV,2,1,08,30,51,016,28,34,42,088,32,07,41,245,42,15,35,157,31,7*76
$GAGSV,2,2,08,27,32,304,40,08,21,187,29,02,20,071,24,36,11,042,34,7*76
$GAGSV,2,1,07,30,51,016,33,34,42,088,31,07,41,245,44,15,35,157,36,1*77
$GAGSV,2,2,07,27,32,304,40,08,21,187,32,36,11,042,31,1*40
$GBGSV,5,1,17,06,85,241,42,16,83,182,43,34,77,156,44,09,73,314,43,1*77
$GBGSV,5,2,17,39,72,169,42,40,68,308,44,07,63,287,42,12,61,058,30,1*72
$GBGSV,5,3,17,11,55,191,39,24,54,077,27,10,53,271,42,25,48,335,42,1*7A
$GBGSV,5,4,17,44,38,045,21,43,32,207,39,26,12,111,,33,08,221,,1*7E
$GBGSV,5,5,17,41,07,268,,1*4E
$GBGSV,2,1,06,34,77,156,42,39,72,169,42,40,68,308,45,24,54,077,36,4*70
$GBGSV,2,2,06,25,48,335,42,44,38,045,25,4*70
$GNACCURACY,3.0*15
$PAIRSAT,1,35,2,0,201,3,0,200,4,0,221,5,0,200,6,0,200,7,0,201,8,0,221,9,0,221,10,0,200,11,0,200,12,0,200,13,0,200,14,0,200,15,0,200,16,0,201,17,0,200,18,0,200,19,0,200,20,0,200,21,0,201,22,0,200,23,0,200,24,0,200,25,0,200,26,0,221,27,0,221,28,0,200,29,0,200,30,0,200,31,0,201,32,0,200,194,0,621,195,0,621,196,0,620,199,0,621*58
$PAIRSAT,2,24,65,0,200,66,0,200,67,0,200,68,0,200,69,0,201,70,0,200,71,0,201,72,0,200,73,0,200,74,0,200,75,0,200,76,0,200,77,0,200,78,0,200,79,0,201,80,0,201,81,0,201,82,0,201,83,0,201,84,0,200,85,0,200,86,0,200,87,0,200,88,0,200*7B
$PAIRSAT,3,23,2,0,1221,3,0,1200,4,0,1200,5,0,200,7,0,1221,8,0,1221,9,0,1200,10,0,1200,11,0,1200,12,0,1200,13,0,1200,15,0,1221,19,0,1200,21,0,1200,24,0,1200,25,0,1200,26,0,1200,27,0,1221,30,0,1221,31,0,1200,33,0,1200,34,0,1221,36,0,1221*6A
$PAIRSAT,4,46,1,0,200,2,0,200,3,0,600,4,0,200,5,0,200,6,0,201,7,0,201,8,0,200,9,0,201,10,0,201,11,0,201,12,0,201,13,0,200,14,0,200,16,0,201,19,0,600,20,0,600,21,0,600,22,0,600,23,0,600,24,0,621,25,0,621,26,0,621,27,0,600,28,0,600,29,0,600,30,0,600,32,0,600,33,0,621,34,0,621,35,0,600,36,0,600,37,0,600,38,0,600,39,0,621,40,0,621,41,0,621,42,0,600,43,0,621,44,0,621,45,0,600,46,0,600,59,0,400,60,0,400,61,0,400,62,0,400*48
$PAIRDGP,10,2,4,7,8,9,16,21,26,27,31*43
$GNGGA,033351.200,2500.8274192,N,12132.4556071,E,2,62,0.49,17.157,M,15.25,M,1,3335*4F
$GNRMC,033351.200,A,2500.8274192,N,12132.4556071,E,1.90,134.71,030324,,,D,V*07
$GPHDT,145.706,T*34
$GNACCURACY,3.0*15
$GNGGA,033351.300,2500.8273952,N,12132.4556431,E,2,62,0.49,17.162,M,15.25,M,1,3335*4B
$GNRMC,033351.300,A,2500.8273952,N,12132.4556431,E,1.82,130.11,030324,,,D,V*04
$GPHDT,,T*1B
$GNACCURACY,3.0*15
$GNGGA,033351.400,2500.8273652,N,12132.4556851,E,2,61,0.49,17.163,M,15.25,M,1,3335*4B
$GNRMC,033351.400,A,2500.8273652,N,12132.4556851,E,1.85,130.22,030324,,,D,V*01
$GPHDT,149.391,T*32
$GNACCURACY,3.0*15
$GNGGA,033351.500,2500.8273232,N,12132.4557211,E,2,60,0.47,17.172,M,15.25,M,0,3335*49
$GNRMC,033351.500,A,2500.8273232,N,12132.4557211,E,1.71,132.74,030324,,,D,V*07
$GPHDT,,T*1B
$GNACCURACY,3.0*15
$GNGGA,033351.600,2500.8272932,N,12132.4557511,E,2,59,0.49,17.179,M,15.25,M,0,3335*48
$GNRMC,033351.600,A,2500.8272932,N,12132.4557511,E,1.77,134.51,030324,,,D,V*0E
$GPHDT,147.988,T*3E
$GNACCURACY,3.0*15
$GNGGA,033351.700,2500.8272512,N,12132.4557871,E,2,59,0.49,17.185,M,15.25,M,0,3335*4F
$GNRMC,033351.700,A,2500.8272512,N,12132.4557871,E,1.77,135.04,030324,,,D,V*0B
$GPHDT,,T*1B
$GNACCURACY,3.0*15
$GNGGA,033351.800,2500.8272092,N,12132.4558171,E,2,59,0.49,17.188,M,15.25,M,0,3335*46
$GNRMC,033351.800,A,2500.8272092,N,12132.4558171,E,1.83,139.26,030324,,,D,V*08
$GPHDT,146.513,T*31
$GNACCURACY,3.0*15
$GNGGA,033351.900,2500.8271612,N,12132.4558531,E,2,60,0.49,17.194,M,15.25,M,0,3335*4D
$GNRMC,033351.900,A,2500.8271612,N,12132.4558531,E,1.93,150.98,030324,,,D,V*0F
$GPHDT,,T*1B
$GNACCURACY,3.0*15
$GNGGA,033352.000,2500.8271192,N,12132.4558771,E,2,60,0.49,17.207,M,15.25,M,1,3335*46
$GNRMC,033352.000,A,2500.8271192,N,12132.4558771,E,1.82,152.78,030324,,,D,V*00
$GPHDT,144.899,T*3C
$GNACCURACY,3.0*15
$GNGGA,033352.100,2500.8270892,N,12132.4559011,E,2,60,0.49,17.217,M,15.25,M,1,3335*4E
$GNRMC,033352.100,A,2500.8270892,N,12132.4559011,E,1.60,147.47,030324,,,D,V*0D
$GPHDT,,T*1B
$GNGSA,A,3,08,194,199,27,195,04,16,09,21,31,196,26,0.74,0.46,0.58,1*01
$GNGSA,A,3,02,07,,,,,,,,,,,0.74,0.46,0.58,1*08
$GNGSA,A,3,82,83,80,79,81,,,,,,,,0.74,0.46,0.58,2*00
$GNGSA,A,3,30,34,07,15,27,08,02,36,,,,,0.74,0.46,0.58,3*02
$GNGSA,A,3,06,16,34,09,39,40,07,12,11,24,10,25,0.74,0.46,0.58,4*0D
$GNGSA,A,3,43,44,,,,,,,,,,,0.74,0.46,0.58,4*0F
$GPGSV,4,1,15,08,71,274,47,194,63,045,30,199,60,167,34,27,58,024,31,1*6E
$GPGSV,4,2,15,195,55,126,41,45,47,231,40,04,39,224,44,16,38,046,27,1*5C
$GPGSV,4,3,15,09,32,277,40,21,31,173,36,31,22,132,26,196,22,175,29,1*58
$GPGSV,4,4,15,26,21,076,22,02,20,183,28,07,18,320,26,1*5D
$GPGSV,3,1,09,08,71,274,48,194,63,045,37,199,60,167,45,27,58,024,31,8*63
$GPGSV,3,2,09,195,55,126,45,04,39,224,45,09,32,277,46,196,22,175,34,8*65
$GPGSV,3,3,09,26,21,076,25,8*55
$GLGSV,2,1,08,82,70,099,31,83,42,177,26,80,40,355,24,79,37,068,23,1*78
$GLGSV,2,2,08,81,31,035,24,70,16,270,32,69,07,211,17,71,05,316,24,1*72
$GAGSV,2,1,08,30,51,016,23,34,42,088,25,07,41,245,41,15,35,157,31,7*78
$GAGSV,2,2,08,27,32,304,40,08,21,187,27,02,20,071,22,36,11,042,30,7*7A
$GAGSV,2,1,07,30,51,016,30,34,42,088,31,07,41,245,43,15,35,157,38,1*7D
$GAGSV,2,2,07,27,32,304,37,08,21,187,33,36,11,042,31,1*41
$GBGSV,5,1,17,06,85,241,42,16,83,182,44,34,77,156,45,09,73,314,40,1*72
$GBGSV,5,2,17,39,72,169,42,40,68,308,43,07,63,287,40,12,61,058,28,1*7E
$GBGSV,5,3,17,11,55,191,39,24,54,077,36,10,53,271,42,25,48,335,40,1*78
$GBGSV,5,4,17,44,38,045,24,43,32,207,40,26,12,111,,33,08,221,,1*75
$GBGSV,5,5,17,41,07,268,,1*4E
$GBGSV,2,1,06,34,77,156,44,39,72,169,43,40,68,308,45,24,54,077,36,4*77
$GBGSV,2,2,06,25,48,335,42,44,38,045,20,4*75
$GNACCURACY,3.0*15
$PAIRSAT,1,35,2,0,201,3,0,200,4,0,221,5,0,200,6,0,200,7,0,201,8,0,221,9,0,221,10,0,200,11,0,200,12,0,200,13,0,200,14,0,200,15,0,200,16,0,201,17,0,200,18,0,200,19,0,200,20,0,200,21,0,201,22,0,200,23,0,200,24,0,200,25,0,200,26,0,221,27,0,221,28,0,200,29,0,200,30,0,200,31,0,201,32,0,200,194,0,621,195,0,621,196,0,620,199,0,621*58
$PAIRSAT,2,24,65,0,200,66,0,200,67,0,200,68,0,200,69,0,201,70,0,200,71,0,201,72,0,200,73,0,200,74,0,200,75,0,200,76,0,200,77,0,200,78,0,200,79,0,201,80,0,201,81,0,201,82,0,201,83,0,201,84,0,200,85,0,200,86,0,200,87,0,200,88,0,200*7B
$PAIRSAT,3,23,2,0,1221,3,0,1200,4,0,1200,5,0,200,7,0,1221,8,0,1221,9,0,1200,10,0,1200,11,0,1200,12,0,1200,13,0,1200,15,0,1221,19,0,1200,21,0,1200,24,0,1200,25,0,1200,26,0,1200,27,0,1221,30,0,1221,31,0,1200,33,0,1200,34,0,1221,36,0,1221*6A
$PAIRSAT,4,46,1,0,200,2,0,200,3,0,600,4,0,200,5,0,200,6,0,201,7,0,201,8,0,200,9,0,201,10,0,201,11,0,201,12,0,201,13,0,200,14,0,200,16,0,201,19,0,600,20,0,600,21,0,600,22,0,600,23,0,600,24,0,621,25,0,621,26,0,621,27,0,600,28,0,600,29,0,600,30,0,600,32,0,600,33,0,621,34,0,621,35,0,600,36,0,600,37,0,600,38,0,600,39,0,621,40,0,621,41,0,621,42,0,600,43,0,621,44,0,621,45,0,600,46,0,600,59,0,400,60,0,400,61,0,400,62,0,400*48
$PAIRDGP,10,2,4,7,8,9,16,21,26,27,31*43
$GNGGA,033352.200,2500.8270472,N,12132.4559251,E,2,62,0.46,17.224,M,15.25,M,1,3335*44
$GNRMC,033352.200,A,2500.8270472,N,12132.4559251,E,1.70,144.33,030324,,,D,V*0B
$GPHDT,143.749,T*39
$GNACCURACY,3.0*15
$GNGGA,033352.300,2500.8270052,N,12132.4559431,E,2,63,0.45,17.230,M,15.25,M,1,3335*44
$GNRMC,033352.300,A,2500.8270052,N,12132.4559431,E,1.70,141.02,030324,,,D,V*0B
$GPHDT,,T*1B
$GNACCURACY,3.0*15
$GNGGA,033352.400,2500.8269632,N,12132.4559791,E,2,63,0.45,17.227,M,15.25,M,1,3335*44
$GNRMC,033352.400,A,2500.8269632,N,12132.4559791,E,1.87,131.84,030324,,,D,V*0C
$GPHDT,139.968,T*39
$GNACCURACY,3.0*15
$GNGGA,033352.500,2500.8269212,N,12132.4560271,E,2,63,0.45,17.236,M,15.25,M,0,3335*43
$GNRMC,033352.500,A,2500.8269212,N,12132.4560271,E,1.91,128.77,030324,,,D,V*09
$GPHDT,,T*1B
$GNACCURACY,3.0*15
$GNGGA,033352.600,2500.8268792,N,12132.4560751,E,2,63,0.45,17.246,M,15.25,M,0,3335*4C
$GNRMC,033352.600,A,2500.8268792,N,12132.4560751,E,1.87,132.85,030324,,,D,V*00
$GPHDT,144.831,T*3E
$GNACCURACY,3.0*15
$GNGGA,033352.700,2500.8268432,N,12132.4561231,E,2,59,0.46,17.255,M,15.25,M,0,3335*4E
$GNRMC,033352.700,A,2500.8268432,N,12132.4561231,E,1.74,130.17,030324,,,D,V*0F
$GPHDT,,T*1B
$GNACCURACY,3.0*15
$GNGGA,033352.800,2500.8268012,N,12132.4561651,E,2,60,0.46,17.265,M,15.25,M,0,3335*4C
$GNRMC,033352.800,A,2500.8268012,N,12132.4561651,E,1.73,132.14,030324,,,D,V*02
$GPHDT,143.898,T*3A
$GNACCURACY,3.0*15
$GNGGA,033352.900,2500.8267532,N,12132.4562071,E,2,60,0.46,17.270,M,15.25,M,0,3335*46
$GNRMC,033352.900,A,2500.8267532,N,12132.4562071,E,1.81,134.00,030324,,,D,V*02
$GPHDT,,T*1B
$GNACCURACY,3.0*15
$GNGGA,033353.000,2500.8267112,N,12132.4562431,E,2,60,0.46,17.275,M,15.25,M,1,3335*4C
$GNRMC,033353.000,A,2500.8267112,N,12132.4562431,E,1.85,136.32,030324,,,D,V*0B
$GPHDT,150.502,T*36
$GNACCURACY,3.0*15
$GNGGA,033353.100,2500.8266572,N,12132.4562791,E,2,61,0.46,17.279,M,15.25,M,1,3335*4A
$GNRMC,033353.100,A,2500.8266572,N,12132.4562791,E,1.91,147.26,030324,,,D,V*06
$GPHDT,,T*1B
$GNGSA,A,3,08,194,199,27,195,04,09,21,31,196,02,07,0.73,0.46,0.57,1*0F
$GNGSA,A,3,26,,,,,,,,,,,,0.73,0.46,0.57,1*01
$GNGSA,A,3,82,83,80,79,81,,,,,,,,0.73,0.46,0.57,2*08
$GNGSA,A,3,30,34,07,15,27,08,02,36,,,,,0.73,0.46,0.57,3*0A
$GNGSA,A,3,06,16,34,09,39,40,07,12,11,24,10,25,0.73,0.46,0.57,4*05
$GNGSA,A,3,43,26,44,,,,,,,,,,0.73,0.46,0.57,4*03
$GPGSV,4,1,15,08,71,274,48,194,63,045,29,199,60,167,34,27,58,024,30,1*68
$GPGSV,4,2,15,195,55,126,43,45,47,231,39,04,39,224,43,16,38,046,23,1*53
$GPGSV,4,3,15,09,32,277,42,21,31,173,36,31,22,132,30,196,22,175,26,1*52
$GPGSV,4,4,15,26,21,076,20,02,20,183,29,07,18,320,28,1*50
$GPGSV,3,1,09,08,71,274,47,194,63,045,32,199,60,167,44,27,58,024,42,8*6C
$GPGSV,3,2,09,195,55,126,46,04,39,224,44,09,32,277,45,196,22,175,33,8*63
$GPGSV,3,3,09,26,21,076,25,8*55
$GLGSV,2,1,08,82,70,099,32,83,42,177,25,80,40,355,25,79,37,068,25,1*7F
$GLGSV,2,2,08,81,31,035,21,70,16,270,33,69,07,211,15,71,05,316,23,1*73
$GAGSV,2,1,08,30,51,016,32,34,42,088,21,07,41,245,41,15,35,157,29,7*75
$GAGSV,2,2,08,27,32,304,40,08,21,187,26,02,20,071,22,36,11,042,32,7*79
$GAGSV,2,1,06,30,51,016,29,34,42,088,27,07,41,245,43,15,35,157,37,1*7C
$GAGSV,2,2,06,27,32,304,39,08,21,187,25,1*78
$GBGSV,5,1,17,06,85,241,42,16,83,182,43,34,77,156,46,09,73,314,43,1*75
$GBGSV,5,2,17,39,72,169,42,40,68,308,44,07,63,287,41,12,61,058,30,1*71
$GBGSV,5,3,17,11,55,191,39,24,54,077,35,10,53,271,42,25,48,335,40,1*7B
$GBGSV,5,4,17,44,38,045,24,43,32,207,39,26,12,111,24,33,08,221,,1*7D
$GBGSV,5,5,17,41,07,268,,1*4E
$GBGSV,2,1,06,34,77,156,43,39,72,169,43,40,68,308,46,24,54,077,36,4*73
$GBGSV,2,2,06,25,48,335,39,44,38,045,23,4*7A
$GNACCURACY,3.0*15
$PAIRSAT,1,35,2,0,201,3,0,200,4,0,221,5,0,200,6,0,200,7,0,201,8,0,221,9,0,221,10,0,200,11,0,200,12,0,200,13,0,200,14,0,200,15,0,200,16,0,201,17,0,200,18,0,200,19,0,200,20,0,200,21,0,201,22,0,200,23,0,200,24,0,200,25,0,200,26,0,221,27,0,221,28,0,200,29,0,200,30,0,200,31,0,201,32,0,200,194,0,621,195,0,621,196,0,620,199,0,621*58
$PAIRSAT,2,24,65,0,200,66,0,200,67,0,200,68,0,200,69,0,201,70,0,200,71,0,201,72,0,200,73,0,200,74,0,200,75,0,200,76,0,200,77,0,200,78,0,200,79,0,201,80,0,201,81,0,201,82,0,201,83,0,201,84,0,200,85,0,200,86,0,200,87,0,200,88,0,200*7B
$PAIRSAT,3,23,2,0,1221,3,0,1200,4,0,1200,5,0,200,7,0,1221,8,0,1221,9,0,1200,10,0,1200,11,0,1200,12,0,1200,13,0,1200,15,0,1221,19,0,1200,21,0,1200,24,0,1200,25,0,1200,26,0,1200,27,0,1221,30,0,1221,31,0,1200,33,0,1200,34,0,1221,36,0,1221*6A
$PAIRSAT,4,46,1,0,200,2,0,200,3,0,600,4,0,200,5,0,200,6,0,201,7,0,201,8,0,200,9,0,201,10,0,201,11,0,201,12,0,201,13,0,200,14,0,200,16,0,201,19,0,600,20,0,600,21,0,600,22,0,600,23,0,600,24,0,621,25,0,621,26,0,621,27,0,600,28,0,600,29,0,600,30,0,600,32,0,600,33,0,621,34,0,621,35,0,600,36,0,600,37,0,600,38,0,600,39,0,621,40,0,621,41,0,621,42,0,600,43,0,621,44,0,621,45,0,600,46,0,600,59,0,400,60,0,400,61,0,400,62,0,400*48
$PAIRDGP,10,2,4,7,8,9,16,21,26,27,31*43
$GNGGA,033353.200,2500.8266092,N,12132.4563151,E,2,60,0.46,17.274,M,15.25,M,1,3335*45
$GNRMC,033353.200,A,2500.8266092,N,12132.4563151,E,1.96,148.51,030324,,,D,V*0D
$GPHDT,146.193,T*3D
$GNACCURACY,3.0*15
$GNGGA,033353.300,2500.8265612,N,12132.4563451,E,2,60,0.46,17.269,M,15.25,M,1,3335*40
$GNRMC,033353.300,A,2500.8265612,N,12132.4563451,E,2.00,143.30,030324,,,D,V*04
$GPHDT,,T*1B
$GNACCURACY,3.0*15
$GNGGA,033353.400,2500.8265192,N,12132.4563811,E,2,61,0.46,17.267,M,15.25,M,0,3335*4E
$GNRMC,033353.400,A,2500.8265192,N,12132.4563811,E,1.76,139.78,030324,,,D,V*07
$GPHDT,147.001,T*36
$GNACCURACY,3.0*15
$GNGGA,033353.500,2500.8264712,N,12132.4564111,E,2,61,0.46,17.267,M,15.25,M,0,3335*4E
$GNRMC,033353.500,A,2500.8264712,N,12132.4564111,E,1.80,137.93,030324,,,D,V*05
$GPHDT,,T*1B
$GNACCURACY,3.0*15
$GNGGA,033353.600,2500.8264292,N,12132.4564531,E,2,61,0.46,17.267,M,15.25,M,0,3335*46
$GNRMC,033353.600,A,2500.8264292,N,12132.4564531,E,1.91,132.78,030324,,,D,V*0D
$GPHDT,149.512,T*3F
$GNACCURACY,3.0*15
$GNGGA,033353.700,2500.8263812,N,12132.4564891,E,2,63,0.46,17.265,M,15.25,M,0,3335*45
$GNRMC,033353.700,A,2500.8263812,N,12132.4564891,E,1.88,133.66,030324,,,D,V*08
$GPHDT,,T*1B
$GNACCURACY,3.0*15
$GNGGA,033353.800,2500.8263392,N,12132.4565251,E,2,64,0.45,17.267,M,15.25,M,0,3335*48
$GNRMC,033353.800,A,2500.8263392,N,12132.4565251,E,1.79,137.24,030324,,,D,V*0F
