$FW : RTK35X,V1.1X0314AS,Lib20210517,1*54
$Tool : LOCOSYS , GNSS Firebird , v1.0.0.19*39
$---------------------------------------------------*2D
$GPHDT,,T*1B
$GNGGA,035609.600,2500.8051700,N,12132.4266800,E,2,58,0.48,11.73,M,15.25,M,56,3335*4C
$GNRMC,035609.600,A,2500.8051700,N,12132.4266800,E,0.11,332.99,270623,,,D,V*01
$GPHDT,,T*1B
$GNGGA,035609.800,2500.8051700,N,12132.4266800,E,2,58,0.48,11.73,M,15.25,M,56,3335*42
$GNRMC,035609.800,A,2500.8051700,N,12132.4266800,E,0.04,332.99,270623,,,D,V*0B
$GPHDT,,T*1B
$GNGSA,A,3,19,195,196,17,199,06,194,09,11,14,04,12,0.76,0.48,0.59,1*0D
$GNGSA,A,3,68,67,82,83,73,80,,,,,,,0.76,0.48,0.59,2*01
$GNGSA,A,3,10,24,12,11,19,04,25,33,,,,,0.76,0.48,0.59,3*0D
$GNGSA,A,3,40,07,10,33,14,08,43,28,42,11,34,,0.76,0.48,0.59,4*06
$GPGSV,4,1,16,19,69,031,41,195,68,044,37,196,65,125,40,17,63,087,45,1*63
$GPGSV,4,2,16,199,60,167,35,50,60,167,37,06,50,347,40,194,39,172,21,1*65
$GPGSV,4,3,16,09,35,100,45,20,32,234,17,11,29,290,30,14,21,175,15,1*69
$GPGSV,4,4,16,04,21,068,37,12,16,315,23,05,07,223,,03,05,039,17,1*67
$GPGSV,3,1,10,195,68,044,48,196,65,125,45,199,60,167,45,06,50,347,43,8*59
$GPGSV,3,2,10,194,39,172,21,09,35,100,45,11,29,290,30,14,21,175,10,8*54
$GPGSV,3,3,10,04,21,068,37,03,05,039,17,8*6B
$GLGSV,2,1,07,68,55,143,36,67,45,054,43,82,37,044,43,83,35,347,18,1*7A
$GLGSV,2,2,07,73,22,284,29,80,20,226,23,66,02,025,,1*46
$GAGSV,3,1,09,10,49,340,39,24,49,238,18,12,47,020,38,11,36,304,23,7*78
$GAGSV,3,2,09,19,32,082,36,04,31,151,33,25,27,304,24,33,13,067,27,7*7B
$GAGSV,3,3,09,09,02,192,,7*4B
$GAGSV,2,1,06,10,49,340,39,12,47,020,41,11,36,304,24,19,32,082,36,1*74
$GAGSV,2,2,06,04,31,151,38,25,27,304,29,1*75
$GBGSV,4,1,15,40,82,149,42,07,79,238,31,10,72,283,37,33,68,143,45,1*71
$GBGSV,4,2,15,14,60,074,40,08,58,275,22,43,52,062,42,13,49,262,15,1*7A
$GBGSV,4,3,15,28,40,328,27,42,37,050,47,11,31,085,42,41,26,197,,1*74
$GBGSV,4,4,15,23,16,218,,34,15,101,27,37,15,269,,1*44
$GBGSV,2,1,06,40,82,149,46,33,68,143,46,43,52,062,45,28,40,328,18,4*77
$GBGSV,2,2,06,42,37,050,43,34,15,101,22,4*76
$GNGGA,035610.000,2500.8051700,N,12132.4266700,E,2,57,0.48,11.73,M,15.25,M,57,3335*43
$GNRMC,035610.000,A,2500.8051700,N,12132.4266700,E,0.05,332.99,270623,,,D,V*05
$GPHDT,,T*1B
$GNGGA,035610.200,2500.8051700,N,12132.4266700,E,2,59,0.48,11.73,M,15.25,M,57,3335*4F
$GNRMC,035610.200,A,2500.8051700,N,12132.4266700,E,0.02,332.99,270623,,,D,V*00
$GPHDT,,T*1B
$GNGGA,035610.400,2500.8051700,N,12132.4266700,E,2,58,0.48,11.72,M,15.25,M,57,3335*49
$GNRMC,035610.400,A,2500.8051700,N,12132.4266700,E,0.01,332.99,270623,,,D,V*05
$GPHDT,,T*1B
$GNGGA,035610.600,2500.8051700,N,12132.4266700,E,2,59,0.48,11.72,M,15.25,M,57,3335*4A
$GNRMC,035610.600,A,2500.8051700,N,12132.4266700,E,0.04,332.99,270623,,,D,V*02
$GPHDT,,T*1B
$GNGGA,035610.800,2500.8051700,N,12132.4266700,E,2,59,0.48,11.72,M,15.25,M,57,3335*44
$GNRMC,035610.800,A,2500.8051700,N,12132.4266700,E,0.04,332.99,270623,,,D,V*0C
$GPHDT,,T*1B
$GNGSA,A,3,19,195,196,17,199,06,194,09,11,14,04,12,0.76,0.48,0.59,1*0D
$GNGSA,A,3,68,67,82,83,73,80,,,,,,,0.76,0.48,0.59,2*01
$GNGSA,A,3,10,24,12,11,19,04,25,33,,,,,0.76,0.48,0.59,3*0D
$GNGSA,A,3,40,07,10,33,14,08,43,28,42,11,34,,0.76,0.48,0.59,4*06
$GPGSV,4,1,16,19,69,031,42,195,68,044,37,196,65,125,40,17,63,087,45,1*60
$GPGSV,4,2,16,199,60,167,34,50,60,167,36,06,50,347,40,194,39,172,21,1*65
$GPGSV,4,3,16,09,35,100,45,20,32,234,17,11,29,290,31,14,21,175,16,1*6B
$GPGSV,4,4,16,04,21,068,37,12,16,315,25,05,07,223,,03,05,039,17,1*61
$GPGSV,3,1,10,195,68,044,48,196,65,125,46,199,60,167,45,06,50,347,44,8*5D
$GPGSV,3,2,10,194,39,172,22,09,35,100,45,11,29,290,31,14,21,175,11,8*57
$GPGSV,3,3,10,04,21,068,37,03,05,039,17,8*6B
$GLGSV,2,1,07,68,55,143,36,67,45,054,43,82,37,044,43,83,35,347,18,1*7A
$GLGSV,2,2,07,73,22,284,29,80,20,226,23,66,02,025,,1*46
$GAGSV,3,1,09,10,49,340,40,24,49,238,18,12,47,020,38,11,36,304,22,7*77
$GAGSV,3,2,09,19,32,082,36,04,31,151,33,25,27,304,24,33,13,067,27,7*7B
$GAGSV,3,3,09,09,02,192,,7*4B
$GAGSV,2,1,07,10,49,340,39,12,47,020,41,11,36,304,24,19,32,082,35,1*76
$GAGSV,2,2,07,04,31,151,38,25,27,304,30,33,13,067,25,1*48
$GBGSV,4,1,15,40,82,149,42,07,79,238,31,10,72,283,37,33,68,143,44,1*70
$GBGSV,4,2,15,14,60,074,40,08,58,275,22,43,52,062,42,13,49,262,16,1*79
$GBGSV,4,3,15,28,40,328,27,42,37,050,47,11,31,085,42,41,26,197,,1*74
$GBGSV,4,4,15,23,16,218,,34,15,101,27,37,15,269,,1*44
$GBGSV,2,1,06,40,82,149,46,33,68,143,46,43,52,062,45,28,40,328,18,4*77
$GBGSV,2,2,06,42,37,050,43,34,15,101,21,4*75
$GNGGA,035611.000,2500.8051700,N,12132.4266700,E,2,59,0.48,11.71,M,15.25,M,58,3335*41
$GNRMC,035611.000,A,2500.8051700,N,12132.4266700,E,0.02,332.99,270623,,,D,V*03
$GPHDT,,T*1B
$GNGGA,035611.200,2500.8051700,N,12132.4266700,E,2,59,0.48,11.71,M,15.25,M,58,3335*43
$GNRMC,035611.200,A,2500.8051700,N,12132.4266700,E,0.05,332.99,270623,,,D,V*06
$GPHDT,,T*1B
$GNGGA,035611.400,2500.8051700,N,12132.4266700,E,2,59,0.48,11.71,M,15.25,M,58,3335*45
$GNRMC,035611.400,A,2500.8051700,N,12132.4266700,E,0.08,332.99,270623,,,D,V*0D
$GPHDT,,T*1B
$GNGGA,035611.600,2500.8051700,N,12132.4266700,E,2,60,0.48,11.71,M,15.25,M,58,3335*4D
$GNRMC,035611.600,A,2500.8051700,N,12132.4266700,E,0.08,332.99,270623,,,D,V*0F
$GPHDT,,T*1B
$GNGGA,035611.800,2500.8051700,N,12132.4266700,E,2,59,0.48,11.71,M,15.25,M,58,3335*49
$GNRMC,035611.800,A,2500.8051700,N,12132.4266700,E,0.05,332.99,270623,,,D,V*0C
$GPHDT,,T*1B
$GNGSA,A,3,19,195,196,17,199,06,09,11,14,04,12,194,0.76,0.48,0.59,1*0D
$GNGSA,A,3,68,67,82,83,73,80,,,,,,,0.76,0.48,0.59,2*01
$GNGSA,A,3,10,24,12,11,19,04,25,33,,,,,0.76,0.48,0.59,3*0D
$GNGSA,A,3,40,07,10,33,14,08,43,28,42,11,34,,0.76,0.48,0.59,4*06
$GPGSV,4,1,16,19,69,031,42,195,68,044,37,196,65,125,40,17,63,087,45,1*60
$GPGSV,4,2,16,199,60,167,34,50,60,167,36,06,50,347,42,194,39,172,19,1*6C
$GPGSV,4,3,16,09,35,100,45,20,32,234,15,11,29,290,31,14,21,175,16,1*69
$GPGSV,4,4,16,04,21,068,38,12,16,315,25,05,07,223,,03,05,039,15,1*6C
$GPGSV,3,1,10,195,68,044,48,196,65,125,46,199,60,167,45,06,50,347,45,8*5C
$GPGSV,3,2,10,194,39,172,22,09,35,100,45,11,29,290,31,14,21,175,11,8*57
$GPGSV,3,3,10,04,21,068,37,03,05,039,17,8*6B
$GLGSV,2,1,07,68,55,143,37,67,45,054,44,82,37,044,43,83,35,347,18,1*7C
$GLGSV,2,2,07,73,22,284,29,80,20,226,23,66,02,025,,1*46
$GAGSV,3,1,09,10,49,340,40,24,49,238,19,12,47,020,39,11,36,304,22,7*77
$GAGSV,3,2,09,19,32,081,36,04,31,151,32,25,27,304,24,33,13,067,26,7*78
$GAGSV,3,3,09,09,02,192,,7*4B
$GAGSV,2,1,07,10,49,340,39,12,47,020,41,11,36,304,21,19,32,081,36,1*73
$GAGSV,2,2,07,04,31,151,38,25,27,304,31,33,13,067,25,1*49
$GBGSV,4,1,15,40,82,149,42,07,79,238,31,10,72,283,37,33,68,143,44,1*70
$GBGSV,4,2,15,14,60,074,40,08,58,275,23,43,52,062,42,13,49,262,15,1*7B
$GBGSV,4,3,15,28,40,328,26,42,37,050,47,11,31,085,42,41,26,197,,1*75
$GBGSV,4,4,15,23,16,218,,34,15,101,30,37,15,269,,1*42
$GBGSV,2,1,06,40,82,149,46,33,68,143,46,43,52,062,45,28,40,328,18,4*77
$GBGSV,2,2,06,42,37,050,43,34,15,101,22,4*76
$GNGGA,035612.000,2500.8051800,N,12132.4266700,E,2,58,0.48,11.71,M,15.25,M,59,3335*4D
$GNRMC,035612.000,A,2500.8051800,N,12132.4266700,E,0.05,332.99,270623,,,D,V*08
$GPHDT,,T*1B
$GNGGA,035612.200,2500.8051800,N,12132.4266700,E,2,59,0.48,11.71,M,15.25,M,59,3335*4E
$GNRMC,035612.200,A,2500.8051800,N,12132.4266700,E,0.01,332.99,270623,,,D,V*0E
$GPHDT,,T*1B
$GNGGA,035612.400,2500.8051800,N,12132.4266700,E,2,58,0.48,11.71,M,15.25,M,59,3335*49
$GNRMC,035612.400,A,2500.8051800,N,12132.4266700,E,0.01,332.99,270623,,,D,V*08
$GPHDT,,T*1B
$GNGGA,035612.600,2500.8051800,N,12132.4266700,E,2,58,0.48,11.71,M,15.25,M,59,3335*4B
$GNRMC,035612.600,A,2500.8051800,N,12132.4266700,E,0.02,332.99,270623,,,D,V*09
$GPHDT,,T*1B
$GNGGA,035612.800,2500.8051800,N,12132.4266700,E,2,58,0.48,11.71,M,15.25,M,59,3335*45
$GNRMC,035612.800,A,2500.8051800,N,12132.4266700,E,0.04,332.99,270623,,,D,V*01
$GPHDT,,T*1B
$GNGSA,A,3,19,195,196,17,199,06,194,09,20,11,14,04,0.75,0.46,0.59,1*01
$GNGSA,A,3,12,,,,,,,,,,,,0.75,0.46,0.59,1*0E
$GNGSA,A,3,68,67,82,83,73,80,,,,,,,0.75,0.46,0.59,2*0C
$GNGSA,A,3,10,24,12,11,19,04,25,33,,,,,0.75,0.46,0.59,3*00
$GNGSA,A,3,40,07,10,33,14,08,43,28,42,11,34,,0.75,0.46,0.59,4*0B
$GPGSV,4,1,16,19,69,031,42,195,68,044,37,196,65,125,40,17,63,087,45,1*60
$GPGSV,4,2,16,50,60,167,36,199,60,167,34,06,50,347,43,194,39,172,20,1*67
$GPGSV,4,3,16,09,35,100,45,20,32,234,16,11,29,290,31,14,21,175,16,1*6A
$GPGSV,4,4,16,04,21,068,38,12,16,315,25,05,07,223,,03,05,039,16,1*6F
$GPGSV,3,1,09,195,68,044,48,196,65,125,46,199,60,167,45,06,50,347,45,8*54
$GPGSV,3,2,09,194,39,172,22,09,35,100,45,11,29,290,31,04,21,068,37,8*57
$GPGSV,3,3,09,03,05,039,16,8*5F
$GLGSV,3,1,09,68,55,143,36,67,45,054,44,82,37,044,43,83,35,347,18,1*72
$GLGSV,3,2,09,73,22,284,30,80,20,226,22,69,15,184,,74,05,324,,1*70
$GLGSV,3,3,09,66,02,025,,1*44
$GAGSV,3,1,09,10,49,340,40,24,49,237,19,12,47,020,39,11,36,304,22,7*78
$GAGSV,3,2,09,19,32,081,36,04,31,151,32,25,27,304,25,33,13,067,24,7*7B
$GAGSV,3,3,09,09,02,192,,7*4B
$GAGSV,2,1,07,10,49,340,38,12,47,020,41,11,36,304,20,19,32,081,36,1*73
$GAGSV,2,2,07,04,31,151,38,25,27,304,31,33,13,067,21,1*4D
$GBGSV,4,1,16,40,82,149,42,07,79,238,31,10,72,283,37,33,68,143,44,1*73
$GBGSV,4,2,16,14,60,074,40,08,58,275,25,43,52,062,42,13,49,262,14,1*7F
$GBGSV,4,3,16,28,40,328,26,42,37,050,47,11,31,085,42,41,26,197,,1*76
$GBGSV,4,4,16,23,16,218,,34,15,101,30,37,15,269,,27,02,300,,1*75
$GBGSV,2,1,06,40,82,149,46,33,68,143,46,43,52,062,45,28,40,328,14,4*7B
$GBGSV,2,2,06,42,37,050,43,34,15,101,22,4*76
$GNGGA,035613.000,2500.8051800,N,12132.4266800,E,2,59,0.46,11.71,M,15.25,M,60,3335*46
$GNRMC,035613.000,A,2500.8051800,N,12132.4266800,E,0.04,332.99,270623,,,D,V*07
$GPHDT,,T*1B
$GNGGA,035613.200,2500.8051800,N,12132.4266800,E,2,59,0.46,11.71,M,15.25,M,60,3335*44
$GNRMC,035613.200,A,2500.8051800,N,12132.4266800,E,0.02,332.99,270623,,,D,V*03
$GPHDT,,T*1B
$GNGGA,035613.400,2500.8051800,N,12132.4266800,E,2,59,0.46,11.71,M,15.25,M,60,3335*42
$GNRMC,035613.400,A,2500.8051800,N,12132.4266800,E,0.02,332.99,270623,,,D,V*05
$GPHDT,,T*1B
$GNGGA,035613.600,2500.8051700,N,12132.4266800,E,2,59,0.46,11.71,M,15.25,M,60,3335*4F
$GNRMC,035613.600,A,2500.8051700,N,12132.4266800,E,0.06,332.99,270623,,,D,V*0C
$GPHDT,,T*1B
$GNGGA,035613.800,2500.8051700,N,12132.4266800,E,2,58,0.48,11.71,M,15.25,M,60,3335*4E
$GNRMC,035613.800,A,2500.8051700,N,12132.4266800,E,0.04,332.99,270623,,,D,V*00
$GPHDT,,T*1B
$GNGSA,A,3,19,195,196,17,199,06,194,09,11,14,04,12,0.76,0.48,0.59,1*0D
$GNGSA,A,3,68,67,82,83,73,80,,,,,,,0.76,0.48,0.59,2*01
$GNGSA,A,3,24,10,12,11,19,04,25,33,,,,,0.76,0.48,0.59,3*0D
$GNGSA,A,3,40,07,10,33,14,08,43,28,42,11,34,,0.76,0.48,0.59,4*06
$GPGSV,4,1,16,19,69,031,42,195,68,044,36,196,65,125,40,17,63,087,45,1*61
$GPGSV,4,2,16,199,60,167,34,50,60,167,36,06,50,347,42,194,39,172,20,1*66
$GPGSV,4,3,16,09,35,100,45,20,32,234,14,11,29,290,31,14,21,175,17,1*69
$GPGSV,4,4,16,04,21,068,39,12,16,315,25,05,07,223,,03,05,039,18,1*60
$GPGSV,3,1,09,195,68,044,48,196,65,125,46,199,60,167,45,06,50,347,45,8*54
$GPGSV,3,2,09,194,39,172,22,09,35,100,45,11,29,290,31,04,21,068,39,8*59
$GPGSV,3,3,09,03,05,039,15,8*5C
$GLGSV,2,1,08,68,55,143,36,67,45,054,44,82,37,044,43,83,35,347,19,1*73
$GLGSV,2,2,08,73,22,284,30,80,20,226,22,74,05,324,,66,02,025,,1*73
$GAGSV,3,1,09,24,49,237,19,10,49,340,40,12,47,020,39,11,36,304,23,7*79
$GAGSV,3,2,09,19,32,081,36,04,31,151,32,25,27,304,26,33,13,067,23,7*7F
$GAGSV,3,3,09,09,02,192,,7*4B
$GAGSV,2,1,07,10,49,340,37,12,47,020,41,11,36,304,21,19,32,081,36,1*7D
$GAGSV,2,2,07,04,31,151,38,25,27,304,31,33,13,067,23,1*4F
$GBGSV,5,1,17,40,82,149,42,07,79,238,31,10,72,283,37,33,68,143,44,1*73
$GBGSV,5,2,17,14,60,074,40,08,58,275,24,43,52,062,42,13,49,262,15,1*7F
$GBGSV,5,3,17,28,40,328,24,42,37,050,47,11,31,085,42,41,26,197,,1*74
$GBGSV,5,4,17,23,16,218,,37,15,269,,34,15,101,30,39,03,177,,1*79
$GBGSV,5,5,17,27,02,300,,1*44
$GBGSV,2,1,06,40,82,149,46,33,68,143,46,43,52,062,45,28,40,328,12,4*7D
$GBGSV,2,2,06,42,37,050,42,34,15,101,22,4*77
$GNGGA,035614.000,2500.8051800,N,12132.4266800,E,2,58,0.48,11.71,M,15.25,M,61,3335*4F
$GNRMC,035614.000,A,2500.8051800,N,12132.4266800,E,0.03,332.99,270623,,,D,V*07
$GPHDT,,T*1B
$GNGGA,035614.200,2500.8051800,N,12132.4266800,E,2,58,0.48,11.71,M,15.25,M,61,3335*4D
$GNRMC,035614.200,A,2500.8051800,N,12132.4266800,E,0.01,332.99,270623,,,D,V*07
$GPHDT,,T*1B
$GNGGA,035614.400,2500.8051800,N,12132.4266800,E,2,58,0.48,11.71,M,15.25,M,61,3335*4B
$GNRMC,035614.400,A,2500.8051800,N,12132.4266800,E,0.01,332.99,270623,,,D,V*01
$GPHDT,,T*1B
$GNGGA,035614.600,2500.8051800,N,12132.4266800,E,2,58,0.48,11.71,M,15.25,M,61,3335*49
$GNRMC,035614.600,A,2500.8051800,N,12132.4266800,E,0.10,332.99,270623,,,D,V*03
$GPHDT,,T*1B
$GNGGA,035614.800,2500.8051800,N,12132.4266800,E,2,58,0.48,11.71,M,15.25,M,61,3335*47
$GNRMC,035614.800,A,2500.8051800,N,12132.4266800,E,0.04,332.99,270623,,,D,V*08
$GPHDT,,T*1B
$GNGSA,A,3,19,195,196,17,199,06,194,09,11,14,04,12,0.76,0.48,0.59,1*0D
$GNGSA,A,3,68,67,82,83,73,80,,,,,,,0.76,0.48,0.59,2*01
$GNGSA,A,3,10,24,12,11,19,04,25,33,,,,,0.76,0.48,0.59,3*0D
$GNGSA,A,3,40,07,10,33,14,08,43,28,42,11,34,,0.76,0.48,0.59,4*06
$GPGSV,4,1,16,19,69,031,42,195,68,044,36,196,65,125,40,17,63,087,45,1*61
$GPGSV,4,2,16,199,60,167,34,50,60,167,36,06,50,347,42,194,39,172,20,1*66
$GPGSV,4,3,16,09,35,100,45,20,32,234,14,11,29,290,31,14,21,175,18,1*66
$GPGSV,4,4,16,04,21,068,39,12,16,315,26,05,07,223,,03,05,039,18,1*63
$GPGSV,3,1,09,195,68,044,48,196,65,125,46,199,60,167,45,06,50,347,45,8*54
$GPGSV,3,2,09,194,39,172,22,09,35,100,45,11,29,290,31,04,21,068,39,8*59
$GPGSV,3,3,09,03,05,039,11,8*58
$GLGSV,2,1,07,68,55,143,36,67,45,054,44,82,37,044,43,83,35,347,19,1*7C
$GLGSV,2,2,07,73,22,284,29,80,20,226,23,66,02,025,,1*46
$GAGSV,3,1,09,10,49,340,40,24,49,237,19,12,47,020,39,11,36,304,23,7*79
$GAGSV,3,2,09,19,32,081,36,04,31,151,32,25,27,304,26,33,13,067,23,7*7F
$GAGSV,3,3,09,09,02,192,,7*4B
$GAGSV,2,1,07,10,49,340,37,12,47,020,41,11,36,304,23,19,32,081,36,1*7F
$GAGSV,2,2,07,04,31,151,38,25,27,304,30,33,13,067,23,1*4E
$GBGSV,4,1,15,40,82,149,42,07,79,238,31,10,72,283,37,33,68,143,44,1*70
$GBGSV,4,2,15,14,60,074,40,08,58,275,25,43,52,062,42,13,49,262,15,1*7D
$GBGSV,4,3,15,28,40,328,24,42,37,050,48,11,31,085,42,41,26,197,,1*78
$GBGSV,4,4,15,23,16,218,,34,15,101,31,37,15,269,,1*43
$GBGSV,2,1,06,40,82,149,46,33,68,143,46,43,52,062,45,28,40,328,13,4*7C
$GBGSV,2,2,06,42,37,050,42,34,15,101,23,4*76
$GNGGA,035615.000,2500.8051800,N,12132.4266800,E,2,58,0.48,11.71,M,15.25,M,62,3335*4D
$GNRMC,035615.000,A,2500.8051800,N,12132.4266800,E,0.06,332.99,270623,,,D,V*03
$GPHDT,,T*1B
$GNGGA,035615.200,2500.8051800,N,12132.4266800,E,2,58,0.48,11.71,M,15.25,M,62,3335*4F
$GNRMC,035615.200,A,2500.8051800,N,12132.4266800,E,0.07,332.99,270623,,,D,V*00
$GPHDT,,T*1B
$GNGGA,035615.400,2500.8051800,N,12132.4266800,E,2,58,0.48,11.71,M,15.25,M,62,3335*49
$GNRMC,035615.400,A,2500.8051800,N,12132.4266800,E,0.04,332.99,270623,,,D,V*05
$GPHDT,,T*1B
$GNGGA,035615.600,2500.8051800,N,12132.4266700,E,2,58,0.48,11.71,M,15.25,M,62,3335*44
$GNRMC,035615.600,A,2500.8051800,N,12132.4266700,E,0.05,332.99,270623,,,D,V*09
$GPHDT,,T*1B
$GNGGA,035615.800,2500.8051800,N,12132.4266700,E,2,58,0.48,11.70,M,15.25,M,62,3335*4B
$GNRMC,035615.800,A,2500.8051800,N,12132.4266700,E,0.07,332.99,270623,,,D,V*05
