$FW : RTK35X,V1.1X0314AS,Lib20210517,1*54
$Tool : LOCOSYS , GNSS Firebird , v1.0.0.19*39
$---------------------------------------------------*2D
$GPHDT,48.264,T*09
$GNGGA,035354.600,2500.8052400,N,12132.4267900,E,2,56,0.48,12.46,M,15.25,M,3,3335*7A
$GNRMC,035354.600,A,2500.8052400,N,12132.4267900,E,0.07,332.99,270623,,,D,V*0B
$GPHDT,48.093,T*03
$GNGGA,035354.800,2500.8052400,N,12132.4267900,E,2,56,0.48,12.46,M,15.25,M,3,3335*74
$GNRMC,035354.800,A,2500.8052400,N,12132.4267900,E,0.04,332.99,270623,,,D,V*06
$GPHDT,48.176,T*09
$GNGSA,A,3,19,195,196,17,199,06,09,20,11,14,04,,0.91,0.48,0.77,1*35
$GNGSA,A,3,68,67,82,83,73,80,,,,,,,0.91,0.48,0.77,2*04
$GNGSA,A,3,24,10,12,11,19,04,25,33,,,,,0.91,0.48,0.77,3*08
$GNGSA,A,3,40,07,10,33,14,08,43,42,11,34,28,,0.91,0.48,0.77,4*03
$GPGSV,4,1,16,19,68,028,40,195,67,044,39,196,65,126,43,17,63,084,41,1*6D
$GPGSV,4,2,16,199,60,167,37,50,60,167,39,06,50,345,46,194,40,172,18,1*69
$GPGSV,4,3,16,09,34,101,38,20,31,233,17,11,29,289,23,14,22,176,20,1*6B
$GPGSV,4,4,16,04,21,069,40,12,15,315,16,03,06,039,18,05,06,223,,1*6E
$GPGSV,3,1,09,195,67,044,46,196,65,126,44,199,60,167,46,06,50,345,45,8*55
$GPGSV,3,2,09,09,34,101,43,11,29,289,23,14,22,176,18,04,21,069,34,8*66
$GPGSV,3,3,09,03,06,039,19,8*53
$GLGSV,2,1,07,68,53,144,28,67,45,056,43,82,37,043,40,83,35,345,22,1*79
$GLGSV,2,2,07,73,22,285,26,80,21,227,24,66,03,026,15,1*49
$GAGSV,3,1,09,24,50,239,19,10,49,338,39,12,47,019,37,11,36,303,26,7*78
$GAGSV,3,2,09,19,31,083,27,04,30,152,29,25,26,304,17,33,13,067,26,7*70
$GAGSV,3,3,09,09,01,192,,7*48
$GAGSV,2,1,07,10,49,338,42,12,47,019,42,11,36,303,19,19,31,083,23,1*70
$GAGSV,2,2,07,04,30,152,29,25,26,304,25,33,13,067,18,1*41
$GBGSV,4,1,14,40,82,145,42,07,80,239,29,10,72,285,38,33,67,144,45,1*73
$GBGSV,4,2,14,14,60,076,42,08,58,273,30,43,53,061,45,28,40,327,17,1*78
$GBGSV,4,3,14,42,38,050,46,11,31,084,36,41,25,197,,23,17,218,,1*74
$GBGSV,4,4,14,34,16,100,30,37,15,270,,1*74
$GBGSV,2,1,06,40,82,145,45,33,67,144,47,43,53,061,45,28,40,327,22,4*75
$GBGSV,2,2,06,42,38,050,43,34,16,100,29,4*70
$GNGGA,035355.000,2500.8052400,N,12132.4267900,E,2,56,0.48,12.46,M,15.25,M,4,3335*7A
$GNRMC,035355.000,A,2500.8052400,N,12132.4267900,E,0.12,332.99,270623,,,D,V*08
$GPHDT,48.286,T*05
$GNGGA,035355.200,2500.8052400,N,12132.4267900,E,2,55,0.47,12.46,M,15.25,M,4,3335*74
$GNRMC,035355.200,A,2500.8052400,N,12132.4267900,E,0.04,332.99,270623,,,D,V*0D
$GPHDT,48.353,T*0C
$GNGGA,035355.400,2500.8052400,N,12132.4267900,E,2,53,0.48,12.46,M,15.25,M,4,3335*7B
$GNRMC,035355.400,A,2500.8052400,N,12132.4267900,E,0.08,332.99,270623,,,D,V*07
$GPHDT,48.219,T*03
$GNGGA,035355.600,2500.8052400,N,12132.4267900,E,2,55,0.47,12.46,M,15.25,M,1,3335*75
$GNRMC,035355.600,A,2500.8052400,N,12132.4267900,E,0.06,332.99,270623,,,D,V*0B
$GPHDT,47.988,T*0F
$GNGGA,035355.800,2500.8052400,N,12132.4267900,E,2,55,0.47,12.46,M,15.25,M,1,3335*7B
$GNRMC,035355.800,A,2500.8052400,N,12132.4267900,E,0.10,332.99,270623,,,D,V*02
$GPHDT,47.735,T*07
$GNGSA,A,3,19,195,196,17,199,06,09,20,11,14,04,12,0.88,0.47,0.74,1*32
$GNGSA,A,3,68,67,82,83,73,80,,,,,,,0.88,0.47,0.74,2*00
$GNGSA,A,3,24,10,12,11,19,04,25,33,,,,,0.88,0.47,0.74,3*0C
$GNGSA,A,3,40,07,10,33,14,08,43,42,11,34,28,,0.88,0.47,0.74,4*07
$GPGSV,4,1,16,19,68,028,40,195,67,044,38,196,65,126,43,17,63,084,42,1*6F
$GPGSV,4,2,16,199,60,167,37,50,60,167,38,06,50,345,46,194,40,172,17,1*67
$GPGSV,4,3,16,09,34,101,39,20,31,233,17,11,29,289,24,14,22,176,18,1*66
$GPGSV,4,4,16,04,21,069,40,12,15,315,19,03,06,039,19,05,06,223,,1*60
$GPGSV,3,1,09,195,67,044,46,196,65,126,45,199,60,167,46,06,50,345,45,8*54
$GPGSV,3,2,09,09,34,101,44,11,29,289,23,14,22,176,18,04,21,069,35,8*60
$GPGSV,3,3,09,03,06,039,22,8*5B
$GLGSV,2,1,07,68,53,144,28,67,45,056,43,82,37,043,40,83,35,345,22,1*79
$GLGSV,2,2,07,73,22,285,26,80,21,227,24,66,03,026,13,1*4F
$GAGSV,3,1,09,24,50,239,19,10,49,338,39,12,47,019,39,11,36,303,25,7*75
$GAGSV,3,2,09,19,31,083,29,04,30,152,29,25,26,304,16,33,13,067,27,7*7E
$GAGSV,3,3,09,09,01,192,,7*48
$GAGSV,2,1,06,10,49,338,41,12,47,019,42,11,36,303,20,19,31,083,27,1*7C
$GAGSV,2,2,06,04,30,152,31,25,26,304,25,1*73
$GBGSV,4,1,14,40,82,145,41,07,80,239,27,10,72,285,39,33,67,144,45,1*7F
$GBGSV,4,2,14,14,60,076,42,08,58,273,30,43,53,061,45,28,40,327,17,1*78
$GBGSV,4,3,14,42,38,050,46,11,31,084,37,41,25,197,,23,17,218,,1*75
$GBGSV,4,4,14,34,16,100,28,37,15,270,,1*7D
$GBGSV,2,1,05,40,82,145,46,33,67,144,48,43,53,061,45,28,40,327,21,4*79
$GBGSV,2,2,05,42,38,050,43,4*49
$GNGGA,035356.000,2500.8052400,N,12132.4267900,E,2,55,0.47,12.46,M,15.25,M,2,3335*73
$GNRMC,035356.000,A,2500.8052400,N,12132.4267900,E,0.02,332.99,270623,,,D,V*0A
$GPHDT,47.954,T*0E
$GNGGA,035356.200,2500.8052400,N,12132.4267900,E,2,55,0.47,12.46,M,15.25,M,1,3335*72
$GNRMC,035356.200,A,2500.8052400,N,12132.4267900,E,0.04,332.99,270623,,,D,V*0E
$GPHDT,47.685,T*0D
$GNGGA,035356.400,2500.8052400,N,12132.4267900,E,2,55,0.47,12.46,M,15.25,M,1,3335*74
$GNRMC,035356.400,A,2500.8052400,N,12132.4267900,E,0.12,332.99,270623,,,D,V*0F
$GPHDT,47.373,T*01
$GNGGA,035356.600,2500.8052400,N,12132.4267900,E,2,56,0.46,12.46,M,15.25,M,0,3335*75
$GNRMC,035356.600,A,2500.8052400,N,12132.4267900,E,0.08,332.99,270623,,,D,V*06
$GPHDT,47.878,T*01
$GNGGA,035356.800,2500.8052400,N,12132.4267900,E,2,57,0.46,12.46,M,15.25,M,0,3335*7A
$GNRMC,035356.800,A,2500.8052400,N,12132.4267900,E,0.09,332.99,270623,,,D,V*09
$GPHDT,48.201,T*0A
$GNGSA,A,3,19,195,196,17,199,06,09,20,11,14,04,12,0.87,0.46,0.74,1*3C
$GNGSA,A,3,194,,,,,,,,,,,,0.87,0.46,0.74,1*33
$GNGSA,A,3,68,67,82,83,73,80,,,,,,,0.87,0.46,0.74,2*0E
$GNGSA,A,3,24,10,12,11,19,04,25,33,,,,,0.87,0.46,0.74,3*02
$GNGSA,A,3,40,07,10,33,14,08,43,42,11,34,28,,0.87,0.46,0.74,4*09
$GPGSV,4,1,16,19,68,028,40,195,67,044,39,196,65,126,43,17,63,084,42,1*6E
$GPGSV,4,2,16,199,60,167,36,50,60,167,38,06,50,345,46,194,40,172,17,1*66
$GPGSV,4,3,16,09,34,101,31,20,31,233,17,11,29,289,25,14,22,176,18,1*6F
$GPGSV,4,4,16,04,21,069,40,12,15,315,21,03,06,039,19,05,06,223,,1*6B
$GPGSV,3,1,10,195,67,044,46,196,65,126,45,199,60,167,46,06,50,345,45,8*5C
$GPGSV,3,2,10,194,40,172,16,09,34,101,43,11,29,289,24,14,22,176,18,8*5D
$GPGSV,3,3,10,04,21,069,37,03,06,039,22,8*6F
$GLGSV,2,1,07,68,53,144,25,67,45,056,44,82,37,043,40,83,35,345,23,1*72
$GLGSV,2,2,07,73,22,285,24,80,21,227,26,66,03,026,13,1*4F
$GAGSV,2,1,08,24,50,239,17,10,49,338,39,12,47,019,39,11,36,303,24,7*7A
$GAGSV,2,2,08,19,31,083,31,04,30,152,26,25,26,304,15,33,13,067,27,7*7B
$GAGSV,2,1,06,10,49,338,41,12,47,019,42,11,36,303,20,19,31,083,27,1*7C
$GAGSV,2,2,06,04,30,152,20,25,26,304,24,1*72
$GBGSV,4,1,15,40,82,145,41,07,80,239,28,10,72,285,38,33,67,144,45,1*70
$GBGSV,4,2,15,14,60,076,43,08,58,273,30,43,53,061,45,13,49,261,,1*7C
$GBGSV,4,3,15,28,40,327,17,42,38,050,46,11,31,084,38,41,25,197,,1*79
$GBGSV,4,4,15,23,17,218,,34,16,100,27,37,15,270,,1*4F
$GBGSV,2,1,06,40,82,145,46,33,67,144,48,43,53,061,45,28,40,327,20,4*7B
$GBGSV,2,2,06,42,38,050,43,34,16,100,28,4*71
$GNGGA,035357.000,2500.8052400,N,12132.4267900,E,2,57,0.46,12.46,M,15.25,M,1,3335*72
$GNRMC,035357.000,A,2500.8052400,N,12132.4267900,E,0.05,332.99,270623,,,D,V*0C
$GPHDT,46.997,T*00
$GNGGA,035357.200,2500.8052400,N,12132.4267900,E,2,56,0.46,12.46,M,15.25,M,1,3335*71
$GNRMC,035357.200,A,2500.8052400,N,12132.4267900,E,0.11,332.99,270623,,,D,V*0B
$GPHDT,47.231,T*06
$GNGGA,035357.400,2500.8052400,N,12132.4267900,E,2,56,0.46,12.46,M,15.25,M,1,3335*77
$GNRMC,035357.400,A,2500.8052400,N,12132.4267900,E,0.14,332.99,270623,,,D,V*08
$GPHDT,46.723,T*01
$GNGGA,035357.600,2500.8052400,N,12132.4267900,E,2,56,0.47,12.46,M,15.25,M,1,3335*74
$GNRMC,035357.600,A,2500.8052400,N,12132.4267900,E,0.12,332.99,270623,,,D,V*0C
$GPHDT,46.707,T*07
$GNGGA,035357.800,2500.8052400,N,12132.4267900,E,2,56,0.47,12.46,M,15.25,M,1,3335*7A
$GNRMC,035357.800,A,2500.8052400,N,12132.4267900,E,0.14,332.99,270623,,,D,V*04
$GPHDT,46.457,T*01
$GNGSA,A,3,19,195,196,17,199,06,09,20,11,14,04,12,0.88,0.47,0.74,1*32
$GNGSA,A,3,68,67,82,83,73,80,,,,,,,0.88,0.47,0.74,2*00
$GNGSA,A,3,24,10,12,11,19,04,25,33,,,,,0.88,0.47,0.74,3*0C
$GNGSA,A,3,40,07,10,33,14,08,43,42,11,34,28,,0.88,0.47,0.74,4*07
$GPGSV,4,1,16,19,68,028,41,195,67,044,39,196,65,126,43,17,63,084,43,1*6E
$GPGSV,4,2,16,199,60,167,34,50,60,167,37,06,50,345,46,194,39,172,17,1*65
$GPGSV,4,3,16,09,34,101,32,20,31,233,17,11,29,289,25,14,22,176,19,1*6D
$GPGSV,4,4,16,04,21,069,40,12,15,315,19,03,06,039,19,05,06,223,,1*60
$GPGSV,3,1,09,195,67,044,46,196,65,126,45,199,60,167,46,06,50,345,45,8*54
$GPGSV,3,2,09,09,34,101,42,11,29,289,23,14,22,176,18,04,21,069,37,8*64
$GPGSV,3,3,09,03,06,039,23,8*5A
$GLGSV,3,1,09,68,53,144,25,67,45,056,44,82,37,043,41,83,35,345,24,1*7B
$GLGSV,3,2,09,73,22,285,24,80,21,227,26,69,14,185,,74,04,325,,1*70
$GLGSV,3,3,09,66,03,026,13,1*44
$GAGSV,2,1,08,24,50,239,15,10,49,338,39,12,47,019,39,11,36,303,23,7*7F
$GAGSV,2,2,08,19,31,083,31,04,30,152,26,25,26,304,14,33,13,067,26,7*7B
$GAGSV,2,1,07,10,49,338,40,12,47,019,42,11,36,303,20,19,31,083,23,1*78
$GAGSV,2,2,07,04,30,152,19,25,26,304,23,33,13,067,20,1*4F
$GBGSV,4,1,15,40,82,145,41,07,80,239,29,10,72,285,38,33,67,144,45,1*71
$GBGSV,4,2,15,14,60,076,42,08,58,273,30,43,53,061,45,13,49,261,,1*7D
$GBGSV,4,3,15,28,40,327,16,42,38,050,46,11,31,084,38,41,25,197,,1*78
$GBGSV,4,4,15,23,17,218,,34,16,100,27,37,15,270,,1*4F
$GBGSV,2,1,05,40,82,145,46,33,67,144,48,43,53,061,45,28,40,327,19,4*72
$GBGSV,2,2,05,42,38,050,43,4*49
$GNGGA,035358.000,2500.8052400,N,12132.4268000,E,2,56,0.47,12.47,M,15.25,M,2,3335*79
$GNRMC,035358.000,A,2500.8052400,N,12132.4268000,E,0.04,332.99,270623,,,D,V*04
$GPHDT,46.186,T*08
$GNGGA,035358.200,2500.8052400,N,12132.4268000,E,2,56,0.47,12.47,M,15.25,M,2,3335*7B
$GNRMC,035358.200,A,2500.8052400,N,12132.4268000,E,0.10,332.99,270623,,,D,V*03
$GPHDT,47.058,T*0B
$GNGGA,035358.400,2500.8052400,N,12132.4268000,E,2,56,0.48,12.47,M,15.25,M,2,3335*72
$GNRMC,035358.400,A,2500.8052400,N,12132.4268000,E,0.15,332.99,270623,,,D,V*00
$GPHDT,47.800,T*0E
$GNGGA,035358.600,2500.8052400,N,12132.4268000,E,2,56,0.47,12.47,M,15.25,M,2,3335*7F
$GNRMC,035358.600,A,2500.8052400,N,12132.4268000,E,0.00,332.99,270623,,,D,V*06
$GPHDT,47.822,T*0E
$GNGGA,035358.800,2500.8052400,N,12132.4268000,E,2,56,0.47,12.47,M,15.25,M,2,3335*71
$GNRMC,035358.800,A,2500.8052400,N,12132.4268000,E,0.03,332.99,270623,,,D,V*0B
$GPHDT,47.857,T*0C
$GNGSA,A,3,19,195,196,17,199,06,09,20,11,14,04,12,0.88,0.47,0.74,1*32
$GNGSA,A,3,68,67,82,83,73,80,,,,,,,0.88,0.47,0.74,2*00
$GNGSA,A,3,24,10,12,11,19,04,25,33,,,,,0.88,0.47,0.74,3*0C
$GNGSA,A,3,40,07,10,33,14,08,43,42,11,34,28,,0.88,0.47,0.74,4*07
$GPGSV,4,1,16,19,68,028,41,195,67,044,39,196,65,126,41,17,63,084,43,1*6C
$GPGSV,4,2,16,199,60,167,33,50,60,167,35,06,50,345,46,194,39,172,16,1*61
$GPGSV,4,3,16,09,34,101,40,20,31,233,16,11,29,289,23,14,22,176,19,1*6F
$GPGSV,4,4,16,04,21,069,40,12,15,315,20,03,06,039,19,05,06,223,,1*6A
$GPGSV,3,1,09,195,67,044,46,196,65,126,43,199,60,167,44,06,50,345,45,8*50
$GPGSV,3,2,09,09,34,101,42,11,29,289,23,14,22,176,18,04,21,069,38,8*6B
$GPGSV,3,3,09,03,06,039,23,8*5A
$GLGSV,2,1,08,68,53,144,21,67,45,056,44,82,37,043,41,83,35,345,24,1*7F
$GLGSV,2,2,08,73,22,285,24,80,21,227,26,69,14,185,,66,03,026,,1*74
$GAGSV,3,1,09,24,50,239,13,10,49,338,39,12,47,019,39,11,36,303,23,7*79
$GAGSV,3,2,09,19,31,083,31,04,30,152,26,25,26,304,15,33,13,067,27,7*7B
$GAGSV,3,3,09,09,01,192,,7*48
$GAGSV,2,1,07,10,49,338,41,12,47,019,42,11,36,303,20,19,31,083,22,1*78
$GAGSV,2,2,07,04,30,152,24,25,26,304,22,33,13,067,20,1*40
$GBGSV,4,1,15,40,82,145,41,07,80,239,28,10,72,285,38,33,67,144,43,1*76
$GBGSV,4,2,15,14,60,076,42,08,58,273,31,43,53,061,44,13,49,261,,1*7D
$GBGSV,4,3,15,28,40,327,16,42,38,050,46,11,31,084,39,41,25,197,,1*79
$GBGSV,4,4,15,23,17,218,,34,16,100,22,37,15,270,,1*4A
$GBGSV,2,1,05,40,82,145,46,33,67,144,47,43,53,061,45,28,40,327,20,4*77
$GBGSV,2,2,05,42,38,050,43,4*49
$GNGGA,035359.000,2500.8052400,N,12132.4268000,E,2,56,0.47,12.47,M,15.25,M,3,3335*79
$GNRMC,035359.000,A,2500.8052400,N,12132.4268000,E,0.05,332.99,270623,,,D,V*04
$GPHDT,48.473,T*09
$GNGGA,035359.200,2500.8052400,N,12132.4268000,E,2,56,0.47,12.47,M,15.25,M,3,3335*7B
$GNRMC,035359.200,A,2500.8052400,N,12132.4268000,E,0.04,332.99,270623,,,D,V*07
$GPHDT,48.898,T*00
$GNGGA,035359.400,2500.8052400,N,12132.4268000,E,2,56,0.47,12.47,M,15.25,M,3,3335*7D
$GNRMC,035359.400,A,2500.8052400,N,12132.4268000,E,0.02,332.99,270623,,,D,V*07
$GPHDT,48.255,T*0B
$GNGGA,035359.600,2500.8052400,N,12132.4268000,E,2,57,0.47,12.47,M,15.25,M,3,3335*7E
$GNRMC,035359.600,A,2500.8052400,N,12132.4268000,E,0.02,332.99,270623,,,D,V*05
$GPHDT,48.041,T*0C
$GNGGA,035359.800,2500.8052400,N,12132.4268000,E,2,57,0.47,12.47,M,15.25,M,3,3335*70
$GNRMC,035359.800,A,2500.8052400,N,12132.4268000,E,0.05,332.99,270623,,,D,V*0C
$GPHDT,47.521,T*00
$GNGSA,A,3,19,195,196,17,199,06,09,20,11,14,04,12,0.88,0.47,0.74,1*32
$GNGSA,A,3,68,67,82,83,73,80,,,,,,,0.88,0.47,0.74,2*00
$GNGSA,A,3,24,10,12,11,19,04,25,33,,,,,0.88,0.47,0.74,3*0C
$GNGSA,A,3,40,07,10,33,14,08,43,42,11,34,28,,0.88,0.47,0.74,4*07
$GPGSV,4,1,16,19,68,028,41,195,67,044,39,196,65,126,39,17,63,084,43,1*63
$GPGSV,4,2,16,199,60,167,30,50,60,167,32,06,50,345,46,194,39,172,17,1*64
$GPGSV,4,3,16,09,34,101,40,20,31,233,13,11,29,289,24,14,22,176,20,1*67
$GPGSV,4,4,16,04,21,069,40,12,15,315,22,03,06,039,21,05,06,223,,1*63
$GPGSV,3,1,09,195,67,044,46,196,65,126,40,199,60,167,43,06,50,345,45,8*54
$GPGSV,3,2,09,09,34,101,41,11,29,289,25,14,22,176,18,04,21,069,39,8*6F
$GPGSV,3,3,09,03,06,039,23,8*5A
$GLGSV,2,1,07,68,53,144,21,67,45,056,44,82,37,043,41,83,35,345,24,1*70
$GLGSV,2,2,07,73,22,285,23,80,21,227,26,66,03,026,,1*4A
$GAGSV,3,1,09,24,50,239,13,10,49,338,39,12,47,019,38,11,36,303,22,7*79
$GAGSV,3,2,09,19,31,083,31,04,30,152,27,25,26,304,14,33,13,067,28,7*74
$GAGSV,3,3,09,09,01,192,,7*48
$GAGSV,2,1,07,10,49,338,41,12,47,019,42,11,36,303,20,19,31,083,22,1*78
$GAGSV,2,2,07,04,30,152,28,25,26,304,22,33,13,067,20,1*4C
$GBGSV,4,1,15,40,82,145,40,07,80,239,29,10,72,285,38,33,67,144,40,1*75
$GBGSV,4,2,15,14,60,076,42,08,58,273,31,43,53,061,44,13,49,261,,1*7D
$GBGSV,4,3,15,28,40,327,17,42,38,050,45,11,31,084,38,41,25,197,,1*7A
$GBGSV,4,4,15,23,17,218,,34,16,100,20,37,15,270,,1*48
$GBGSV,2,1,06,40,82,145,45,33,67,144,43,43,53,061,45,28,40,327,22,4*71
$GBGSV,2,2,06,42,38,050,42,34,16,100,26,4*7E
$GNGGA,035400.000,2500.8052400,N,12132.4268000,E,2,57,0.47,12.47,M,15.25,M,3,3335*73
$GNRMC,035400.000,A,2500.8052400,N,12132.4268000,E,0.02,332.99,270623,,,D,V*08
$GPHDT,47.687,T*0F
$GNGGA,035400.200,2500.8052400,N,12132.4268000,E,2,56,0.47,12.47,M,15.25,M,3,3335*70
$GNRMC,035400.200,A,2500.8052400,N,12132.4268000,E,0.11,332.99,270623,,,D,V*08
$GPHDT,47.277,T*04
