$FW : RTK35X,V1.1X0314AS,Lib20210517,1*54
$Tool : LOCOSYS , GNSS Firebird , v1.0.0.19*39
$---------------------------------------------------*2D
$GPHDT,92.373,T*09
$GNGGA,035654.800,2500.8051800,N,12132.4266800,E,2,56,0.48,11.63,M,15.25,M,0,3335*79
$GNRMC,035654.800,A,2500.8051800,N,12132.4266800,E,0.08,332.99,270623,,,D,V*00
$GPHDT,92.780,T*01
$GNGSA,A,3,19,195,196,17,199,06,194,09,11,04,14,12,0.88,0.48,0.74,1*03
$GNGSA,A,3,68,67,82,83,73,80,,,,,,,0.88,0.48,0.74,2*0F
$GNGSA,A,3,10,12,11,19,04,25,33,,,,,,0.88,0.48,0.74,3*05
$GNGSA,A,3,40,07,10,33,14,08,43,28,42,11,34,,0.88,0.48,0.74,4*08
$GPGSV,4,1,15,19,69,032,41,195,68,045,42,196,65,125,42,17,63,087,43,1*64
$GPGSV,4,2,15,199,60,167,31,50,60,167,34,06,50,347,43,194,39,172,21,1*62
$GPGSV,4,3,15,09,35,100,43,20,32,234,14,11,29,290,29,04,21,068,38,1*64
$GPGSV,4,4,15,14,21,175,21,12,16,315,19,03,05,039,17,1*57
$GPGSV,2,1,08,195,68,045,46,196,65,125,42,199,60,167,45,06,50,347,46,8*5C
$GPGSV,2,2,08,09,35,100,44,11,29,290,18,04,21,068,40,03,05,039,16,8*64
$GLGSV,2,1,07,68,55,143,30,67,44,053,40,82,37,045,41,83,35,347,22,1*73
$GLGSV,2,2,07,73,22,283,17,80,20,226,20,66,02,025,,1*4F
$GAGSV,3,1,09,24,49,237,15,10,49,340,41,12,47,020,37,11,36,305,26,7*7E
$GAGSV,3,2,09,19,32,081,36,04,31,151,17,25,27,303,27,33,13,068,24,7*76
$GAGSV,3,3,09,09,02,192,,7*4B
$GAGSV,2,1,07,10,49,340,43,12,47,020,42,11,36,305,22,19,32,081,37,1*7E
$GAGSV,2,2,07,04,31,151,28,25,27,303,29,33,13,068,23,1*4F
$GBGSV,4,1,14,40,82,150,42,07,79,237,32,10,72,283,35,33,68,142,35,1*70
$GBGSV,4,2,14,14,60,073,44,08,58,275,27,43,52,062,40,28,40,328,32,1*74
$GBGSV,4,3,14,42,37,049,45,11,31,085,42,41,26,198,,23,16,218,,1*7F
$GBGSV,4,4,14,34,15,101,35,37,15,269,,1*7B
$GBGSV,2,1,06,40,82,150,43,33,68,142,43,43,52,062,42,28,40,328,20,4*72
$GBGSV,2,2,06,42,37,049,44,34,15,101,29,4*72
$GNGGA,035655.000,2500.8051800,N,12132.4266800,E,2,56,0.48,11.62,M,15.25,M,1,3335*70
$GNRMC,035655.000,A,2500.8051800,N,12132.4266800,E,0.05,332.99,270623,,,D,V*04
$GPHDT,93.263,T*08
$GNGGA,035655.200,2500.8051800,N,12132.4266800,E,2,57,0.48,11.62,M,15.25,M,1,3335*73
$GNRMC,035655.200,A,2500.8051800,N,12132.4266800,E,0.04,332.99,270623,,,D,V*07
$GPHDT,93.124,T*08
$GNGGA,035655.400,2500.8051800,N,12132.4266800,E,2,57,0.48,11.61,M,15.25,M,1,3335*76
$GNRMC,035655.400,A,2500.8051800,N,12132.4266800,E,0.08,332.99,270623,,,D,V*0D
$GPHDT,93.267,T*0C
$GNGGA,035655.600,2500.8051800,N,12132.4266800,E,2,57,0.48,11.61,M,15.25,M,1,3335*74
$GNRMC,035655.600,A,2500.8051800,N,12132.4266800,E,0.05,332.99,270623,,,D,V*02
$GPHDT,92.719,T*01
$GNGGA,035655.800,2500.8051800,N,12132.4266800,E,2,57,0.48,11.61,M,15.25,M,0,3335*7B
$GNRMC,035655.800,A,2500.8051800,N,12132.4266800,E,0.07,332.99,270623,,,D,V*0E
$GPHDT,92.729,T*02
$GNGSA,A,3,19,195,196,17,199,06,194,09,11,04,14,,0.92,0.50,0.77,1*01
$GNGSA,A,3,68,67,82,83,73,80,,,,,,,0.92,0.50,0.77,2*0E
$GNGSA,A,3,10,12,11,19,04,25,33,,,,,,0.92,0.50,0.77,3*04
$GNGSA,A,3,40,07,10,33,14,08,43,28,42,11,34,,0.92,0.50,0.77,4*09
$GPGSV,4,1,15,19,69,032,41,195,68,045,42,196,65,125,42,17,63,087,43,1*64
$GPGSV,4,2,15,199,60,167,31,50,60,167,33,06,50,347,42,194,39,172,23,1*66
$GPGSV,4,3,15,09,35,100,43,20,32,234,13,11,29,290,30,04,21,068,38,1*6B
$GPGSV,4,4,15,14,21,175,22,12,16,315,19,03,05,039,18,1*5B
$GPGSV,3,1,09,195,68,045,46,196,65,125,42,199,60,167,46,06,50,347,47,8*5E
$GPGSV,3,2,09,09,35,100,44,11,29,290,20,14,21,175,16,04,21,068,39,8*68
$GPGSV,3,3,09,03,05,039,15,8*5C
$GLGSV,3,1,09,68,55,143,29,67,44,053,40,82,37,045,41,83,35,347,22,1*74
$GLGSV,3,2,09,73,22,283,18,80,20,226,21,69,16,184,,74,05,324,,1*7D
$GLGSV,3,3,09,66,02,025,,1*44
$GAGSV,3,1,09,24,49,237,14,10,49,340,41,12,47,020,37,11,36,305,26,7*7F
$GAGSV,3,2,09,19,32,081,36,04,31,151,17,25,27,303,27,33,13,068,24,7*76
$GAGSV,3,3,09,09,02,192,,7*4B
$GAGSV,2,1,07,10,49,340,44,12,47,020,43,11,36,305,22,19,32,081,37,1*78
$GAGSV,2,2,07,04,31,151,29,25,27,303,29,33,13,068,24,1*49
$GBGSV,4,1,14,40,82,150,42,07,79,237,32,10,72,283,35,33,68,142,34,1*71
$GBGSV,4,2,14,14,60,073,44,08,58,275,26,43,52,062,40,13,49,262,,1*7A
$GBGSV,4,3,14,28,40,328,34,42,37,049,45,11,31,085,42,41,26,198,,1*72
$GBGSV,4,4,14,23,16,218,,34,15,101,32,1*7C
$GBGSV,2,1,06,40,82,150,43,33,68,142,43,43,52,062,42,28,40,328,19,4*78
$GBGSV,2,2,06,42,37,049,44,34,15,101,29,4*72
$GNGGA,035656.000,2500.8051800,N,12132.4266700,E,2,56,0.50,11.61,M,15.25,M,1,3335*76
$GNRMC,035656.000,A,2500.8051800,N,12132.4266700,E,0.09,332.99,270623,,,D,V*04
$GPHDT,92.346,T*0F
$GNGGA,035656.200,2500.8051800,N,12132.4266700,E,2,55,0.50,11.61,M,15.25,M,1,3335*77
$GNRMC,035656.200,A,2500.8051800,N,12132.4266700,E,0.08,332.99,270623,,,D,V*07
$GPHDT,92.358,T*00
$GNGGA,035656.400,2500.8051800,N,12132.4266700,E,2,55,0.50,11.60,M,15.25,M,1,3335*70
$GNRMC,035656.400,A,2500.8051800,N,12132.4266700,E,0.06,332.99,270623,,,D,V*0F
$GPHDT,92.592,T*00
$GNGGA,035656.600,2500.8051800,N,12132.4266600,E,2,55,0.50,11.60,M,15.25,M,1,3335*73
$GNRMC,035656.600,A,2500.8051800,N,12132.4266600,E,0.07,332.99,270623,,,D,V*0D
$GPHDT,93.062,T*0B
$GNGGA,035656.800,2500.8051800,N,12132.4266600,E,2,56,0.48,11.60,M,15.25,M,0,3335*76
$GNRMC,035656.800,A,2500.8051800,N,12132.4266600,E,0.09,332.99,270623,,,D,V*0D
$GPHDT,92.745,T*08
$GNGSA,A,3,19,195,196,17,199,06,194,09,11,04,14,12,0.88,0.48,0.74,1*03
$GNGSA,A,3,68,67,82,83,73,80,,,,,,,0.88,0.48,0.74,2*0F
$GNGSA,A,3,10,12,11,19,04,25,33,,,,,,0.88,0.48,0.74,3*05
$GNGSA,A,3,40,07,10,33,14,08,43,28,42,11,34,,0.88,0.48,0.74,4*08
$GPGSV,4,1,15,19,69,032,41,195,68,045,41,196,65,125,42,17,63,087,42,1*66
$GPGSV,4,2,15,199,60,167,31,50,60,167,33,06,50,347,42,194,39,172,21,1*64
$GPGSV,4,3,15,09,35,100,42,20,32,234,14,11,29,290,30,04,21,068,38,1*6D
$GPGSV,4,4,15,14,21,175,23,12,16,315,19,03,05,039,18,1*5A
$GPGSV,3,1,09,195,68,045,46,196,65,125,42,199,60,167,46,06,50,347,47,8*5E
$GPGSV,3,2,09,09,35,100,44,11,29,290,21,14,21,175,17,04,21,068,39,8*68
$GPGSV,3,3,09,03,05,039,16,8*5F
$GLGSV,3,1,09,68,55,143,29,67,44,053,41,82,37,045,42,83,35,347,22,1*76
$GLGSV,3,2,09,73,22,283,18,80,20,226,20,69,16,184,,74,05,324,,1*7C
$GLGSV,3,3,09,66,02,025,,1*44
$GAGSV,2,1,08,10,49,340,41,24,49,237,15,12,47,020,37,11,36,305,26,7*7E
$GAGSV,2,2,08,19,32,081,36,04,31,151,17,25,27,303,26,33,13,068,24,7*77
$GAGSV,2,1,07,10,49,340,44,12,47,020,43,11,36,305,22,19,32,081,37,1*78
$GAGSV,2,2,07,04,31,151,28,25,27,303,30,33,13,068,24,1*40
$GBGSV,4,1,14,40,82,150,42,07,79,237,32,10,72,283,35,33,68,142,34,1*71
$GBGSV,4,2,14,14,60,073,44,08,58,275,26,43,52,062,41,28,40,328,34,1*72
$GBGSV,4,3,14,42,37,049,45,11,31,085,42,41,26,198,,23,16,217,,1*70
$GBGSV,4,4,14,34,15,101,34,37,15,269,,1*7A
$GBGSV,2,1,06,40,82,150,43,33,68,142,43,43,52,062,42,28,40,328,18,4*79
$GBGSV,2,2,06,42,37,049,44,34,15,101,29,4*72
$GNGGA,035657.000,2500.8051800,N,12132.4266600,E,2,56,0.48,11.59,M,15.25,M,1,3335*74
$GNRMC,035657.000,A,2500.8051800,N,12132.4266600,E,0.08,332.99,270623,,,D,V*05
$GPHDT,93.303,T*0F
$GNGGA,035657.200,2500.8051800,N,12132.4266600,E,2,55,0.50,11.57,M,15.25,M,1,3335*72
$GNRMC,035657.200,A,2500.8051800,N,12132.4266600,E,0.06,332.99,270623,,,D,V*09
$GPHDT,93.339,T*06
$GNGGA,035657.400,2500.8051800,N,12132.4266600,E,2,56,0.48,11.57,M,15.25,M,1,3335*7E
$GNRMC,035657.400,A,2500.8051800,N,12132.4266600,E,0.03,332.99,270623,,,D,V*0A
$GPHDT,93.176,T*0F
$GNGGA,035657.600,2500.8051800,N,12132.4266600,E,2,55,0.50,11.56,M,15.25,M,0,3335*76
$GNRMC,035657.600,A,2500.8051800,N,12132.4266600,E,0.01,332.99,270623,,,D,V*0A
$GPHDT,93.837,T*03
$GNGGA,035657.800,2500.8051800,N,12132.4266600,E,2,56,0.48,11.56,M,15.25,M,0,3335*72
$GNRMC,035657.800,A,2500.8051800,N,12132.4266600,E,0.04,332.99,270623,,,D,V*01
$GPHDT,93.876,T*06
$GNGSA,A,3,19,195,196,17,199,06,194,09,11,04,14,12,0.88,0.48,0.74,1*03
$GNGSA,A,3,68,67,82,83,73,80,,,,,,,0.88,0.48,0.74,2*0F
$GNGSA,A,3,10,12,11,19,04,25,33,,,,,,0.88,0.48,0.74,3*05
$GNGSA,A,3,40,07,10,33,14,08,43,28,42,11,34,,0.88,0.48,0.74,4*08
$GPGSV,4,1,15,19,69,032,41,195,68,045,41,196,65,125,42,17,63,087,42,1*66
$GPGSV,4,2,15,199,60,167,31,50,60,167,33,06,50,347,42,194,39,172,23,1*66
$GPGSV,4,3,15,09,35,100,41,20,32,234,15,11,29,290,30,04,21,068,38,1*6F
$GPGSV,4,4,15,14,21,175,23,12,16,315,19,03,05,039,16,1*54
$GPGSV,3,1,09,195,68,045,46,196,65,125,42,199,60,167,46,06,50,347,47,8*5E
$GPGSV,3,2,09,09,35,100,44,11,29,290,21,14,21,175,16,04,21,068,39,8*69
$GPGSV,3,3,09,03,05,039,16,8*5F
$GLGSV,2,1,07,68,55,143,29,67,44,053,41,82,37,045,42,83,35,347,22,1*79
$GLGSV,2,2,07,73,22,283,18,80,20,226,20,66,02,025,,1*40
$GAGSV,3,1,09,24,49,237,18,10,49,340,41,12,47,020,37,11,36,305,26,7*73
$GAGSV,3,2,09,19,32,081,36,04,31,151,17,25,27,303,27,33,13,068,25,7*77
$GAGSV,3,3,09,09,02,192,,7*4B
$GAGSV,2,1,07,10,49,340,44,12,47,020,43,11,36,305,22,19,32,081,37,1*78
$GAGSV,2,2,07,04,31,151,28,25,27,303,30,33,13,068,26,1*42
$GBGSV,4,1,14,40,82,150,42,07,79,237,32,10,72,283,35,33,68,142,36,1*73
$GBGSV,4,2,14,14,60,073,45,08,58,275,27,43,52,062,41,28,40,328,32,1*74
$GBGSV,4,3,14,42,37,049,45,11,31,085,41,41,26,198,,23,16,217,,1*73
$GBGSV,4,4,14,34,15,101,32,37,15,269,,1*7C
$GBGSV,2,1,06,40,82,150,43,33,68,142,42,43,52,062,42,28,40,328,19,4*79
$GBGSV,2,2,06,42,37,049,44,34,15,101,29,4*72
$GNGGA,035658.000,2500.8051800,N,12132.4266600,E,2,56,0.48,11.55,M,15.25,M,1,3335*77
$GNRMC,035658.000,A,2500.8051800,N,12132.4266600,E,0.04,332.99,270623,,,D,V*06
$GPHDT,93.852,T*00
$GNGGA,035658.200,2500.8051800,N,12132.4266600,E,2,57,0.48,11.55,M,15.25,M,1,3335*74
$GNRMC,035658.200,A,2500.8051800,N,12132.4266600,E,0.04,332.99,270623,,,D,V*04
$GPHDT,93.247,T*0E
$GNGGA,035658.400,2500.8051800,N,12132.4266600,E,2,57,0.48,11.54,M,15.25,M,1,3335*73
$GNRMC,035658.400,A,2500.8051800,N,12132.4266600,E,0.04,332.99,270623,,,D,V*02
$GPHDT,93.463,T*0E
$GNGGA,035658.600,2500.8051800,N,12132.4266500,E,2,57,0.48,11.54,M,15.25,M,1,3335*72
$GNRMC,035658.600,A,2500.8051800,N,12132.4266500,E,0.07,332.99,270623,,,D,V*00
$GPHDT,93.539,T*00
$GNGGA,035658.800,2500.8051800,N,12132.4266500,E,2,57,0.48,11.53,M,15.25,M,0,3335*7A
$GNRMC,035658.800,A,2500.8051800,N,12132.4266500,E,0.13,332.99,270623,,,D,V*0B
$GPHDT,92.986,T*09
$GNGSA,A,3,19,195,196,17,199,06,194,09,11,04,14,,0.91,0.48,0.77,1*0B
$GNGSA,A,3,68,67,82,83,73,80,,,,,,,0.91,0.48,0.77,2*04
$GNGSA,A,3,24,10,12,11,19,04,25,33,,,,,0.91,0.48,0.77,3*08
$GNGSA,A,3,40,07,10,33,14,08,43,28,42,11,34,,0.91,0.48,0.77,4*03
$GPGSV,4,1,15,19,69,032,42,195,68,045,41,196,65,125,42,17,63,087,42,1*65
$GPGSV,4,2,15,199,60,167,31,50,60,167,33,06,50,347,42,194,39,172,23,1*66
$GPGSV,4,3,15,09,35,100,41,20,32,234,15,11,29,290,30,04,21,068,38,1*6F
$GPGSV,4,4,15,14,21,175,23,12,16,315,19,03,05,039,16,1*54
$GPGSV,3,1,10,195,68,045,46,196,65,125,42,199,60,167,46,06,50,347,47,8*56
$GPGSV,3,2,10,194,39,172,22,09,35,100,44,11,29,290,21,14,21,175,16,8*50
$GPGSV,3,3,10,04,21,068,39,03,05,039,16,8*64
$GLGSV,3,1,09,68,55,143,31,67,44,053,41,82,37,045,42,83,35,347,21,1*7C
$GLGSV,3,2,09,73,22,283,17,80,20,226,20,69,16,184,,74,05,324,,1*73
$GLGSV,3,3,09,66,02,025,,1*44
$GAGSV,3,1,09,24,49,237,17,10,49,340,40,12,47,020,37,11,36,305,26,7*7D
$GAGSV,3,2,09,19,32,081,36,04,31,151,17,25,27,303,26,33,13,068,24,7*77
$GAGSV,3,3,09,09,02,192,,7*4B
$GAGSV,2,1,07,10,49,340,44,12,47,020,43,11,36,305,22,19,32,081,37,1*78
$GAGSV,2,2,07,04,31,151,28,25,27,303,29,33,13,068,26,1*4A
$GBGSV,4,1,14,40,82,150,42,07,79,237,31,10,72,283,35,33,68,142,36,1*70
$GBGSV,4,2,14,14,60,073,45,08,58,275,27,43,52,062,41,28,40,328,31,1*77
$GBGSV,4,3,14,42,37,049,45,11,31,085,41,41,26,198,,23,16,217,,1*73
$GBGSV,4,4,14,37,15,269,,34,15,101,30,1*7E
$GBGSV,2,1,06,40,82,150,43,33,68,142,42,43,52,062,42,28,40,328,21,4*72
$GBGSV,2,2,06,42,37,049,44,34,15,101,28,4*73
$GNGGA,035659.000,2500.8051800,N,12132.4266500,E,2,57,0.48,11.51,M,15.25,M,1,3335*70
$GNRMC,035659.000,A,2500.8051800,N,12132.4266500,E,0.11,332.99,270623,,,D,V*00
$GPHDT,92.981,T*0E
$GNGGA,035659.200,2500.8051800,N,12132.4266500,E,2,58,0.48,11.49,M,15.25,M,1,3335*74
$GNRMC,035659.200,A,2500.8051800,N,12132.4266500,E,0.15,332.99,270623,,,D,V*06
$GPHDT,92.384,T*01
$GNGGA,035659.400,2500.8051800,N,12132.4266400,E,2,58,0.48,11.47,M,15.25,M,1,3335*7D
$GNRMC,035659.400,A,2500.8051800,N,12132.4266400,E,0.09,332.99,270623,,,D,V*0C
$GPHDT,93.367,T*0D
$GNGGA,035659.600,2500.8051800,N,12132.4266300,E,2,58,0.48,11.47,M,15.25,M,0,3335*79
$GNRMC,035659.600,A,2500.8051800,N,12132.4266300,E,0.05,332.99,270623,,,D,V*05
$GPHDT,92.897,T*08
$GNGGA,035659.800,2500.8051800,N,12132.4266300,E,2,58,0.48,11.46,M,15.25,M,0,3335*76
$GNRMC,035659.800,A,2500.8051800,N,12132.4266300,E,0.06,332.99,270623,,,D,V*08
$GPHDT,93.092,T*04
$GNGSA,A,3,19,195,196,17,199,06,194,09,11,04,14,12,0.88,0.48,0.74,1*03
$GNGSA,A,3,68,67,82,83,73,80,,,,,,,0.88,0.48,0.74,2*0F
$GNGSA,A,3,24,10,12,11,19,04,25,33,,,,,0.88,0.48,0.74,3*03
$GNGSA,A,3,40,07,10,33,14,08,43,28,42,11,34,,0.88,0.48,0.74,4*08
$GPGSV,4,1,15,19,69,032,42,195,68,045,41,196,65,125,42,17,63,087,42,1*65
$GPGSV,4,2,15,199,60,167,31,50,60,167,33,06,50,347,42,194,39,172,23,1*66
$GPGSV,4,3,15,09,35,100,41,20,32,234,13,11,29,290,30,04,21,068,38,1*69
$GPGSV,4,4,15,14,21,175,24,12,16,315,19,03,05,039,16,1*53
$GPGSV,3,1,10,195,68,045,46,196,65,125,42,199,60,167,46,06,50,347,47,8*56
$GPGSV,3,2,10,194,39,172,22,09,35,100,44,11,29,290,22,14,21,175,16,8*53
$GPGSV,3,3,10,04,21,068,39,03,05,039,16,8*64
$GLGSV,2,1,07,68,55,143,31,67,44,053,41,82,37,045,42,83,35,347,22,1*70
$GLGSV,2,2,07,73,22,283,17,80,20,226,21,66,02,025,,1*4E
$GAGSV,3,1,09,24,49,237,19,10,49,340,41,12,47,020,37,11,36,305,26,7*72
$GAGSV,3,2,09,19,32,081,36,04,31,151,18,25,27,303,26,33,13,068,24,7*78
$GAGSV,3,3,09,09,02,192,,7*4B
$GAGSV,2,1,07,10,49,340,44,12,47,020,43,11,36,305,23,19,32,081,37,1*79
$GAGSV,2,2,07,04,31,151,30,25,27,303,29,33,13,068,26,1*43
$GBGSV,4,1,14,40,82,150,42,07,79,237,31,10,72,283,35,33,68,142,36,1*70
$GBGSV,4,2,14,14,60,073,45,08,58,275,27,43,52,062,41,28,40,328,30,1*76
$GBGSV,4,3,14,42,37,049,45,11,31,085,41,41,26,198,,23,16,217,,1*73
$GBGSV,4,4,14,34,15,101,31,37,15,268,,1*7E
$GBGSV,2,1,06,40,82,150,43,33,68,142,42,43,52,062,42,28,40,328,21,4*72
$GBGSV,2,2,06,42,37,049,44,34,15,101,28,4*73
$GNGGA,035700.000,2500.8051800,N,12132.4266300,E,2,58,0.48,11.46,M,15.25,M,1,3335*72
$GNRMC,035700.000,A,2500.8051800,N,12132.4266300,E,0.05,332.99,270623,,,D,V*0E
$GPHDT,92.910,T*06
$GNGGA,035700.200,2500.8051800,N,12132.4266300,E,2,58,0.48,11.45,M,15.25,M,1,3335*73
$GNRMC,035700.200,A,2500.8051800,N,12132.4266300,E,0.12,332.99,270623,,,D,V*0A
$GPHDT,92.538,T*00
$GNGGA,035700.400,2500.8051700,N,12132.4266300,E,2,58,0.48,11.45,M,15.25,M,1,3335*7A
$GNRMC,035700.400,A,2500.8051700,N,12132.4266300,E,0.05,332.99,270623,,,D,V*05
$GPHDT,93.279,T*03
$GNGGA,035700.600,2500.8051700,N,12132.4266300,E,2,58,0.48,11.45,M,15.25,M,0,3335*79
$GNRMC,035700.600,A,2500.8051700,N,12132.4266300,E,0.10,332.99,270623,,,D,V*03
$GPHDT,93.416,T*0C
