$FW : RTK35X,V1.1X0314AS,Lib20210517,1*54
$Tool : LOCOSYS , GNSS Firebird , v1.0.0.19*39
$---------------------------------------------------*2D
6,67,45,055,37,82,37,044,34,83,35,346,18,1*78
$GLGSV,2,2,07,73,22,284,13,80,21,226,18,66,02,025,,1*46
$GAGSV,2,1,08,10,49,339,41,24,49,238,15,12,47,019,36,11,36,304,20,7*73
$GAGSV,2,2,08,19,32,082,30,04,31,152,35,25,27,304,21,33,13,067,26,7*7C
$GAGSV,2,1,08,10,49,339,43,24,49,238,16,12,47,019,43,11,36,304,22,1*74
$GAGSV,2,2,08,19,32,082,33,04,31,152,36,25,27,304,22,33,13,067,18,1*74
$GBGSV,4,1,15,40,82,147,42,07,79,238,27,10,72,284,39,33,67,143,42,1*79
$GBGSV,4,2,15,14,60,074,35,08,58,274,25,43,53,061,39,13,49,261,21,1*74
$GBGSV,4,3,15,28,40,327,25,42,38,050,42,11,31,085,38,41,26,197,,1*7E
$GBGSV,4,4,15,23,16,218,,34,16,100,34,37,15,269,,1*44
$GBGSV,2,1,06,40,82,147,45,33,67,143,47,43,53,061,36,28,40,327,30,4*77
$GBGSV,2,2,06,42,38,050,39,34,16,100,26,4*72
$GNGGA,035520.000,2500.8051800,N,12132.4266800,E,2,60,0.47,11.78,M,15.25,M,7,3335*76
$GNRMC,035520.000,A,2500.8051800,N,12132.4266800,E,0.04,332.99,270623,,,D,V*04
$GPHDT,,T*1B
$GNGGA,035520.200,2500.8051800,N,12132.4266800,E,2,60,0.47,11.78,M,15.25,M,7,3335*74
$GNRMC,035520.200,A,2500.8051800,N,12132.4266800,E,0.15,332.99,270623,,,D,V*06
$GPHDT,,T*1B
$GNGGA,035520.400,2500.8051800,N,12132.4266800,E,2,60,0.47,11.78,M,15.25,M,7,3335*72
$GNRMC,035520.400,A,2500.8051800,N,12132.4266800,E,0.04,332.99,270623,,,D,V*00
$GPHDT,,T*1B
$GNGGA,035520.600,2500.8051800,N,12132.4266800,E,2,60,0.47,11.78,M,15.25,M,7,3335*70
$GNRMC,035520.600,A,2500.8051800,N,12132.4266800,E,0.09,332.99,270623,,,D,V*0F
$GPHDT,,T*1B
$GNGGA,035520.800,2500.8051800,N,12132.4266800,E,2,60,0.47,11.78,M,15.25,M,7,3335*7E
$GNRMC,035520.800,A,2500.8051800,N,12132.4266800,E,0.05,332.99,270623,,,D,V*0D
$GPHDT,,T*1B
$GNGSA,A,3,195,19,196,17,199,06,09,20,11,14,04,12,0.88,0.47,0.75,1*33
$GNGSA,A,3,194,,,,,,,,,,,,0.88,0.47,0.75,1*3C
$GNGSA,A,3,68,67,82,83,80,,,,,,,,0.88,0.47,0.75,2*05
$GNGSA,A,3,24,10,12,11,19,04,25,33,,,,,0.88,0.47,0.75,3*0D
$GNGSA,A,3,40,07,10,33,14,08,43,13,28,42,11,34,0.88,0.47,0.75,4*04
$GPGSV,4,1,16,195,68,044,39,19,68,030,43,196,65,125,40,17,63,086,44,1*6F
$GPGSV,4,2,16,199,60,167,33,50,60,167,35,06,50,346,44,194,39,172,16,1*60
$GPGSV,4,3,16,09,34,101,45,20,32,234,21,11,29,289,33,14,22,175,19,1*68
$GPGSV,4,4,16,04,21,068,38,12,16,315,20,03,06,039,15,05,06,223,,1*6B
$GPGSV,3,1,10,195,68,044,42,196,65,125,46,199,60,167,45,06,50,346,43,8*51
$GPGSV,3,2,10,194,39,172,21,09,34,101,43,11,29,289,24,14,22,175,20,8*5F
$GPGSV,3,3,10,04,21,068,37,03,06,039,22,8*6E
$GLGSV,2,1,07,68,54,143,35,67,45,055,37,82,37,044,33,83,35,346,18,1*7C
$GLGSV,2,2,07,73,22,284,13,80,21,226,16,66,02,025,,1*48
$GAGSV,3,1,09,24,49,238,15,10,49,339,41,12,47,019,36,11,36,304,20,7*73
$GAGSV,3,2,09,19,32,082,31,04,31,152,35,25,27,304,23,33,13,067,27,7*7E
$GAGSV,3,3,09,09,01,192,,7*48
$GAGSV,2,1,08,10,49,339,43,24,49,238,16,12,47,019,43,11,36,304,19,1*7C
$GAGSV,2,2,08,19,32,082,33,04,31,152,36,25,27,304,22,33,13,067,18,1*74
$GBGSV,4,1,15,40,82,147,42,07,79,238,27,10,72,284,39,33,67,143,42,1*79
$GBGSV,4,2,15,14,60,074,34,08,58,274,23,43,53,061,38,13,49,261,21,1*72
$GBGSV,4,3,15,28,40,328,25,42,38,050,42,11,31,085,38,41,26,197,,1*71
$GBGSV,4,4,15,34,16,100,34,23,16,218,,37,15,269,,1*44
$GBGSV,2,1,06,40,82,147,45,33,67,143,47,43,53,061,36,28,40,328,29,4*70
$GBGSV,2,2,06,42,38,050,39,34,16,100,25,4*71
$GNGGA,035521.000,2500.8051800,N,12132.4266800,E,2,60,0.47,11.78,M,15.25,M,8,3335*78
$GNRMC,035521.000,A,2500.8051800,N,12132.4266800,E,0.02,332.99,270623,,,D,V*03
$GPHDT,,T*1B
$GNGGA,035521.200,2500.8051800,N,12132.4266800,E,2,60,0.47,11.78,M,15.25,M,8,3335*7A
$GNRMC,035521.200,A,2500.8051800,N,12132.4266800,E,0.05,332.99,270623,,,D,V*06
$GPHDT,,T*1B
$GNGGA,035521.400,2500.8051800,N,12132.4266800,E,2,60,0.47,11.78,M,15.25,M,8,3335*7C
$GNRMC,035521.400,A,2500.8051800,N,12132.4266800,E,0.02,332.99,270623,,,D,V*07
$GPHDT,,T*1B
$GNGGA,035521.600,2500.8051800,N,12132.4266800,E,2,60,0.47,11.78,M,15.25,M,8,3335*7E
$GNRMC,035521.600,A,2500.8051800,N,12132.4266800,E,0.06,332.99,270623,,,D,V*01
$GPHDT,,T*1B
$GNGGA,035521.800,2500.8051800,N,12132.4266800,E,2,60,0.47,11.78,M,15.25,M,8,3335*70
$GNRMC,035521.800,A,2500.8051800,N,12132.4266800,E,0.06,332.99,270623,,,D,V*0F
$GPHDT,,T*1B
$GNGSA,A,3,195,19,196,17,199,06,09,20,11,14,04,12,0.88,0.47,0.75,1*33
$GNGSA,A,3,194,,,,,,,,,,,,0.88,0.47,0.75,1*3C
$GNGSA,A,3,68,67,82,83,80,,,,,,,,0.88,0.47,0.75,2*05
$GNGSA,A,3,24,10,12,11,19,04,25,33,,,,,0.88,0.47,0.75,3*0D
$GNGSA,A,3,40,07,10,33,14,08,43,13,28,42,11,34,0.88,0.47,0.75,4*04
$GPGSV,4,1,16,195,68,044,39,19,68,030,43,196,65,125,40,17,63,086,44,1*6F
$GPGSV,4,2,16,199,60,167,33,50,60,167,36,06,50,346,44,194,39,172,16,1*63
$GPGSV,4,3,16,09,34,101,45,20,32,234,22,11,29,289,33,14,22,175,19,1*6B
$GPGSV,4,4,16,04,21,068,38,12,16,315,20,03,06,039,15,05,06,223,,1*6B
$GPGSV,3,1,10,195,68,044,42,196,65,125,46,199,60,167,45,06,50,346,43,8*51
$GPGSV,3,2,10,194,39,172,20,09,34,101,44,11,29,289,24,14,22,175,20,8*59
$GPGSV,3,3,10,04,21,068,37,03,06,039,22,8*6E
$GLGSV,2,1,07,68,54,143,35,67,45,055,37,82,37,044,33,83,35,346,18,1*7C
$GLGSV,2,2,07,73,22,284,16,80,21,226,16,66,02,025,,1*4D
$GAGSV,3,1,09,24,49,238,16,10,49,339,41,12,47,019,37,11,36,304,19,7*7B
$GAGSV,3,2,09,19,32,082,32,04,31,152,35,25,27,304,23,33,13,067,26,7*7C
$GAGSV,3,3,09,09,01,192,,7*48
$GAGSV,2,1,08,10,49,339,43,24,49,238,16,12,47,019,43,11,36,304,18,1*7D
$GAGSV,2,2,08,19,32,082,33,04,31,152,36,25,27,304,21,33,13,067,18,1*77
$GBGSV,4,1,15,40,82,147,42,07,79,238,26,10,72,284,39,33,67,143,42,1*78
$GBGSV,4,2,15,14,60,074,34,08,58,274,23,43,53,061,38,13,49,261,19,1*79
$GBGSV,4,3,15,28,40,328,23,42,38,050,42,11,31,085,39,41,26,197,,1*76
$GBGSV,4,4,15,23,16,218,,34,15,101,34,37,15,269,,1*46
$GBGSV,2,1,06,40,82,147,45,33,67,143,47,43,53,061,36,28,40,328,29,4*70
$GBGSV,2,2,06,42,38,050,39,34,15,101,25,4*73
$GNGGA,035522.000,2500.8051800,N,12132.4266800,E,2,60,0.47,11.78,M,15.25,M,9,3335*7A
$GNRMC,035522.000,A,2500.8051800,N,12132.4266800,E,0.04,332.99,270623,,,D,V*06
$GPHDT,,T*1B
$GNGGA,035522.200,2500.8051800,N,12132.4266800,E,2,60,0.47,11.78,M,15.25,M,9,3335*78
$GNRMC,035522.200,A,2500.8051800,N,12132.4266800,E,0.04,332.99,270623,,,D,V*04
$GPHDT,,T*1B
$GNGGA,035522.400,2500.8051800,N,12132.4266800,E,2,60,0.47,11.78,M,15.25,M,9,3335*7E
$GNRMC,035522.400,A,2500.8051800,N,12132.4266800,E,0.02,332.99,270623,,,D,V*04
$GPHDT,,T*1B
$GNGGA,035522.600,2500.8051800,N,12132.4266800,E,2,60,0.47,11.78,M,15.25,M,9,3335*7C
$GNRMC,035522.600,A,2500.8051800,N,12132.4266800,E,0.03,332.99,270623,,,D,V*07
$GPHDT,,T*1B
$GNGGA,035522.800,2500.8051800,N,12132.4266800,E,2,60,0.47,11.78,M,15.25,M,9,3335*72
$GNRMC,035522.800,A,2500.8051800,N,12132.4266800,E,0.07,332.99,270623,,,D,V*0D
$GPHDT,,T*1B
$GNGSA,A,3,195,19,196,17,199,06,09,20,11,14,04,12,0.88,0.47,0.75,1*33
$GNGSA,A,3,194,,,,,,,,,,,,0.88,0.47,0.75,1*3C
$GNGSA,A,3,68,67,82,83,80,,,,,,,,0.88,0.47,0.75,2*05
$GNGSA,A,3,24,10,12,11,19,04,25,33,,,,,0.88,0.47,0.75,3*0D
$GNGSA,A,3,40,07,10,33,14,08,43,13,28,42,11,34,0.88,0.47,0.75,4*04
$GPGSV,4,1,16,195,68,044,39,19,68,030,43,196,65,125,40,17,63,086,44,1*6F
$GPGSV,4,2,16,199,60,167,33,50,60,167,36,06,50,346,44,194,39,172,14,1*61
$GPGSV,4,3,16,09,34,101,45,20,32,234,22,11,29,289,34,14,22,175,19,1*6C
$GPGSV,4,4,16,04,21,068,38,12,16,315,20,03,06,039,14,05,06,223,,1*6A
$GPGSV,3,1,10,195,68,044,42,196,65,125,46,199,60,167,45,06,50,346,44,8*56
$GPGSV,3,2,10,194,39,172,19,09,34,101,44,11,29,289,24,14,22,175,20,8*53
$GPGSV,3,3,10,04,21,068,38,03,06,039,23,8*60
$GLGSV,2,1,07,68,54,143,35,67,45,055,38,82,37,044,32,83,35,346,18,1*72
$GLGSV,2,2,07,73,22,284,17,80,21,226,16,66,02,025,,1*4C
$GAGSV,3,1,09,24,49,238,17,10,49,339,41,12,47,019,37,11,36,304,19,7*7A
$GAGSV,3,2,09,19,32,082,32,04,31,152,34,25,27,304,23,33,13,067,27,7*7C
$GAGSV,3,3,09,09,01,192,,7*48
$GAGSV,2,1,08,10,49,339,43,24,49,238,16,12,47,019,43,11,36,304,18,1*7D
$GAGSV,2,2,08,19,32,082,34,04,31,152,36,25,27,304,22,33,13,067,18,1*73
$GBGSV,4,1,15,40,82,148,42,07,79,238,26,10,72,284,39,33,67,143,43,1*76
$GBGSV,4,2,15,14,60,074,34,08,58,274,21,43,53,061,38,13,49,261,21,1*70
$GBGSV,4,3,15,28,40,328,24,42,38,050,42,11,31,085,39,41,26,197,,1*71
$GBGSV,4,4,15,23,16,218,,34,15,101,33,37,15,269,,1*41
$GBGSV,2,1,06,40,82,148,45,33,67,143,48,43,53,061,36,28,40,328,29,4*70
$GBGSV,2,2,06,42,38,050,39,34,15,101,26,4*70
$GNGGA,035523.000,2500.8051800,N,12132.4266800,E,2,60,0.47,11.78,M,15.25,M,10,3335*43
$GNRMC,035523.000,A,2500.8051800,N,12132.4266800,E,0.06,332.99,270623,,,D,V*05
$GPHDT,,T*1B
$GNGGA,035523.200,2500.8051800,N,12132.4266800,E,2,60,0.47,11.78,M,15.25,M,10,3335*41
$GNRMC,035523.200,A,2500.8051800,N,12132.4266800,E,0.02,332.99,270623,,,D,V*03
$GPHDT,,T*1B
$GNGGA,035523.400,2500.8051800,N,12132.4266800,E,2,60,0.47,11.78,M,15.25,M,10,3335*47
$GNRMC,035523.400,A,2500.8051800,N,12132.4266800,E,0.04,332.99,270623,,,D,V*03
$GPHDT,,T*1B
$GNGGA,035523.600,2500.8051800,N,12132.4266800,E,2,60,0.47,11.78,M,15.25,M,10,3335*45
$GNRMC,035523.600,A,2500.8051800,N,12132.4266800,E,0.02,332.99,270623,,,D,V*07
$GPHDT,,T*1B
$GNGGA,035523.800,2500.8051800,N,12132.4266800,E,2,60,0.47,11.78,M,15.25,M,10,3335*4B
$GNRMC,035523.800,A,2500.8051800,N,12132.4266800,E,0.05,332.99,270623,,,D,V*0E
$GPHDT,,T*1B
$GNGSA,A,3,195,19,196,17,199,06,09,20,11,14,04,12,0.88,0.47,0.75,1*33
$GNGSA,A,3,194,,,,,,,,,,,,0.88,0.47,0.75,1*3C
$GNGSA,A,3,68,67,82,83,80,,,,,,,,0.88,0.47,0.75,2*05
$GNGSA,A,3,24,10,12,11,19,04,25,33,,,,,0.88,0.47,0.75,3*0D
$GNGSA,A,3,40,07,10,33,14,08,43,13,28,42,11,34,0.88,0.47,0.75,4*04
$GPGSV,4,1,16,195,68,044,39,19,68,030,43,196,65,125,40,17,63,086,44,1*6F
$GPGSV,4,2,16,199,60,167,33,50,60,167,36,06,50,346,44,194,39,172,15,1*60
$GPGSV,4,3,16,09,34,101,45,20,32,234,21,11,29,289,34,14,22,175,19,1*6F
$GPGSV,4,4,16,04,21,068,38,12,16,315,20,03,06,039,13,05,06,223,,1*6D
$GPGSV,3,1,10,195,68,044,42,196,65,125,46,199,60,167,45,06,50,346,44,8*56
$GPGSV,3,2,10,194,39,172,19,09,34,101,44,11,29,289,23,14,22,175,20,8*54
$GPGSV,3,3,10,04,21,068,38,03,06,039,23,8*60
$GLGSV,2,1,07,68,54,143,34,67,45,055,38,82,37,044,33,83,35,346,18,1*72
$GLGSV,2,2,07,73,22,284,17,80,21,226,16,66,02,025,,1*4C
$GAGSV,3,1,09,24,49,238,17,10,49,339,42,12,47,019,37,11,36,304,19,7*79
$GAGSV,3,2,09,19,32,082,32,04,31,152,34,25,27,304,23,33,13,067,27,7*7C
$GAGSV,3,3,09,09,01,192,,7*48
$GAGSV,2,1,08,10,49,339,43,24,49,238,14,12,47,019,43,11,36,304,18,1*7F
$GAGSV,2,2,08,19,32,082,34,04,31,152,36,25,27,304,22,33,13,067,18,1*73
$GBGSV,4,1,15,40,82,148,42,07,79,238,25,10,72,284,39,33,67,143,43,1*75
$GBGSV,4,2,15,14,60,074,35,08,58,274,21,43,52,062,38,13,49,261,21,1*73
$GBGSV,4,3,15,28,40,328,27,42,37,050,42,11,31,085,40,41,26,197,,1*73
$GBGSV,4,4,15,23,16,218,,34,15,101,32,37,15,269,,1*40
$GBGSV,2,1,06,40,82,148,45,33,67,143,48,43,52,062,36,28,40,328,30,4*7A
$GBGSV,2,2,06,42,37,050,39,34,15,101,27,4*7E
$GNGGA,035524.000,2500.8051800,N,12132.4266800,E,2,60,0.47,11.78,M,15.25,M,11,3335*45
$GNRMC,035524.000,A,2500.8051800,N,12132.4266800,E,0.01,332.99,270623,,,D,V*05
$GPHDT,,T*1B
$GNGGA,035524.200,2500.8051800,N,12132.4266800,E,2,61,0.46,11.78,M,15.25,M,11,3335*47
$GNRMC,035524.200,A,2500.8051800,N,12132.4266800,E,0.06,332.99,270623,,,D,V*00
$GPHDT,,T*1B
$GNGGA,035524.400,2500.8051800,N,12132.4266800,E,2,61,0.46,11.78,M,15.25,M,11,3335*41
$GNRMC,035524.400,A,2500.8051800,N,12132.4266800,E,0.08,332.99,270623,,,D,V*08
$GPHDT,,T*1B
$GNGGA,035524.600,2500.8051800,N,12132.4266800,E,2,61,0.46,11.78,M,15.25,M,11,3335*43
$GNRMC,035524.600,A,2500.8051800,N,12132.4266800,E,0.03,332.99,270623,,,D,V*01
$GPHDT,,T*1B
$GNGGA,035524.800,2500.8051800,N,12132.4266800,E,2,61,0.46,11.78,M,15.25,M,11,3335*4D
$GNRMC,035524.800,A,2500.8051800,N,12132.4266800,E,0.05,332.99,270623,,,D,V*09
$GPHDT,,T*1B
$GNGSA,A,3,195,19,196,17,199,06,09,20,11,14,04,12,0.86,0.46,0.73,1*3A
$GNGSA,A,3,194,,,,,,,,,,,,0.86,0.46,0.73,1*35
$GNGSA,A,3,68,67,82,83,73,80,,,,,,,0.86,0.46,0.73,2*08
$GNGSA,A,3,24,10,12,11,19,04,25,33,,,,,0.86,0.46,0.73,3*04
$GNGSA,A,3,40,07,10,33,14,08,43,13,28,42,11,34,0.86,0.46,0.73,4*0D
$GPGSV,4,1,16,195,68,044,39,19,68,030,43,196,65,125,40,17,63,086,44,1*6F
$GPGSV,4,2,16,199,60,167,33,50,60,167,36,06,50,346,44,194,39,172,14,1*61
$GPGSV,4,3,16,09,34,101,45,20,32,234,21,11,29,289,34,14,22,175,20,1*65
$GPGSV,4,4,16,04,21,068,38,12,16,315,19,03,06,039,14,05,06,223,,1*60
$GPGSV,3,1,10,195,68,044,42,196,65,125,46,199,60,167,45,06,50,346,44,8*56
$GPGSV,3,2,10,194,39,172,20,09,34,101,44,11,29,289,23,14,22,175,21,8*5F
$GPGSV,3,3,10,04,21,068,38,03,06,039,23,8*60
$GLGSV,2,1,07,68,54,143,34,67,45,055,38,82,37,044,33,83,35,346,18,1*72
$GLGSV,2,2,07,73,22,284,18,80,21,226,15,66,02,025,,1*40
$GAGSV,3,1,09,24,49,238,19,10,49,339,42,12,47,019,37,11,36,304,19,7*77
$GAGSV,3,2,09,19,32,082,32,04,31,152,34,25,27,304,22,33,13,067,27,7*7D
$GAGSV,3,3,09,09,01,192,,7*48
$GAGSV,2,1,08,10,49,339,43,24,49,238,14,12,47,019,43,11,36,304,18,1*7F
$GAGSV,2,2,08,19,32,082,34,04,31,152,36,25,27,304,23,33,13,067,18,1*72
$GBGSV,4,1,15,40,82,148,42,07,79,238,24,10,72,284,39,33,67,143,43,1*74
$GBGSV,4,2,15,14,60,074,35,08,58,274,20,43,52,062,38,13,49,261,19,1*79
$GBGSV,4,3,15,28,40,328,28,42,37,050,42,11,31,085,40,41,26,197,,1*7C
$GBGSV,4,4,15,23,16,218,,34,15,101,32,37,15,269,,1*40
$GBGSV,2,1,06,40,82,148,45,33,67,143,48,43,52,062,36,28,40,328,30,4*7A
$GBGSV,2,2,06,42,37,050,39,34,15,101,27,4*7E
$GNGGA,035525.000,2500.8051800,N,12132.4266800,E,2,61,0.46,11.78,M,15.25,M,12,3335*47
$GNRMC,035525.000,A,2500.8051800,N,12132.4266800,E,0.07,332.99,270623,,,D,V*02
$GPHDT,,T*1B
$GNGGA,035525.200,2500.8051800,N,12132.4266800,E,2,61,0.46,11.78,M,15.25,M,12,3335*45
$GNRMC,035525.200,A,2500.8051800,N,12132.4266800,E,0.04,332.99,270623,,,D,V*03
$GPHDT,,T*1B
$GNGGA,035525.400,2500.8051800,N,12132.4266800,E,2,61,0.46,11.78,M,15.25,M,12,3335*43
$GNRMC,035525.400,A,2500.8051800,N,12132.4266800,E,0.02,332.99,270623,,,D,V*03
$GPHDT,,T*1B
$GNGGA,035525.600,2500.8051800,N,12132.4266800,E,2,61,0.46,11.78,M,15.25,M,12,3335*41
$GNRMC,035525.600,A,2500.8051800,N,12132.4266800,E,0.01,332.99,270623,,,D,V*02
$GPHDT,,T*1B
$GNGGA,035525.800,2500.8051800,N,12132.4266800,E,2,61,0.46,11.78,M,15.25,M,12,3335*4F
$GNRMC,035525.800,A,2500.8051800,N,12132.4266800,E,0.06,332.99,270623,,,D,V*0B
$GPHDT,,T*1B
