$FW : RTK35X,V1.1X0314AS,Lib20210517,1*54
$Tool : LOCOSYS , GNSS Firebird , v1.0.0.19*39
$---------------------------------------------------*2D
$GPHDT,137.232,T*33
$GNGGA,035640.600,2500.8052300,N,12132.4267000,E,2,54,0.51,11.72,M,15.25,M,12,3335*4A
$GNRMC,035640.600,A,2500.8052300,N,12132.4267000,E,0.04,332.99,270623,,,D,V*06
$GPHDT,137.293,T*38
$GNGGA,035640.800,2500.8052300,N,12132.4267000,E,2,54,0.51,11.72,M,15.25,M,12,3335*44
$GNRMC,035640.800,A,2500.8052300,N,12132.4267000,E,0.16,332.99,270623,,,D,V*0B
$GPHDT,137.188,T*31
$GNGSA,A,3,19,195,196,17,199,06,09,11,04,194,,,0.81,0.51,0.62,1*03
$GNGSA,A,3,68,67,82,83,73,80,,,,,,,0.81,0.51,0.62,2*09
$GNGSA,A,3,10,24,12,11,19,04,25,33,,,,,0.81,0.51,0.62,3*05
$GNGSA,A,3,40,07,10,33,14,08,43,28,42,11,34,,0.81,0.51,0.62,4*0E
$GPGSV,4,1,15,19,69,032,42,195,68,045,41,196,65,125,42,17,63,087,43,1*64
$GPGSV,4,2,15,199,60,167,35,50,60,167,38,06,50,347,44,194,39,172,18,1*67
$GPGSV,4,3,15,09,35,100,44,20,32,234,18,11,29,290,28,04,21,068,38,1*6E
$GPGSV,4,4,15,14,21,175,15,12,16,315,19,03,05,039,15,1*52
$GPGSV,3,1,09,195,68,045,45,196,65,125,47,199,60,167,43,06,50,347,46,8*5C
$GPGSV,3,2,09,194,39,172,21,09,35,100,45,11,29,290,26,04,21,068,39,8*5C
$GPGSV,3,3,09,03,05,039,22,8*58
$GLGSV,3,1,09,68,55,143,38,67,44,054,44,82,37,044,41,83,35,347,23,1*77
$GLGSV,3,2,09,73,22,284,18,80,20,226,19,69,15,184,,74,05,324,,1*72
$GLGSV,3,3,09,66,02,025,,1*44
$GAGSV,3,1,09,10,49,340,44,24,49,237,17,12,47,020,38,11,36,304,27,7*76
$GAGSV,3,2,09,19,32,081,35,04,31,151,30,25,27,304,26,33,13,067,26,7*7B
$GAGSV,3,3,09,09,02,192,,7*4B
$GAGSV,2,1,07,10,49,340,42,12,47,020,41,11,36,304,14,19,32,081,34,1*7B
$GAGSV,2,2,07,04,31,151,38,25,27,304,29,33,13,067,21,1*44
$GBGSV,4,1,15,40,82,150,42,07,79,237,31,10,72,283,36,33,68,142,45,1*76
$GBGSV,4,2,15,14,60,073,45,08,58,275,29,43,52,062,42,28,40,328,29,1*72
$GBGSV,4,3,15,42,37,049,45,11,31,085,42,41,26,198,,23,16,218,,1*7E
$GBGSV,4,4,15,34,15,101,34,37,15,269,,39,03,177,,1*43
$GBGSV,2,1,05,40,82,150,46,33,68,142,47,43,52,062,43,42,37,049,44,4*7B
$GBGSV,2,2,05,34,15,101,27,4*40
$GNGGA,035641.000,2500.8052300,N,12132.4267100,E,2,54,0.51,11.73,M,15.25,M,13,3335*4C
$GNRMC,035641.000,A,2500.8052300,N,12132.4267100,E,0.11,332.99,270623,,,D,V*04
$GPHDT,136.377,T*32
$GNGGA,035641.200,2500.8052400,N,12132.4267100,E,2,54,0.51,11.73,M,15.25,M,13,3335*49
$GNRMC,035641.200,A,2500.8052400,N,12132.4267100,E,0.10,332.99,270623,,,D,V*00
$GPHDT,136.132,T*31
$GNGGA,035641.400,2500.8052400,N,12132.4267100,E,2,55,0.50,11.73,M,15.25,M,13,3335*4F
$GNRMC,035641.400,A,2500.8052400,N,12132.4267100,E,0.09,332.99,270623,,,D,V*0E
$GPHDT,136.685,T*3A
$GNGGA,035641.600,2500.8052400,N,12132.4267100,E,2,55,0.50,11.74,M,15.25,M,13,3335*4A
$GNRMC,035641.600,A,2500.8052400,N,12132.4267100,E,0.08,332.99,270623,,,D,V*0D
$GPHDT,136.611,T*37
$GNGGA,035641.800,2500.8052400,N,12132.4267200,E,2,55,0.50,11.74,M,15.25,M,13,3335*47
$GNRMC,035641.800,A,2500.8052400,N,12132.4267200,E,0.04,332.99,270623,,,D,V*0C
$GPHDT,136.702,T*34
$GNGSA,A,3,19,195,196,17,199,06,09,11,04,12,,,0.80,0.52,0.61,1*3D
$GNGSA,A,3,68,67,82,83,73,80,,,,,,,0.80,0.52,0.61,2*08
$GNGSA,A,3,24,10,12,11,19,04,25,33,,,,,0.80,0.52,0.61,3*04
$GNGSA,A,3,40,07,10,33,14,08,43,28,42,11,34,,0.80,0.52,0.61,4*0F
$GPGSV,4,1,15,19,69,032,42,195,68,045,41,196,65,125,42,17,63,087,43,1*64
$GPGSV,4,2,15,199,60,167,36,50,60,167,38,06,50,347,44,194,39,172,18,1*64
$GPGSV,4,3,15,09,35,100,44,20,32,234,18,11,29,290,27,04,21,068,38,1*61
$GPGSV,4,4,15,14,21,175,16,12,16,315,20,03,05,039,13,1*5D
$GPGSV,2,1,08,195,68,045,45,196,65,125,47,199,60,167,43,06,50,347,47,8*5D
$GPGSV,2,2,08,09,35,100,45,11,29,290,25,04,21,068,40,03,05,039,22,8*6C
$GLGSV,2,1,08,68,55,143,38,67,44,054,44,82,37,044,41,83,35,347,23,1*77
$GLGSV,2,2,08,73,22,284,16,80,20,226,21,74,05,324,,66,02,025,,1*74
$GAGSV,3,1,09,24,49,237,18,10,49,340,44,12,47,020,38,11,36,304,28,7*76
$GAGSV,3,2,09,19,32,081,35,04,31,151,30,25,27,304,27,33,13,067,26,7*7A
$GAGSV,3,3,09,09,02,192,,7*4B
$GAGSV,2,1,07,10,49,340,42,12,47,020,42,11,36,304,13,19,32,081,35,1*7E
$GAGSV,2,2,07,04,31,151,38,25,27,304,30,33,13,067,19,1*47
$GBGSV,4,1,14,40,82,150,42,07,79,237,31,10,72,283,36,33,68,142,45,1*77
$GBGSV,4,2,14,14,60,073,45,08,58,275,29,43,52,062,41,28,40,328,29,1*70
$GBGSV,4,3,14,42,37,049,45,11,31,085,42,41,26,198,,23,16,218,,1*7F
$GBGSV,4,4,14,34,15,101,35,37,15,269,,1*7B
$GBGSV,2,1,05,40,82,150,46,33,68,142,47,43,52,062,43,42,37,049,44,4*7B
$GBGSV,2,2,05,34,15,101,27,4*40
$GNGGA,035642.000,2500.8052400,N,12132.4267200,E,2,54,0.52,11.74,M,15.25,M,14,3335*48
$GNRMC,035642.000,A,2500.8052400,N,12132.4267200,E,0.03,332.99,270623,,,D,V*00
$GPHDT,136.313,T*30
$GNGGA,035642.200,2500.8052400,N,12132.4267200,E,2,54,0.50,11.74,M,15.25,M,14,3335*48
$GNRMC,035642.200,A,2500.8052400,N,12132.4267200,E,0.02,332.99,270623,,,D,V*03
$GPHDT,136.462,T*31
$GNGGA,035642.400,2500.8052400,N,12132.4267200,E,2,54,0.50,11.74,M,15.25,M,14,3335*4E
$GNRMC,035642.400,A,2500.8052400,N,12132.4267200,E,0.02,332.99,270623,,,D,V*05
$GPHDT,136.603,T*34
$GNGGA,035642.600,2500.8052400,N,12132.4267200,E,2,54,0.50,11.74,M,15.25,M,14,3335*4C
$GNRMC,035642.600,A,2500.8052400,N,12132.4267200,E,0.03,332.99,270623,,,D,V*06
$GPHDT,136.718,T*3F
$GNGGA,035642.800,2500.8052400,N,12132.4267200,E,2,53,0.51,11.74,M,15.25,M,14,3335*44
$GNRMC,035642.800,A,2500.8052400,N,12132.4267200,E,0.02,332.99,270623,,,D,V*09
$GPHDT,136.308,T*3A
$GNGSA,A,3,19,195,196,17,199,06,09,11,04,12,,,0.80,0.52,0.61,1*3D
$GNGSA,A,3,68,67,82,83,73,80,,,,,,,0.80,0.52,0.61,2*08
$GNGSA,A,3,24,10,12,11,19,04,25,33,,,,,0.80,0.52,0.61,3*04
$GNGSA,A,3,40,07,10,33,14,08,43,28,42,11,34,,0.80,0.52,0.61,4*0F
$GPGSV,4,1,15,19,69,032,42,195,68,045,41,196,65,125,42,17,63,087,43,1*64
$GPGSV,4,2,15,199,60,167,36,50,60,167,38,06,50,347,44,194,39,172,18,1*64
$GPGSV,4,3,15,09,35,100,44,20,32,234,16,11,29,290,27,04,21,068,38,1*6F
$GPGSV,4,4,15,14,21,175,17,12,16,315,20,03,05,039,13,1*5C
$GPGSV,2,1,08,195,68,045,45,196,65,125,47,199,60,167,43,06,50,347,47,8*5D
$GPGSV,2,2,08,09,35,100,45,11,29,290,23,04,21,068,40,03,05,039,22,8*6A
$GLGSV,2,1,07,68,55,143,37,67,44,054,44,82,37,044,41,83,35,347,23,1*77
$GLGSV,2,2,07,73,22,284,16,80,20,226,22,66,02,025,,1*4B
$GAGSV,3,1,09,24,49,237,18,10,49,340,44,12,47,020,38,11,36,305,28,7*77
$GAGSV,3,2,09,19,32,081,35,04,31,151,29,25,27,304,28,33,13,067,26,7*7D
$GAGSV,3,3,09,09,02,192,,7*4B
$GAGSV,2,1,06,10,49,340,42,12,47,020,42,19,32,081,35,04,31,151,38,1*77
$GAGSV,2,2,06,25,27,304,30,33,13,067,21,1*75
$GBGSV,4,1,14,40,82,150,42,07,79,237,32,10,72,283,37,33,68,142,45,1*75
$GBGSV,4,2,14,14,60,073,45,08,58,275,29,43,52,062,41,28,40,328,32,1*7A
$GBGSV,4,3,14,42,37,049,45,11,31,085,42,41,26,198,,23,16,218,,1*7F
$GBGSV,4,4,14,34,15,101,35,37,15,269,,1*7B
$GBGSV,2,1,05,40,82,150,46,33,68,142,47,43,52,062,43,42,37,049,44,4*7B
$GBGSV,2,2,05,34,15,101,27,4*40
$GNGGA,035643.000,2500.8052400,N,12132.4267200,E,2,53,0.52,11.74,M,15.25,M,15,3335*4F
$GNRMC,035643.000,A,2500.8052400,N,12132.4267200,E,0.02,332.99,270623,,,D,V*00
$GPHDT,136.203,T*30
$GNGGA,035643.200,2500.8052400,N,12132.4267200,E,2,54,0.52,11.74,M,15.25,M,15,3335*4A
$GNRMC,035643.200,A,2500.8052400,N,12132.4267200,E,0.03,332.99,270623,,,D,V*03
$GPHDT,136.119,T*38
$GNGGA,035643.400,2500.8052500,N,12132.4267200,E,2,54,0.52,11.74,M,15.25,M,15,3335*4D
$GNRMC,035643.400,A,2500.8052500,N,12132.4267200,E,0.03,332.99,270623,,,D,V*04
$GPHDT,136.094,T*3C
$GNGGA,035643.600,2500.8052500,N,12132.4267200,E,2,54,0.52,11.74,M,15.25,M,15,3335*4F
$GNRMC,035643.600,A,2500.8052500,N,12132.4267200,E,0.03,332.99,270623,,,D,V*06
$GPHDT,136.343,T*35
$GNGGA,035643.800,2500.8052500,N,12132.4267200,E,2,55,0.49,11.74,M,15.25,M,15,3335*4A
$GNRMC,035643.800,A,2500.8052500,N,12132.4267200,E,0.02,332.99,270623,,,D,V*09
$GPHDT,135.657,T*36
$GNGSA,A,3,19,195,196,17,199,06,09,11,04,12,194,,0.80,0.51,0.62,1*01
$GNGSA,A,3,68,67,82,83,80,,,,,,,,0.80,0.51,0.62,2*0C
$GNGSA,A,3,24,10,12,11,19,04,25,33,,,,,0.80,0.51,0.62,3*04
$GNGSA,A,3,40,07,10,33,14,08,43,28,42,11,34,,0.80,0.51,0.62,4*0F
$GPGSV,4,1,15,19,69,032,42,195,68,045,41,196,65,125,42,17,63,087,43,1*64
$GPGSV,4,2,15,199,60,167,36,50,60,167,38,06,50,347,44,194,39,172,16,1*6A
$GPGSV,4,3,15,09,35,100,44,20,32,234,18,11,29,290,27,04,21,068,37,1*6E
$GPGSV,4,4,15,14,21,175,17,12,16,315,20,03,05,039,14,1*5B
$GPGSV,3,1,09,195,68,045,45,196,65,125,47,199,60,167,43,06,50,347,47,8*5D
$GPGSV,3,2,09,194,39,172,20,09,35,100,45,11,29,290,22,04,21,068,40,8*57
$GPGSV,3,3,09,03,05,039,21,8*5B
$GLGSV,2,1,07,68,55,143,37,67,44,054,44,82,37,044,41,83,35,347,23,1*77
$GLGSV,2,2,07,73,22,284,14,80,20,226,22,66,02,025,,1*49
$GAGSV,3,1,09,24,49,237,18,10,49,340,44,12,47,020,38,11,36,305,28,7*77
$GAGSV,3,2,09,19,32,081,35,04,31,151,29,25,27,304,28,33,13,067,25,7*7E
$GAGSV,3,3,09,09,02,192,,7*4B
$GAGSV,2,1,06,10,49,340,42,12,47,020,42,19,32,081,35,04,31,151,38,1*77
$GAGSV,2,2,06,25,27,304,30,33,13,067,21,1*75
$GBGSV,4,1,14,40,82,150,42,07,79,237,32,10,72,283,37,33,68,142,45,1*75
$GBGSV,4,2,14,14,60,073,45,08,58,275,29,43,52,062,41,28,40,328,33,1*7B
$GBGSV,4,3,14,42,37,049,45,11,31,085,43,41,26,198,,23,16,218,,1*7E
$GBGSV,4,4,14,34,15,101,36,37,15,269,,1*78
$GBGSV,2,1,06,40,82,150,46,33,68,142,47,43,52,062,43,28,40,328,22,4*70
$GBGSV,2,2,06,42,37,049,44,34,15,101,27,4*7C
$GNGGA,035644.000,2500.8052500,N,12132.4267200,E,2,54,0.51,11.74,M,15.25,M,16,3335*4E
$GNRMC,035644.000,A,2500.8052500,N,12132.4267200,E,0.02,332.99,270623,,,D,V*06
$GPHDT,136.255,T*33
$GNGGA,035644.200,2500.8052500,N,12132.4267200,E,2,54,0.51,11.74,M,15.25,M,16,3335*4C
$GNRMC,035644.200,A,2500.8052500,N,12132.4267200,E,0.02,332.99,270623,,,D,V*04
$GPHDT,136.188,T*30
$GNGGA,035644.400,2500.8052500,N,12132.4267200,E,2,54,0.51,11.74,M,15.25,M,16,3335*4A
$GNRMC,035644.400,A,2500.8052500,N,12132.4267200,E,0.02,332.99,270623,,,D,V*02
$GPHDT,136.345,T*33
$GNGGA,035644.600,2500.8052500,N,12132.4267200,E,2,53,0.54,11.74,M,15.25,M,16,3335*4A
$GNRMC,035644.600,A,2500.8052500,N,12132.4267200,E,0.01,332.99,270623,,,D,V*03
$GPHDT,135.967,T*3A
$GNGGA,035644.800,2500.8052500,N,12132.4267200,E,2,54,0.54,11.74,M,15.25,M,16,3335*43
$GNRMC,035644.800,A,2500.8052500,N,12132.4267200,E,0.08,332.99,270623,,,D,V*04
$GPHDT,136.513,T*36
$GNGSA,A,3,19,195,196,17,199,06,09,11,04,12,,,0.82,0.54,0.62,1*3A
$GNGSA,A,3,68,67,82,83,80,,,,,,,,0.82,0.54,0.62,2*0B
$GNGSA,A,3,24,10,12,11,19,04,25,33,,,,,0.82,0.54,0.62,3*03
$GNGSA,A,3,40,07,10,33,14,08,43,28,42,11,34,,0.82,0.54,0.62,4*08
$GPGSV,4,1,15,19,69,032,42,195,68,045,41,196,65,125,42,17,63,087,43,1*64
$GPGSV,4,2,15,199,60,167,36,50,60,167,38,06,50,347,44,194,39,172,16,1*6A
$GPGSV,4,3,15,09,35,100,44,20,32,234,18,11,29,290,27,04,21,068,37,1*6E
$GPGSV,4,4,15,14,21,175,17,12,16,315,20,03,05,039,15,1*5A
$GPGSV,2,1,08,195,68,045,45,196,65,125,47,199,60,167,43,06,50,347,47,8*5D
$GPGSV,2,2,08,09,35,100,45,11,29,290,24,04,21,068,40,03,05,039,20,8*6F
$GLGSV,2,1,07,68,55,143,37,67,44,054,44,82,37,044,41,83,35,347,23,1*77
$GLGSV,2,2,07,73,22,284,12,80,20,226,22,66,02,025,,1*4F
$GAGSV,3,1,09,24,49,237,19,10,49,340,44,12,47,020,38,11,36,305,28,7*76
$GAGSV,3,2,09,19,32,081,35,04,31,151,29,25,27,304,28,33,13,067,25,7*7E
$GAGSV,3,3,09,09,02,192,,7*4B
$GAGSV,2,1,07,10,49,340,42,12,47,020,42,11,36,305,18,19,32,081,35,1*74
$GAGSV,2,2,07,04,31,151,38,25,27,304,30,33,13,067,21,1*4C
$GBGSV,4,1,14,40,82,150,42,07,79,237,32,10,72,283,36,33,68,142,45,1*74
$GBGSV,4,2,14,14,60,073,45,08,58,275,29,43,52,062,41,28,40,328,31,1*79
$GBGSV,4,3,14,42,37,049,45,11,31,085,43,41,26,198,,23,16,218,,1*7E
$GBGSV,4,4,14,34,15,101,36,37,15,269,,1*78
$GBGSV,2,1,06,40,82,150,46,33,68,142,47,43,52,062,43,28,40,328,23,4*71
$GBGSV,2,2,06,42,37,049,44,34,15,101,27,4*7C
$GNGGA,035645.000,2500.8052500,N,12132.4267200,E,2,54,0.54,11.74,M,15.25,M,17,3335*4B
$GNRMC,035645.000,A,2500.8052500,N,12132.4267200,E,0.04,332.99,270623,,,D,V*01
$GPHDT,136.589,T*35
$GNGGA,035645.200,2500.8052500,N,12132.4267200,E,2,55,0.51,11.74,M,15.25,M,17,3335*4D
$GNRMC,035645.200,A,2500.8052500,N,12132.4267200,E,0.01,332.99,270623,,,D,V*06
$GPHDT,136.579,T*3A
$GNGGA,035645.400,2500.8052500,N,12132.4267200,E,2,53,0.55,11.74,M,15.25,M,17,3335*49
$GNRMC,035645.400,A,2500.8052500,N,12132.4267200,E,0.01,332.99,270623,,,D,V*00
$GPHDT,135.944,T*3B
$GNGGA,035645.600,2500.8052500,N,12132.4267200,E,2,53,0.55,11.74,M,15.25,M,17,3335*4B
$GNRMC,035645.600,A,2500.8052500,N,12132.4267200,E,0.01,332.99,270623,,,D,V*02
$GPHDT,135.729,T*3E
$GNGGA,035645.800,2500.8052500,N,12132.4267200,E,2,54,0.53,11.74,M,15.25,M,17,3335*44
$GNRMC,035645.800,A,2500.8052500,N,12132.4267200,E,0.07,332.99,270623,,,D,V*0A
$GPHDT,136.298,T*32
$GNGSA,A,3,19,195,196,17,199,06,09,20,11,04,14,12,0.77,0.49,0.60,1*39
$GNGSA,A,3,68,67,82,83,80,,,,,,,,0.77,0.49,0.60,2*0F
$GNGSA,A,3,24,10,12,11,19,04,25,33,,,,,0.77,0.49,0.60,3*07
$GNGSA,A,3,40,07,10,33,14,08,43,28,42,11,34,,0.77,0.49,0.60,4*0C
$GPGSV,4,1,15,19,69,032,42,195,68,045,41,196,65,125,42,17,63,087,43,1*64
$GPGSV,4,2,15,199,60,167,36,50,60,167,38,06,50,347,44,194,39,172,15,1*69
$GPGSV,4,3,15,09,35,100,44,20,32,234,17,11,29,290,26,04,21,068,36,1*61
$GPGSV,4,4,15,14,21,175,17,12,16,315,22,03,05,039,16,1*5B
$GPGSV,2,1,08,195,68,045,45,196,65,125,47,199,60,167,43,06,50,347,47,8*5D
$GPGSV,2,2,08,09,35,100,45,11,29,290,23,04,21,068,40,03,05,039,20,8*68
$GLGSV,2,1,07,68,55,143,37,67,44,054,44,82,37,044,41,83,35,347,24,1*70
$GLGSV,2,2,07,73,22,284,12,80,20,226,22,66,02,025,,1*4F
$GAGSV,3,1,09,24,49,237,21,10,49,340,44,12,47,020,38,11,36,305,28,7*7D
$GAGSV,3,2,09,19,32,081,35,04,31,151,29,25,27,303,28,33,13,067,25,7*79
$GAGSV,3,3,09,09,02,192,,7*4B
$GAGSV,2,1,07,10,49,340,42,12,47,020,42,11,36,305,20,19,32,081,35,1*7F
$GAGSV,2,2,07,04,31,151,38,25,27,303,30,33,13,067,22,1*48
$GBGSV,4,1,14,40,82,150,42,07,79,237,32,10,72,283,36,33,68,142,45,1*74
$GBGSV,4,2,14,14,60,073,45,08,58,275,29,43,52,062,41,28,40,328,32,1*7A
$GBGSV,4,3,14,42,37,049,45,11,31,085,43,41,26,198,,23,16,218,,1*7E
$GBGSV,4,4,14,34,15,101,36,37,15,269,,1*78
$GBGSV,2,1,06,40,82,150,46,33,68,142,47,43,52,062,43,28,40,328,20,4*72
$GBGSV,2,2,06,42,37,049,44,34,15,101,28,4*73
$GNGGA,035646.000,2500.8052500,N,12132.4267200,E,2,56,0.49,11.74,M,15.25,M,18,3335*49
$GNRMC,035646.000,A,2500.8052500,N,12132.4267200,E,0.08,332.99,270623,,,D,V*0E
$GPHDT,135.514,T*32
$GNGGA,035646.200,2500.8052500,N,12132.4267200,E,2,54,0.54,11.74,M,15.25,M,18,3335*45
$GNRMC,035646.200,A,2500.8052500,N,12132.4267200,E,0.05,332.99,270623,,,D,V*01
