$FW : RTK35X,V1.1X0314AS,Lib20210517,1*54
$Tool : LOCOSYS , GNSS Firebird , v1.0.0.19*39
$---------------------------------------------------*2D
$GNGGA,035535.200,2500.8050800,N,12132.4266600,E,2,56,0.48,11.69,M,15.25,M,22,3335*42
$GNRMC,035535.200,A,2500.8050800,N,12132.4266600,E,0.05,332.99,270623,,,D,V*0C
$GPHDT,,T*1B
$GNGGA,035535.400,2500.8050800,N,12132.4266600,E,2,56,0.48,11.68,M,15.25,M,22,3335*45
$GNRMC,035535.400,A,2500.8050800,N,12132.4266600,E,0.05,332.99,270623,,,D,V*0A
$GPHDT,,T*1B
$GNGGA,035535.600,2500.8050800,N,12132.4266600,E,2,55,0.48,11.68,M,15.25,M,22,3335*44
$GNRMC,035535.600,A,2500.8050800,N,12132.4266600,E,0.03,332.99,270623,,,D,V*0E
$GPHDT,,T*1B
$GNGGA,035535.800,2500.8050800,N,12132.4266600,E,2,56,0.48,11.68,M,15.25,M,22,3335*49
$GNRMC,035535.800,A,2500.8050800,N,12132.4266600,E,0.01,332.99,270623,,,D,V*02
$GPHDT,,T*1B
$GNGSA,A,3,195,19,196,17,199,06,09,11,04,12,194,14,0.88,0.48,0.74,1*03
$GNGSA,A,3,68,67,82,73,80,,,,,,,,0.88,0.48,0.74,2*04
$GNGSA,A,3,24,10,12,11,19,04,25,33,,,,,0.88,0.48,0.74,3*03
$GNGSA,A,3,40,07,10,33,14,08,43,13,28,42,11,34,0.88,0.48,0.74,4*0A
$GPGSV,4,1,16,195,68,044,40,19,68,030,42,196,65,125,38,17,63,086,45,1*6E
$GPGSV,4,2,16,199,60,167,33,50,60,167,36,06,50,346,45,194,39,172,18,1*6C
$GPGSV,4,3,16,09,34,100,44,20,32,234,17,11,29,290,33,14,21,175,18,1*67
$GPGSV,4,4,16,04,21,068,36,12,16,315,21,05,06,223,,03,05,039,14,1*66
$GPGSV,3,1,10,195,68,044,44,196,65,125,46,199,60,167,45,06,50,346,45,8*51
$GPGSV,3,2,10,194,39,172,22,09,34,100,45,11,29,290,21,14,21,175,17,8*51
$GPGSV,3,3,10,04,21,068,39,03,05,039,21,8*60
$GLGSV,2,1,07,68,54,143,35,67,45,055,30,82,37,044,40,83,35,346,14,1*73
$GLGSV,2,2,07,73,22,284,14,80,21,226,18,66,02,025,,1*41
$GAGSV,3,1,09,24,49,238,17,10,49,339,42,12,47,019,34,11,36,304,24,7*74
$GAGSV,3,2,09,19,32,082,33,04,31,152,34,25,27,304,28,33,13,067,25,7*74
$GAGSV,3,3,09,09,01,192,,7*48
$GAGSV,2,1,05,10,49,339,44,12,47,019,41,19,32,082,32,04,31,152,35,1*7F
$GAGSV,2,2,05,33,13,067,25,1*44
$GBGSV,4,1,15,40,82,148,42,07,79,238,29,10,72,284,40,33,67,143,41,1*75
$GBGSV,4,2,15,14,60,074,34,08,58,274,28,43,52,062,41,13,49,261,23,1*77
$GBGSV,4,3,15,28,40,328,33,42,37,050,42,11,31,085,40,41,26,197,,1*76
$GBGSV,4,4,15,23,16,218,,34,15,101,21,37,15,269,,1*42
$GBGSV,2,1,06,40,82,148,46,33,67,143,47,43,52,062,37,28,40,328,27,4*71
$GBGSV,2,2,06,42,37,050,37,34,15,101,27,4*70
$GNGGA,035536.000,2500.8050800,N,12132.4266600,E,2,55,0.48,11.68,M,15.25,M,23,3335*40
$GNRMC,035536.000,A,2500.8050800,N,12132.4266600,E,0.03,332.99,270623,,,D,V*0B
$GPHDT,,T*1B
$GNGGA,035536.200,2500.8050800,N,12132.4266600,E,2,56,0.48,11.68,M,15.25,M,23,3335*41
$GNRMC,035536.200,A,2500.8050800,N,12132.4266600,E,0.05,332.99,270623,,,D,V*0F
$GPHDT,,T*1B
$GNGGA,035536.400,2500.8050800,N,12132.4266600,E,2,56,0.48,11.68,M,15.25,M,23,3335*47
$GNRMC,035536.400,A,2500.8050800,N,12132.4266600,E,0.02,332.99,270623,,,D,V*0E
$GPHDT,,T*1B
$GNGGA,035536.600,2500.8050800,N,12132.4266600,E,2,56,0.48,11.67,M,15.25,M,23,3335*4A
$GNRMC,035536.600,A,2500.8050800,N,12132.4266600,E,0.03,332.99,270623,,,D,V*0D
$GPHDT,,T*1B
$GNGGA,035536.800,2500.8050800,N,12132.4266600,E,2,56,0.48,11.66,M,15.25,M,23,3335*45
$GNRMC,035536.800,A,2500.8050800,N,12132.4266600,E,0.04,332.99,270623,,,D,V*04
$GPHDT,,T*1B
$GNGSA,A,3,195,19,196,17,199,06,09,11,14,04,12,194,0.88,0.48,0.74,1*03
$GNGSA,A,3,68,67,82,73,80,,,,,,,,0.88,0.48,0.74,2*04
$GNGSA,A,3,24,10,12,11,19,04,25,33,,,,,0.88,0.48,0.74,3*03
$GNGSA,A,3,40,07,10,33,14,08,43,13,28,42,11,34,0.88,0.48,0.74,4*0A
$GPGSV,4,1,16,195,68,044,39,19,68,030,39,196,65,125,38,17,63,086,45,1*6C
$GPGSV,4,2,16,199,60,167,32,50,60,167,34,06,50,346,45,194,39,172,18,1*6F
$GPGSV,4,3,16,09,34,100,44,20,32,234,17,11,29,290,33,14,21,175,20,1*6C
$GPGSV,4,4,16,04,21,068,37,12,16,315,21,05,06,223,,03,05,039,16,1*65
$GPGSV,3,1,10,195,68,044,45,196,65,125,46,199,60,167,45,06,50,346,45,8*50
$GPGSV,3,2,10,194,39,172,22,09,34,100,45,11,29,290,25,14,21,175,17,8*55
$GPGSV,3,3,10,04,21,068,40,03,05,039,20,8*6F
$GLGSV,2,1,07,68,54,143,35,67,45,055,32,82,37,044,38,83,35,346,16,1*7C
$GLGSV,2,2,07,73,22,284,15,80,21,226,18,66,02,025,,1*40
$GAGSV,3,1,09,24,49,238,16,10,49,339,42,12,47,019,35,11,36,304,24,7*74
$GAGSV,3,2,09,19,32,082,33,04,31,151,35,25,27,304,28,33,13,067,25,7*76
$GAGSV,3,3,09,09,01,192,,7*48
$GAGSV,2,1,05,10,49,339,44,12,47,019,41,19,32,082,31,04,31,151,36,1*7C
$GAGSV,2,2,05,33,13,067,23,1*42
$GBGSV,4,1,15,40,82,148,42,07,79,238,29,10,72,284,40,33,67,143,42,1*76
$GBGSV,4,2,15,14,60,074,36,08,58,274,24,43,52,062,42,13,49,261,23,1*7A
$GBGSV,4,3,15,28,40,328,33,42,37,050,41,11,31,085,41,41,26,197,,1*74
$GBGSV,4,4,15,23,16,218,,34,15,101,23,37,15,269,,1*40
$GBGSV,2,1,06,40,82,148,46,33,67,143,47,43,52,062,39,28,40,328,27,4*7F
$GBGSV,2,2,06,42,37,050,32,34,15,101,24,4*76
$GNGGA,035537.000,2500.8050800,N,12132.4266600,E,2,56,0.48,11.66,M,15.25,M,24,3335*4B
$GNRMC,035537.000,A,2500.8050800,N,12132.4266600,E,0.09,332.99,270623,,,D,V*00
$GPHDT,,T*1B
$GNGGA,035537.200,2500.8050800,N,12132.4266600,E,2,56,0.48,11.66,M,15.25,M,24,3335*49
$GNRMC,035537.200,A,2500.8050800,N,12132.4266600,E,0.07,332.99,270623,,,D,V*0C
$GPHDT,,T*1B
$GNGGA,035537.400,2500.8050700,N,12132.4266600,E,2,57,0.48,11.65,M,15.25,M,24,3335*42
$GNRMC,035537.400,A,2500.8050700,N,12132.4266600,E,0.04,332.99,270623,,,D,V*06
$GPHDT,,T*1B
$GNGGA,035537.600,2500.8050700,N,12132.4266600,E,2,57,0.48,11.65,M,15.25,M,24,3335*40
$GNRMC,035537.600,A,2500.8050700,N,12132.4266600,E,0.03,332.99,270623,,,D,V*03
$GPHDT,,T*1B
$GNGGA,035537.800,2500.8050700,N,12132.4266600,E,2,58,0.46,11.65,M,15.25,M,24,3335*4F
$GNRMC,035537.800,A,2500.8050700,N,12132.4266600,E,0.07,332.99,270623,,,D,V*09
$GPHDT,,T*1B
$GNGSA,A,3,195,19,196,17,199,06,09,11,14,04,12,194,0.88,0.48,0.74,1*03
$GNGSA,A,3,68,67,82,83,73,80,,,,,,,0.88,0.48,0.74,2*0F
$GNGSA,A,3,10,24,12,11,19,04,25,33,,,,,0.88,0.48,0.74,3*03
$GNGSA,A,3,40,07,10,33,14,08,43,13,28,42,11,34,0.88,0.48,0.74,4*0A
$GPGSV,4,1,16,195,68,044,38,19,68,030,38,196,65,125,38,17,63,086,46,1*6F
$GPGSV,4,2,16,199,60,167,32,50,60,167,34,06,50,346,45,194,39,172,17,1*60
$GPGSV,4,3,16,09,34,100,44,20,32,234,17,11,29,290,33,14,21,175,21,1*6D
$GPGSV,4,4,16,04,21,068,37,12,16,315,22,05,06,223,,03,05,039,16,1*66
$GPGSV,3,1,10,195,68,044,45,196,65,125,46,199,60,167,45,06,50,346,44,8*51
$GPGSV,3,2,10,194,39,172,21,09,34,100,45,11,29,290,24,14,21,175,15,8*55
$GPGSV,3,3,10,04,21,068,39,03,05,039,20,8*61
$GLGSV,2,1,07,68,54,143,35,67,45,055,33,82,37,044,38,83,35,346,16,1*7D
$GLGSV,2,2,07,73,22,284,15,80,21,226,20,66,02,025,,1*4B
$GAGSV,3,1,09,10,49,339,40,24,49,238,17,12,47,020,35,11,36,304,23,7*7A
$GAGSV,3,2,09,19,32,082,34,04,31,151,35,25,27,304,27,33,13,067,25,7*7E
$GAGSV,3,3,09,09,02,192,,7*4B
$GAGSV,2,1,05,10,49,339,44,12,47,020,41,19,32,082,30,04,31,151,36,1*77
$GAGSV,2,2,05,33,13,067,22,1*43
$GBGSV,4,1,15,40,82,148,42,07,79,238,30,10,72,284,40,33,67,143,42,1*7E
$GBGSV,4,2,15,14,60,074,37,08,58,274,24,43,52,062,42,13,49,261,21,1*79
$GBGSV,4,3,15,28,40,328,34,42,37,050,41,11,31,085,42,41,26,197,,1*70
$GBGSV,4,4,15,23,16,218,,34,15,101,29,37,15,269,,1*4A
$GBGSV,2,1,06,40,82,148,46,33,67,143,47,43,52,062,39,28,40,328,26,4*7E
$GBGSV,2,2,06,42,37,050,27,34,15,101,21,4*77
$GNGGA,035538.000,2500.8050700,N,12132.4266600,E,2,57,0.48,11.65,M,15.25,M,25,3335*48
$GNRMC,035538.000,A,2500.8050700,N,12132.4266600,E,0.04,332.99,270623,,,D,V*0D
$GPHDT,,T*1B
$GNGGA,035538.200,2500.8050700,N,12132.4266500,E,2,57,0.48,11.65,M,15.25,M,25,3335*49
$GNRMC,035538.200,A,2500.8050700,N,12132.4266500,E,0.03,332.99,270623,,,D,V*0B
$GPHDT,,T*1B
$GNGGA,035538.400,2500.8050700,N,12132.4266600,E,2,57,0.48,11.66,M,15.25,M,25,3335*4F
$GNRMC,035538.400,A,2500.8050700,N,12132.4266600,E,0.04,332.99,270623,,,D,V*09
$GPHDT,,T*1B
$GNGGA,035538.600,2500.8050700,N,12132.4266600,E,2,57,0.48,11.66,M,15.25,M,25,3335*4D
$GNRMC,035538.600,A,2500.8050700,N,12132.4266600,E,0.09,332.99,270623,,,D,V*06
$GPHDT,,T*1B
$GNGGA,035538.800,2500.8050700,N,12132.4266600,E,2,57,0.48,11.66,M,15.25,M,25,3335*43
$GNRMC,035538.800,A,2500.8050700,N,12132.4266600,E,0.06,332.99,270623,,,D,V*07
$GPHDT,,T*1B
$GNGSA,A,3,195,19,196,17,199,06,09,11,14,04,12,194,0.88,0.48,0.74,1*03
$GNGSA,A,3,68,67,82,83,73,80,,,,,,,0.88,0.48,0.74,2*0F
$GNGSA,A,3,10,24,12,11,19,04,25,33,,,,,0.88,0.48,0.74,3*03
$GNGSA,A,3,40,07,10,33,14,08,43,13,28,42,11,34,0.88,0.48,0.74,4*0A
$GPGSV,4,1,16,195,68,044,39,19,68,030,42,196,65,125,38,17,63,086,46,1*63
$GPGSV,4,2,16,199,60,167,34,50,60,167,36,06,50,346,44,194,39,172,17,1*65
$GPGSV,4,3,16,09,34,100,44,20,32,234,17,11,29,290,31,14,21,175,18,1*65
$GPGSV,4,4,16,04,21,068,37,12,16,315,21,05,06,223,,03,05,039,14,1*67
$GPGSV,3,1,10,195,68,044,45,196,65,125,46,199,60,167,45,06,50,346,45,8*50
$GPGSV,3,2,10,194,39,172,21,09,34,100,45,11,29,290,20,14,21,175,16,8*52
$GPGSV,3,3,10,04,21,068,40,03,05,039,19,8*65
$GLGSV,2,1,07,68,54,143,35,67,45,055,33,82,37,044,38,83,35,346,12,1*79
$GLGSV,2,2,07,73,22,284,15,80,21,226,20,66,02,025,,1*4B
$GAGSV,3,1,09,10,49,339,41,24,49,238,17,12,47,020,35,11,36,304,22,7*7A
$GAGSV,3,2,09,19,32,082,34,04,31,151,33,25,27,304,27,33,13,067,25,7*78
$GAGSV,3,3,09,09,02,192,,7*4B
$GAGSV,2,1,05,10,49,339,44,12,47,020,42,19,32,082,33,04,31,151,36,1*77
$GAGSV,2,2,05,33,13,067,22,1*43
$GBGSV,4,1,15,40,82,148,42,07,79,238,30,10,72,284,40,33,67,143,42,1*7E
$GBGSV,4,2,15,14,60,074,38,08,58,274,27,43,52,062,40,13,49,261,23,1*75
$GBGSV,4,3,15,28,40,328,34,42,37,050,39,11,31,085,42,41,26,197,,1*7F
$GBGSV,4,4,15,23,16,218,,34,15,101,26,37,15,269,,1*45
$GBGSV,2,1,06,40,82,148,46,33,67,143,47,43,52,062,39,28,40,328,25,4*7D
$GBGSV,2,2,06,42,37,050,37,34,15,101,23,4*74
$GNGGA,035539.000,2500.8050700,N,12132.4266500,E,2,57,0.48,11.66,M,15.25,M,26,3335*4A
$GNRMC,035539.000,A,2500.8050700,N,12132.4266500,E,0.03,332.99,270623,,,D,V*08
$GPHDT,,T*1B
$GNGGA,035539.200,2500.8050700,N,12132.4266600,E,2,57,0.48,11.66,M,15.25,M,26,3335*4B
$GNRMC,035539.200,A,2500.8050700,N,12132.4266600,E,0.07,332.99,270623,,,D,V*0D
$GPHDT,,T*1B
$GNGGA,035539.400,2500.8050700,N,12132.4266600,E,2,58,0.46,11.66,M,15.25,M,26,3335*4C
$GNRMC,035539.400,A,2500.8050700,N,12132.4266600,E,0.03,332.99,270623,,,D,V*0F
$GPHDT,,T*1B
$GNGGA,035539.600,2500.8050700,N,12132.4266600,E,2,58,0.46,11.67,M,15.25,M,26,3335*4F
$GNRMC,035539.600,A,2500.8050700,N,12132.4266600,E,0.02,332.99,270623,,,D,V*0C
$GPHDT,,T*1B
$GNGGA,035539.800,2500.8050700,N,12132.4266600,E,2,58,0.46,11.67,M,15.25,M,26,3335*41
$GNRMC,035539.800,A,2500.8050700,N,12132.4266600,E,0.05,332.99,270623,,,D,V*05
$GPHDT,,T*1B
$GNGSA,A,3,195,19,196,17,199,06,09,11,14,04,12,194,0.88,0.48,0.74,1*03
$GNGSA,A,3,68,67,82,73,80,,,,,,,,0.88,0.48,0.74,2*04
$GNGSA,A,3,10,24,12,11,19,04,25,33,,,,,0.88,0.48,0.74,3*03
$GNGSA,A,3,40,07,10,33,14,08,43,13,28,42,11,34,0.88,0.48,0.74,4*0A
$GPGSV,4,1,16,195,68,044,39,19,68,030,42,196,65,125,38,17,63,086,46,1*63
$GPGSV,4,2,16,199,60,167,33,50,60,167,36,06,50,346,44,194,39,172,16,1*63
$GPGSV,4,3,16,09,34,100,44,20,32,234,18,11,29,290,31,14,21,175,18,1*6A
$GPGSV,4,4,16,04,21,068,36,12,16,315,22,05,06,223,,03,05,039,16,1*67
$GPGSV,3,1,10,195,68,044,45,196,65,125,46,199,60,167,45,06,50,346,45,8*50
$GPGSV,3,2,10,194,39,172,23,09,34,100,45,11,29,290,24,14,21,175,16,8*54
$GPGSV,3,3,10,04,21,068,40,03,05,039,20,8*6F
$GLGSV,2,1,07,68,54,143,34,67,45,055,32,82,37,044,40,83,35,346,13,1*77
$GLGSV,2,2,07,73,22,284,14,80,21,226,20,66,02,025,,1*4A
$GAGSV,3,1,09,10,49,339,41,24,49,238,17,12,47,020,35,11,36,304,22,7*7A
$GAGSV,3,2,09,19,32,082,32,04,31,151,33,25,27,304,28,33,13,067,26,7*72
$GAGSV,3,3,09,09,02,192,,7*4B
$GAGSV,2,1,05,10,49,339,44,12,47,020,42,19,32,082,32,04,31,151,36,1*76
$GAGSV,2,2,05,33,13,067,22,1*43
$GBGSV,4,1,15,40,82,148,43,07,79,238,29,10,72,284,40,33,67,143,42,1*77
$GBGSV,4,2,15,14,60,074,39,08,58,274,26,43,52,062,39,13,49,261,23,1*7B
$GBGSV,4,3,15,28,40,328,34,42,37,050,40,11,31,085,39,41,26,197,,1*7D
$GBGSV,4,4,15,23,16,218,,34,15,101,26,37,15,269,,1*45
$GBGSV,2,1,06,40,82,148,46,33,67,143,47,43,52,062,38,28,40,328,25,4*7C
$GBGSV,2,2,06,42,37,050,37,34,15,101,24,4*73
$GNGGA,035540.000,2500.8050700,N,12132.4266600,E,2,56,0.48,11.67,M,15.25,M,27,3335*46
$GNRMC,035540.000,A,2500.8050700,N,12132.4266600,E,0.08,332.99,270623,,,D,V*0E
$GPHDT,,T*1B
$GNGGA,035540.200,2500.8050700,N,12132.4266600,E,2,57,0.47,11.68,M,15.25,M,27,3335*45
$GNRMC,035540.200,A,2500.8050700,N,12132.4266600,E,0.02,332.99,270623,,,D,V*06
$GPHDT,,T*1B
$GNGGA,035540.400,2500.8050700,N,12132.4266600,E,2,56,0.48,11.68,M,15.25,M,27,3335*4D
$GNRMC,035540.400,A,2500.8050700,N,12132.4266600,E,0.09,332.99,270623,,,D,V*0B
$GPHDT,,T*1B
$GNGGA,035540.600,2500.8050800,N,12132.4266600,E,2,56,0.48,11.69,M,15.25,M,27,3335*41
$GNRMC,035540.600,A,2500.8050800,N,12132.4266600,E,0.08,332.99,270623,,,D,V*07
$GPHDT,,T*1B
$GNGGA,035540.800,2500.8050800,N,12132.4266600,E,2,57,0.47,11.69,M,15.25,M,27,3335*41
$GNRMC,035540.800,A,2500.8050800,N,12132.4266600,E,0.13,332.99,270623,,,D,V*03
$GPHDT,,T*1B
$GNGSA,A,3,195,19,196,17,199,06,09,20,11,14,04,12,0.87,0.47,0.73,1*3A
$GNGSA,A,3,194,,,,,,,,,,,,0.87,0.47,0.73,1*35
$GNGSA,A,3,68,67,82,73,80,,,,,,,,0.87,0.47,0.73,2*03
$GNGSA,A,3,10,24,12,11,19,04,25,33,,,,,0.87,0.47,0.73,3*04
$GNGSA,A,3,40,07,10,33,14,08,43,13,28,42,11,34,0.87,0.47,0.73,4*0D
$GPGSV,4,1,16,195,68,044,37,19,68,030,42,196,65,125,40,17,63,086,44,1*60
$GPGSV,4,2,16,199,60,167,33,50,60,167,36,06,50,346,43,194,39,172,16,1*64
$GPGSV,4,3,16,09,34,100,44,20,32,234,19,11,29,290,31,14,21,175,18,1*6B
$GPGSV,4,4,16,04,21,068,33,12,16,315,23,05,06,223,,03,05,039,17,1*62
$GPGSV,3,1,10,195,68,044,45,196,65,125,47,199,60,167,46,06,50,346,45,8*52
$GPGSV,3,2,10,194,39,172,23,09,34,100,44,11,29,290,23,14,21,175,16,8*52
$GPGSV,3,3,10,04,21,068,40,03,05,039,21,8*6E
$GLGSV,2,1,07,68,54,143,32,67,45,055,41,82,37,044,42,83,35,346,15,1*71
$GLGSV,2,2,07,73,22,284,14,80,21,226,20,66,02,025,,1*4A
$GAGSV,3,1,09,10,49,339,41,24,49,238,17,12,47,020,35,11,36,304,22,7*7A
$GAGSV,3,2,09,19,32,082,32,04,31,151,33,25,27,304,28,33,13,067,26,7*72
$GAGSV,3,3,09,09,02,192,,7*4B
$GAGSV,2,1,05,10,49,339,44,12,47,020,42,19,32,082,31,04,31,151,36,1*75
$GAGSV,2,2,05,33,13,067,22,1*43
$GBGSV,4,1,15,40,82,148,43,07,79,238,30,10,72,284,40,33,67,143,42,1*7F
$GBGSV,4,2,15,14,60,074,35,08,58,274,27,43,52,062,25,13,49,261,24,1*7C
$GBGSV,4,3,15,28,40,328,34,42,37,050,43,11,31,085,38,41,26,197,,1*7F
$GBGSV,4,4,15,23,16,218,,34,15,101,24,37,15,269,,1*47
$GBGSV,2,1,06,40,82,148,46,33,67,143,47,43,52,062,33,28,40,328,25,4*77
$GBGSV,2,2,06,42,37,050,42,34,15,101,26,4*73
$GNGGA,035541.000,2500.8050800,N,12132.4266600,E,2,57,0.47,11.69,M,15.25,M,28,3335*47
$GNRMC,035541.000,A,2500.8050800,N,12132.4266600,E,0.08,332.99,270623,,,D,V*00
$GPHDT,,T*1B
$GNGGA,035541.200,2500.8050800,N,12132.4266700,E,2,58,0.47,11.69,M,15.25,M,28,3335*4B
$GNRMC,035541.200,A,2500.8050800,N,12132.4266700,E,0.06,332.99,270623,,,D,V*0D
$GPHDT,,T*1B
$GNGGA,035541.400,2500.8050800,N,12132.4266600,E,2,58,0.47,11.70,M,15.25,M,28,3335*44
$GNRMC,035541.400,A,2500.8050800,N,12132.4266600,E,0.02,332.99,270623,,,D,V*0E
$GPHDT,,T*1B
$GNGGA,035541.600,2500.8050800,N,12132.4266600,E,2,59,0.48,11.70,M,15.25,M,28,3335*48
$GNRMC,035541.600,A,2500.8050800,N,12132.4266600,E,0.05,332.99,270623,,,D,V*0B
$GPHDT,,T*1B
$GNGGA,035541.800,2500.8050800,N,12132.4266600,E,2,59,0.48,11.71,M,15.25,M,28,3335*47
$GNRMC,035541.800,A,2500.8050800,N,12132.4266600,E,0.04,332.99,270623,,,D,V*04
$GPHDT,,T*1B
$GNGSA,A,3,195,19,196,17,199,06,194,09,20,11,14,04,0.89,0.48,0.75,1*02
$GNGSA,A,3,12,,,,,,,,,,,,0.89,0.48,0.75,1*0D
$GNGSA,A,3,68,67,82,80,,,,,,,,,0.89,0.48,0.75,2*00
$GNGSA,A,3,10,24,12,11,19,04,25,33,,,,,0.89,0.48,0.75,3*03
$GNGSA,A,3,40,07,10,33,14,08,43,13,28,42,11,34,0.89,0.48,0.75,4*0A
$GPGSV,4,1,16,195,68,044,31,19,68,030,40,196,65,125,36,17,63,086,42,1*63
$GPGSV,4,2,16,199,60,167,34,50,60,167,35,06,50,346,42,194,39,172,19,1*6E
$GPGSV,4,3,16,09,34,100,40,20,32,234,19,11,29,290,31,14,21,175,18,1*6F
$GPGSV,4,4,16,04,21,068,34,12,16,315,26,05,06,223,,03,05,039,17,1*60
$GPGSV,3,1,10,195,68,044,40,196,65,125,45,199,60,167,47,06,50,346,44,8*55
$GPGSV,3,2,10,194,39,172,22,09,34,100,41,11,29,290,24,14,21,175,14,8*53
$GPGSV,3,3,10,04,21,068,40,03,05,039,22,8*6D
$GLGSV,2,1,07,68,54,143,33,67,45,055,37,82,37,044,39,83,35,346,14,1*7C
$GLGSV,2,2,07,73,22,284,15,80,21,226,20,66,02,025,,1*4B
$GAGSV,3,1,09,10,49,339,41,24,49,238,17,12,47,020,32,11,36,304,22,7*7D
$GAGSV,3,2,09,19,32,082,32,04,31,151,33,25,27,304,27,33,13,067,25,7*7E
$GAGSV,3,3,09,09,02,192,,7*4B
$GAGSV,2,1,07,10,49,339,43,12,47,020,39,11,36,304,19,19,32,082,33,1*72
$GAGSV,2,2,07,04,31,151,36,25,27,304,25,33,13,067,22,1*45
$GBGSV,4,1,15,40,82,148,42,07,79,238,30,10,72,284,40,33,67,143,42,1*7E
$GBGSV,4,2,15,14,60,074,25,08,58,274,28,43,52,062,30,13,49,261,23,1*71
$GBGSV,4,3,15,28,40,328,33,42,37,050,43,11,31,085,39,41,26,197,,1*79
$GBGSV,4,4,15,23,16,218,,34,15,101,24,37,15,269,,1*47
$GBGSV,2,1,06,40,82,148,44,33,67,143,45,43,52,062,32,28,40,328,26,4*75
$GBGSV,2,2,06,42,37,050,40,34,15,101,26,4*71
$GNGGA,035542.000,2500.8050800,N,12132.4266700,E,2,59,0.48,11.71,M,15.25,M,29,3335*4C
$GNRMC,035542.000,A,2500.8050800,N,12132.4266700,E,0.03,332.99,270623,,,D,V*09
$GPHDT,,T*1B
$GNGGA,035542.200,2500.8050800,N,12132.4266700,E,2,59,0.48,11.72,M,15.25,M,29,3335*4D
$GNRMC,035542.200,A,2500.8050800,N,12132.4266700,E,0.02,332.99,270623,,,D,V*0A
