$FW : RTK35X,V1.1X0314AS,Lib20210517,1*54
$Tool : LOCOSYS , GNSS Firebird , v1.0.0.19*39
$---------------------------------------------------*2D
T,,T*1B
$GNGGA,035550.600,2500.8051600,N,12132.4267500,E,2,58,0.48,11.80,M,15.25,M,37,3335*45
$GNRMC,035550.600,A,2500.8051600,N,12132.4267500,E,0.05,332.99,270623,,,D,V*06
$GPHDT,,T*1B
$GNGGA,035550.800,2500.8051600,N,12132.4267400,E,2,58,0.48,11.80,M,15.25,M,37,3335*4A
$GNRMC,035550.800,A,2500.8051600,N,12132.4267400,E,0.06,332.99,270623,,,D,V*0A
$GPHDT,,T*1B
$GNGSA,A,3,195,19,196,17,199,06,194,09,11,14,04,12,0.76,0.48,0.59,1*0D
$GNGSA,A,3,68,67,82,73,80,,,,,,,,0.76,0.48,0.59,2*0A
$GNGSA,A,3,10,24,12,11,19,04,25,33,,,,,0.76,0.48,0.59,3*0D
$GNGSA,A,3,40,07,10,33,14,08,43,13,28,42,11,34,0.76,0.48,0.59,4*04
$GPGSV,4,1,16,195,68,044,39,19,68,030,39,196,65,125,39,17,63,086,45,1*6D
$GPGSV,4,2,16,199,60,167,33,50,60,167,35,06,50,346,34,194,39,172,20,1*62
$GPGSV,4,3,16,09,34,100,44,20,32,234,17,11,29,290,28,14,21,175,15,1*60
$GPGSV,4,4,16,04,21,068,41,12,16,315,25,05,06,223,,03,05,039,17,1*61
$GPGSV,2,1,08,195,68,044,44,196,65,125,45,199,60,167,46,06,50,346,36,8*5D
$GPGSV,2,2,08,194,39,172,24,09,34,100,44,11,29,290,25,04,21,068,41,8*55
$GLGSV,2,1,07,68,55,143,33,67,45,054,43,82,37,044,39,83,35,347,15,1*7F
$GLGSV,2,2,07,73,22,284,18,80,20,226,21,66,02,025,,1*46
$GAGSV,3,1,09,10,49,339,37,24,49,238,20,12,47,020,32,11,36,304,24,7*7E
$GAGSV,3,2,09,19,32,082,36,04,31,151,34,25,27,304,28,33,13,067,28,7*7F
$GAGSV,3,3,09,09,02,192,,7*4B
$GAGSV,2,1,07,10,49,339,37,12,47,020,39,11,36,304,18,19,32,082,35,1*76
$GAGSV,2,2,07,04,31,151,36,25,27,304,26,33,13,067,22,1*46
$GBGSV,4,1,15,40,82,148,43,07,79,238,30,10,72,283,39,33,67,143,43,1*77
$GBGSV,4,2,15,14,60,074,42,08,58,275,29,43,52,062,42,13,49,262,21,1*74
$GBGSV,4,3,15,28,40,328,24,42,37,050,44,11,31,085,42,41,26,197,,1*74
$GBGSV,4,4,15,23,16,218,,34,15,101,27,37,15,269,,1*44
$GBGSV,2,1,06,40,82,148,45,33,67,143,45,43,52,062,45,28,40,328,14,4*75
$GBGSV,2,2,06,42,37,050,43,34,15,101,25,4*71
$GNGGA,035551.000,2500.8051600,N,12132.4267400,E,2,58,0.48,11.80,M,15.25,M,38,3335*4C
$GNRMC,035551.000,A,2500.8051600,N,12132.4267400,E,0.04,332.99,270623,,,D,V*01
$GPHDT,,T*1B
$GNGGA,035551.200,2500.8051600,N,12132.4267400,E,2,58,0.48,11.80,M,15.25,M,38,3335*4E
$GNRMC,035551.200,A,2500.8051600,N,12132.4267400,E,0.04,332.99,270623,,,D,V*03
$GPHDT,,T*1B
$GNGGA,035551.400,2500.8051600,N,12132.4267400,E,2,58,0.48,11.80,M,15.25,M,38,3335*48
$GNRMC,035551.400,A,2500.8051600,N,12132.4267400,E,0.06,332.99,270623,,,D,V*07
$GPHDT,,T*1B
$GNGGA,035551.600,2500.8051600,N,12132.4267400,E,2,58,0.48,11.80,M,15.25,M,38,3335*4A
$GNRMC,035551.600,A,2500.8051600,N,12132.4267400,E,0.10,332.99,270623,,,D,V*02
$GPHDT,,T*1B
$GNGGA,035551.800,2500.8051600,N,12132.4267400,E,2,58,0.48,11.80,M,15.25,M,38,3335*44
$GNRMC,035551.800,A,2500.8051600,N,12132.4267400,E,0.05,332.99,270623,,,D,V*08
$GPHDT,,T*1B
$GNGSA,A,3,195,19,196,17,199,06,194,09,11,14,04,12,0.76,0.48,0.59,1*0D
$GNGSA,A,3,68,67,82,73,80,,,,,,,,0.76,0.48,0.59,2*0A
$GNGSA,A,3,10,24,12,11,19,04,25,33,,,,,0.76,0.48,0.59,3*0D
$GNGSA,A,3,40,07,10,33,14,08,43,13,28,42,11,34,0.76,0.48,0.59,4*04
$GPGSV,4,1,16,195,68,044,40,19,68,030,40,196,65,125,38,17,63,086,45,1*6C
$GPGSV,4,2,16,199,60,167,33,50,60,167,35,06,50,346,34,194,39,172,21,1*63
$GPGSV,4,3,16,09,34,100,44,20,32,234,17,11,29,290,28,14,21,175,15,1*60
$GPGSV,4,4,16,04,21,068,41,12,16,315,26,05,06,223,,03,05,039,16,1*63
$GPGSV,2,1,08,195,68,044,44,196,65,125,45,199,60,167,46,06,50,346,36,8*5D
$GPGSV,2,2,08,194,39,172,24,09,34,100,45,11,29,290,25,04,21,068,41,8*54
$GLGSV,2,1,07,68,55,143,34,67,45,054,43,82,37,044,39,83,35,347,16,1*7B
$GLGSV,2,2,07,73,22,284,19,80,20,226,21,66,02,025,,1*47
$GAGSV,3,1,09,10,49,339,37,24,49,238,20,12,47,020,32,11,36,304,24,7*7E
$GAGSV,3,2,09,19,32,082,36,04,31,151,34,25,27,304,28,33,13,067,28,7*7F
$GAGSV,3,3,09,09,02,192,,7*4B
$GAGSV,2,1,07,10,49,339,36,12,47,020,40,11,36,304,18,19,32,082,35,1*79
$GAGSV,2,2,07,04,31,151,36,25,27,304,27,33,13,067,22,1*47
$GBGSV,4,1,15,40,82,148,43,07,79,238,29,10,72,283,39,33,67,143,43,1*7F
$GBGSV,4,2,15,14,60,074,41,08,58,275,30,43,52,062,43,13,49,262,22,1*7D
$GBGSV,4,3,15,28,40,328,24,42,37,050,44,11,31,085,43,41,26,197,,1*75
$GBGSV,4,4,15,23,16,218,,34,15,101,26,37,15,269,,1*45
$GBGSV,2,1,06,40,82,148,45,33,67,143,46,43,52,062,45,28,40,328,15,4*77
$GBGSV,2,2,06,42,37,050,44,34,15,101,24,4*77
$GNGGA,035552.000,2500.8051600,N,12132.4267400,E,2,58,0.48,11.80,M,15.25,M,39,3335*4E
$GNRMC,035552.000,A,2500.8051600,N,12132.4267400,E,0.02,332.99,270623,,,D,V*04
$GPHDT,,T*1B
$GNGGA,035552.200,2500.8051600,N,12132.4267400,E,2,58,0.48,11.80,M,15.25,M,39,3335*4C
$GNRMC,035552.200,A,2500.8051600,N,12132.4267400,E,0.09,332.99,270623,,,D,V*0D
$GPHDT,,T*1B
$GNGGA,035552.400,2500.8051600,N,12132.4267400,E,2,58,0.48,11.79,M,15.25,M,39,3335*4C
$GNRMC,035552.400,A,2500.8051600,N,12132.4267400,E,0.04,332.99,270623,,,D,V*06
$GPHDT,,T*1B
$GNGGA,035552.600,2500.8051600,N,12132.4267400,E,2,57,0.48,11.79,M,15.25,M,39,3335*41
$GNRMC,035552.600,A,2500.8051600,N,12132.4267400,E,0.09,332.99,270623,,,D,V*09
$GPHDT,,T*1B
$GNGGA,035552.800,2500.8051600,N,12132.4267400,E,2,58,0.48,11.79,M,15.25,M,39,3335*40
$GNRMC,035552.800,A,2500.8051600,N,12132.4267400,E,0.01,332.99,270623,,,D,V*0F
$GPHDT,,T*1B
$GNGSA,A,3,195,19,196,17,199,06,194,09,11,14,04,12,0.76,0.48,0.59,1*0D
$GNGSA,A,3,68,67,82,83,73,80,,,,,,,0.76,0.48,0.59,2*01
$GNGSA,A,3,10,24,12,11,19,04,25,33,,,,,0.76,0.48,0.59,3*0D
$GNGSA,A,3,40,07,10,33,14,08,43,13,28,42,11,34,0.76,0.48,0.59,4*04
$GPGSV,4,1,16,195,68,044,40,19,68,030,40,196,65,125,38,17,63,086,44,1*6D
$GPGSV,4,2,16,199,60,167,33,50,60,167,35,06,50,346,35,194,39,172,21,1*62
$GPGSV,4,3,16,09,34,100,44,20,32,234,17,11,29,290,28,14,21,175,15,1*60
$GPGSV,4,4,16,04,21,068,42,12,16,315,25,05,06,223,,03,05,039,14,1*61
$GPGSV,2,1,08,195,68,044,45,196,65,125,45,199,60,167,46,06,50,346,37,8*5D
$GPGSV,2,2,08,194,39,172,24,09,34,100,45,11,29,290,25,04,21,068,41,8*54
$GLGSV,2,1,07,68,55,143,34,67,45,054,43,82,37,044,40,83,35,347,15,1*76
$GLGSV,2,2,07,73,22,284,20,80,20,226,21,66,02,025,,1*4D
$GAGSV,3,1,09,10,49,339,37,24,49,238,19,12,47,020,31,11,36,304,24,7*77
$GAGSV,3,2,09,19,32,082,36,04,31,151,34,25,27,304,26,33,13,067,29,7*70
$GAGSV,3,3,09,09,02,192,,7*4B
$GAGSV,2,1,07,10,49,339,37,12,47,020,40,11,36,304,18,19,32,082,35,1*78
$GAGSV,2,2,07,04,31,151,36,25,27,304,27,33,13,067,22,1*47
$GBGSV,4,1,15,40,82,148,43,07,79,238,29,10,72,283,39,33,67,143,43,1*7F
$GBGSV,4,2,15,14,60,074,41,08,58,275,30,43,52,062,42,13,49,262,22,1*7C
$GBGSV,4,3,15,28,40,328,21,42,37,050,44,11,31,085,43,41,26,197,,1*70
$GBGSV,4,4,15,23,16,218,,34,15,101,25,37,15,269,,1*46
$GBGSV,2,1,05,40,82,148,45,33,67,143,46,43,52,062,44,42,37,050,45,4*70
$GBGSV,2,2,05,34,15,101,22,4*45
$GNGGA,035553.000,2500.8051600,N,12132.4267400,E,2,58,0.48,11.79,M,15.25,M,40,3335*47
$GNRMC,035553.000,A,2500.8051600,N,12132.4267400,E,0.03,332.99,270623,,,D,V*04
$GPHDT,,T*1B
$GNGGA,035553.200,2500.8051600,N,12132.4267400,E,2,57,0.48,11.79,M,15.25,M,40,3335*4A
$GNRMC,035553.200,A,2500.8051600,N,12132.4267400,E,0.07,332.99,270623,,,D,V*02
$GPHDT,,T*1B
$GNGGA,035553.400,2500.8051600,N,12132.4267400,E,2,57,0.48,11.79,M,15.25,M,40,3335*4C
$GNRMC,035553.400,A,2500.8051600,N,12132.4267400,E,0.06,332.99,270623,,,D,V*05
$GPHDT,,T*1B
$GNGGA,035553.600,2500.8051600,N,12132.4267400,E,2,58,0.48,11.79,M,15.25,M,40,3335*41
$GNRMC,035553.600,A,2500.8051600,N,12132.4267400,E,0.05,332.99,270623,,,D,V*04
$GPHDT,,T*1B
$GNGGA,035553.800,2500.8051600,N,12132.4267400,E,2,58,0.48,11.78,M,15.25,M,40,3335*4E
$GNRMC,035553.800,A,2500.8051600,N,12132.4267400,E,0.09,332.99,270623,,,D,V*06
$GPHDT,,T*1B
$GNGSA,A,3,195,19,196,17,199,06,194,09,11,14,04,12,0.76,0.48,0.59,1*0D
$GNGSA,A,3,68,67,82,83,73,80,,,,,,,0.76,0.48,0.59,2*01
$GNGSA,A,3,10,24,12,11,19,04,25,33,,,,,0.76,0.48,0.59,3*0D
$GNGSA,A,3,40,07,10,33,14,08,43,13,28,42,11,34,0.76,0.48,0.59,4*04
$GPGSV,4,1,16,195,68,044,40,19,68,030,40,196,65,125,39,17,63,086,43,1*6B
$GPGSV,4,2,16,199,60,167,33,50,60,167,35,06,50,346,35,194,39,172,20,1*63
$GPGSV,4,3,16,09,34,100,44,20,32,234,17,11,29,290,27,14,21,175,16,1*6C
$GPGSV,4,4,16,04,21,068,42,12,16,315,22,05,06,223,,03,05,039,14,1*66
$GPGSV,2,1,08,195,68,044,45,196,65,125,46,199,60,167,46,06,50,346,38,8*51
$GPGSV,2,2,08,194,39,172,24,09,34,100,45,11,29,290,25,04,21,068,41,8*54
$GLGSV,2,1,07,68,55,143,34,67,45,054,43,82,37,044,40,83,35,347,15,1*76
$GLGSV,2,2,07,73,22,284,20,80,20,226,21,66,02,025,,1*4D
$GAGSV,3,1,09,10,49,339,37,24,49,238,19,12,47,020,30,11,36,304,23,7*71
$GAGSV,3,2,09,19,32,082,36,04,31,151,34,25,27,304,26,33,13,067,29,7*70
$GAGSV,3,3,09,09,02,192,,7*4B
$GAGSV,2,1,07,10,49,339,38,12,47,020,40,11,36,304,19,19,32,082,35,1*76
$GAGSV,2,2,07,04,31,151,36,25,27,304,28,33,13,067,22,1*48
$GBGSV,4,1,15,40,82,148,43,07,79,238,30,10,72,283,39,33,68,143,43,1*78
$GBGSV,4,2,15,14,60,074,41,08,58,275,31,43,52,062,42,13,49,262,21,1*7E
$GBGSV,4,3,15,28,40,328,19,42,37,050,44,11,31,085,43,41,26,197,,1*7B
$GBGSV,4,4,15,23,16,218,,34,15,101,20,37,15,269,,1*43
$GBGSV,2,1,05,40,82,148,46,33,68,143,46,43,52,062,44,42,37,050,45,4*7C
$GBGSV,2,2,05,34,15,101,27,4*40
$GNGGA,035554.000,2500.8051600,N,12132.4267300,E,2,58,0.48,11.78,M,15.25,M,41,3335*47
$GNRMC,035554.000,A,2500.8051600,N,12132.4267300,E,0.05,332.99,270623,,,D,V*02
$GPHDT,,T*1B
$GNGGA,035554.200,2500.8051600,N,12132.4267300,E,2,57,0.48,11.78,M,15.25,M,41,3335*4A
$GNRMC,035554.200,A,2500.8051600,N,12132.4267300,E,0.04,332.99,270623,,,D,V*01
$GPHDT,,T*1B
$GNGGA,035554.400,2500.8051600,N,12132.4267300,E,2,57,0.48,11.78,M,15.25,M,41,3335*4C
$GNRMC,035554.400,A,2500.8051600,N,12132.4267300,E,0.04,332.99,270623,,,D,V*07
$GPHDT,,T*1B
$GNGGA,035554.600,2500.8051700,N,12132.4267300,E,2,57,0.48,11.78,M,15.25,M,41,3335*4F
$GNRMC,035554.600,A,2500.8051700,N,12132.4267300,E,0.04,332.99,270623,,,D,V*04
$GPHDT,,T*1B
$GNGGA,035554.800,2500.8051700,N,12132.4267300,E,2,57,0.48,11.78,M,15.25,M,41,3335*41
$GNRMC,035554.800,A,2500.8051700,N,12132.4267300,E,0.09,332.99,270623,,,D,V*07
$GPHDT,,T*1B
$GNGSA,A,3,195,19,196,17,199,06,194,09,11,14,04,12,0.76,0.48,0.59,1*0D
$GNGSA,A,3,68,67,82,83,73,80,,,,,,,0.76,0.48,0.59,2*01
$GNGSA,A,3,10,24,12,11,19,04,25,33,,,,,0.76,0.48,0.59,3*0D
$GNGSA,A,3,40,07,10,33,14,08,43,13,42,11,34,,0.76,0.48,0.59,4*0E
$GPGSV,4,1,16,195,68,044,40,19,68,030,40,196,65,125,39,17,63,086,43,1*6B
$GPGSV,4,2,16,199,60,167,33,50,60,167,35,06,50,346,35,194,39,172,19,1*69
$GPGSV,4,3,16,09,34,100,45,20,32,234,17,11,29,290,26,14,21,175,16,1*6C
$GPGSV,4,4,16,04,21,068,42,12,16,315,21,05,06,223,,03,05,039,13,1*62
$GPGSV,2,1,08,195,68,044,45,196,65,125,46,199,60,167,46,06,50,346,37,8*5E
$GPGSV,2,2,08,194,39,172,24,09,34,100,45,11,29,290,24,04,21,068,41,8*55
$GLGSV,2,1,07,68,55,143,34,67,45,054,44,82,37,044,39,83,35,347,18,1*72
$GLGSV,2,2,07,73,22,284,20,80,20,226,20,66,02,025,,1*4C
$GAGSV,2,1,08,10,49,339,38,24,49,238,19,12,47,020,30,11,36,304,23,7*7E
$GAGSV,2,2,08,19,32,082,36,04,31,151,33,25,27,304,25,33,13,067,29,7*74
$GAGSV,2,1,07,10,49,339,37,12,47,020,40,11,36,304,15,19,32,082,35,1*75
$GAGSV,2,2,07,04,31,151,35,25,27,304,27,33,13,067,20,1*46
$GBGSV,4,1,16,40,82,148,43,07,79,238,30,10,72,283,39,33,68,143,43,1*7B
$GBGSV,4,2,16,14,60,074,41,08,58,275,30,43,52,062,42,13,49,262,22,1*7F
$GBGSV,4,3,16,28,40,328,17,42,37,050,44,11,31,085,43,41,26,197,,1*76
$GBGSV,4,4,16,23,16,218,,34,15,101,17,37,15,269,,27,02,300,,1*70
$GBGSV,2,1,05,40,82,148,46,33,68,143,46,43,52,062,44,42,37,050,45,4*7C
$GBGSV,2,2,05,34,15,101,24,4*43
$GNGGA,035555.000,2500.8051700,N,12132.4267200,E,2,57,0.48,11.78,M,15.25,M,42,3335*4A
$GNRMC,035555.000,A,2500.8051700,N,12132.4267200,E,0.05,332.99,270623,,,D,V*03
$GPHDT,,T*1B
$GNGGA,035555.200,2500.8051600,N,12132.4267200,E,2,57,0.48,11.78,M,15.25,M,42,3335*49
$GNRMC,035555.200,A,2500.8051600,N,12132.4267200,E,0.05,332.99,270623,,,D,V*00
$GPHDT,,T*1B
$GNGGA,035555.400,2500.8051600,N,12132.4267200,E,2,57,0.48,11.78,M,15.25,M,42,3335*4F
$GNRMC,035555.400,A,2500.8051600,N,12132.4267200,E,0.02,332.99,270623,,,D,V*01
$GPHDT,,T*1B
$GNGGA,035555.600,2500.8051600,N,12132.4267200,E,2,57,0.48,11.78,M,15.25,M,42,3335*4D
$GNRMC,035555.600,A,2500.8051600,N,12132.4267200,E,0.08,332.99,270623,,,D,V*09
$GPHDT,,T*1B
$GNGGA,035555.800,2500.8051600,N,12132.4267200,E,2,58,0.48,11.78,M,15.25,M,42,3335*4C
$GNRMC,035555.800,A,2500.8051600,N,12132.4267200,E,0.05,332.99,270623,,,D,V*0A
$GPHDT,,T*1B
$GNGSA,A,3,195,19,196,17,199,06,194,09,11,04,12,,0.79,0.50,0.61,1*05
$GNGSA,A,3,68,67,82,83,73,80,,,,,,,0.79,0.50,0.61,2*0C
$GNGSA,A,3,10,24,12,11,19,04,25,33,,,,,0.79,0.50,0.61,3*00
$GNGSA,A,3,40,07,10,33,14,08,43,13,42,11,34,28,0.79,0.50,0.61,4*09
$GPGSV,4,1,16,195,68,044,40,19,68,030,40,196,65,125,39,17,63,086,43,1*6B
$GPGSV,4,2,16,199,60,167,33,50,60,167,35,06,50,346,35,194,39,172,19,1*69
$GPGSV,4,3,16,09,34,100,45,20,32,234,16,11,29,290,26,14,21,175,17,1*6C
$GPGSV,4,4,16,04,21,068,42,12,16,315,20,05,06,223,,03,05,039,11,1*61
$GPGSV,3,1,09,195,68,044,45,196,65,125,46,199,60,167,46,06,50,346,37,8*5E
$GPGSV,3,2,09,194,39,172,23,09,34,100,45,11,29,290,24,04,21,068,41,8*52
$GPGSV,3,3,09,03,05,039,18,8*51
$GLGSV,2,1,07,68,55,143,34,67,45,054,44,82,37,044,40,83,35,347,18,1*7C
$GLGSV,2,2,07,73,22,284,20,80,20,226,20,66,02,025,,1*4C
$GAGSV,2,1,08,10,49,339,38,24,49,238,19,12,47,020,30,11,36,304,24,7*79
$GAGSV,2,2,08,19,32,082,36,04,31,151,33,25,27,304,25,33,13,067,30,7*7C
$GAGSV,2,1,07,10,49,339,37,12,47,020,39,11,36,304,16,19,32,082,35,1*78
$GAGSV,2,2,07,04,31,151,36,25,27,304,27,33,13,067,20,1*45
$GBGSV,4,1,15,40,82,149,43,07,79,238,30,10,72,283,39,33,68,143,43,1*79
$GBGSV,4,2,15,14,60,074,41,08,58,275,30,43,52,062,42,13,49,262,21,1*7F
$GBGSV,4,3,15,28,40,328,19,42,37,050,44,11,31,085,43,41,26,197,,1*7B
$GBGSV,4,4,15,23,16,218,,37,15,269,,34,15,101,16,1*46
$GBGSV,2,1,06,40,82,149,46,33,68,143,46,43,52,062,44,28,40,328,17,4*79
$GBGSV,2,2,06,42,37,050,45,34,15,101,24,4*76
$GNGGA,035556.000,2500.8051700,N,12132.4267200,E,2,57,0.50,11.78,M,15.25,M,43,3335*41
$GNRMC,035556.000,A,2500.8051700,N,12132.4267200,E,0.05,332.99,270623,,,D,V*00
$GPHDT,,T*1B
$GNGGA,035556.200,2500.8051700,N,12132.4267200,E,2,58,0.50,11.77,M,15.25,M,43,3335*43
$GNRMC,035556.200,A,2500.8051700,N,12132.4267200,E,0.05,332.99,270623,,,D,V*02
$GPHDT,,T*1B
$GNGGA,035556.400,2500.8051700,N,12132.4267200,E,2,59,0.48,11.77,M,15.25,M,43,3335*4D
$GNRMC,035556.400,A,2500.8051700,N,12132.4267200,E,0.09,332.99,270623,,,D,V*08
