$FW : RTK35X,V1.1X0314AS,Lib20210517,1*54
$Tool : LOCOSYS , GNSS Firebird , v1.0.0.19*39
$---------------------------------------------------*2D
$GNGGA,035625.200,2500.8051700,N,12132.4267100,E,2,55,0.49,11.73,M,15.25,M,72,3335*44
$GNRMC,035625.200,A,2500.8051700,N,12132.4267100,E,0.03,332.99,270623,,,D,V*00
$GPHDT,,T*1B
$GNGGA,035625.400,2500.8051700,N,12132.4267100,E,2,55,0.49,11.73,M,15.25,M,72,3335*42
$GNRMC,035625.400,A,2500.8051700,N,12132.4267100,E,0.01,332.99,270623,,,D,V*04
$GPHDT,,T*1B
$GNGGA,035625.600,2500.8051700,N,12132.4267100,E,2,55,0.49,11.73,M,15.25,M,72,3335*40
$GNRMC,035625.600,A,2500.8051700,N,12132.4267100,E,0.09,332.99,270623,,,D,V*0E
$GPHDT,,T*1B
$GNGGA,035625.800,2500.8051700,N,12132.4267100,E,2,55,0.49,11.73,M,15.25,M,72,3335*4E
$GNRMC,035625.800,A,2500.8051700,N,12132.4267100,E,0.06,332.99,270623,,,D,V*0F
$GPHDT,,T*1B
$GNGSA,A,3,19,195,196,17,199,06,09,11,04,12,194,,0.80,0.51,0.61,1*02
$GNGSA,A,3,68,67,82,83,73,80,,,,,,,0.80,0.51,0.61,2*0B
$GNGSA,A,3,10,12,11,19,04,25,33,,,,,,0.80,0.51,0.61,3*01
$GNGSA,A,3,40,07,10,33,14,08,43,28,42,11,34,,0.80,0.51,0.61,4*0C
$GPGSV,4,1,16,19,69,031,41,195,68,044,39,196,65,125,39,17,63,087,43,1*65
$GPGSV,4,2,16,199,60,167,34,50,60,167,36,06,50,347,43,194,39,172,17,1*63
$GPGSV,4,3,16,09,35,100,44,20,32,234,18,11,29,290,26,14,21,175,14,1*61
$GPGSV,4,4,16,04,21,068,39,12,16,315,21,05,07,223,,03,05,039,19,1*65
$GPGSV,2,1,07,195,68,044,45,196,65,125,47,199,60,167,45,06,50,347,48,8*5A
$GPGSV,2,2,07,194,39,172,23,09,35,100,46,04,21,068,40,8*68
$GLGSV,2,1,07,68,55,143,38,67,44,054,42,82,37,044,42,83,35,347,23,1*7D
$GLGSV,2,2,07,73,22,284,18,80,20,226,17,66,02,025,,1*43
$GAGSV,2,1,07,10,49,340,44,12,47,020,32,11,36,304,23,19,32,081,37,7*78
$GAGSV,2,2,07,04,31,151,30,25,27,304,26,33,13,067,28,7*4C
$GAGSV,2,1,07,10,49,340,44,12,47,020,43,11,36,304,21,19,32,081,38,1*75
$GAGSV,2,2,07,04,31,151,37,25,27,304,25,33,13,067,19,1*4C
$GBGSV,4,1,15,40,82,149,43,07,79,237,31,10,72,283,38,33,68,143,44,1*71
$GBGSV,4,2,15,14,60,073,41,08,58,275,23,43,52,062,44,13,49,262,14,1*7A
$GBGSV,4,3,15,28,40,328,28,42,37,050,46,11,31,085,41,41,26,197,,1*79
$GBGSV,4,4,15,23,16,218,,37,15,269,,34,15,101,25,1*46
$GBGSV,2,1,06,40,82,149,46,33,68,143,48,43,52,062,44,28,40,328,23,4*70
$GBGSV,2,2,06,42,37,050,45,34,15,101,20,4*72
$GNGGA,035626.000,2500.8051700,N,12132.4267100,E,2,54,0.51,11.74,M,15.25,M,73,3335*4B
$GNRMC,035626.000,A,2500.8051700,N,12132.4267100,E,0.02,332.99,270623,,,D,V*00
$GPHDT,,T*1B
$GNGGA,035626.200,2500.8051700,N,12132.4267100,E,2,54,0.51,11.74,M,15.25,M,73,3335*49
$GNRMC,035626.200,A,2500.8051700,N,12132.4267100,E,0.08,332.99,270623,,,D,V*08
$GPHDT,,T*1B
$GNGGA,035626.400,2500.8051700,N,12132.4267100,E,2,55,0.51,11.74,M,15.25,M,73,3335*4E
$GNRMC,035626.400,A,2500.8051700,N,12132.4267100,E,0.00,332.99,270623,,,D,V*06
$GPHDT,,T*1B
$GNGGA,035626.600,2500.8051700,N,12132.4267100,E,2,55,0.51,11.74,M,15.25,M,73,3335*4C
$GNRMC,035626.600,A,2500.8051700,N,12132.4267100,E,0.05,332.99,270623,,,D,V*01
$GPHDT,,T*1B
$GNGGA,035626.800,2500.8051700,N,12132.4267100,E,2,55,0.51,11.74,M,15.25,M,73,3335*42
$GNRMC,035626.800,A,2500.8051700,N,12132.4267100,E,0.01,332.99,270623,,,D,V*0B
$GPHDT,,T*1B
$GNGSA,A,3,19,195,196,17,199,06,09,11,04,12,194,,0.80,0.51,0.61,1*02
$GNGSA,A,3,68,67,82,83,73,80,,,,,,,0.80,0.51,0.61,2*0B
$GNGSA,A,3,10,12,11,19,04,25,33,,,,,,0.80,0.51,0.61,3*01
$GNGSA,A,3,40,07,10,33,14,08,43,28,42,11,34,,0.80,0.51,0.61,4*0C
$GPGSV,4,1,16,19,69,031,40,195,68,044,39,196,65,125,39,17,63,087,43,1*64
$GPGSV,4,2,16,50,60,167,36,199,60,167,34,06,50,347,44,194,39,172,17,1*64
$GPGSV,4,3,16,09,35,100,43,20,32,234,17,11,29,290,26,04,21,068,39,1*6A
$GPGSV,4,4,16,14,21,175,14,12,16,315,20,05,07,223,,03,05,039,18,1*66
$GPGSV,2,1,08,195,68,044,45,196,65,125,47,199,60,167,45,06,50,347,48,8*55
$GPGSV,2,2,08,194,39,172,24,09,35,100,46,11,29,290,17,04,21,068,40,8*56
$GLGSV,3,1,09,68,55,143,38,67,44,054,42,82,37,044,41,83,35,347,23,1*71
$GLGSV,3,2,09,73,22,284,18,80,20,226,16,69,15,184,,74,05,324,,1*7D
$GLGSV,3,3,09,66,02,025,,1*44
$GAGSV,3,1,09,10,49,340,44,24,49,237,,12,47,020,32,11,36,304,24,7*79
$GAGSV,3,2,09,19,32,081,37,04,31,151,30,25,27,304,26,33,13,067,28,7*77
$GAGSV,3,3,09,09,02,192,,7*4B
$GAGSV,2,1,07,10,49,340,44,12,47,020,43,11,36,304,22,19,32,081,38,1*76
$GAGSV,2,2,07,04,31,151,37,25,27,304,24,33,13,067,21,1*46
$GBGSV,4,1,13,40,82,149,43,07,79,237,32,10,72,283,38,33,68,142,44,1*75
$GBGSV,4,2,13,14,60,073,41,08,58,275,22,43,52,062,44,13,49,262,,1*78
$GBGSV,4,3,13,28,40,328,26,42,37,050,46,11,31,085,41,41,26,197,,1*71
$GBGSV,4,4,13,34,15,101,25,1*40
$GBGSV,2,1,06,40,82,149,46,33,68,142,48,43,52,062,44,28,40,328,24,4*76
$GBGSV,2,2,06,42,37,050,45,34,15,101,25,4*77
$GNGGA,035627.000,2500.8051700,N,12132.4267200,E,2,55,0.51,11.73,M,15.25,M,74,3335*48
$GNRMC,035627.000,A,2500.8051700,N,12132.4267200,E,0.05,332.99,270623,,,D,V*05
$GPHDT,,T*1B
$GNGGA,035627.200,2500.8051700,N,12132.4267100,E,2,55,0.51,11.73,M,15.25,M,74,3335*49
$GNRMC,035627.200,A,2500.8051700,N,12132.4267100,E,0.01,332.99,270623,,,D,V*00
$GPHDT,181.653,T*3D
$GNGGA,035627.400,2500.8051700,N,12132.4267100,E,2,55,0.51,11.74,M,15.25,M,74,3335*48
$GNRMC,035627.400,A,2500.8051700,N,12132.4267100,E,0.13,332.99,270623,,,D,V*05
$GPHDT,181.863,T*30
$GNGGA,035627.600,2500.8051700,N,12132.4267100,E,2,55,0.51,11.74,M,15.25,M,74,3335*4A
$GNRMC,035627.600,A,2500.8051700,N,12132.4267100,E,0.05,332.99,270623,,,D,V*00
$GPHDT,182.009,T*37
$GNGGA,035627.800,2500.8051700,N,12132.4267100,E,2,55,0.51,11.73,M,15.25,M,74,3335*43
$GNRMC,035627.800,A,2500.8051700,N,12132.4267100,E,0.03,332.99,270623,,,D,V*08
$GPHDT,182.140,T*3B
$GNGSA,A,3,19,195,196,17,199,06,09,20,11,04,12,194,0.78,0.49,0.60,1*0F
$GNGSA,A,3,68,67,82,83,73,80,,,,,,,0.78,0.49,0.60,2*04
$GNGSA,A,3,10,12,11,19,04,25,33,,,,,,0.78,0.49,0.60,3*0E
$GNGSA,A,3,40,07,10,33,14,08,43,28,42,11,34,,0.78,0.49,0.60,4*03
$GPGSV,4,1,16,19,69,031,40,195,68,044,39,196,65,125,39,17,63,087,43,1*64
$GPGSV,4,2,16,199,60,167,34,50,60,167,36,06,50,347,44,194,39,172,17,1*64
$GPGSV,4,3,16,09,35,100,43,20,32,234,18,11,29,290,25,14,21,175,13,1*62
$GPGSV,4,4,16,04,21,068,39,12,16,315,18,05,07,223,,03,05,039,18,1*6E
$GPGSV,2,1,08,195,68,044,45,196,65,125,47,199,60,167,45,06,50,347,48,8*55
$GPGSV,2,2,08,194,39,172,24,09,35,100,46,11,29,290,15,04,21,068,40,8*54
$GLGSV,2,1,07,68,55,143,37,67,44,054,43,82,37,044,41,83,35,347,23,1*70
$GLGSV,2,2,07,73,22,284,18,80,20,226,16,66,02,025,,1*42
$GAGSV,3,1,09,10,49,340,44,24,49,237,,12,47,020,32,11,36,304,24,7*79
$GAGSV,3,2,09,19,32,081,37,04,31,151,30,25,27,304,26,33,13,067,27,7*78
$GAGSV,3,3,09,09,02,192,,7*4B
$GAGSV,2,1,07,10,49,340,45,12,47,020,43,11,36,304,22,19,32,081,38,1*77
$GAGSV,2,2,07,04,31,151,37,25,27,304,24,33,13,067,19,1*4D
$GBGSV,4,1,13,40,82,150,43,07,79,237,32,10,72,283,38,33,68,142,44,1*7D
$GBGSV,4,2,13,14,60,073,41,08,58,275,22,43,52,062,44,13,49,262,,1*78
$GBGSV,4,3,13,28,40,328,29,42,37,050,45,11,31,085,41,41,26,198,,1*72
$GBGSV,4,4,13,34,15,101,26,1*43
$GBGSV,2,1,06,40,82,150,46,33,68,142,48,43,52,062,44,28,40,328,22,4*78
$GBGSV,2,2,06,42,37,050,45,34,15,101,25,4*77
$GNGGA,035628.000,2500.8051700,N,12132.4267100,E,2,56,0.49,11.73,M,15.25,M,75,3335*4F
$GNRMC,035628.000,A,2500.8051700,N,12132.4267100,E,0.03,332.99,270623,,,D,V*0F
$GPHDT,181.616,T*3C
$GNGGA,035628.200,2500.8051700,N,12132.4267100,E,2,55,0.51,11.73,M,15.25,M,1,3335*74
$GNRMC,035628.200,A,2500.8051700,N,12132.4267100,E,0.03,332.99,270623,,,D,V*0D
$GPHDT,181.861,T*32
$GNGGA,035628.400,2500.8051700,N,12132.4267100,E,2,55,0.51,11.73,M,15.25,M,1,3335*72
$GNRMC,035628.400,A,2500.8051700,N,12132.4267100,E,0.03,332.99,270623,,,D,V*0B
$GPHDT,181.737,T*3E
$GNGGA,035628.600,2500.8051700,N,12132.4267100,E,2,54,0.51,11.73,M,15.25,M,0,3335*70
$GNRMC,035628.600,A,2500.8051700,N,12132.4267100,E,0.02,332.99,270623,,,D,V*08
$GPHDT,181.910,T*35
$GNGGA,035628.800,2500.8051700,N,12132.4267100,E,2,56,0.49,11.73,M,15.25,M,0,3335*75
$GNRMC,035628.800,A,2500.8051700,N,12132.4267100,E,0.00,332.99,270623,,,D,V*04
$GPHDT,182.294,T*31
$GNGSA,A,3,19,195,196,17,199,06,09,11,04,12,194,,0.80,0.51,0.61,1*02
$GNGSA,A,3,68,67,82,83,73,80,,,,,,,0.80,0.51,0.61,2*0B
$GNGSA,A,3,10,12,11,19,04,25,33,,,,,,0.80,0.51,0.61,3*01
$GNGSA,A,3,40,07,10,33,14,08,43,28,42,11,34,,0.80,0.51,0.61,4*0C
$GPGSV,4,1,15,19,69,031,40,195,68,044,39,196,65,125,39,17,63,087,43,1*67
$GPGSV,4,2,15,199,60,167,34,50,60,167,37,06,50,347,44,194,39,172,17,1*66
$GPGSV,4,3,15,09,35,100,43,20,32,234,18,11,29,290,25,04,21,068,39,1*65
$GPGSV,4,4,15,14,21,175,14,12,16,315,18,03,05,039,18,1*5F
$GPGSV,2,1,08,195,68,044,45,196,65,125,47,199,60,167,45,06,50,347,48,8*55
$GPGSV,2,2,08,194,39,172,24,09,35,100,46,11,29,290,13,04,21,068,40,8*52
$GLGSV,2,1,07,68,55,143,37,67,44,054,43,82,37,044,42,83,35,347,23,1*73
$GLGSV,2,2,07,73,22,284,19,80,20,226,15,66,02,025,,1*40
$GAGSV,3,1,09,24,49,237,,10,49,340,44,12,47,020,33,11,36,304,24,7*78
$GAGSV,3,2,09,19,32,081,37,04,31,151,30,25,27,304,25,33,13,067,27,7*7B
$GAGSV,3,3,09,09,02,192,,7*4B
$GAGSV,2,1,07,10,49,340,45,12,47,020,43,11,36,304,22,19,32,081,38,1*77
$GAGSV,2,2,07,04,31,151,37,25,27,304,24,33,13,067,18,1*4C
$GBGSV,4,1,13,40,82,150,43,07,79,237,32,10,72,283,38,33,68,142,44,1*7D
$GBGSV,4,2,13,14,60,073,41,08,58,275,22,43,52,062,44,28,40,328,31,1*74
$GBGSV,4,3,13,42,37,049,45,11,31,085,41,41,26,198,,23,16,218,,1*7B
$GBGSV,4,4,13,34,15,101,26,1*43
$GBGSV,2,1,06,40,82,150,46,33,68,142,48,43,52,062,43,28,40,328,23,4*7E
$GBGSV,2,2,06,42,37,049,45,34,15,101,24,4*7E
$GNGGA,035629.000,2500.8051700,N,12132.4267100,E,2,55,0.51,11.73,M,15.25,M,1,3335*77
$GNRMC,035629.000,A,2500.8051700,N,12132.4267100,E,0.02,332.99,270623,,,D,V*0F
$GPHDT,182.195,T*33
$GNGGA,035629.200,2500.8051700,N,12132.4267100,E,2,55,0.51,11.73,M,15.25,M,1,3335*75
$GNRMC,035629.200,A,2500.8051700,N,12132.4267100,E,0.02,332.99,270623,,,D,V*0D
$GPHDT,182.394,T*30
$GNGGA,035629.400,2500.8051700,N,12132.4267100,E,2,55,0.51,11.73,M,15.25,M,1,3335*73
$GNRMC,035629.400,A,2500.8051700,N,12132.4267100,E,0.01,332.99,270623,,,D,V*08
$GPHDT,182.027,T*3B
$GNGGA,035629.600,2500.8051700,N,12132.4267100,E,2,55,0.51,11.73,M,15.25,M,1,3335*71
$GNRMC,035629.600,A,2500.8051700,N,12132.4267100,E,0.04,332.99,270623,,,D,V*0F
$GPHDT,182.273,T*38
$GNGGA,035629.800,2500.8051700,N,12132.4267100,E,2,54,0.52,11.73,M,15.25,M,1,3335*7D
$GNRMC,035629.800,A,2500.8051700,N,12132.4267100,E,0.08,332.99,270623,,,D,V*0D
$GPHDT,182.180,T*37
$GNGSA,A,3,19,195,196,17,199,06,09,11,04,12,194,,0.80,0.51,0.61,1*02
$GNGSA,A,3,68,67,82,83,73,80,,,,,,,0.80,0.51,0.61,2*0B
$GNGSA,A,3,10,12,11,19,04,25,33,,,,,,0.80,0.51,0.61,3*01
$GNGSA,A,3,40,07,10,33,14,08,43,28,42,11,34,,0.80,0.51,0.61,4*0C
$GPGSV,4,1,15,19,69,031,40,195,68,044,39,196,65,125,39,17,63,087,43,1*67
$GPGSV,4,2,15,199,60,167,34,50,60,167,37,06,50,347,44,194,39,172,17,1*66
$GPGSV,4,3,15,09,35,100,43,20,32,234,18,11,29,290,25,04,21,068,39,1*65
$GPGSV,4,4,15,14,21,175,17,12,16,315,18,03,05,039,18,1*5C
$GPGSV,2,1,08,195,68,044,45,196,65,125,47,199,60,167,45,06,50,347,48,8*55
$GPGSV,2,2,08,194,39,172,24,09,35,100,46,11,29,290,17,04,21,068,40,8*56
$GLGSV,2,1,07,68,55,143,37,67,44,054,43,82,37,044,42,83,35,347,23,1*73
$GLGSV,2,2,07,73,22,284,19,80,20,226,14,66,02,025,,1*41
$GAGSV,3,1,09,24,49,237,,10,49,340,44,12,47,020,33,11,36,304,26,7*7A
$GAGSV,3,2,09,19,32,081,37,04,31,151,30,25,27,304,25,33,13,067,27,7*7B
$GAGSV,3,3,09,09,02,192,,7*4B
$GAGSV,2,1,07,10,49,340,45,12,47,020,43,11,36,304,22,19,32,081,38,1*77
$GAGSV,2,2,07,04,31,151,37,25,27,304,24,33,13,067,18,1*4C
$GBGSV,4,1,14,40,82,150,43,07,79,237,32,10,72,283,38,33,68,142,43,1*7D
$GBGSV,4,2,14,14,60,073,41,08,58,275,20,43,52,062,44,28,40,328,31,1*71
$GBGSV,4,3,14,42,37,049,45,11,31,085,41,41,26,198,,23,16,218,,1*7C
$GBGSV,4,4,14,34,15,101,26,37,15,269,,1*79
$GBGSV,2,1,06,40,82,150,46,33,68,142,48,43,52,062,43,28,40,328,23,4*7E
$GBGSV,2,2,06,42,37,049,45,34,15,101,24,4*7E
$GNGGA,035630.000,2500.8051700,N,12132.4267200,E,2,55,0.51,11.73,M,15.25,M,2,3335*7F
$GNRMC,035630.000,A,2500.8051700,N,12132.4267200,E,0.05,332.99,270623,,,D,V*03
$GPHDT,181.924,T*32
$GNGGA,035630.200,2500.8051700,N,12132.4267200,E,2,55,0.51,11.73,M,15.25,M,2,3335*7D
$GNRMC,035630.200,A,2500.8051700,N,12132.4267200,E,0.05,332.99,270623,,,D,V*01
$GPHDT,182.069,T*31
$GNGGA,035630.400,2500.8051800,N,12132.4267200,E,2,55,0.51,11.74,M,15.25,M,2,3335*73
$GNRMC,035630.400,A,2500.8051800,N,12132.4267200,E,0.04,332.99,270623,,,D,V*09
$GPHDT,182.238,T*37
$GNGGA,035630.600,2500.8051800,N,12132.4267200,E,2,55,0.51,11.74,M,15.25,M,2,3335*71
$GNRMC,035630.600,A,2500.8051800,N,12132.4267200,E,0.09,332.99,270623,,,D,V*06
$GPHDT,181.853,T*33
$GNGGA,035630.800,2500.8051800,N,12132.4267200,E,2,55,0.51,11.74,M,15.25,M,2,3335*7F
$GNRMC,035630.800,A,2500.8051800,N,12132.4267200,E,0.09,332.99,270623,,,D,V*08
$GPHDT,181.574,T*3B
$GNGSA,A,3,19,195,196,17,199,06,09,11,04,12,194,,0.80,0.51,0.61,1*02
$GNGSA,A,3,68,67,82,83,73,80,,,,,,,0.80,0.51,0.61,2*0B
$GNGSA,A,3,10,12,11,19,04,25,33,,,,,,0.80,0.51,0.61,3*01
$GNGSA,A,3,40,07,10,33,14,08,43,28,42,11,34,,0.80,0.51,0.61,4*0C
$GPGSV,4,1,15,19,69,031,40,195,68,044,39,196,65,125,39,17,63,087,43,1*67
$GPGSV,4,2,15,199,60,167,34,50,60,167,36,06,50,347,44,194,39,172,16,1*66
$GPGSV,4,3,15,09,35,100,44,20,32,234,18,11,29,290,27,04,21,068,39,1*60
$GPGSV,4,4,15,14,21,175,16,12,16,315,18,03,05,039,18,1*5D
$GPGSV,2,1,08,195,68,044,45,196,65,125,46,199,60,167,45,06,50,347,48,8*54
$GPGSV,2,2,08,194,39,172,24,09,35,100,46,11,29,290,18,04,21,068,40,8*59
$GLGSV,2,1,07,68,55,143,37,67,44,054,42,82,37,044,42,83,35,347,22,1*73
$GLGSV,2,2,07,73,22,284,19,80,20,226,14,66,02,025,,1*41
$GAGSV,3,1,09,24,49,237,,10,49,340,44,12,47,020,33,11,36,304,26,7*7A
$GAGSV,3,2,09,19,32,081,37,04,31,151,30,25,27,304,25,33,13,067,27,7*7B
$GAGSV,3,3,09,09,02,192,,7*4B
$GAGSV,2,1,07,10,49,340,45,12,47,020,43,11,36,304,21,19,32,081,38,1*74
$GAGSV,2,2,07,04,31,151,37,25,27,304,24,33,13,067,18,1*4C
$GBGSV,4,1,14,40,82,150,43,07,79,237,32,10,72,283,38,33,68,142,43,1*7D
$GBGSV,4,2,14,14,60,073,41,08,58,275,20,43,52,062,44,28,40,328,31,1*71
$GBGSV,4,3,14,42,37,049,45,11,31,085,42,41,26,198,,23,16,218,,1*7F
$GBGSV,4,4,14,34,15,101,27,37,15,269,,1*78
$GBGSV,2,1,06,40,82,150,46,33,68,142,48,43,52,062,43,28,40,328,24,4*79
$GBGSV,2,2,06,42,37,049,45,34,15,101,24,4*7E
$GNGGA,035631.000,2500.8051800,N,12132.4267200,E,2,55,0.51,11.74,M,15.25,M,3,3335*77
$GNRMC,035631.000,A,2500.8051800,N,12132.4267200,E,0.04,332.99,270623,,,D,V*0C
$GPHDT,182.035,T*38
$GNGGA,035631.200,2500.8051800,N,12132.4267200,E,2,55,0.51,11.75,M,15.25,M,3,3335*74
$GNRMC,035631.200,A,2500.8051800,N,12132.4267200,E,0.06,332.99,270623,,,D,V*0C
