$FW : RTK35X,V1.1X0314AS,Lib20210517,1*54
$Tool : LOCOSYS , GNSS Firebird , v1.0.0.19*39
$---------------------------------------------------*2D
,343,41,12,46,023,38,11,37,307,23,04,33,150,41,1*72
$GAGSV,2,2,06,19,32,078,22,25,28,301,26,1*7E
$GBGSV,4,1,13,40,81,159,40,07,78,233,40,10,72,278,24,33,70,136,43,1*70
$GBGSV,4,2,13,14,59,067,40,43,52,067,41,28,42,331,46,42,35,047,38,1*7D
$GBGSV,4,3,13,11,30,088,36,41,29,198,,23,14,215,,34,14,104,25,1*79
$GBGSV,4,4,13,37,14,266,,1*47
$GBGSV,2,1,06,40,81,159,46,33,70,136,44,43,52,067,42,28,42,331,44,4*7D
$GBGSV,2,2,06,42,35,047,43,34,14,104,24,4*70
$GNGGA,040334.000,2500.7992543,N,12132.4336436,E,4,56,0.48,15.679,M,15.25,M,1,3335*40
$GNRMC,040334.000,A,2500.7992543,N,12132.4336436,E,0.02,85.07,270623,,,R,V*23
$GPHDT,,T*1B
$GNGGA,040334.200,2500.7992535,N,12132.4336415,E,4,57,0.48,15.690,M,15.25,M,1,3335*44
$GNRMC,040334.200,A,2500.7992535,N,12132.4336415,E,0.05,85.07,270623,,,R,V*26
$GPHDT,,T*1B
$GNGGA,040334.400,2500.7992537,N,12132.4336427,E,4,56,0.48,15.691,M,15.25,M,1,3335*41
$GNRMC,040334.400,A,2500.7992537,N,12132.4336427,E,0.03,85.07,270623,,,R,V*25
$GPHDT,,T*1B
$GNGGA,040334.600,2500.7992497,N,12132.4336394,E,4,57,0.48,15.694,M,15.25,M,0,3335*42
$GNRMC,040334.600,A,2500.7992497,N,12132.4336394,E,0.07,85.07,270623,,,R,V*27
$GPHDT,,T*1B
$GNGGA,040334.800,2500.7992583,N,12132.4336461,E,4,57,0.48,15.677,M,15.25,M,0,3335*48
$GNRMC,040334.800,A,2500.7992583,N,12132.4336461,E,0.03,85.07,270623,,,R,V*24
$GPHDT,,T*1B
$GNGSA,A,3,19,195,196,17,199,06,194,09,11,04,14,12,0.87,0.48,0.73,1*0B
$GNGSA,A,3,68,67,83,82,73,69,,,,,,,0.87,0.48,0.73,2*00
$GNGSA,A,3,10,24,12,11,04,19,25,33,,,,,0.87,0.48,0.73,3*0B
$GNGSA,A,3,40,07,10,33,14,43,28,42,11,34,,,0.87,0.48,0.73,4*08
$GPGSV,4,1,14,19,70,040,38,195,68,046,42,196,66,124,39,17,62,094,40,1*6B
$GPGSV,4,2,14,199,60,167,34,06,50,352,41,194,38,172,45,09,35,096,37,1*63
$GPGSV,4,3,14,20,35,237,17,11,31,293,20,04,20,064,30,14,18,175,22,1*62
$GPGSV,4,4,14,12,18,313,37,05,09,225,,1*67
$GPGSV,3,1,09,195,68,046,43,196,66,124,46,199,60,167,45,06,50,352,39,8*50
$GPGSV,3,2,09,194,38,172,45,09,35,096,44,11,31,293,19,04,20,064,33,8*51
$GPGSV,3,3,09,14,18,175,26,8*5F
$GLGSV,2,1,07,68,59,139,43,67,42,049,40,83,36,351,26,82,36,049,38,1*78
$GLGSV,2,2,07,73,21,280,16,69,19,184,30,80,18,223,,1*4E
$GAGSV,3,1,09,10,49,343,40,24,47,234,13,12,46,023,35,11,37,307,34,7*77
$GAGSV,3,2,09,04,33,150,40,19,32,078,27,25,28,301,19,33,12,070,17,7*79
$GAGSV,3,3,09,36,01,275,,7*4E
$GAGSV,2,1,06,10,49,343,41,12,46,023,39,11,37,307,21,04,33,150,40,1*70
$GAGSV,2,2,06,19,32,078,20,25,28,301,25,1*7F
$GBGSV,4,1,13,40,81,159,40,07,78,233,41,10,72,278,22,33,70,136,43,1*77
$GBGSV,4,2,13,14,59,067,40,43,52,067,41,28,42,331,47,42,35,047,38,1*7C
$GBGSV,4,3,13,11,30,088,36,41,29,198,,23,14,215,,34,14,104,29,1*75
$GBGSV,4,4,13,37,14,266,,1*47
$GBGSV,2,1,06,40,81,159,45,33,70,136,44,43,52,067,42,28,42,331,44,4*7E
$GBGSV,2,2,06,42,35,047,42,34,14,104,23,4*76
$GNGGA,040335.000,2500.7992593,N,12132.4336456,E,4,57,0.48,15.679,M,15.25,M,1,3335*4B
$GNRMC,040335.000,A,2500.7992593,N,12132.4336456,E,0.02,85.07,270623,,,R,V*29
$GPHDT,,T*1B
$GNGGA,040335.200,2500.7992592,N,12132.4336462,E,4,57,0.47,15.684,M,15.25,M,1,3335*42
$GNRMC,040335.200,A,2500.7992592,N,12132.4336462,E,0.01,85.07,270623,,,R,V*2E
$GPHDT,,T*1B
$GNGGA,040335.400,2500.7992557,N,12132.4336452,E,4,56,0.47,15.697,M,15.25,M,0,3335*4C
$GNRMC,040335.400,A,2500.7992557,N,12132.4336452,E,0.01,85.07,270623,,,R,V*22
$GPHDT,,T*1B
$GNGGA,040335.600,2500.7992556,N,12132.4336431,E,4,55,0.48,15.707,M,15.25,M,0,3335*4E
$GNRMC,040335.600,A,2500.7992556,N,12132.4336431,E,0.08,85.07,270623,,,R,V*2D
$GPHDT,,T*1B
$GNGGA,040335.800,2500.7992545,N,12132.4336421,E,4,55,0.48,15.701,M,15.25,M,0,3335*45
$GNRMC,040335.800,A,2500.7992545,N,12132.4336421,E,0.18,85.07,270623,,,R,V*21
$GPHDT,,T*1B
$GNGSA,A,3,19,195,196,17,199,06,194,09,11,04,12,14,0.87,0.48,0.73,1*0B
$GNGSA,A,3,68,67,83,82,73,69,,,,,,,0.87,0.48,0.73,2*00
$GNGSA,A,3,10,24,12,11,04,19,25,33,,,,,0.87,0.48,0.73,3*0B
$GNGSA,A,3,40,07,10,33,14,43,28,42,11,34,,,0.87,0.48,0.73,4*08
$GPGSV,4,1,14,19,70,040,39,195,68,046,42,196,66,124,39,17,62,094,41,1*6B
$GPGSV,4,2,14,199,60,167,33,06,50,352,40,194,38,172,45,09,36,096,37,1*66
$GPGSV,4,3,14,20,35,237,18,11,31,294,24,04,20,064,28,14,18,175,19,1*6F
$GPGSV,4,4,14,12,18,312,37,05,09,225,,1*66
$GPGSV,3,1,09,195,68,046,45,196,66,124,45,199,60,167,45,06,50,352,41,8*5A
$GPGSV,3,2,09,194,38,172,45,09,36,096,42,11,31,294,20,04,20,064,31,8*5B
$GPGSV,3,3,09,14,18,175,25,8*5C
$GLGSV,2,1,07,68,59,139,43,67,42,049,43,83,36,351,29,82,36,049,41,1*7A
$GLGSV,2,2,07,73,21,280,16,69,19,184,31,80,18,223,,1*4F
$GAGSV,3,1,09,10,49,343,40,24,47,234,13,12,46,023,35,11,37,307,34,7*77
$GAGSV,3,2,09,04,33,150,40,19,32,078,25,25,28,301,19,33,12,070,17,7*7B
$GAGSV,3,3,09,36,01,275,,7*4E
$GAGSV,2,1,06,10,49,343,42,12,46,023,40,11,37,307,21,04,33,150,39,1*73
$GAGSV,2,2,06,19,32,078,26,25,28,301,23,1*7F
$GBGSV,4,1,13,40,81,159,40,07,78,233,41,10,72,278,25,33,70,136,43,1*70
$GBGSV,4,2,13,14,59,067,41,43,52,067,42,28,42,331,47,42,35,047,41,1*70
$GBGSV,4,3,13,11,30,088,36,41,29,198,,23,14,215,,34,14,104,,1*7E
$GBGSV,4,4,13,37,14,266,,1*47
$GBGSV,2,1,06,40,81,159,45,33,70,136,44,43,52,067,41,28,42,331,44,4*7D
$GBGSV,2,2,06,42,35,047,45,34,14,104,24,4*76
$GNGGA,040336.000,2500.7992555,N,12132.4336432,E,4,55,0.48,15.699,M,15.25,M,1,3335*4C
$GNRMC,040336.000,A,2500.7992555,N,12132.4336432,E,0.04,85.07,270623,,,R,V*24
$GPHDT,,T*1B
$GNGGA,040336.200,2500.7992578,N,12132.4336484,E,4,55,0.48,15.682,M,15.25,M,1,3335*46
$GNRMC,040336.200,A,2500.7992578,N,12132.4336484,E,0.03,85.07,270623,,,R,V*23
$GPHDT,,T*1B
$GNGGA,040336.400,2500.7992565,N,12132.4336393,E,4,58,0.45,15.701,M,15.25,M,1,3335*47
$GNRMC,040336.400,A,2500.7992565,N,12132.4336393,E,0.04,85.07,270623,,,R,V*2F
$GPHDT,,T*1B
$GNGGA,040336.600,2500.7992594,N,12132.4336436,E,4,58,0.45,15.691,M,15.25,M,1,3335*4B
$GNRMC,040336.600,A,2500.7992594,N,12132.4336436,E,0.05,85.07,270623,,,R,V*2A
$GPHDT,,T*1B
$GNGGA,040336.800,2500.7992555,N,12132.4336409,E,4,58,0.45,15.700,M,15.25,M,0,3335*4C
$GNRMC,040336.800,A,2500.7992555,N,12132.4336409,E,0.07,85.07,270623,,,R,V*27
$GPHDT,,T*1B
$GNGSA,A,3,19,195,196,17,199,06,194,09,11,04,12,14,0.85,0.46,0.71,1*05
$GNGSA,A,3,68,67,83,82,73,69,80,,,,,,0.85,0.46,0.71,2*06
$GNGSA,A,3,10,24,12,11,04,19,25,33,,,,,0.85,0.46,0.71,3*05
$GNGSA,A,3,40,07,10,33,14,43,28,42,11,34,,,0.85,0.46,0.71,4*06
$GPGSV,4,1,14,19,70,040,39,195,68,046,42,196,66,124,38,17,61,094,41,1*69
$GPGSV,4,2,14,199,60,167,32,06,50,352,40,194,38,172,45,09,36,096,32,1*62
$GPGSV,4,3,14,20,35,237,18,11,31,294,25,04,20,064,31,14,18,174,18,1*66
$GPGSV,4,4,14,12,18,312,37,05,09,225,,1*66
$GPGSV,3,1,09,195,68,046,46,196,66,124,45,199,60,167,44,06,50,352,41,8*58
$GPGSV,3,2,09,194,38,172,45,09,36,096,37,11,31,294,20,04,20,064,30,8*58
$GPGSV,3,3,09,14,18,174,26,8*5E
$GLGSV,2,1,08,68,59,139,43,67,42,049,43,83,36,351,29,82,36,049,44,1*70
$GLGSV,2,2,08,73,21,280,16,69,19,184,31,80,18,223,15,74,06,321,,1*71
$GAGSV,3,1,10,10,49,343,40,24,47,234,15,12,46,023,35,11,37,307,34,7*79
$GAGSV,3,2,10,04,33,150,40,19,32,078,26,25,28,301,18,33,12,070,16,7*70
$GAGSV,3,3,10,09,04,191,,36,01,275,,7*72
$GAGSV,2,1,06,10,49,343,42,12,46,023,39,11,37,307,21,04,33,150,39,1*7D
$GAGSV,2,2,06,19,32,078,31,25,28,301,23,1*79
$GBGSV,4,1,13,40,81,159,40,07,78,233,41,10,72,278,25,33,70,136,43,1*70
$GBGSV,4,2,13,14,59,067,43,43,52,067,42,28,42,331,47,42,35,047,41,1*72
$GBGSV,4,3,13,11,30,088,37,41,29,198,,37,14,266,,23,14,215,,1*7B
$GBGSV,4,4,13,34,14,104,29,1*48
$GBGSV,2,1,06,40,81,159,45,33,70,136,44,43,52,067,41,28,42,331,44,4*7D
$GBGSV,2,2,06,42,35,047,45,34,14,104,24,4*76
$GNGGA,040337.000,2500.7992598,N,12132.4336436,E,4,57,0.46,15.684,M,15.25,M,1,3335*48
$GNRMC,040337.000,A,2500.7992598,N,12132.4336436,E,0.06,85.07,270623,,,R,V*22
$GPHDT,,T*1B
$GNGGA,040337.200,2500.7992612,N,12132.4336465,E,4,57,0.46,15.675,M,15.25,M,1,3335*43
$GNRMC,040337.200,A,2500.7992612,N,12132.4336465,E,0.05,85.07,270623,,,R,V*24
$GPHDT,,T*1B
$GNGGA,040337.400,2500.7992611,N,12132.4336498,E,4,57,0.46,15.680,M,15.25,M,1,3335*4E
$GNRMC,040337.400,A,2500.7992611,N,12132.4336498,E,0.05,85.07,270623,,,R,V*23
$GPHDT,,T*1B
$GNGGA,040337.600,2500.7992548,N,12132.4336391,E,4,57,0.46,15.694,M,15.25,M,0,3335*49
$GNRMC,040337.600,A,2500.7992548,N,12132.4336391,E,0.05,85.07,270623,,,R,V*20
$GPHDT,,T*1B
$GNGGA,040337.800,2500.7992532,N,12132.4336377,E,4,57,0.46,15.699,M,15.25,M,0,3335*4F
$GNRMC,040337.800,A,2500.7992532,N,12132.4336377,E,0.06,85.07,270623,,,R,V*28
$GPHDT,,T*1B
$GNGSA,A,3,19,195,196,17,199,06,194,09,11,04,12,14,0.85,0.46,0.71,1*05
$GNGSA,A,3,68,67,83,82,73,69,80,,,,,,0.85,0.46,0.71,2*06
$GNGSA,A,3,10,24,12,11,04,19,25,33,,,,,0.85,0.46,0.71,3*05
$GNGSA,A,3,40,07,10,33,14,43,28,42,11,34,,,0.85,0.46,0.71,4*06
$GPGSV,4,1,14,19,70,041,39,195,68,046,42,196,66,124,38,17,61,094,42,1*6B
$GPGSV,4,2,14,199,60,167,32,06,50,352,40,194,38,172,45,09,36,096,32,1*62
$GPGSV,4,3,14,20,35,237,16,11,31,294,26,04,20,064,31,14,18,174,17,1*64
$GPGSV,4,4,14,12,18,312,37,05,09,225,,1*66
$GPGSV,3,1,09,195,68,046,46,196,66,124,45,199,60,167,44,06,50,352,41,8*58
$GPGSV,3,2,09,194,38,172,45,09,36,096,37,11,31,294,21,04,20,064,28,8*50
$GPGSV,3,3,09,14,18,174,26,8*5E
$GLGSV,2,1,08,68,59,139,43,67,42,049,43,83,36,351,29,82,36,049,44,1*70
$GLGSV,2,2,08,73,21,280,15,69,19,184,32,80,18,223,16,74,06,321,,1*72
$GAGSV,3,1,09,10,49,343,40,24,47,234,16,12,46,023,35,11,37,307,34,7*72
$GAGSV,3,2,09,04,33,150,40,19,32,078,26,25,28,301,18,33,12,070,17,7*79
$GAGSV,3,3,09,09,04,191,,7*4E
$GAGSV,2,1,06,10,49,343,42,12,46,023,39,11,37,307,21,04,33,150,39,1*7D
$GAGSV,2,2,06,19,32,078,31,25,28,301,24,1*7E
$GBGSV,4,1,13,40,81,159,40,07,78,233,41,10,72,278,25,33,70,136,43,1*70
$GBGSV,4,2,13,14,59,067,44,43,52,067,42,28,42,331,47,42,35,047,41,1*75
$GBGSV,4,3,13,11,30,088,37,41,29,198,,37,14,266,,23,14,215,,1*7B
$GBGSV,4,4,13,34,14,104,29,1*48
$GBGSV,2,1,06,40,81,159,45,33,70,136,44,43,52,067,41,28,42,331,44,4*7D
$GBGSV,2,2,06,42,35,047,45,34,14,104,24,4*76
$GNGGA,040338.000,2500.7992557,N,12132.4336397,E,4,57,0.46,15.694,M,15.25,M,1,3335*49
$GNRMC,040338.000,A,2500.7992557,N,12132.4336397,E,0.05,85.07,270623,,,R,V*21
$GPHDT,,T*1B
$GNGGA,040338.200,2500.7992541,N,12132.4336355,E,4,57,0.46,15.700,M,15.25,M,1,3335*4E
$GNRMC,040338.200,A,2500.7992541,N,12132.4336355,E,0.05,85.07,270623,,,R,V*2A
$GPHDT,,T*1B
$GNGGA,040338.400,2500.7992555,N,12132.4336404,E,4,58,0.45,15.693,M,15.25,M,0,3335*48
$GNRMC,040338.400,A,2500.7992555,N,12132.4336404,E,0.05,85.07,270623,,,R,V*2A
$GPHDT,,T*1B
$GNGGA,040338.600,2500.7992543,N,12132.4336396,E,4,57,0.46,15.702,M,15.25,M,0,3335*44
$GNRMC,040338.600,A,2500.7992543,N,12132.4336396,E,0.05,85.07,270623,,,R,V*23
$GPHDT,,T*1B
$GNGGA,040338.800,2500.7992548,N,12132.4336393,E,4,57,0.46,15.708,M,15.25,M,0,3335*4E
$GNRMC,040338.800,A,2500.7992548,N,12132.4336393,E,0.05,85.07,270623,,,R,V*23
$GPHDT,,T*1B
$GNGSA,A,3,19,195,196,17,199,06,194,09,11,04,12,14,0.85,0.46,0.71,1*05
$GNGSA,A,3,68,67,83,82,73,69,80,,,,,,0.85,0.46,0.71,2*06
$GNGSA,A,3,10,24,12,11,04,19,25,33,,,,,0.85,0.46,0.71,3*05
$GNGSA,A,3,40,07,10,33,14,43,28,42,11,34,,,0.85,0.46,0.71,4*06
$GPGSV,4,1,14,19,70,041,38,195,68,046,42,196,66,124,38,17,61,094,42,1*6A
$GPGSV,4,2,14,199,60,167,32,06,50,352,39,194,38,172,45,09,36,096,31,1*6F
$GPGSV,4,3,14,20,35,237,15,11,31,294,26,04,20,064,30,14,18,174,16,1*67
$GPGSV,4,4,14,12,18,312,37,05,09,225,,1*66
$GPGSV,3,1,09,195,68,046,46,196,66,124,44,199,60,167,44,06,50,352,41,8*59
$GPGSV,3,2,09,194,38,172,45,09,36,096,35,11,31,294,24,04,20,064,28,8*57
$GPGSV,3,3,09,14,18,174,26,8*5E
$GLGSV,2,1,08,68,59,139,43,67,42,049,43,83,36,351,29,82,36,049,44,1*70
$GLGSV,2,2,08,73,21,280,16,69,19,184,32,80,18,223,17,84,01,301,,1*7A
$GAGSV,3,1,10,10,49,343,41,24,47,234,16,12,46,023,34,11,37,307,34,7*7A
$GAGSV,3,2,10,04,33,150,40,19,32,078,25,25,28,301,18,33,12,070,17,7*72
$GAGSV,3,3,10,09,04,191,,36,01,275,,7*72
$GAGSV,2,1,06,10,49,343,42,12,46,023,39,11,37,307,21,04,33,150,39,1*7D
$GAGSV,2,2,06,19,32,078,31,25,28,301,23,1*79
$GBGSV,4,1,13,40,81,159,40,07,78,233,41,10,72,278,24,33,70,136,43,1*71
$GBGSV,4,2,13,14,59,067,44,43,52,067,42,28,42,331,47,42,35,047,41,1*75
$GBGSV,4,3,13,11,30,088,37,41,29,198,,37,14,266,,23,14,215,,1*7B
$GBGSV,4,4,13,34,14,104,30,1*40
$GBGSV,2,1,06,40,81,159,45,33,70,136,43,43,52,067,42,28,42,331,44,4*79
$GBGSV,2,2,06,42,35,047,45,34,14,104,23,4*71
$GNGGA,040339.000,2500.7992551,N,12132.4336407,E,4,57,0.46,15.697,M,15.25,M,1,3335*43
$GNRMC,040339.000,A,2500.7992551,N,12132.4336407,E,0.04,85.07,270623,,,R,V*29
$GPHDT,,T*1B
$GNGGA,040339.200,2500.7992551,N,12132.4336410,E,4,57,0.46,15.703,M,15.25,M,1,3335*4B
$GNRMC,040339.200,A,2500.7992551,N,12132.4336410,E,0.04,85.07,270623,,,R,V*2D
$GPHDT,,T*1B
$GNGGA,040339.400,2500.7992556,N,12132.4336388,E,4,57,0.46,15.701,M,15.25,M,1,3335*4E
$GNRMC,040339.400,A,2500.7992556,N,12132.4336388,E,0.03,85.07,270623,,,R,V*2D
$GPHDT,,T*1B
$GNGGA,040339.600,2500.7992523,N,12132.4336377,E,4,57,0.46,15.692,M,15.25,M,0,3335*44
$GNRMC,040339.600,A,2500.7992523,N,12132.4336377,E,0.03,85.07,270623,,,R,V*2D
$GPHDT,,T*1B
$GNGGA,040339.800,2500.7992588,N,12132.4336457,E,4,57,0.46,15.684,M,15.25,M,0,3335*49
$GNRMC,040339.800,A,2500.7992588,N,12132.4336457,E,0.03,85.07,270623,,,R,V*27
$GPHDT,,T*1B
$GNGSA,A,3,19,195,196,17,199,06,194,09,11,04,12,14,0.85,0.46,0.71,1*05
$GNGSA,A,3,68,67,83,82,73,69,80,,,,,,0.85,0.46,0.71,2*06
$GNGSA,A,3,10,24,12,11,04,19,25,33,,,,,0.85,0.46,0.71,3*05
$GNGSA,A,3,40,07,10,33,14,43,28,42,11,34,,,0.85,0.46,0.71,4*06
$GPGSV,4,1,14,19,70,041,38,195,68,046,42,196,66,124,38,17,61,094,42,1*6A
$GPGSV,4,2,14,199,60,167,31,06,50,352,39,194,38,172,45,09,36,096,35,1*68
$GPGSV,4,3,14,20,35,237,16,11,31,294,27,04,20,064,30,14,18,174,17,1*64
$GPGSV,4,4,14,12,18,312,38,05,09,225,,1*69
$GPGSV,3,1,09,195,68,046,46,196,66,124,44,199,60,167,44,06,50,352,41,8*59
$GPGSV,3,2,09,194,38,172,46,09,36,096,39,11,31,294,23,04,20,064,27,8*50
$GPGSV,3,3,09,14,18,174,26,8*5E
$GLGSV,2,1,07,68,59,139,43,67,42,049,44,83,36,351,29,82,36,049,44,1*78
$GLGSV,2,2,07,73,21,280,14,69,19,184,32,80,18,223,17,1*48
$GAGSV,3,1,10,10,49,343,41,24,47,234,16,12,46,023,34,11,37,307,33,7*7D
$GAGSV,3,2,10,04,33,150,40,19,32,078,25,25,28,301,18,33,12,070,17,7*72
$GAGSV,3,3,10,09,04,191,,36,01,275,,7*72
$GAGSV,2,1,06,10,49,343,42,12,46,023,39,11,37,307,22,04,33,150,39,1*7E
$GAGSV,2,2,06,19,32,078,31,25,28,301,24,1*7E
$GBGSV,4,1,13,40,81,159,40,07,78,233,41,10,72,278,21,33,70,136,43,1*74
$GBGSV,4,2,13,14,59,067,44,43,52,067,42,28,42,331,47,42,35,047,41,1*75
$GBGSV,4,3,13,11,30,088,36,41,29,198,,37,14,266,,23,14,215,,1*7A
$GBGSV,4,4,13,34,14,104,28,1*49
$GBGSV,2,1,06,40,81,159,45,33,70,136,43,43,52,067,42,28,42,331,45,4*78
$GBGSV,2,2,06,42,35,047,45,34,14,104,23,4*71
$GNGGA,040340.000,2500.7992549,N,12132.4336445,E,4,57,0.46,15.674,M,15.25,M,1,3335*4F
$GNRMC,040340.000,A,2500.7992549,N,12132.4336445,E,0.03,85.07,270623,,,R,V*2F
$GPHDT,,T*1B
$GNGGA,040340.200,2500.7992564,N,12132.4336450,E,4,57,0.46,15.672,M,15.25,M,1,3335*40
$GNRMC,040340.200,A,2500.7992564,N,12132.4336450,E,0.03,85.07,270623,,,R,V*26
$GPHDT,,T*1B
$GNGGA,040340.400,2500.7992582,N,12132.4336412,E,4,58,0.45,15.692,M,15.25,M,1,3335*4A
$GNRMC,040340.400,A,2500.7992582,N,12132.4336412,E,0.02,85.07,270623,,,R,V*2F
$GPHDT,,T*1B
$GNGGA,040340.600,2500.7992594,N,12132.4336427,E,4,58,0.45,15.695,M,15.25,M,1,3335*4E
$GNRMC,040340.600,A,2500.7992594,N,12132.4336427,E,0.02,85.07,270623,,,R,V*2C
$GPHDT,,T*1B
$GNGGA,040340.800,2500.7992535,N,12132.4336388,E,4,57,0.46,15.699,M,15.25,M,0,3335*48
$GNRMC,040340.800,A,2500.7992535,N,12132.4336388,E,0.03,85.07,270623,,,R,V*2A
$GPHDT,,T*1B
$GNGSA,A,3,19,195,196,17,199,06,194,09,11,04,12,14,0.85,0.46,0.71,1*05
$GNGSA,A,3,68,67,83,82,73,69,80,,,,,,0.85,0.46,0.71,2*06
$GNGSA,A,3,10,24,12,11,04,19,25,33,,,,,0.85,0.46,0.71,3*05
$GNGSA,A,3,40,07,10,33,14,43,28,42,11,34,,,0.85,0.46,0.71,4*06
$GPGSV,4,1,14,19,70,041,40,195,68,046,43,196,66,124,39,17,61,094,40,1*67
$GPGSV,4,2,14,199,60,167,32,06,50,352,39,194,38,172,45,09,36,096,32,1*6C
$GPGSV,4,3,14,20,35,237,17,11,31,294,22,04,20,064,31,14,18,174,17,1*61
$GPGSV,4,4,14,12,18,312,38,05,09,225,,1*69
$GPGSV,3,1,09,195,68,046,46,196,66,124,44,199,60,167,44,06,50,352,40,8*58
$GPGSV,3,2,09,194,38,172,46,09,36,096,38,11,31,294,22,04,20,064,28,8*5F
$GPGSV,3,3,09,14,18,174,26,8*5E
$GLGSV,2,1,07,68,59,139,43,67,42,049,44,83,36,351,29,82,36,049,44,1*78
$GLGSV,2,2,07,73,21,280,15,69,19,184,32,80,18,223,16,1*48
$GAGSV,3,1,10,10,49,343,40,24,47,234,14,12,46,023,34,11,37,307,33,7*7E
$GAGSV,3,2,10,04,33,150,40,19,32,078,27,25,28,301,18,33,12,070,15,7*72
$GAGSV,3,3,10,09,04,191,,36,01,275,,7*72
$GAGSV,2,1,06,10,49,343,42,12,46,023,39,11,37,307,22,04,33,150,40,1*70
$GAGSV,2,2,06,19,32,078,30,25,28,301,23,1*78
$GBGSV,4,1,13,40,81,159,40,07,78,233,41,10,72,278,21,33,70,136,43,1*74
$GBGSV,4,2,13,14,59,067,44,43,52,067,41,28,42,331,47,42,35,047,42,1*75
$GBGSV,4,3,13,11,30,088,36,41,29,198,,37,14,266,,23,14,215,,1*7A
$GBGSV,4,4,13,34,14,104,28,1*49
$GBGSV,2,1,06,40,81,159,45,33,70,136,43,43,52,067,41,28,42,331,45,4*7B
$GBGSV,2,2,06,42,35,047,45,34,14,104,22,4*70
$GNGGA,040341.000,2500.7992539,N,12132.4336386,E,4,57,0.46,15.712,M,15.25,M,1,3335*40
$GNRMC,040341.000,A,2500.7992539,N,12132.4336386,E,0.02,85.07,270623,,,R,V*20
$GPHDT,,T*1B
$GNGGA,040341.200,2500.7992566,N,12132.4336392,E,4,57,0.46,15.719,M,15.25,M,1,3335*46
$GNRMC,040341.200,A,2500.7992566,N,12132.4336392,E,0.02,85.07,270623,,,R,V*2D
$GPHDT,,T*1B
$GNGGA,040341.400,2500.7992528,N,12132.4336343,E,4,57,0.46,15.726,M,15.25,M,0,3335*4B
$GNRMC,040341.400,A,2500.7992528,N,12132.4336343,E,0.02,85.07,270623,,,R,V*2D
$GPHDT,,T*1B
$GNGGA,040341.600,2500.7992592,N,12132.4336526,E,4,57,0.46,15.675,M,15.25,M,0,3335*4A
$GNRMC,040341.600,A,2500.7992592,N,12132.4336526,E,0.02,85.07,270623,,,R,V*2B
$GPHDT,,T*1B
$GNGGA,040341.800,2500.7992578,N,12132.4336479,E,4,57,0.46,15.676,M,15.25,M,0,3335*48
$GNRMC,040341.800,A,2500.7992578,N,12132.4336479,E,0.02,85.07,270623,,,R,V*2A
$GPHDT,,T*1B
$GNGSA,A,3,19,195,196,17,199,06,194,09,11,04,12,14,0.85,0.46,0.71,1*05
$GNGSA,A,3,68,67,83,82,73,69,80,,,,,,0.85,0.46,0.71,2*06
$GNGSA,A,3,10,24,12,11,04,19,25,33,,,,,0.85,0.46,0.71,3*05
$GNGSA,A,3,40,07,10,33,14,43,28,42,11,34,,,0.85,0.46,0.71,4*06
$GPGSV,4,1,14,19,70,041,40,195,68,046,43,196,66,124,39,17,61,094,35,1*65
$GPGSV,4,2,14,199,60,167,32,06,50,352,38,194,38,172,45,09,36,096,30,1*6F
$GPGSV,4,3,14,20,35,237,16,11,31,294,21,04,20,064,32,14,18,174,17,1*60
$GPGSV,4,4,14,12,18,312,38,05,09,225,,1*69
$GPGSV,3,1,09,195,68,046,46,196,66,124,44,199,60,167,45,06,50,352,39,8*57
$GPGSV,3,2,09,194,38,172,46,09,36,096,35,11,31,294,22,04,20,064,29,8*53
$GPGSV,3,3,09,14,18,174,27,8*5F
$GLGSV,2,1,07,68,59,139,43,67,42,049,44,83,36,351,30,82,36,049,44,1*70
$GLGSV,2,2,07,73,21,280,16,69,19,184,31,80,18,223,16,1*48
$GAGSV,3,1,10,10,49,343,40,24,47,234,15,12,46,023,35,11,37,307,33,7*7E
$GAGSV,3,2,10,04,33,150,39,19,32,078,29,25,28,301,17,33,12,070,15,7*7D
$GAGSV,3,3,10,09,04,191,,36,01,275,,7*72
$GAGSV,2,1,06,10,49,343,42,12,46,023,40,11,37,307,23,04,33,150,40,1*7F
$GAGSV,2,2,06,19,32,078,30,25,28,301,23,1*78
$GBGSV,4,1,13,40,81,159,40,07,78,233,41,10,72,278,21,33,70,136,43,1*74
$GBGSV,4,2,13,14,59,067,45,43,52,067,44,28,42,331,47,42,35,047,40,1*73
$GBGSV,4,3,13,11,30,088,33,41,29,198,,37,14,266,,23,14,215,,1*7F
$GBGSV,4,4,13,34,14,104,28,1*49
$GBGSV,2,1,06,40,81,159,45,33,70,136,44,43,52,067,41,28,42,331,45,4*7C
$GBGSV,2,2,06,42,35,047,45,34,14,104,21,4*73
$GNGGA,040342.000,2500.7992603,N,12132.4336414,E,4,57,0.46,15.672,M,15.25,M,1,3335*42
$GNRMC,040342.000,A,2500.7992603,N,12132.4336414,E,0.02,85.07,270623,,,R,V*25
$GPHDT,,T*1B
$GNGGA,040342.200,2500.7992601,N,12132.4336498,E,4,57,0.46,15.670,M,15.25,M,1,3335*44
$GNRMC,040342.200,A,2500.7992601,N,12132.4336498,E,0.01,85.07,270623,,,R,V*22
$GPHDT,,T*1B
$GNGGA,040342.400,2500.7992584,N,12132.4336488,E,4,57,0.46,15.686,M,15.25,M,1,3335*44
$GNRMC,040342.400,A,2500.7992584,N,12132.4336488,E,0.01,85.07,270623,,,R,V*2B
$GPHDT,,T*1B
$GNGGA,040342.600,2500.7992554,N,12132.4336392,E,4,57,0.46,15.696,M,15.25,M,0,3335*47
$GNRMC,040342.600,A,2500.7992554,N,12132.4336392,E,0.02,85.07,270623,,,R,V*2B
$GPHDT,,T*1B
$GNGGA,040342.800,2500.7992543,N,12132.4336382,E,4,56,0.48,15.693,M,15.25,M,0,3335*44
$GNRMC,040342.800,A,2500.7992543,N,12132.4336382,E,0.02,85.07,270623,,,R,V*22
$GPHDT,,T*1B
$GNGSA,A,3,19,195,196,17,199,06,194,09,11,04,12,14,0.87,0.48,0.73,1*0B
$GNGSA,A,3,68,67,83,82,73,69,,,,,,,0.87,0.48,0.73,2*00
$GNGSA,A,3,10,24,12,11,04,19,25,33,,,,,0.87,0.48,0.73,3*0B
$GNGSA,A,3,40,07,10,33,14,43,28,42,11,34,,,0.87,0.48,0.73,4*08
$GPGSV,4,1,14,19,70,041,38,195,68,046,43,196,66,124,37,17,61,094,34,1*65
$GPGSV,4,2,14,199,60,167,34,06,50,352,41,194,38,172,45,09,36,096,28,1*6E
$GPGSV,4,3,14,20,35,237,15,11,31,294,20,04,20,064,31,14,18,174,17,1*61
$GPGSV,4,4,14,12,18,312,38,05,09,225,,1*69
$GPGSV,3,1,09,195,68,046,46,196,66,124,43,199,60,167,45,06,50,352,41,8*5F
$GPGSV,3,2,09,194,38,172,46,09,36,096,35,11,31,294,22,04,20,064,33,8*58
$GPGSV,3,3,09,14,18,174,26,8*5E
$GLGSV,2,1,07,68,59,139,43,67,42,049,43,83,36,351,30,82,36,049,43,1*70
$GLGSV,2,2,07,73,21,280,14,69,19,184,30,80,18,223,16,1*4B
$GAGSV,3,1,10,10,49,343,40,24,47,234,16,12,46,023,34,11,37,307,33,7*7C
$GAGSV,3,2,10,04,34,150,39,19,32,078,34,25,28,301,18,33,12,070,13,7*7F
$GAGSV,3,3,10,09,04,191,,36,01,275,,7*72
$GAGSV,2,1,06,10,49,343,42,12,46,023,40,11,37,307,22,04,34,150,42,1*7B
$GAGSV,2,2,06,19,32,078,32,25,28,301,22,1*7B
$GBGSV,4,1,13,40,81,159,40,07,78,233,41,10,72,278,20,33,70,136,42,1*74
$GBGSV,4,2,13,14,59,067,46,43,52,067,46,28,42,331,47,42,35,047,40,1*72
$GBGSV,4,3,13,11,30,088,32,41,29,198,,37,14,266,,23,14,215,,1*7E
$GBGSV,4,4,13,34,14,104,28,1*49
$GBGSV,2,1,06,40,81,159,45,33,70,136,44,43,52,067,45,28,42,331,45,4*78
$GBGSV,2,2,06,42,35,047,43,34,14,104,23,4*77
$GNGGA,040343.000,2500.7992537,N,12132.4336368,E,4,56,0.48,15.709,M,15.25,M,1,3335*49
$GNRMC,040343.000,A,2500.7992537,N,12132.4336368,E,0.02,85.07,270623,,,R,V*2C
$GPHDT,,T*1B
$GNGGA,040343.200,2500.7992548,N,12132.4336385,E,4,55,0.48,15.696,M,15.25,M,1,3335*44
$GNRMC,040343.200,A,2500.7992548,N,12132.4336385,E,0.00,85.07,270623,,,R,V*27
$GPHDT,,T*1B
$GNGGA,040343.400,2500.7992548,N,12132.4336368,E,4,57,0.47,15.703,M,15.25,M,0,3335*40
$GNRMC,040343.400,A,2500.7992548,N,12132.4336368,E,0.00,85.07,270623,,,R,V*22
$GPHDT,,T*1B
$GNGGA,040343.600,2500.7992537,N,12132.4336390,E,4,57,0.47,15.692,M,15.25,M,0,3335*44
$GNRMC,040343.600,A,2500.7992537,N,12132.4336390,E,0.00,85.07,270623,,,R,V*2F
$GPHDT,,T*1B
$GNGGA,040343.800,2500.7992521,N,12132.4336364,E,4,57,0.47,15.689,M,15.25,M,0,3335*4C
$GNRMC,040343.800,A,2500.7992521,N,12132.4336364,E,0.00,85.07,270623,,,R,V*2D
$GPHDT,,T*1B
$GNGSA,A,3,19,195,196,17,199,06,194,09,20,11,04,12,0.87,0.47,0.73,1*03
$GNGSA,A,3,14,,,,,,,,,,,,0.87,0.47,0.73,1*0C
$GNGSA,A,3,68,67,83,82,73,69,,,,,,,0.87,0.47,0.73,2*0F
$GNGSA,A,3,10,24,12,11,04,19,25,33,,,,,0.87,0.47,0.73,3*04
$GNGSA,A,3,40,07,10,33,14,43,28,42,11,34,,,0.87,0.47,0.73,4*07
$GPGSV,4,1,15,19,70,041,39,195,68,046,43,196,66,124,33,17,61,094,33,1*66
$GPGSV,4,2,15,199,60,167,34,06,50,352,40,194,38,172,45,09,36,096,37,1*60
$GPGSV,4,3,15,20,35,237,15,11,31,294,18,39,21,256,,04,20,064,32,1*68
$GPGSV,4,4,15,14,18,174,17,12,18,312,38,05,09,225,,1*50
$GPGSV,3,1,09,195,68,046,46,196,66,124,40,199,60,167,45,06,50,352,40,8*5D
$GPGSV,3,2,09,194,38,172,45,09,36,096,39,11,31,294,18,04,20,064,30,8*5D
$GPGSV,3,3,09,14,18,174,24,8*5C
$GLGSV,2,1,07,68,59,139,39,67,42,049,45,83,36,351,29,82,36,049,44,1*74
$GLGSV,2,2,07,73,21,280,12,69,19,184,27,80,18,223,15,1*48
$GAGSV,3,1,09,10,49,344,40,24,47,234,17,12,46,024,33,11,37,308,33,7*7D
$GAGSV,3,2,09,04,34,150,41,19,32,078,35,25,28,301,19,33,12,070,13,7*78
$GAGSV,3,3,09,09,04,191,,7*4E
$GAGSV,2,1,06,10,49,344,42,12,46,024,41,11,37,308,22,04,34,150,41,1*76
$GAGSV,2,2,06,19,32,078,33,25,28,301,23,1*7B
$GBGSV,4,1,13,40,81,159,40,07,78,233,41,10,72,278,20,33,70,136,41,1*77
$GBGSV,4,2,13,14,59,067,46,43,52,067,46,28,42,331,47,42,35,047,41,1*73
$GBGSV,4,3,13,11,30,088,37,41,29,198,,23,14,215,,34,14,104,28,1*75
$GBGSV,4,4,13,37,14,266,,1*47
$GBGSV,2,1,06,40,81,159,45,33,70,136,41,43,52,067,45,28,42,331,44,4*7C
$GBGSV,2,2,06,42,35,047,43,34,14,104,23,4*77
$GNGGA,040344.000,2500.7992525,N,12132.4336391,E,4,57,0.47,15.707,M,15.25,M,1,3335*4B
$GNRMC,040344.000,A,2500.7992525,N,12132.4336391,E,0.00,85.07,270623,,,R,V*2C
$GPHDT,,T*1B
$GNGGA,040344.200,2500.7992512,N,12132.4336380,E,4,57,0.47,15.705,M,15.25,M,1,3335*4F
$GNRMC,040344.200,A,2500.7992512,N,12132.4336380,E,0.00,85.07,270623,,,R,V*2A
$GPHDT,,T*1B
$GNGGA,040344.400,2500.7992475,N,12132.4336421,E,4,57,0.47,15.691,M,15.25,M,1,3335*49
$GNRMC,040344.400,A,2500.7992475,N,12132.4336421,E,0.00,85.07,270623,,,R,V*20
$GPHDT,,T*1B
$GNGGA,040344.600,2500.7992440,N,12132.4336376,E,4,57,0.47,15.694,M,15.25,M,0,3335*4C
$GNRMC,040344.600,A,2500.7992440,N,12132.4336376,E,0.00,85.07,270623,,,R,V*21
$GPHDT,,T*1B
$GNGGA,040344.800,2500.7992495,N,12132.4336405,E,4,56,0.48,15.704,M,15.25,M,0,3335*4F
$GNRMC,040344.800,A,2500.7992495,N,12132.4336405,E,0.00,85.07,270623,,,R,V*24
