$FW : RTK35X,V1.1X0314AS,Lib20210517,1*54
$Tool : LOCOSYS , GNSS Firebird , v1.0.0.19*39
$---------------------------------------------------*2D
$GNGGA,040712.200,2500.7984203,N,12132.4328107,E,2,52,0.50,16.526,M,15.25,M,30,3335*7D
$GNRMC,040712.200,A,2500.7984203,N,12132.4328107,E,0.00,85.07,270623,,,D,V*39
$GPHDT,92.566,T*0B
$GNGGA,040712.400,2500.7984203,N,12132.4328167,E,2,52,0.50,16.534,M,15.25,M,30,3335*7E
$GNRMC,040712.400,A,2500.7984203,N,12132.4328167,E,0.00,85.07,270623,,,D,V*39
$GPHDT,92.765,T*0A
$GNGGA,040712.600,2500.7984203,N,12132.4328227,E,2,52,0.50,16.545,M,15.25,M,30,3335*7D
$GNRMC,040712.600,A,2500.7984203,N,12132.4328227,E,0.00,85.07,270623,,,D,V*3C
$GPHDT,92.834,T*01
$GNGGA,040712.800,2500.7984203,N,12132.4328347,E,2,53,0.49,16.564,M,15.25,M,30,3335*7E
$GNRMC,040712.800,A,2500.7984203,N,12132.4328347,E,0.00,85.07,270623,,,D,V*35
$GPHDT,92.501,T*0A
$GNGSA,A,3,19,195,196,17,199,06,194,20,09,04,12,14,0.91,0.49,0.77,1*0B
$GNGSA,A,3,11,,,,,,,,,,,,0.91,0.49,0.77,1*04
$GNGSA,A,3,68,67,83,82,69,73,,,,,,,0.91,0.49,0.77,2*02
$GNGSA,A,3,10,12,11,04,19,25,33,,,,,,0.91,0.49,0.77,3*0F
$GNGSA,A,3,40,07,33,10,14,43,28,42,11,,,,0.91,0.49,0.77,4*0D
$GPGSV,4,1,16,19,71,046,44,195,68,046,42,196,67,123,41,17,61,097,43,1*6F
$GPGSV,4,2,16,199,60,167,33,06,50,354,44,194,37,173,40,20,36,238,14,1*61
$GPGSV,4,3,16,09,36,094,41,11,31,295,21,04,20,063,28,12,19,311,30,1*6D
$GPGSV,4,4,16,14,17,174,31,05,10,226,,03,01,040,,33,,,,1*54
$GPGSV,3,1,09,195,68,046,45,196,67,123,44,199,60,167,45,06,50,354,47,8*5D
$GPGSV,3,2,09,194,37,173,39,09,36,094,40,11,31,295,21,04,20,063,23,8*5A
$GPGSV,3,3,09,14,17,174,26,8*51
$GLGSV,2,1,07,68,60,136,41,67,41,047,43,83,37,353,30,82,36,052,37,1*70
$GLGSV,2,2,07,69,21,184,20,73,21,278,19,80,16,222,,1*43
$GAGSV,2,1,08,10,49,345,40,12,46,025,39,24,46,233,,11,37,309,26,7*72
$GAGSV,2,2,08,04,35,149,37,19,32,077,34,25,28,299,13,33,12,071,14,7*72
$GAGSV,2,1,06,10,49,345,45,12,46,025,41,11,37,309,16,04,35,149,34,1*7C
$GAGSV,2,2,06,19,32,077,35,25,28,299,31,1*71
$GBGSV,4,1,14,40,80,162,43,07,77,231,41,33,71,133,42,10,71,276,21,1*7C
$GBGSV,4,2,14,14,58,065,38,08,57,280,,43,52,070,45,13,48,266,,1*7F
$GBGSV,4,3,14,28,43,332,48,42,34,046,41,41,30,198,,11,29,090,32,1*74
$GBGSV,4,4,14,37,14,265,,34,13,105,20,1*70
$GBGSV,2,1,05,40,80,162,46,33,71,133,44,43,52,070,44,28,43,332,45,4*70
$GBGSV,2,2,05,42,34,046,43,4*42
$GNGGA,040713.000,2500.7984143,N,12132.4328347,E,2,53,0.49,16.563,M,15.25,M,31,3335*76
$GNRMC,040713.000,A,2500.7984143,N,12132.4328347,E,0.00,85.07,270623,,,D,V*3B
$GPHDT,92.518,T*02
$GNGGA,040713.200,2500.7984143,N,12132.4328407,E,2,53,0.49,16.561,M,15.25,M,31,3335*75
$GNRMC,040713.200,A,2500.7984143,N,12132.4328407,E,0.00,85.07,270623,,,D,V*3A
$GPHDT,92.919,T*0F
$GNGGA,040713.400,2500.7984143,N,12132.4328527,E,2,52,0.50,16.565,M,15.25,M,31,3335*7D
$GNRMC,040713.400,A,2500.7984143,N,12132.4328527,E,0.00,85.07,270623,,,D,V*3F
$GPHDT,92.420,T*08
$GNGGA,040713.600,2500.7984143,N,12132.4328647,E,2,53,0.50,16.578,M,15.25,M,31,3335*77
$GNRMC,040713.600,A,2500.7984143,N,12132.4328647,E,0.00,85.07,270623,,,D,V*38
$GPHDT,92.378,T*02
$GNGGA,040713.800,2500.7984143,N,12132.4328767,E,2,53,0.50,16.588,M,15.25,M,31,3335*75
$GNRMC,040713.800,A,2500.7984143,N,12132.4328767,E,0.00,85.07,270623,,,D,V*35
$GPHDT,92.587,T*04
$GNGSA,A,3,19,195,196,17,199,06,194,09,04,12,14,11,0.92,0.50,0.77,1*02
$GNGSA,A,3,68,67,83,82,69,73,,,,,,,0.92,0.50,0.77,2*09
$GNGSA,A,3,10,12,11,04,19,25,33,,,,,,0.92,0.50,0.77,3*04
$GNGSA,A,3,40,07,10,33,14,43,28,42,11,,,,0.92,0.50,0.77,4*06
$GPGSV,4,1,15,19,71,046,44,195,68,046,42,196,67,123,41,17,61,097,43,1*6C
$GPGSV,4,2,15,199,60,167,34,06,50,354,44,194,37,173,41,09,36,094,41,1*6B
$GPGSV,4,3,15,20,36,238,13,11,31,295,23,04,20,063,27,12,19,311,30,1*6B
$GPGSV,4,4,15,14,17,174,31,05,10,226,,03,01,040,,1*57
$GPGSV,3,1,09,195,68,046,45,196,67,123,44,199,60,167,45,06,50,354,47,8*5D
$GPGSV,3,2,09,194,37,173,40,09,36,094,40,11,31,295,21,04,20,063,22,8*55
$GPGSV,3,3,09,14,17,174,25,8*52
$GLGSV,2,1,07,68,60,136,41,67,41,047,43,83,37,353,29,82,36,052,38,1*77
$GLGSV,2,2,07,69,21,184,23,73,21,278,19,80,16,222,,1*40
$GAGSV,2,1,08,10,49,345,40,12,46,025,39,24,46,233,,11,37,309,27,7*73
$GAGSV,2,2,08,04,35,149,37,19,32,077,34,25,28,299,12,33,12,071,14,7*73
$GAGSV,2,1,06,10,49,345,45,12,46,025,41,11,37,309,15,04,35,149,35,1*7E
$GAGSV,2,2,06,19,32,077,35,25,28,299,31,1*71
$GBGSV,4,1,14,40,80,162,42,07,77,231,40,10,71,276,21,33,71,133,42,1*7C
$GBGSV,4,2,14,14,58,065,40,08,57,280,,43,52,070,45,28,43,332,48,1*7F
$GBGSV,4,3,14,42,34,046,42,41,30,198,,11,29,090,34,37,14,265,,1*72
$GBGSV,4,4,14,23,13,214,,34,13,105,18,1*7F
$GBGSV,2,1,05,40,80,162,46,33,71,133,44,43,52,070,44,28,43,332,45,4*70
$GBGSV,2,2,05,42,34,046,43,4*42
$GNGGA,040714.000,2500.7984143,N,12132.4328827,E,2,52,0.50,16.596,M,15.25,M,32,3335*7C
$GNRMC,040714.000,A,2500.7984143,N,12132.4328827,E,0.00,85.07,270623,,,D,V*31
$GPHDT,92.483,T*01
$GNGGA,040714.200,2500.7984143,N,12132.4328887,E,2,52,0.50,16.604,M,15.25,M,32,3335*7C
$GNRMC,040714.200,A,2500.7984143,N,12132.4328887,E,0.00,85.07,270623,,,D,V*39
$GPHDT,92.469,T*05
$GNGGA,040714.400,2500.7984143,N,12132.4328947,E,2,52,0.50,16.606,M,15.25,M,32,3335*75
$GNRMC,040714.400,A,2500.7984143,N,12132.4328947,E,0.00,85.07,270623,,,D,V*32
$GPHDT,92.334,T*0A
$GNGGA,040714.600,2500.7984203,N,12132.4329067,E,2,53,0.50,16.609,M,15.25,M,32,3335*74
$GNRMC,040714.600,A,2500.7984203,N,12132.4329067,E,0.00,85.07,270623,,,D,V*3D
$GPHDT,92.539,T*01
$GNGGA,040714.800,2500.7984203,N,12132.4329127,E,2,53,0.50,16.614,M,15.25,M,32,3335*73
$GNRMC,040714.800,A,2500.7984203,N,12132.4329127,E,0.00,85.07,270623,,,D,V*36
$GPHDT,92.550,T*0E
$GNGSA,A,3,19,195,196,17,199,06,194,09,11,04,12,14,0.98,0.52,0.83,1*01
$GNGSA,A,3,68,67,83,82,69,73,,,,,,,0.98,0.52,0.83,2*0A
$GNGSA,A,3,10,12,11,04,19,25,,,,,,,0.98,0.52,0.83,3*07
$GNGSA,A,3,40,07,33,10,14,43,28,42,11,,,,0.98,0.52,0.83,4*05
$GPGSV,4,1,15,19,71,046,44,195,68,046,42,196,67,123,41,17,61,097,42,1*6D
$GPGSV,4,2,15,199,60,167,34,06,50,354,44,194,37,173,42,09,36,094,43,1*6A
$GPGSV,4,3,15,20,36,238,13,11,31,295,24,04,20,063,26,12,19,311,30,1*6D
$GPGSV,4,4,15,14,17,174,31,05,10,226,,03,01,040,,1*57
$GPGSV,3,1,09,195,68,046,46,196,67,123,44,199,60,167,45,06,50,354,47,8*5E
$GPGSV,3,2,09,194,37,173,40,09,36,094,41,11,31,295,22,04,20,063,24,8*51
$GPGSV,3,3,09,14,17,174,26,8*51
$GLGSV,2,1,07,68,60,136,41,67,41,047,43,83,37,353,29,82,36,052,38,1*77
$GLGSV,2,2,07,69,21,184,23,73,21,278,18,80,16,222,,1*41
$GAGSV,2,1,08,10,49,345,42,12,46,025,39,24,46,233,,11,37,309,27,7*71
$GAGSV,2,2,08,04,35,149,38,19,32,077,34,25,28,299,15,33,12,071,,7*7E
$GAGSV,2,1,06,10,49,345,45,12,46,025,41,11,37,309,17,04,35,149,35,1*7C
$GAGSV,2,2,06,19,32,077,35,25,28,299,31,1*71
$GBGSV,4,1,14,40,80,162,42,07,77,231,40,33,72,132,43,10,71,276,22,1*7C
$GBGSV,4,2,14,14,58,065,41,08,57,280,,43,52,070,45,28,43,332,48,1*7E
$GBGSV,4,3,14,42,34,046,42,41,30,198,,11,29,090,33,37,14,265,,1*75
$GBGSV,4,4,14,23,13,214,,34,13,105,16,1*71
$GBGSV,2,1,05,40,80,162,46,33,72,132,44,43,52,070,44,28,43,332,44,4*73
$GBGSV,2,2,05,42,34,046,43,4*42
$GNGGA,040715.000,2500.7984203,N,12132.4329247,E,2,52,0.52,16.618,M,15.25,M,33,3335*71
$GNRMC,040715.000,A,2500.7984203,N,12132.4329247,E,0.00,85.07,270623,,,D,V*3A
$GPHDT,92.374,T*0E
$GNGGA,040715.200,2500.7984203,N,12132.4329307,E,2,52,0.52,16.631,M,15.25,M,33,3335*7D
$GNRMC,040715.200,A,2500.7984203,N,12132.4329307,E,0.00,85.07,270623,,,D,V*3D
$GPHDT,92.304,T*09
$GNGGA,040715.400,2500.7984203,N,12132.4329427,E,2,52,0.52,16.647,M,15.25,M,33,3335*7F
$GNRMC,040715.400,A,2500.7984203,N,12132.4329427,E,0.00,85.07,270623,,,D,V*3E
$GPHDT,92.348,T*01
$GNGGA,040715.600,2500.7984203,N,12132.4329547,E,2,52,0.52,16.654,M,15.25,M,33,3335*78
$GNRMC,040715.600,A,2500.7984203,N,12132.4329547,E,0.00,85.07,270623,,,D,V*3B
$GPHDT,92.093,T*04
$GNGGA,040715.800,2500.7984263,N,12132.4329607,E,2,52,0.52,16.666,M,15.25,M,33,3335*76
$GNRMC,040715.800,A,2500.7984263,N,12132.4329607,E,0.00,85.07,270623,,,D,V*34
$GPHDT,92.581,T*02
$GNGSA,A,3,19,195,196,17,199,06,194,09,11,04,12,14,0.98,0.52,0.83,1*01
$GNGSA,A,3,68,67,83,82,73,69,,,,,,,0.98,0.52,0.83,2*0A
$GNGSA,A,3,10,12,11,04,19,25,,,,,,,0.98,0.52,0.83,3*07
$GNGSA,A,3,40,07,33,10,14,43,28,42,11,,,,0.98,0.52,0.83,4*05
$GPGSV,4,1,15,19,71,046,43,195,68,046,42,196,67,123,41,17,61,097,41,1*69
$GPGSV,4,2,15,199,60,167,34,06,50,354,44,194,37,173,42,20,36,238,13,1*60
$GPGSV,4,3,15,09,36,094,43,11,31,295,25,04,20,063,26,12,19,311,30,1*66
$GPGSV,4,4,15,14,17,174,31,05,10,226,,03,01,040,,1*57
$GPGSV,3,1,09,195,68,046,46,196,67,123,44,199,60,167,45,06,50,354,47,8*5E
$GPGSV,3,2,09,194,37,173,40,09,36,094,41,11,31,295,22,04,20,063,24,8*51
$GPGSV,3,3,09,14,17,174,26,8*51
$GLGSV,2,1,08,68,60,136,41,67,41,047,43,83,37,353,30,82,36,052,38,1*70
$GLGSV,2,2,08,73,21,278,18,69,21,184,23,80,16,222,,74,06,319,,1*70
$GAGSV,2,1,08,10,49,345,42,24,46,233,,12,46,025,38,11,37,309,26,7*71
$GAGSV,2,2,08,04,35,149,38,19,32,077,34,25,28,299,15,33,12,071,,7*7E
$GAGSV,2,1,06,10,49,345,45,12,46,025,41,11,37,309,18,04,35,149,35,1*73
$GAGSV,2,2,06,19,32,077,35,25,28,299,31,1*71
$GBGSV,4,1,14,40,80,163,42,07,77,231,40,33,72,132,44,10,71,276,22,1*7A
$GBGSV,4,2,14,14,58,065,41,08,57,280,,43,52,070,45,13,48,266,,1*71
$GBGSV,4,3,14,28,43,332,48,42,34,046,42,41,31,198,,11,29,090,33,1*77
$GBGSV,4,4,14,34,13,105,17,23,13,214,,1*70
$GBGSV,2,1,05,40,80,163,46,33,72,132,44,43,52,070,43,28,43,332,44,4*75
$GBGSV,2,2,05,42,34,046,43,4*42
$GNGGA,040716.000,2500.7984263,N,12132.4329667,E,2,52,0.52,16.670,M,15.25,M,34,3335*7B
$GNRMC,040716.000,A,2500.7984263,N,12132.4329667,E,0.00,85.07,270623,,,D,V*39
$GPHDT,92.351,T*09
$GNGGA,040716.200,2500.7984263,N,12132.4329787,E,2,52,0.52,16.675,M,15.25,M,34,3335*73
$GNRMC,040716.200,A,2500.7984263,N,12132.4329787,E,0.00,85.07,270623,,,D,V*34
$GPHDT,92.502,T*09
$GNGGA,040716.400,2500.7984263,N,12132.4329787,E,2,52,0.52,16.674,M,15.25,M,34,3335*74
$GNRMC,040716.400,A,2500.7984263,N,12132.4329787,E,0.00,85.07,270623,,,D,V*32
$GPHDT,92.509,T*02
$GNGGA,040716.600,2500.7984323,N,12132.4329847,E,2,52,0.52,16.674,M,15.25,M,34,3335*70
$GNRMC,040716.600,A,2500.7984323,N,12132.4329847,E,0.00,85.07,270623,,,D,V*36
$GPHDT,92.476,T*0B
$GNGGA,040716.800,2500.7984323,N,12132.4329847,E,2,52,0.52,16.666,M,15.25,M,34,3335*7D
$GNRMC,040716.800,A,2500.7984323,N,12132.4329847,E,0.00,85.07,270623,,,D,V*38
$GPHDT,92.321,T*0E
$GNGSA,A,3,19,195,196,17,199,06,194,09,04,12,14,11,0.98,0.52,0.83,1*01
$GNGSA,A,3,68,67,83,82,69,73,,,,,,,0.98,0.52,0.83,2*0A
$GNGSA,A,3,10,12,11,04,19,25,,,,,,,0.98,0.52,0.83,3*07
$GNGSA,A,3,40,07,33,10,14,43,28,42,11,,,,0.98,0.52,0.83,4*05
$GPGSV,4,1,15,19,71,046,43,195,68,046,42,196,67,123,41,17,61,097,41,1*69
$GPGSV,4,2,15,199,60,167,34,06,50,354,44,194,37,173,42,20,36,238,12,1*61
$GPGSV,4,3,15,09,36,094,43,11,31,295,24,04,20,063,26,12,19,311,30,1*67
$GPGSV,4,4,15,14,17,174,31,05,10,226,,03,01,040,,1*57
$GPGSV,3,1,09,195,68,046,46,196,67,123,44,199,60,167,45,06,50,354,47,8*5E
$GPGSV,3,2,09,194,37,173,40,09,36,094,42,11,31,295,23,04,20,063,26,8*51
$GPGSV,3,3,09,14,17,174,28,8*5F
$GLGSV,2,1,07,68,60,136,41,67,41,047,43,83,37,353,30,82,36,052,39,1*7E
$GLGSV,2,2,07,69,21,184,22,73,21,278,16,80,16,222,,1*4E
$GAGSV,3,1,09,10,49,345,42,12,46,025,38,24,46,233,,11,37,309,27,7*70
$GAGSV,3,2,09,04,35,149,38,19,32,077,33,25,28,299,15,33,12,071,,7*79
$GAGSV,3,3,09,09,05,190,,7*4E
$GAGSV,2,1,06,10,49,345,45,12,46,025,41,11,37,309,20,04,35,149,35,1*78
$GAGSV,2,2,06,19,32,077,35,25,28,299,32,1*72
$GBGSV,4,1,14,40,80,163,42,07,77,231,40,33,72,132,44,10,71,276,21,1*79
$GBGSV,4,2,14,14,58,065,41,08,57,280,,43,52,070,45,28,43,332,48,1*7E
$GBGSV,4,3,14,42,34,046,42,41,31,198,,11,29,090,33,37,14,264,,1*75
$GBGSV,4,4,14,34,13,105,19,23,13,214,,1*7E
$GBGSV,2,1,05,40,80,163,46,33,72,132,45,43,52,070,43,28,43,332,44,4*74
$GBGSV,2,2,05,42,34,046,43,4*42
$GNGGA,040717.000,2500.7984323,N,12132.4329907,E,2,51,0.52,16.665,M,15.25,M,35,3335*70
$GNRMC,040717.000,A,2500.7984323,N,12132.4329907,E,0.00,85.07,270623,,,D,V*34
$GPHDT,92.388,T*0D
$GNGGA,040717.200,2500.7984383,N,12132.4329907,E,2,53,0.52,16.664,M,15.25,M,35,3335*7B
$GNRMC,040717.200,A,2500.7984383,N,12132.4329907,E,0.00,85.07,270623,,,D,V*3C
$GPHDT,92.321,T*0E
$GNGGA,040717.400,2500.7984383,N,12132.4329967,E,2,53,0.52,16.667,M,15.25,M,35,3335*78
$GNRMC,040717.400,A,2500.7984383,N,12132.4329967,E,0.00,85.07,270623,,,D,V*3C
$GPHDT,92.554,T*0A
$GNGGA,040717.600,2500.7984443,N,12132.4330087,E,2,53,0.52,16.666,M,15.25,M,35,3335*7F
$GNRMC,040717.600,A,2500.7984443,N,12132.4330087,E,0.00,85.07,270623,,,D,V*3A
$GPHDT,92.455,T*0A
$GNGGA,040717.800,2500.7984443,N,12132.4330147,E,2,53,0.52,16.668,M,15.25,M,35,3335*72
$GNRMC,040717.800,A,2500.7984443,N,12132.4330147,E,0.00,85.07,270623,,,D,V*39
$GPHDT,92.655,T*08
$GNGSA,A,3,19,195,196,17,199,06,194,09,11,04,12,14,0.98,0.52,0.83,1*01
$GNGSA,A,3,68,67,83,82,73,69,,,,,,,0.98,0.52,0.83,2*0A
$GNGSA,A,3,10,12,11,04,19,25,,,,,,,0.98,0.52,0.83,3*07
$GNGSA,A,3,40,07,33,10,14,43,28,42,11,,,,0.98,0.52,0.83,4*05
$GPGSV,4,1,15,19,71,046,43,195,68,046,42,196,67,123,40,17,61,097,41,1*68
$GPGSV,4,2,15,199,60,167,34,06,50,354,44,194,37,173,42,20,36,238,12,1*61
$GPGSV,4,3,15,09,36,094,43,11,31,295,27,04,20,063,27,12,19,311,30,1*65
$GPGSV,4,4,15,14,17,174,31,05,10,226,,03,01,040,,1*57
$GPGSV,3,1,09,195,68,046,46,196,67,123,44,199,60,167,44,06,50,354,47,8*5F
$GPGSV,3,2,09,194,37,173,40,09,36,094,42,11,31,295,23,04,20,063,26,8*51
$GPGSV,3,3,09,14,17,174,27,8*50
$GLGSV,2,1,07,68,60,136,40,67,41,047,42,83,37,353,30,82,36,052,39,1*7E
$GLGSV,2,2,07,73,21,278,15,69,21,184,22,80,16,222,,1*4D
$GAGSV,3,1,09,10,49,345,41,12,46,025,38,24,46,233,,11,37,309,27,7*73
$GAGSV,3,2,09,04,35,149,38,19,32,077,33,25,28,299,14,33,12,071,,7*78
$GAGSV,3,3,09,09,05,190,,7*4E
$GAGSV,2,1,06,10,49,345,45,12,46,025,41,11,37,309,20,04,35,149,35,1*78
$GAGSV,2,2,06,19,32,077,35,25,28,299,31,1*71
$GBGSV,4,1,15,40,80,163,42,07,77,231,40,33,72,132,44,10,71,276,20,1*79
$GBGSV,4,2,15,14,58,065,41,08,57,280,,43,52,070,45,13,48,266,,1*70
$GBGSV,4,3,15,28,43,332,48,42,34,046,43,41,31,198,,11,29,090,32,1*76
$GBGSV,4,4,15,37,14,264,,34,13,105,16,23,13,214,,1*41
$GBGSV,2,1,05,40,80,163,46,33,72,132,45,43,52,070,43,28,43,332,44,4*74
$GBGSV,2,2,05,42,34,046,43,4*42
$GNGGA,040718.000,2500.7984443,N,12132.4330207,E,2,53,0.52,16.669,M,15.25,M,36,3335*70
$GNRMC,040718.000,A,2500.7984443,N,12132.4330207,E,0.00,85.07,270623,,,D,V*39
$GPHDT,92.848,T*0A
$GNGGA,040718.200,2500.7984443,N,12132.4330267,E,2,53,0.52,16.675,M,15.25,M,36,3335*79
$GNRMC,040718.200,A,2500.7984443,N,12132.4330267,E,0.00,85.07,270623,,,D,V*3D
$GPHDT,92.440,T*0E
$GNGGA,040718.400,2500.7984443,N,12132.4330387,E,2,53,0.52,16.672,M,15.25,M,36,3335*77
$GNRMC,040718.400,A,2500.7984443,N,12132.4330387,E,0.00,85.07,270623,,,D,V*34
$GPHDT,92.291,T*04
$GNGGA,040718.600,2500.7984443,N,12132.4330447,E,2,53,0.52,16.674,M,15.25,M,36,3335*78
$GNRMC,040718.600,A,2500.7984443,N,12132.4330447,E,0.00,85.07,270623,,,D,V*3D
$GPHDT,92.347,T*0E
$GNGGA,040718.800,2500.7984503,N,12132.4330567,E,2,53,0.52,16.674,M,15.25,M,36,3335*70
$GNRMC,040718.800,A,2500.7984503,N,12132.4330567,E,0.00,85.07,270623,,,D,V*35
$GPHDT,92.392,T*06
$GNGSA,A,3,19,195,196,17,199,06,194,09,11,04,12,14,0.98,0.52,0.83,1*01
$GNGSA,A,3,68,67,83,82,73,69,,,,,,,0.98,0.52,0.83,2*0A
$GNGSA,A,3,10,12,11,04,19,25,,,,,,,0.98,0.52,0.83,3*07
$GNGSA,A,3,40,07,33,10,14,43,28,42,11,,,,0.98,0.52,0.83,4*05
$GPGSV,4,1,15,19,71,046,43,195,68,046,42,196,67,123,40,17,61,097,41,1*68
$GPGSV,4,2,15,199,60,167,34,06,50,354,44,194,37,173,42,20,36,238,,1*62
$GPGSV,4,3,15,09,36,094,43,11,31,295,27,04,20,063,26,12,19,311,29,1*6C
$GPGSV,4,4,15,14,17,174,30,05,10,226,,03,01,040,,1*56
$GPGSV,3,1,09,195,68,046,46,196,67,123,44,199,60,167,44,06,50,354,46,8*5E
$GPGSV,3,2,09,194,37,173,40,09,36,094,42,11,31,295,21,04,20,063,26,8*53
$GPGSV,3,3,09,14,17,174,25,8*52
$GLGSV,2,1,07,68,60,136,40,67,41,047,42,83,37,353,30,82,36,052,39,1*7E
$GLGSV,2,2,07,73,21,278,15,69,21,184,21,80,16,222,,1*4E
$GAGSV,3,1,09,10,49,345,40,12,46,025,38,24,46,233,,11,37,309,27,7*72
$GAGSV,3,2,09,04,35,149,38,19,32,077,33,25,28,299,16,33,12,071,,7*7A
$GAGSV,3,3,09,09,05,190,,7*4E
$GAGSV,2,1,06,10,49,345,45,12,46,025,41,11,37,309,17,04,35,149,35,1*7C
$GAGSV,2,2,06,19,32,077,35,25,28,299,31,1*71
$GBGSV,4,1,15,40,80,163,43,07,77,231,40,33,72,132,44,10,71,276,19,1*72
$GBGSV,4,2,15,14,58,065,41,08,57,280,,43,52,070,45,13,48,266,,1*70
$GBGSV,4,3,15,28,43,332,48,42,34,046,43,41,31,198,,11,29,090,32,1*76
$GBGSV,4,4,15,37,14,264,,34,13,105,17,23,13,214,,1*40
$GBGSV,2,1,05,40,80,163,46,33,72,132,45,43,52,070,43,28,43,332,44,4*74
$GBGSV,2,2,05,42,34,046,43,4*42
$GNGGA,040719.000,2500.7984503,N,12132.4330627,E,2,53,0.52,16.671,M,15.25,M,37,3335*7A
$GNRMC,040719.000,A,2500.7984503,N,12132.4330627,E,0.00,85.07,270623,,,D,V*3B
$GPHDT,92.569,T*04
$GNGGA,040719.200,2500.7984503,N,12132.4330687,E,2,53,0.52,16.665,M,15.25,M,37,3335*77
$GNRMC,040719.200,A,2500.7984503,N,12132.4330687,E,0.00,85.07,270623,,,D,V*33
$GPHDT,92.258,T*01
$GNGGA,040719.400,2500.7984503,N,12132.4330807,E,2,53,0.52,16.662,M,15.25,M,37,3335*70
$GNRMC,040719.400,A,2500.7984503,N,12132.4330807,E,0.00,85.07,270623,,,D,V*33
$GPHDT,92.323,T*0C
$GNGGA,040719.600,2500.7984503,N,12132.4330867,E,2,53,0.52,16.657,M,15.25,M,37,3335*72
$GNRMC,040719.600,A,2500.7984503,N,12132.4330867,E,0.00,85.07,270623,,,D,V*37
$GPHDT,92.304,T*09
$GNGGA,040719.800,2500.7984503,N,12132.4330987,E,2,53,0.52,16.655,M,15.25,M,37,3335*71
$GNRMC,040719.800,A,2500.7984503,N,12132.4330987,E,0.00,85.07,270623,,,D,V*36
$GPHDT,92.394,T*00
$GNGSA,A,3,19,195,196,17,199,06,194,09,11,04,12,14,1.01,0.53,0.86,1*04
$GNGSA,A,3,68,67,83,82,69,,,,,,,,1.01,0.53,0.86,2*0B
$GNGSA,A,3,10,12,11,04,19,25,,,,,,,1.01,0.53,0.86,3*02
$GNGSA,A,3,40,07,33,10,14,43,28,42,11,,,,1.01,0.53,0.86,4*00
$GPGSV,4,1,15,19,71,046,43,195,68,046,43,196,67,123,40,17,61,097,41,1*69
$GPGSV,4,2,15,199,60,167,34,06,50,354,44,194,37,173,42,20,36,238,,1*62
$GPGSV,4,3,15,09,36,094,43,11,31,295,27,04,20,063,26,12,19,311,29,1*6C
$GPGSV,4,4,15,14,17,174,30,05,10,226,,03,01,040,,1*56
$GPGSV,3,1,09,195,68,046,46,196,67,123,44,199,60,167,44,06,50,354,46,8*5E
$GPGSV,3,2,09,194,37,173,40,09,36,094,42,11,31,295,21,04,20,063,27,8*52
$GPGSV,3,3,09,14,17,174,25,8*52
$GLGSV,2,1,07,68,60,136,40,67,41,047,42,83,37,353,31,82,36,052,39,1*7F
$GLGSV,2,2,07,73,21,278,15,69,21,184,21,80,16,222,,1*4E
$GAGSV,3,1,09,10,49,345,40,12,46,025,38,24,46,233,,11,37,309,27,7*72
$GAGSV,3,2,09,04,35,149,38,19,32,077,33,25,28,299,16,33,12,071,,7*7A
$GAGSV,3,3,09,09,05,190,,7*4E
$GAGSV,2,1,06,10,49,345,45,12,46,025,41,11,37,309,16,04,35,149,35,1*7D
$GAGSV,2,2,06,19,32,077,35,25,28,299,31,1*71
$GBGSV,4,1,15,40,80,163,43,07,77,231,40,33,72,132,44,10,71,276,21,1*79
$GBGSV,4,2,15,14,58,065,41,08,57,280,,43,52,070,45,13,48,266,,1*70
$GBGSV,4,3,15,28,43,332,48,42,34,046,43,41,31,198,,11,29,090,32,1*76
$GBGSV,4,4,15,37,14,264,,34,13,105,17,23,13,214,,1*40
$GBGSV,2,1,05,40,80,163,46,33,72,132,45,43,52,070,43,28,43,332,44,4*74
$GBGSV,2,2,05,42,34,046,43,4*42
$GNGGA,040720.000,2500.7984503,N,12132.4331047,E,2,52,0.53,16.650,M,15.25,M,38,3335*7D
$GNRMC,040720.000,A,2500.7984503,N,12132.4331047,E,0.00,85.07,270623,,,D,V*30
$GPHDT,92.372,T*08
$GNGGA,040720.200,2500.7984503,N,12132.4331167,E,2,52,0.53,16.653,M,15.25,M,38,3335*7F
$GNRMC,040720.200,A,2500.7984503,N,12132.4331167,E,0.00,85.07,270623,,,D,V*31
$GPHDT,92.288,T*0C
$GNGGA,040720.400,2500.7984503,N,12132.4331287,E,2,52,0.53,16.661,M,15.25,M,38,3335*75
$GNRMC,040720.400,A,2500.7984503,N,12132.4331287,E,0.00,85.07,270623,,,D,V*3A
$GPHDT,92.134,T*08
$GNGGA,040720.600,2500.7984503,N,12132.4331167,E,2,52,0.53,16.654,M,15.25,M,38,3335*7C
$GNRMC,040720.600,A,2500.7984503,N,12132.4331167,E,0.04,85.07,270623,,,D,V*31
$GPHDT,92.592,T*00
$GNGGA,040720.800,2500.7984503,N,12132.4331227,E,2,52,0.53,16.658,M,15.25,M,38,3335*79
$GNRMC,040720.800,A,2500.7984503,N,12132.4331227,E,0.01,85.07,270623,,,D,V*3D
$GPHDT,92.520,T*09
$GNGSA,A,3,19,195,196,17,199,06,194,09,11,04,12,14,1.01,0.53,0.86,1*04
$GNGSA,A,3,68,67,83,82,69,,,,,,,,1.01,0.53,0.86,2*0B
$GNGSA,A,3,10,12,11,04,19,25,,,,,,,1.01,0.53,0.86,3*02
$GNGSA,A,3,40,07,33,10,14,43,28,42,11,,,,1.01,0.53,0.86,4*00
$GPGSV,4,1,13,19,71,046,43,195,68,046,43,196,67,123,40,17,61,097,41,1*6F
$GPGSV,4,2,13,199,60,167,34,06,50,354,44,194,37,173,42,09,36,094,43,1*6C
$GPGSV,4,3,13,11,31,295,26,04,20,063,28,12,19,311,29,14,17,174,29,1*69
$GPGSV,4,4,13,05,10,226,,1*54
$GPGSV,3,1,09,195,68,046,46,196,67,123,44,199,60,167,44,06,50,354,46,8*5E
$GPGSV,3,2,09,194,37,173,40,09,36,094,42,11,31,295,22,04,20,063,27,8*51
$GPGSV,3,3,09,14,17,174,26,8*51
$GLGSV,2,1,08,68,60,136,40,67,41,047,42,83,37,353,31,82,36,052,39,1*70
$GLGSV,2,2,08,69,21,184,20,73,21,278,11,80,16,222,,84,02,302,,1*7B
$GAGSV,3,1,10,10,49,345,40,12,46,025,38,24,46,233,,11,37,309,27,7*7A
$GAGSV,3,2,10,04,35,149,38,19,32,077,33,25,28,299,17,33,12,071,,7*73
$GAGSV,3,3,10,09,05,190,,36,01,276,,7*71
$GAGSV,2,1,06,10,49,345,45,12,46,025,41,11,37,309,14,04,35,149,35,1*7F
$GAGSV,2,2,06,19,32,077,35,25,28,299,31,1*71
$GBGSV,4,1,15,40,80,163,43,07,77,231,40,33,72,132,44,10,71,276,22,1*7A
$GBGSV,4,2,15,14,58,065,41,08,57,280,,43,52,070,45,13,48,266,,1*70
$GBGSV,4,3,15,28,43,332,48,42,34,046,43,41,31,198,,11,29,090,32,1*76
$GBGSV,4,4,15,37,14,264,,23,13,214,,34,13,105,19,1*4E
$GBGSV,2,1,05,40,80,163,46,33,72,132,45,43,52,070,43,28,43,332,44,4*74
$GBGSV,2,2,05,42,34,046,43,4*42
$GNGGA,040721.000,2500.7984503,N,12132.4331227,E,2,52,0.53,16.663,M,15.25,M,39,3335*79
$GNRMC,040721.000,A,2500.7984503,N,12132.4331227,E,0.04,85.07,270623,,,D,V*31
$GPHDT,92.108,T*07
$GNGGA,040721.200,2500.7984503,N,12132.4331287,E,2,52,0.53,16.672,M,15.25,M,39,3335*71
$GNRMC,040721.200,A,2500.7984503,N,12132.4331287,E,0.01,85.07,270623,,,D,V*3C
$GPHDT,92.539,T*01
$GNGGA,040721.400,2500.7984503,N,12132.4331287,E,2,52,0.53,16.673,M,15.25,M,39,3335*76
$GNRMC,040721.400,A,2500.7984503,N,12132.4331287,E,0.03,85.07,270623,,,D,V*38
$GPHDT,92.331,T*0F
$GNGGA,040721.600,2500.7984563,N,12132.4331287,E,2,52,0.53,16.675,M,15.25,M,39,3335*74
$GNRMC,040721.600,A,2500.7984563,N,12132.4331287,E,0.01,85.07,270623,,,D,V*3E
$GPHDT,92.347,T*0E
$GNGGA,040721.800,2500.7984563,N,12132.4331347,E,2,53,0.52,16.675,M,15.25,M,39,3335*77
$GNRMC,040721.800,A,2500.7984563,N,12132.4331347,E,0.01,85.07,270623,,,D,V*3D
$GPHDT,92.136,T*0A
$GNGSA,A,3,19,195,196,17,199,06,194,09,11,04,12,14,0.95,0.52,0.79,1*09
$GNGSA,A,3,68,67,83,82,69,,,,,,,,0.95,0.52,0.79,2*06
$GNGSA,A,3,10,12,11,04,19,25,33,,,,,,0.95,0.52,0.79,3*0F
$GNGSA,A,3,40,07,33,10,14,43,28,42,11,,,,0.95,0.52,0.79,4*0D
$GPGSV,4,1,14,19,71,046,43,195,68,046,43,196,67,123,40,17,61,097,41,1*68
$GPGSV,4,2,14,199,60,167,34,06,50,355,44,194,37,173,42,09,36,094,43,1*6A
$GPGSV,4,3,14,20,36,238,,11,31,295,25,04,20,063,28,12,19,311,30,1*61
$GPGSV,4,4,14,14,17,174,29,05,11,226,,1*68
$GPGSV,3,1,09,195,68,046,46,196,67,123,44,199,60,167,44,06,50,355,46,8*5F
$GPGSV,3,2,09,194,37,173,40,09,36,094,42,11,31,295,22,04,20,063,26,8*50
$GPGSV,3,3,09,14,17,174,26,8*51
$GLGSV,2,1,07,68,60,136,40,67,41,047,42,83,37,353,31,82,36,052,40,1*71
$GLGSV,2,2,07,69,21,184,20,73,21,278,14,80,16,222,,1*4E
$GAGSV,3,1,09,10,49,345,40,12,46,025,38,24,46,233,,11,37,309,27,7*72
$GAGSV,3,2,09,04,35,149,38,19,32,077,33,25,28,299,17,33,12,071,,7*7B
$GAGSV,3,3,09,36,01,276,,7*4D
$GAGSV,2,1,07,10,49,345,45,12,46,025,41,11,37,309,13,04,35,149,35,1*79
$GAGSV,2,2,07,19,32,077,35,25,28,299,31,33,12,071,17,1*43
$GBGSV,4,1,13,40,80,163,43,07,77,231,40,33,72,132,44,10,71,276,21,1*7F
$GBGSV,4,2,13,14,58,065,41,08,57,280,,43,52,070,45,28,43,332,48,1*79
$GBGSV,4,3,13,42,34,046,43,41,31,198,,11,29,090,32,37,14,264,,1*72
$GBGSV,4,4,13,34,13,105,23,1*44
$GBGSV,2,1,05,40,80,163,46,33,72,132,45,43,52,070,43,28,43,332,44,4*74
$GBGSV,2,2,05,42,34,046,43,4*42
$GNGGA,040722.000,2500.7984563,N,12132.4331347,E,2,53,0.52,16.678,M,15.25,M,40,3335*7F
$GNRMC,040722.000,A,2500.7984563,N,12132.4331347,E,0.00,85.07,270623,,,D,V*37
$GPHDT,92.440,T*0E
$GNGGA,040722.200,2500.7984563,N,12132.4331347,E,2,53,0.52,16.679,M,15.25,M,40,3335*7C
$GNRMC,040722.200,A,2500.7984563,N,12132.4331347,E,0.00,85.07,270623,,,D,V*35
$GPHDT,92.158,T*02
$GNGGA,040722.400,2500.7984563,N,12132.4331407,E,2,53,0.52,16.677,M,15.25,M,40,3335*77
$GNRMC,040722.400,A,2500.7984563,N,12132.4331407,E,0.01,85.07,270623,,,D,V*31
$GPHDT,92.084,T*02
$GNGGA,040722.600,2500.7984563,N,12132.4331407,E,2,53,0.52,16.680,M,15.25,M,40,3335*7D
$GNRMC,040722.600,A,2500.7984563,N,12132.4331407,E,0.01,85.07,270623,,,D,V*33
$GPHDT,92.131,T*0D
$GNGGA,040722.800,2500.7984623,N,12132.4331467,E,2,53,0.52,16.680,M,15.25,M,40,3335*72
$GNRMC,040722.800,A,2500.7984623,N,12132.4331467,E,0.00,85.07,270623,,,D,V*3D
