$FW : RTK35X,V1.1X0314AS,Lib20210517,1*54
$Tool : LOCOSYS , GNSS Firebird , v1.0.0.19*39
$---------------------------------------------------*2D
$GPHDT,137.733,T*37
$GNGSA,A,3,19,195,196,17,199,06,194,09,20,11,04,12,0.90,0.47,0.77,1*01
$GNGSA,A,3,14,,,,,,,,,,,,0.90,0.47,0.77,1*0E
$GNGSA,A,3,68,67,83,82,73,69,,,,,,,0.90,0.47,0.77,2*0D
$GNGSA,A,3,10,12,24,11,04,19,25,33,,,,,0.90,0.47,0.77,3*06
$GNGSA,A,3,40,07,10,33,14,43,28,42,11,,,,0.90,0.47,0.77,4*02
$GPGSV,4,1,15,19,71,046,41,195,68,046,42,196,67,123,40,17,61,097,42,1*69
$GPGSV,4,2,15,199,60,167,34,06,50,354,45,194,37,173,41,09,36,094,43,1*68
$GPGSV,4,3,15,20,36,238,17,11,31,295,25,04,20,063,27,12,19,311,31,1*68
$GPGSV,4,4,15,14,17,174,29,05,10,226,,03,01,040,,1*5E
$GPGSV,3,1,09,195,68,046,45,196,67,123,44,199,60,167,44,06,50,354,46,8*5D
$GPGSV,3,2,09,194,37,173,40,09,36,094,40,11,31,295,25,04,20,063,26,8*55
$GPGSV,3,3,09,14,17,174,26,8*51
$GLGSV,2,1,08,68,60,136,42,67,41,047,44,83,37,353,29,82,36,051,41,1*71
$GLGSV,2,2,08,73,21,278,18,69,20,184,26,80,16,222,,84,02,302,,1*75
$GAGSV,3,1,10,10,49,345,41,12,46,025,36,24,46,233,17,11,37,309,25,7*71
$GAGSV,3,2,10,04,34,149,42,19,32,077,32,25,28,300,16,33,12,071,14,7*7B
$GAGSV,3,3,10,09,04,191,,36,01,276,,7*71
$GAGSV,2,1,07,10,49,345,45,12,46,025,40,11,37,309,20,04,34,149,42,1*79
$GAGSV,2,2,07,19,32,077,36,25,28,300,28,33,12,071,16,1*48
$GBGSV,4,1,13,40,80,162,41,07,77,231,41,10,71,276,22,33,71,133,44,1*7C
$GBGSV,4,2,13,14,58,065,40,43,52,070,45,28,43,332,47,42,34,046,42,1*72
$GBGSV,4,3,13,41,30,198,,11,29,090,35,37,14,265,,34,13,105,22,1*70
$GBGSV,4,4,13,23,13,214,,1*40
$GBGSV,2,1,05,40,80,162,45,33,71,133,45,43,52,070,44,28,43,332,44,4*73
$GBGSV,2,2,05,42,34,046,43,4*42
$GNGGA,040653.000,2500.7988343,N,12132.4323787,E,2,56,0.47,15.076,M,15.25,M,11,3335*75
$GNRMC,040653.000,A,2500.7988343,N,12132.4323787,E,0.00,85.07,270623,,,D,V*33
$GPHDT,137.621,T*35
$GNGGA,040653.200,2500.7988283,N,12132.4323727,E,2,57,0.47,15.089,M,15.25,M,11,3335*71
$GNRMC,040653.200,A,2500.7988283,N,12132.4323727,E,0.00,85.07,270623,,,D,V*36
$GPHDT,137.569,T*3A
$GNGGA,040653.400,2500.7988223,N,12132.4323787,E,2,57,0.47,15.106,M,15.25,M,11,3335*71
$GNRMC,040653.400,A,2500.7988223,N,12132.4323787,E,0.00,85.07,270623,,,D,V*30
$GPHDT,137.345,T*32
$GNGGA,040653.600,2500.7988103,N,12132.4323787,E,2,57,0.47,15.121,M,15.25,M,11,3335*77
$GNRMC,040653.600,A,2500.7988103,N,12132.4323787,E,0.00,85.07,270623,,,D,V*33
$GPHDT,137.376,T*32
$GNGGA,040653.800,2500.7987983,N,12132.4323727,E,2,57,0.47,15.136,M,15.25,M,11,3335*7A
$GNRMC,040653.800,A,2500.7987983,N,12132.4323727,E,0.00,85.07,270623,,,D,V*38
$GPHDT,137.587,T*3A
$GNGSA,A,3,19,195,196,17,199,06,194,09,20,11,04,12,0.90,0.47,0.77,1*01
$GNGSA,A,3,14,,,,,,,,,,,,0.90,0.47,0.77,1*0E
$GNGSA,A,3,68,67,83,82,73,69,,,,,,,0.90,0.47,0.77,2*0D
$GNGSA,A,3,10,12,24,11,04,19,25,33,,,,,0.90,0.47,0.77,3*06
$GNGSA,A,3,40,07,33,10,14,43,28,42,11,,,,0.90,0.47,0.77,4*02
$GPGSV,4,1,15,19,71,046,41,195,68,046,42,196,67,123,39,17,61,097,42,1*67
$GPGSV,4,2,15,199,60,167,34,06,50,354,45,194,37,173,42,09,36,094,43,1*6B
$GPGSV,4,3,15,20,36,238,17,11,31,295,27,04,20,063,24,12,19,311,31,1*69
$GPGSV,4,4,15,14,17,174,29,05,10,226,,03,01,040,,1*5E
$GPGSV,3,1,09,195,68,046,45,196,67,123,44,199,60,167,44,06,50,354,46,8*5D
$GPGSV,3,2,09,194,37,173,41,09,36,094,41,11,31,295,26,04,20,063,26,8*56
$GPGSV,3,3,09,14,17,174,26,8*51
$GLGSV,2,1,07,68,60,136,42,67,41,047,44,83,37,353,29,82,36,051,41,1*7E
$GLGSV,2,2,07,73,21,278,17,69,20,184,26,80,16,222,,1*4A
$GAGSV,3,1,09,10,49,345,41,12,46,025,36,24,46,233,17,11,37,309,27,7*7B
$GAGSV,3,2,09,04,34,149,42,19,32,077,31,25,28,300,16,33,12,071,14,7*70
$GAGSV,3,3,09,36,01,276,,7*4D
$GAGSV,2,1,07,10,49,345,45,12,46,025,40,11,37,309,20,04,34,149,42,1*79
$GAGSV,2,2,07,19,32,077,36,25,28,300,29,33,12,071,16,1*49
$GBGSV,4,1,13,40,80,162,41,07,77,231,41,33,71,133,44,10,71,276,21,1*7F
$GBGSV,4,2,13,14,58,065,40,43,52,070,45,28,43,332,47,42,34,046,42,1*72
$GBGSV,4,3,13,41,30,198,,11,29,090,35,37,14,265,,23,13,214,,1*75
$GBGSV,4,4,13,34,13,105,25,1*42
$GBGSV,2,1,05,40,80,162,46,33,71,133,45,43,52,070,44,28,43,332,44,4*70
$GBGSV,2,2,05,42,34,046,43,4*42
$GNGGA,040654.000,2500.7987863,N,12132.4323727,E,2,57,0.47,15.149,M,15.25,M,12,3335*71
$GNRMC,040654.000,A,2500.7987863,N,12132.4323727,E,0.00,85.07,270623,,,D,V*38
$GPHDT,137.436,T*31
$GNGGA,040654.200,2500.7987803,N,12132.4323727,E,2,57,0.47,15.159,M,15.25,M,12,3335*74
$GNRMC,040654.200,A,2500.7987803,N,12132.4323727,E,0.00,85.07,270623,,,D,V*3C
$GPHDT,137.252,T*35
$GNGGA,040654.400,2500.7987683,N,12132.4323727,E,2,57,0.47,15.176,M,15.25,M,12,3335*79
$GNRMC,040654.400,A,2500.7987683,N,12132.4323727,E,0.00,85.07,270623,,,D,V*3C
$GPHDT,137.540,T*31
$GNGGA,040654.600,2500.7987563,N,12132.4323727,E,2,57,0.47,15.186,M,15.25,M,12,3335*79
$GNRMC,040654.600,A,2500.7987563,N,12132.4323727,E,0.00,85.07,270623,,,D,V*33
$GPHDT,137.478,T*3B
$GNGGA,040654.800,2500.7987503,N,12132.4323727,E,2,57,0.47,15.212,M,15.25,M,12,3335*7F
$GNRMC,040654.800,A,2500.7987503,N,12132.4323727,E,0.00,85.07,270623,,,D,V*3B
$GPHDT,137.516,T*32
$GNGSA,A,3,19,195,196,17,199,06,194,09,20,11,04,12,0.90,0.47,0.77,1*01
$GNGSA,A,3,14,,,,,,,,,,,,0.90,0.47,0.77,1*0E
$GNGSA,A,3,68,67,83,82,73,69,,,,,,,0.90,0.47,0.77,2*0D
$GNGSA,A,3,10,24,12,11,04,19,25,33,,,,,0.90,0.47,0.77,3*06
$GNGSA,A,3,40,07,10,33,14,43,28,42,11,,,,0.90,0.47,0.77,4*02
$GPGSV,4,1,15,19,71,046,42,195,68,046,42,196,67,123,39,17,61,097,42,1*64
$GPGSV,4,2,15,199,60,167,34,06,50,354,45,194,37,173,42,09,36,094,43,1*6B
$GPGSV,4,3,15,20,36,238,16,11,31,295,28,04,20,063,24,12,19,311,31,1*67
$GPGSV,4,4,15,14,17,174,29,05,10,226,,03,01,040,,1*5E
$GPGSV,3,1,09,195,68,046,46,196,67,123,44,199,60,167,44,06,50,354,46,8*5E
$GPGSV,3,2,09,194,37,173,41,09,36,094,42,11,31,295,26,04,20,063,26,8*55
$GPGSV,3,3,09,14,17,174,26,8*51
$GLGSV,2,1,08,68,60,136,43,67,41,047,44,83,37,353,29,82,36,051,40,1*71
$GLGSV,2,2,08,73,21,278,17,69,20,184,25,80,16,222,,84,02,302,,1*79
$GAGSV,3,1,09,10,49,345,41,24,46,233,17,12,46,025,36,11,37,309,27,7*7B
$GAGSV,3,2,09,04,34,149,42,19,32,077,32,25,28,300,13,33,12,071,13,7*71
$GAGSV,3,3,09,36,01,276,,7*4D
$GAGSV,2,1,07,10,49,345,45,12,46,025,41,11,37,309,20,04,34,149,42,1*78
$GAGSV,2,2,07,19,32,077,36,25,28,300,29,33,12,071,16,1*49
$GBGSV,4,1,14,40,80,162,41,07,77,231,42,10,71,276,22,33,71,133,44,1*78
$GBGSV,4,2,14,14,58,065,41,08,57,280,,43,52,070,46,28,43,332,47,1*72
$GBGSV,4,3,14,42,34,046,42,41,30,198,,11,29,090,35,37,14,265,,1*73
$GBGSV,4,4,14,23,13,214,,34,13,105,25,1*71
$GBGSV,2,1,05,40,80,162,46,33,71,133,46,43,52,070,44,28,43,332,44,4*73
$GBGSV,2,2,05,42,34,046,44,4*45
$GNGGA,040655.000,2500.7987383,N,12132.4323727,E,2,57,0.47,15.233,M,15.25,M,13,3335*7A
$GNRMC,040655.000,A,2500.7987383,N,12132.4323727,E,0.00,85.07,270623,,,D,V*3C
$GPHDT,137.657,T*34
$GNGGA,040655.200,2500.7987263,N,12132.4323727,E,2,57,0.47,15.253,M,15.25,M,13,3335*71
$GNRMC,040655.200,A,2500.7987263,N,12132.4323727,E,0.00,85.07,270623,,,D,V*31
$GPHDT,137.621,T*35
$GNGGA,040655.400,2500.7987143,N,12132.4323667,E,2,57,0.47,15.269,M,15.25,M,13,3335*7A
$GNRMC,040655.400,A,2500.7987143,N,12132.4323667,E,0.00,85.07,270623,,,D,V*33
$GPHDT,136.958,T*35
$GNGGA,040655.600,2500.7987023,N,12132.4323667,E,2,57,0.47,15.285,M,15.25,M,13,3335*7D
$GNRMC,040655.600,A,2500.7987023,N,12132.4323667,E,0.00,85.07,270623,,,D,V*36
$GPHDT,136.665,T*34
$GNGGA,040655.800,2500.7986903,N,12132.4323727,E,2,57,0.47,15.307,M,15.25,M,13,3335*77
$GNRMC,040655.800,A,2500.7986903,N,12132.4323727,E,0.00,85.07,270623,,,D,V*37
$GPHDT,137.132,T*30
$GNGSA,A,3,19,195,196,17,199,06,194,09,20,11,04,12,0.90,0.47,0.77,1*01
$GNGSA,A,3,14,,,,,,,,,,,,0.90,0.47,0.77,1*0E
$GNGSA,A,3,68,67,83,82,73,69,,,,,,,0.90,0.47,0.77,2*0D
$GNGSA,A,3,10,24,12,11,04,19,25,33,,,,,0.90,0.47,0.77,3*06
$GNGSA,A,3,40,07,10,33,14,43,28,42,11,,,,0.90,0.47,0.77,4*02
$GPGSV,4,1,15,19,71,046,42,195,68,046,42,196,67,123,39,17,61,097,42,1*64
$GPGSV,4,2,15,199,60,167,34,06,50,354,45,194,37,173,42,09,36,094,43,1*6B
$GPGSV,4,3,15,20,36,238,16,11,31,295,28,04,20,063,25,12,19,311,32,1*65
$GPGSV,4,4,15,14,17,174,29,05,10,226,,03,01,040,,1*5E
$GPGSV,3,1,09,195,68,046,46,196,67,123,45,199,60,167,44,06,50,354,46,8*5F
$GPGSV,3,2,09,194,37,173,41,09,36,094,42,11,31,295,23,04,20,063,23,8*55
$GPGSV,3,3,09,14,17,174,25,8*52
$GLGSV,2,1,08,68,60,136,43,67,41,047,44,83,37,353,29,82,36,051,40,1*71
$GLGSV,2,2,08,73,21,278,17,69,20,184,24,80,16,222,,84,02,302,,1*78
$GAGSV,3,1,09,10,49,345,41,24,46,233,15,12,46,025,36,11,37,309,27,7*79
$GAGSV,3,2,09,04,34,149,42,19,32,077,34,25,28,300,15,33,12,071,12,7*70
$GAGSV,3,3,09,36,01,276,,7*4D
$GAGSV,2,1,07,10,49,345,45,12,46,025,41,11,37,309,20,04,34,149,42,1*78
$GAGSV,2,2,07,19,32,077,37,25,28,300,29,33,12,071,17,1*49
$GBGSV,4,1,14,40,80,162,41,07,77,231,42,10,71,276,21,33,71,133,44,1*7B
$GBGSV,4,2,14,14,58,065,41,08,57,280,,43,52,070,47,28,43,332,47,1*73
$GBGSV,4,3,14,42,34,046,42,41,30,198,,11,29,090,36,37,14,265,,1*70
$GBGSV,4,4,14,23,13,214,,34,13,105,24,1*70
$GBGSV,2,1,05,40,80,162,46,33,71,133,46,43,52,070,45,28,43,332,44,4*72
$GBGSV,2,2,05,42,34,046,44,4*45
$GNGGA,040656.000,2500.7986843,N,12132.4323727,E,2,57,0.47,15.323,M,15.25,M,14,3335*78
$GNRMC,040656.000,A,2500.7986843,N,12132.4323727,E,0.00,85.07,270623,,,D,V*39
$GPHDT,136.945,T*39
$GNGGA,040656.200,2500.7986723,N,12132.4323667,E,2,56,0.47,15.336,M,15.25,M,14,3335*73
$GNRMC,040656.200,A,2500.7986723,N,12132.4323667,E,0.00,85.07,270623,,,D,V*37
$GPHDT,136.897,T*37
$GNGGA,040656.400,2500.7986603,N,12132.4323607,E,2,56,0.47,15.352,M,15.25,M,14,3335*72
$GNRMC,040656.400,A,2500.7986603,N,12132.4323607,E,0.00,85.07,270623,,,D,V*34
$GPHDT,137.017,T*36
$GNGGA,040656.600,2500.7986543,N,12132.4323547,E,2,56,0.47,15.367,M,15.25,M,14,3335*76
$GNRMC,040656.600,A,2500.7986543,N,12132.4323547,E,0.00,85.07,270623,,,D,V*36
$GPHDT,136.812,T*3A
$GNGGA,040656.800,2500.7986423,N,12132.4323547,E,2,56,0.47,15.374,M,15.25,M,14,3335*7D
$GNRMC,040656.800,A,2500.7986423,N,12132.4323547,E,0.00,85.07,270623,,,D,V*3F
$GPHDT,137.563,T*30
$GNGSA,A,3,19,195,196,17,199,06,194,09,20,11,04,12,0.90,0.47,0.77,1*01
$GNGSA,A,3,14,,,,,,,,,,,,0.90,0.47,0.77,1*0E
$GNGSA,A,3,68,67,83,82,73,69,,,,,,,0.90,0.47,0.77,2*0D
$GNGSA,A,3,10,24,12,11,04,19,25,33,,,,,0.90,0.47,0.77,3*06
$GNGSA,A,3,40,07,10,33,14,43,28,42,11,,,,0.90,0.47,0.77,4*02
$GPGSV,4,1,15,19,71,046,43,195,68,046,43,196,67,123,39,17,61,097,41,1*67
$GPGSV,4,2,15,199,60,167,35,06,50,354,45,194,37,173,42,09,36,094,43,1*6A
$GPGSV,4,3,15,20,36,238,16,11,31,295,28,04,20,063,26,12,19,311,32,1*66
$GPGSV,4,4,15,14,17,174,29,05,10,226,,03,01,040,,1*5E
$GPGSV,3,1,09,195,68,046,46,196,67,123,45,199,60,167,44,06,50,354,47,8*5E
$GPGSV,3,2,09,194,37,173,41,09,36,094,42,11,31,295,23,04,20,063,26,8*50
$GPGSV,3,3,09,14,17,174,25,8*52
$GLGSV,2,1,08,68,60,136,42,67,41,047,43,83,37,353,30,82,36,051,40,1*7F
$GLGSV,2,2,08,73,21,278,17,69,20,184,23,80,16,222,,74,06,319,,1*7E
$GAGSV,3,1,09,10,49,345,41,24,46,233,15,12,46,025,37,11,37,309,26,7*79
$GAGSV,3,2,09,04,35,149,41,19,32,077,34,25,28,300,14,33,12,071,12,7*73
$GAGSV,3,3,09,09,04,191,,7*4E
$GAGSV,2,1,07,10,49,345,45,12,46,025,41,11,37,309,22,04,35,149,42,1*7B
$GAGSV,2,2,07,19,32,077,37,25,28,300,29,33,12,071,15,1*4B
$GBGSV,4,1,14,40,80,162,41,07,77,231,42,10,71,276,22,33,71,133,43,1*7F
$GBGSV,4,2,14,14,58,065,40,43,52,070,47,13,48,266,,28,43,332,47,1*7E
$GBGSV,4,3,14,42,34,046,42,41,30,198,,11,29,090,36,37,14,265,,1*70
$GBGSV,4,4,14,23,13,214,,34,13,105,24,1*70
$GBGSV,2,1,05,40,80,162,46,33,71,133,46,43,52,070,45,28,43,332,44,4*72
$GBGSV,2,2,05,42,34,046,44,4*45
$GNGGA,040657.000,2500.7986303,N,12132.4323487,E,2,56,0.47,15.382,M,15.25,M,15,3335*74
$GNRMC,040657.000,A,2500.7986303,N,12132.4323487,E,0.00,85.07,270623,,,D,V*3E
$GPHDT,137.777,T*37
$GNGGA,040657.200,2500.7986183,N,12132.4323487,E,2,56,0.47,15.397,M,15.25,M,15,3335*78
$GNRMC,040657.200,A,2500.7986183,N,12132.4323487,E,0.00,85.07,270623,,,D,V*36
$GPHDT,137.275,T*30
$GNGGA,040657.400,2500.7986123,N,12132.4323487,E,2,56,0.47,15.413,M,15.25,M,15,3335*7F
$GNRMC,040657.400,A,2500.7986123,N,12132.4323487,E,0.00,85.07,270623,,,D,V*3A
$GPHDT,137.061,T*37
$GNGGA,040657.600,2500.7986063,N,12132.4323427,E,2,56,0.47,15.427,M,15.25,M,15,3335*75
$GNRMC,040657.600,A,2500.7986063,N,12132.4323427,E,0.00,85.07,270623,,,D,V*37
$GPHDT,136.891,T*31
$GNGGA,040657.800,2500.7985943,N,12132.4323427,E,2,56,0.47,15.448,M,15.25,M,15,3335*7A
$GNRMC,040657.800,A,2500.7985943,N,12132.4323427,E,0.00,85.07,270623,,,D,V*31
$GPHDT,137.214,T*37
$GNGSA,A,3,19,195,196,17,199,06,194,09,11,04,12,14,0.91,0.49,0.77,1*09
$GNGSA,A,3,68,67,83,82,73,69,,,,,,,0.91,0.49,0.77,2*02
$GNGSA,A,3,10,24,12,11,04,19,25,33,,,,,0.91,0.49,0.77,3*09
$GNGSA,A,3,40,07,10,33,14,43,28,42,11,,,,0.91,0.49,0.77,4*0D
$GPGSV,4,1,15,19,71,046,43,195,68,046,43,196,67,123,40,17,61,097,41,1*69
$GPGSV,4,2,15,199,60,167,36,06,50,354,45,194,37,173,42,09,36,094,43,1*69
$GPGSV,4,3,15,20,36,238,13,11,31,295,29,04,20,063,26,12,19,311,31,1*61
$GPGSV,4,4,15,14,17,174,28,05,10,226,,03,01,040,,1*5F
$GPGSV,3,1,09,195,68,046,45,196,67,123,44,199,60,167,45,06,50,354,47,8*5D
$GPGSV,3,2,09,194,37,173,42,09,36,094,42,11,31,295,23,04,20,063,22,8*57
$GPGSV,3,3,09,14,17,174,22,8*55
$GLGSV,2,1,08,68,60,136,41,67,41,047,43,83,37,353,30,82,36,051,40,1*7C
$GLGSV,2,2,08,73,21,278,17,69,20,184,20,80,16,222,,74,06,319,,1*7D
$GAGSV,3,1,10,10,49,345,42,24,46,233,15,12,46,025,36,11,37,309,27,7*72
$GAGSV,3,2,10,04,35,149,41,19,32,077,34,25,28,300,14,33,12,071,14,7*7D
$GAGSV,3,3,10,09,05,190,,36,01,276,,7*71
$GAGSV,2,1,07,10,49,345,45,12,46,025,41,11,37,309,20,04,35,149,42,1*79
$GAGSV,2,2,07,19,32,077,36,25,28,300,29,33,12,071,15,1*4A
$GBGSV,4,1,14,40,80,162,41,07,77,231,42,10,71,276,22,33,71,133,43,1*7F
$GBGSV,4,2,14,14,58,065,40,08,57,280,,43,52,070,47,28,43,332,47,1*72
$GBGSV,4,3,14,42,34,046,42,41,30,198,,11,29,090,36,37,14,265,,1*70
$GBGSV,4,4,14,34,13,105,25,23,13,214,,1*71
$GBGSV,2,1,05,40,80,162,46,33,71,133,45,43,52,070,45,28,43,332,44,4*71
$GBGSV,2,2,05,42,34,046,43,4*42
$GNGGA,040658.000,2500.7985823,N,12132.4323427,E,2,55,0.49,15.469,M,15.25,M,16,3335*77
$GNRMC,040658.000,A,2500.7985823,N,12132.4323427,E,0.00,85.07,270623,,,D,V*31
$GPHDT,136.872,T*3C
$GNGGA,040658.200,2500.7985703,N,12132.4323427,E,2,55,0.49,15.493,M,15.25,M,16,3335*7D
$GNRMC,040658.200,A,2500.7985703,N,12132.4323427,E,0.00,85.07,270623,,,D,V*3E
$GPHDT,137.176,T*30
$GNGGA,040658.400,2500.7985583,N,12132.4323427,E,2,55,0.49,15.508,M,15.25,M,16,3335*72
$GNRMC,040658.400,A,2500.7985583,N,12132.4323427,E,0.00,85.07,270623,,,D,V*32
$GPHDT,137.301,T*32
$GNGGA,040658.600,2500.7985523,N,12132.4323427,E,2,55,0.49,15.523,M,15.25,M,16,3335*73
$GNRMC,040658.600,A,2500.7985523,N,12132.4323427,E,0.00,85.07,270623,,,D,V*3A
$GPHDT,137.370,T*34
$GNGGA,040658.800,2500.7985403,N,12132.4323427,E,2,55,0.49,15.542,M,15.25,M,16,3335*79
$GNRMC,040658.800,A,2500.7985403,N,12132.4323427,E,0.00,85.07,270623,,,D,V*37
$GPHDT,137.309,T*3A
$GNGSA,A,3,19,195,196,17,199,06,194,09,11,04,12,14,0.91,0.49,0.77,1*09
$GNGSA,A,3,68,67,83,82,73,69,,,,,,,0.91,0.49,0.77,2*02
$GNGSA,A,3,10,24,12,11,04,19,25,33,,,,,0.91,0.49,0.77,3*09
$GNGSA,A,3,40,07,10,33,14,43,28,42,11,,,,0.91,0.49,0.77,4*0D
$GPGSV,4,1,14,19,71,046,43,195,68,046,43,196,67,123,40,17,61,097,41,1*68
$GPGSV,4,2,14,199,60,167,36,06,50,354,45,194,37,173,42,20,36,238,14,1*65
$GPGSV,4,3,14,09,36,094,43,11,31,295,29,04,20,063,23,12,19,311,31,1*6F
$GPGSV,4,4,14,14,17,174,28,05,10,226,,1*68
$GPGSV,3,1,09,195,68,046,45,196,67,123,44,199,60,167,45,06,50,354,47,8*5D
$GPGSV,3,2,09,194,37,173,42,09,36,094,42,11,31,295,24,04,20,063,21,8*53
$GPGSV,3,3,09,14,17,174,23,8*54
$GLGSV,2,1,07,68,60,136,41,67,41,047,43,83,37,353,29,82,36,051,39,1*75
$GLGSV,2,2,07,73,21,278,17,69,20,184,22,80,16,222,,1*4E
$GAGSV,3,1,10,10,49,345,42,24,46,233,15,12,46,025,37,11,37,309,27,7*73
$GAGSV,3,2,10,04,35,149,41,19,32,077,34,25,28,300,12,33,12,071,14,7*7B
$GAGSV,3,3,10,09,05,190,,36,01,276,,7*71
$GAGSV,2,1,07,10,49,345,45,12,46,025,41,11,37,309,19,04,35,149,42,1*73
$GAGSV,2,2,07,19,32,077,36,25,28,300,29,33,12,071,12,1*4D
$GBGSV,4,1,15,40,80,162,40,07,77,231,42,10,71,276,22,33,71,133,43,1*7F
$GBGSV,4,2,15,14,58,065,40,08,57,280,,43,52,070,47,13,48,266,,1*73
$GBGSV,4,3,15,28,43,332,47,42,34,046,42,41,30,198,,11,29,090,36,1*7D
$GBGSV,4,4,15,37,14,265,,34,13,105,25,23,13,214,,1*40
$GBGSV,2,1,05,40,80,162,46,33,71,133,45,43,52,070,45,28,43,332,44,4*71
$GBGSV,2,2,05,42,34,046,43,4*42
$GNGGA,040659.000,2500.7985283,N,12132.4323487,E,2,55,0.49,15.568,M,15.25,M,17,3335*7D
$GNRMC,040659.000,A,2500.7985283,N,12132.4323487,E,0.00,85.07,270623,,,D,V*3A
$GPHDT,137.242,T*34
$GNGGA,040659.200,2500.7985223,N,12132.4323547,E,2,54,0.49,15.602,M,15.25,M,17,3335*76
$GNRMC,040659.200,A,2500.7985223,N,12132.4323547,E,0.00,85.07,270623,,,D,V*3F
$GPHDT,137.321,T*30
$GNGGA,040659.400,2500.7985103,N,12132.4323667,E,2,54,0.49,15.629,M,15.25,M,17,3335*79
$GNRMC,040659.400,A,2500.7985103,N,12132.4323667,E,0.00,85.07,270623,,,D,V*39
$GPHDT,137.212,T*31
$GNGGA,040659.600,2500.7985043,N,12132.4323727,E,2,54,0.49,15.658,M,15.25,M,17,3335*7D
$GNRMC,040659.600,A,2500.7985043,N,12132.4323727,E,0.00,85.07,270623,,,D,V*3B
$GPHDT,136.872,T*3C
$GNGGA,040659.800,2500.7984923,N,12132.4323787,E,2,54,0.49,15.683,M,15.25,M,17,3335*71
$GNRMC,040659.800,A,2500.7984923,N,12132.4323787,E,0.00,85.07,270623,,,D,V*31
$GPHDT,137.417,T*32
$GNGSA,A,3,19,195,196,17,199,06,194,09,11,04,12,14,0.91,0.49,0.77,1*09
$GNGSA,A,3,68,67,83,82,73,69,,,,,,,0.91,0.49,0.77,2*02
$GNGSA,A,3,10,12,24,11,04,19,25,33,,,,,0.91,0.49,0.77,3*09
$GNGSA,A,3,40,07,33,10,14,43,28,42,11,,,,0.91,0.49,0.77,4*0D
$GPGSV,4,1,14,19,71,046,43,195,68,046,43,196,67,123,40,17,61,097,41,1*68
$GPGSV,4,2,14,199,60,167,36,06,50,354,45,194,37,173,42,09,36,094,43,1*68
$GPGSV,4,3,14,20,36,238,13,11,31,295,29,04,20,063,23,12,19,311,32,1*66
$GPGSV,4,4,14,14,17,174,28,03,01,040,,1*6C
$GPGSV,3,1,09,195,68,046,45,196,67,123,44,199,60,167,44,06,50,354,47,8*5C
$GPGSV,3,2,09,194,37,173,42,09,36,094,42,11,31,295,23,04,20,063,21,8*54
$GPGSV,3,3,09,14,17,174,23,8*54
$GLGSV,2,1,07,68,60,136,41,67,41,047,43,83,37,353,29,82,36,051,39,1*75
$GLGSV,2,2,07,73,21,278,16,69,20,184,22,80,16,222,,1*4F
$GAGSV,3,1,10,10,49,345,42,12,46,025,37,24,46,233,15,11,37,309,28,7*7C
$GAGSV,3,2,10,04,35,149,41,19,32,077,34,25,28,300,13,33,12,071,,7*7F
$GAGSV,3,3,10,09,05,190,,36,01,276,,7*71
$GAGSV,2,1,07,10,49,345,45,12,46,025,41,11,37,309,19,04,35,149,42,1*73
$GAGSV,2,2,07,19,32,077,36,25,28,300,29,33,12,071,11,1*4E
$GBGSV,4,1,14,40,80,162,40,07,77,231,42,33,71,133,42,10,71,276,22,1*7F
$GBGSV,4,2,14,14,58,065,40,08,57,280,,43,52,070,47,13,48,266,,1*72
$GBGSV,4,3,14,28,43,332,47,42,34,046,42,41,30,198,,11,29,090,34,1*7E
$GBGSV,4,4,14,37,14,265,,34,13,105,23,1*73
$GBGSV,2,1,05,40,80,162,46,33,71,133,45,43,52,070,45,28,43,332,44,4*71
$GBGSV,2,2,05,42,34,046,43,4*42
$GNGGA,040700.000,2500.7984863,N,12132.4323847,E,2,54,0.49,15.715,M,15.25,M,18,3335*73
$GNRMC,040700.000,A,2500.7984863,N,12132.4323847,E,0.00,85.07,270623,,,D,V*32
$GPHDT,137.319,T*3B
$GNGGA,040700.200,2500.7984743,N,12132.4323907,E,2,54,0.49,15.736,M,15.25,M,18,3335*78
$GNRMC,040700.200,A,2500.7984743,N,12132.4323907,E,0.00,85.07,270623,,,D,V*38
$GPHDT,137.206,T*34
$GNGGA,040700.400,2500.7984683,N,12132.4324027,E,2,54,0.49,15.760,M,15.25,M,18,3335*7C
$GNRMC,040700.400,A,2500.7984683,N,12132.4324027,E,0.00,85.07,270623,,,D,V*3F
$GPHDT,137.508,T*3D
$GNGGA,040700.600,2500.7984563,N,12132.4324147,E,2,54,0.49,15.784,M,15.25,M,18,3335*7E
$GNRMC,040700.600,A,2500.7984563,N,12132.4324147,E,0.00,85.07,270623,,,D,V*37
$GPHDT,137.228,T*38
$GNGGA,040700.800,2500.7984503,N,12132.4324207,E,2,54,0.49,15.807,M,15.25,M,18,3335*75
$GNRMC,040700.800,A,2500.7984503,N,12132.4324207,E,0.00,85.07,270623,,,D,V*38
$GPHDT,137.104,T*35
$GNGSA,A,3,19,195,196,17,199,06,194,09,11,04,12,14,0.91,0.49,0.77,1*09
$GNGSA,A,3,68,67,83,82,73,69,,,,,,,0.91,0.49,0.77,2*02
$GNGSA,A,3,10,12,24,11,04,19,25,33,,,,,0.91,0.49,0.77,3*09
$GNGSA,A,3,40,07,10,33,14,43,28,42,11,,,,0.91,0.49,0.77,4*0D
$GPGSV,4,1,15,19,71,046,43,195,68,046,43,196,67,123,40,17,61,097,41,1*69
$GPGSV,4,2,15,199,60,167,36,06,50,354,45,194,37,173,42,09,36,094,43,1*69
$GPGSV,4,3,15,20,36,238,13,11,31,295,27,04,20,063,21,12,19,311,32,1*6B
$GPGSV,4,4,15,14,17,174,28,05,10,226,,03,01,040,,1*5F
$GPGSV,3,1,09,195,68,046,45,196,67,123,44,199,60,167,44,06,50,354,47,8*5C
$GPGSV,3,2,09,194,37,173,42,09,36,094,42,11,31,295,24,04,20,063,21,8*53
$GPGSV,3,3,09,14,17,174,23,8*54
$GLGSV,2,1,07,68,60,136,41,67,41,047,43,83,37,353,29,82,36,051,39,1*75
$GLGSV,2,2,07,73,21,278,16,69,20,184,19,80,16,222,,1*47
$GAGSV,3,1,10,10,49,345,42,12,46,025,37,24,46,233,15,11,37,309,28,7*7C
$GAGSV,3,2,10,04,35,149,41,19,32,077,34,25,28,299,14,33,12,071,,7*79
$GAGSV,3,3,10,09,05,190,,36,01,276,,7*71
$GAGSV,2,1,07,10,49,345,45,12,46,025,41,11,37,309,19,04,35,149,42,1*73
$GAGSV,2,2,07,19,32,077,36,25,28,299,29,33,12,071,13,1*4D
$GBGSV,4,1,13,40,80,162,40,07,77,231,42,10,71,276,22,33,71,133,42,1*78
$GBGSV,4,2,13,14,58,065,40,43,52,070,47,28,43,332,47,42,34,046,42,1*70
$GBGSV,4,3,13,41,30,198,,11,29,090,34,37,14,265,,23,13,214,,1*74
$GBGSV,4,4,13,34,13,105,,1*45
$GBGSV,2,1,05,40,80,162,46,33,71,133,45,43,52,070,45,28,43,332,44,4*71
$GBGSV,2,2,05,42,34,046,43,4*42
$GNGGA,040701.000,2500.7984443,N,12132.4324207,E,2,54,0.49,15.832,M,15.25,M,19,3335*7E
$GNRMC,040701.000,A,2500.7984443,N,12132.4324207,E,0.00,85.07,270623,,,D,V*34
$GPHDT,136.704,T*32
$GNGGA,040701.200,2500.7984383,N,12132.4324267,E,2,54,0.49,15.849,M,15.25,M,19,3335*7D
$GNRMC,040701.200,A,2500.7984383,N,12132.4324267,E,0.00,85.07,270623,,,D,V*3B
$GPHDT,137.560,T*33
$GNGGA,040701.400,2500.7984323,N,12132.4324327,E,2,54,0.49,15.873,M,15.25,M,19,3335*7D
$GNRMC,040701.400,A,2500.7984323,N,12132.4324327,E,0.00,85.07,270623,,,D,V*32
$GPHDT,137.358,T*3E
$GNGGA,040701.600,2500.7984203,N,12132.4324447,E,2,54,0.49,15.902,M,15.25,M,19,3335*7A
$GNRMC,040701.600,A,2500.7984203,N,12132.4324447,E,0.00,85.07,270623,,,D,V*32
$GPHDT,137.720,T*35
$GNGGA,040701.800,2500.7984143,N,12132.4324567,E,2,54,0.49,15.934,M,15.25,M,19,3335*75
$GNRMC,040701.800,A,2500.7984143,N,12132.4324567,E,0.00,85.07,270623,,,D,V*38
$GPHDT,137.358,T*3E
$GNGSA,A,3,19,195,196,17,199,06,194,09,11,04,12,14,0.91,0.49,0.77,1*09
$GNGSA,A,3,68,67,83,82,73,69,,,,,,,0.91,0.49,0.77,2*02
$GNGSA,A,3,10,12,24,11,04,19,25,33,,,,,0.91,0.49,0.77,3*09
$GNGSA,A,3,40,07,10,33,14,43,28,42,11,,,,0.91,0.49,0.77,4*0D
$GPGSV,4,1,15,19,71,046,43,195,68,046,43,196,67,123,40,17,61,097,41,1*69
$GPGSV,4,2,15,199,60,167,35,06,50,354,45,194,37,173,42,09,36,094,43,1*6A
$GPGSV,4,3,15,20,36,238,13,11,31,295,26,04,20,063,25,12,19,311,32,1*6E
$GPGSV,4,4,15,14,17,174,28,05,10,226,,03,01,040,,1*5F
$GPGSV,3,1,09,195,68,046,45,196,67,123,44,199,60,167,45,06,50,354,47,8*5D
$GPGSV,3,2,09,194,37,173,42,09,36,094,42,11,31,295,25,04,20,063,21,8*52
$GPGSV,3,3,09,14,17,174,22,8*55
$GLGSV,2,1,07,68,60,136,41,67,41,047,43,83,37,353,29,82,36,051,39,1*75
$GLGSV,2,2,07,73,21,278,14,69,20,184,18,80,16,222,,1*44
$GAGSV,3,1,10,10,49,345,42,12,46,025,37,24,46,233,14,11,37,309,28,7*7D
$GAGSV,3,2,10,04,35,149,41,19,32,077,33,25,28,299,14,33,12,071,,7*7E
$GAGSV,3,3,10,09,05,190,,36,01,276,,7*71
$GAGSV,2,1,07,10,49,345,45,12,46,025,41,11,37,309,19,04,35,149,42,1*73
$GAGSV,2,2,07,19,32,077,36,25,28,299,29,33,12,071,12,1*4C
$GBGSV,4,1,13,40,80,162,40,07,77,231,42,10,71,276,21,33,71,133,42,1*7B
$GBGSV,4,2,13,14,58,065,40,43,52,070,47,28,43,332,47,42,34,046,42,1*70
$GBGSV,4,3,13,41,30,198,,11,29,090,34,37,14,265,,23,13,214,,1*74
$GBGSV,4,4,13,34,13,105,21,1*46
$GBGSV,2,1,05,40,80,162,46,33,71,133,45,43,52,070,45,28,43,332,44,4*71
$GBGSV,2,2,05,42,34,046,43,4*42
$GNGGA,040702.000,2500.7984023,N,12132.4324687,E,2,54,0.49,15.960,M,15.25,M,20,3335*7F
$GNRMC,040702.000,A,2500.7984023,N,12132.4324687,E,0.00,85.07,270623,,,D,V*39
$GPHDT,137.404,T*30
$GNGGA,040702.200,2500.7983963,N,12132.4324747,E,2,54,0.49,15.981,M,15.25,M,20,3335*75
$GNRMC,040702.200,A,2500.7983963,N,12132.4324747,E,0.00,85.07,270623,,,D,V*3C
$GPHDT,137.033,T*30
$GNGGA,040702.400,2500.7983903,N,12132.4324867,E,2,54,0.49,16.005,M,15.25,M,20,3335*7E
$GNRMC,040702.400,A,2500.7983903,N,12132.4324867,E,0.00,85.07,270623,,,D,V*31
$GPHDT,137.183,T*3A
$GNGGA,040702.600,2500.7983843,N,12132.4324987,E,2,54,0.49,16.028,M,15.25,M,20,3335*79
$GNRMC,040702.600,A,2500.7983843,N,12132.4324987,E,0.00,85.07,270623,,,D,V*39
$GPHDT,137.273,T*36
$GNGGA,040702.800,2500.7983783,N,12132.4325107,E,2,54,0.49,16.046,M,15.25,M,20,3335*7D
$GNRMC,040702.800,A,2500.7983783,N,12132.4325107,E,0.00,85.07,270623,,,D,V*35
$GPHDT,137.013,T*32
$GNGSA,A,3,19,195,196,17,199,06,194,09,11,04,12,14,0.91,0.49,0.77,1*09
$GNGSA,A,3,68,67,83,82,73,69,,,,,,,0.91,0.49,0.77,2*02
$GNGSA,A,3,10,24,12,11,04,19,25,33,,,,,0.91,0.49,0.77,3*09
$GNGSA,A,3,40,07,33,10,14,43,28,42,11,,,,0.91,0.49,0.77,4*0D
$GPGSV,4,1,15,19,71,046,43,195,68,046,43,196,67,123,40,17,61,097,41,1*69
$GPGSV,4,2,15,199,60,167,36,06,50,354,45,194,37,173,42,09,36,094,43,1*69
$GPGSV,4,3,15,20,36,238,11,11,31,295,27,04,20,063,25,12,19,311,32,1*6D
$GPGSV,4,4,15,14,17,174,26,05,10,226,,03,01,040,,1*51
$GPGSV,3,1,09,195,68,046,45,196,67,123,44,199,60,167,45,06,50,354,48,8*52
$GPGSV,3,2,09,194,37,173,42,09,36,094,42,11,31,295,25,04,20,063,24,8*57
$GPGSV,3,3,09,14,17,174,22,8*55
$GLGSV,2,1,08,68,60,136,41,67,41,047,43,83,37,353,29,82,36,051,38,1*7B
$GLGSV,2,2,08,73,21,278,14,69,20,184,21,80,16,222,,84,02,302,,1*7E
$GAGSV,3,1,09,10,49,345,42,24,46,233,14,12,46,025,37,11,37,309,26,7*7B
$GAGSV,3,2,09,04,35,149,41,19,32,077,32,25,28,299,16,33,12,071,,7*75
$GAGSV,3,3,09,36,01,276,,7*4D
$GAGSV,2,1,08,10,49,345,45,24,46,233,13,12,46,025,41,11,37,309,21,1*7B
$GAGSV,2,2,08,04,35,149,43,19,32,077,36,25,28,299,29,33,12,071,12,1*7A
$GBGSV,4,1,13,40,80,162,40,07,77,231,42,33,71,133,42,10,71,276,22,1*78
$GBGSV,4,2,13,14,58,065,40,08,57,280,,43,52,070,47,28,43,332,48,1*7A
$GBGSV,4,3,13,42,34,046,42,41,30,198,,11,29,090,35,37,14,265,,1*74
$GBGSV,4,4,13,34,13,105,21,1*46
$GBGSV,2,1,05,40,80,162,46,33,71,133,45,43,52,070,45,28,43,332,44,4*71
$GBGSV,2,2,05,42,34,046,43,4*42
$GNGGA,040703.000,2500.7983723,N,12132.4325167,E,2,55,0.49,16.076,M,15.25,M,21,3335*7B
$GNRMC,040703.000,A,2500.7983723,N,12132.4325167,E,0.00,85.07,270623,,,D,V*30
$GPHDT,138.122,T*3E
$GNGGA,040703.200,2500.7983663,N,12132.4325287,E,2,55,0.49,16.096,M,15.25,M,21,3335*7F
$GNRMC,040703.200,A,2500.7983663,N,12132.4325287,E,0.01,85.07,270623,,,D,V*3B
$GPHDT,137.176,T*30
$GNGGA,040703.400,2500.7983603,N,12132.4325347,E,2,55,0.49,16.121,M,15.25,M,21,3335*7F
$GNRMC,040703.400,A,2500.7983603,N,12132.4325347,E,0.00,85.07,270623,,,D,V*37
$GPHDT,137.711,T*37
$GNGGA,040703.600,2500.7983543,N,12132.4325467,E,2,54,0.50,16.150,M,15.25,M,21,3335*70
$GNRMC,040703.600,A,2500.7983543,N,12132.4325467,E,0.00,85.07,270623,,,D,V*37
