$FW : RTK35X,V1.1X0314AS,Lib20210517,1*54
$Tool : LOCOSYS , GNSS Firebird , v1.0.0.19*39
$---------------------------------------------------*2D
047,41,34,14,104,24,4*72
$GNGGA,040437.000,2500.7992519,N,12132.4336469,E,4,56,0.48,15.642,M,15.25,M,1,3335*49
$GNRMC,040437.000,A,2500.7992519,N,12132.4336469,E,0.17,85.07,270623,,,R,V*26
$GPHDT,,T*1B
$GNGGA,040437.200,2500.7992527,N,12132.4336458,E,4,56,0.48,15.645,M,15.25,M,1,3335*43
$GNRMC,040437.200,A,2500.7992527,N,12132.4336458,E,0.09,85.07,270623,,,R,V*24
$GPHDT,,T*1B
$GNGGA,040437.400,2500.7992544,N,12132.4336436,E,4,56,0.48,15.645,M,15.25,M,1,3335*48
$GNRMC,040437.400,A,2500.7992544,N,12132.4336436,E,0.07,85.07,270623,,,R,V*21
$GPHDT,,T*1B
$GNGGA,040437.600,2500.7992565,N,12132.4336439,E,4,56,0.48,15.648,M,15.25,M,0,3335*4A
$GNRMC,040437.600,A,2500.7992565,N,12132.4336439,E,0.07,85.07,270623,,,R,V*2F
$GPHDT,,T*1B
$GNGGA,040437.800,2500.7992589,N,12132.4336417,E,4,57,0.48,15.658,M,15.25,M,0,3335*4A
$GNRMC,040437.800,A,2500.7992589,N,12132.4336417,E,0.06,85.07,270623,,,R,V*2E
$GPHDT,,T*1B
$GNGSA,A,3,19,195,196,17,199,06,194,09,11,04,14,12,0.76,0.48,0.59,1*0D
$GNGSA,A,3,68,67,82,83,73,69,,,,,,,0.76,0.48,0.59,2*06
$GNGSA,A,3,10,12,24,11,04,19,25,33,,,,,0.76,0.48,0.59,3*0D
$GNGSA,A,3,40,07,10,33,14,43,28,42,11,34,,,0.76,0.48,0.59,4*0E
$GPGSV,4,1,15,19,70,042,38,195,68,046,39,196,66,124,36,17,61,095,38,1*66
$GPGSV,4,2,15,50,60,167,37,199,60,167,35,06,50,352,45,194,38,172,42,1*63
$GPGSV,4,3,15,09,36,096,32,20,35,237,11,11,31,294,22,04,20,064,24,1*68
$GPGSV,4,4,15,14,18,174,28,12,18,312,31,05,09,225,,1*55
$GPGSV,3,1,09,195,68,046,41,196,66,124,41,199,60,167,45,06,50,352,46,8*5D
$GPGSV,3,2,09,194,38,172,44,09,36,096,39,11,31,294,13,04,20,064,26,8*50
$GPGSV,3,3,09,14,18,174,28,8*50
$GLGSV,2,1,07,68,59,138,41,67,42,049,44,82,36,050,39,83,36,352,32,1*70
$GLGSV,2,2,07,73,21,279,18,69,19,184,30,80,17,223,,1*49
$GAGSV,3,1,10,10,49,344,43,12,46,024,40,24,46,234,13,11,37,308,25,7*70
$GAGSV,3,2,10,04,34,149,40,19,32,078,26,25,28,300,20,33,12,070,15,7*76
$GAGSV,3,3,10,09,04,191,,36,01,275,,7*72
$GAGSV,2,1,07,10,49,344,46,12,46,024,39,24,46,234,17,11,37,308,23,1*78
$GAGSV,2,2,07,04,34,149,42,19,32,078,30,25,28,300,22,1*40
$GBGSV,4,1,13,40,80,160,41,07,77,233,42,10,72,278,26,33,71,135,43,1*77
$GBGSV,4,2,13,14,58,067,41,43,52,068,43,28,42,331,47,42,35,047,45,1*7B
$GBGSV,4,3,13,11,30,089,35,41,30,198,,34,14,104,28,37,14,265,,1*7C
$GBGSV,4,4,13,23,14,215,,1*46
$GBGSV,2,1,06,40,80,160,46,33,71,135,41,43,52,068,39,28,42,331,43,4*75
$GBGSV,2,2,06,42,35,047,42,34,14,104,24,4*71
$GNGGA,040438.000,2500.7992527,N,12132.4336317,E,4,57,0.48,15.662,M,15.25,M,1,3335*46
$GNRMC,040438.000,A,2500.7992527,N,12132.4336317,E,0.06,85.07,270623,,,R,V*2A
$GPHDT,,T*1B
$GNGGA,040438.200,2500.7992489,N,12132.4336285,E,4,57,0.48,15.644,M,15.25,M,1,3335*4F
$GNRMC,040438.200,A,2500.7992489,N,12132.4336285,E,0.05,85.07,270623,,,R,V*24
$GPHDT,,T*1B
$GNGGA,040438.400,2500.7992518,N,12132.4336272,E,4,56,0.48,15.646,M,15.25,M,1,3335*4B
$GNRMC,040438.400,A,2500.7992518,N,12132.4336272,E,0.03,85.07,270623,,,R,V*25
$GPHDT,,T*1B
$GNGGA,040438.600,2500.7992538,N,12132.4336392,E,4,56,0.48,15.627,M,15.25,M,0,3335*42
$GNRMC,040438.600,A,2500.7992538,N,12132.4336392,E,0.04,85.07,270623,,,R,V*2D
$GPHDT,,T*1B
$GNGGA,040438.800,2500.7992522,N,12132.4336367,E,4,57,0.48,15.629,M,15.25,M,0,3335*42
$GNRMC,040438.800,A,2500.7992522,N,12132.4336367,E,0.02,85.07,270623,,,R,V*24
$GPHDT,,T*1B
$GNGSA,A,3,19,195,196,17,199,06,194,09,11,04,14,12,0.76,0.48,0.59,1*0D
$GNGSA,A,3,68,67,82,83,73,69,,,,,,,0.76,0.48,0.59,2*06
$GNGSA,A,3,10,12,24,11,04,19,25,33,,,,,0.76,0.48,0.59,3*0D
$GNGSA,A,3,40,07,10,33,14,43,28,42,11,34,,,0.76,0.48,0.59,4*0E
$GPGSV,4,1,15,19,70,042,38,195,68,046,39,196,66,124,39,17,61,095,42,1*64
$GPGSV,4,2,15,50,60,167,37,199,60,167,35,06,50,352,44,194,38,172,42,1*62
$GPGSV,4,3,15,09,36,096,42,20,35,237,16,11,31,294,22,04,20,064,22,1*6E
$GPGSV,4,4,15,14,18,174,28,12,18,312,32,05,09,225,,1*56
$GPGSV,3,1,09,195,68,046,39,196,66,124,44,199,60,167,45,06,50,352,46,8*57
$GPGSV,3,2,09,194,38,172,44,09,36,096,43,11,31,294,14,04,20,064,22,8*5E
$GPGSV,3,3,09,14,18,174,27,8*5F
$GLGSV,2,1,07,68,59,138,43,67,42,049,39,82,36,050,31,83,36,352,32,1*70
$GLGSV,2,2,07,73,21,279,20,69,19,184,29,80,17,223,,1*4A
$GAGSV,3,1,10,10,49,344,43,12,46,024,40,24,46,234,14,11,37,308,26,7*74
$GAGSV,3,2,10,04,34,149,40,19,32,078,29,25,28,300,20,33,12,070,15,7*79
$GAGSV,3,3,10,09,04,191,,36,01,275,,7*72
$GAGSV,2,1,07,10,49,344,45,12,46,024,38,24,46,234,17,11,37,308,21,1*78
$GAGSV,2,2,07,04,34,149,42,19,32,078,30,25,28,300,22,1*40
$GBGSV,4,1,13,40,80,160,41,07,77,233,42,10,72,278,25,33,71,135,44,1*73
$GBGSV,4,2,13,14,58,067,41,43,52,068,41,28,42,331,47,42,35,047,40,1*7C
$GBGSV,4,3,13,11,30,089,37,41,30,198,,34,14,104,28,37,14,265,,1*7E
$GBGSV,4,4,13,23,14,215,,1*46
$GBGSV,2,1,06,40,80,160,46,33,71,135,43,43,52,068,40,28,42,331,43,4*79
$GBGSV,2,2,06,42,35,047,38,34,14,104,24,4*7C
$GNGGA,040439.000,2500.7992565,N,12132.4336440,E,4,57,0.48,15.648,M,15.25,M,1,3335*4C
$GNRMC,040439.000,A,2500.7992565,N,12132.4336440,E,0.02,85.07,270623,,,R,V*2C
$GPHDT,,T*1B
$GNGGA,040439.200,2500.7992569,N,12132.4336460,E,4,57,0.48,15.658,M,15.25,M,1,3335*41
$GNRMC,040439.200,A,2500.7992569,N,12132.4336460,E,0.01,85.07,270623,,,R,V*23
$GPHDT,,T*1B
$GNGGA,040439.400,2500.7992531,N,12132.4336413,E,4,57,0.48,15.654,M,15.25,M,0,3335*43
$GNRMC,040439.400,A,2500.7992531,N,12132.4336413,E,0.04,85.07,270623,,,R,V*29
$GPHDT,,T*1B
$GNGGA,040439.600,2500.7992547,N,12132.4336393,E,4,57,0.48,15.649,M,15.25,M,0,3335*43
$GNRMC,040439.600,A,2500.7992547,N,12132.4336393,E,0.03,85.07,270623,,,R,V*22
$GPHDT,,T*1B
$GNGGA,040439.800,2500.7992560,N,12132.4336413,E,4,58,0.48,15.651,M,15.25,M,0,3335*41
$GNRMC,040439.800,A,2500.7992560,N,12132.4336413,E,0.03,85.07,270623,,,R,V*26
$GPHDT,,T*1B
$GNGSA,A,3,19,195,196,17,199,06,194,09,11,04,12,14,0.76,0.48,0.59,1*0D
$GNGSA,A,3,68,67,82,83,73,69,,,,,,,0.76,0.48,0.59,2*06
$GNGSA,A,3,10,12,24,11,04,19,25,33,,,,,0.76,0.48,0.59,3*0D
$GNGSA,A,3,40,07,10,33,14,43,28,42,11,34,,,0.76,0.48,0.59,4*0E
$GPGSV,4,1,15,19,70,042,38,195,68,046,40,196,66,124,40,17,61,095,42,1*64
$GPGSV,4,2,15,199,60,167,35,50,60,167,38,06,50,353,45,194,38,172,42,1*6D
$GPGSV,4,3,15,09,36,096,42,20,35,237,14,11,31,294,22,04,20,064,24,1*6A
$GPGSV,4,4,15,12,18,312,32,14,18,174,27,05,10,225,,1*51
$GPGSV,3,1,09,195,68,046,40,196,66,124,44,199,60,167,45,06,50,353,46,8*58
$GPGSV,3,2,09,194,38,172,44,09,36,096,44,11,31,294,14,04,20,064,25,8*5E
$GPGSV,3,3,09,14,18,174,28,8*50
$GLGSV,2,1,07,68,59,138,43,67,42,049,40,82,36,050,40,83,36,352,31,1*7B
$GLGSV,2,2,07,73,21,279,18,69,19,184,28,80,17,223,,1*40
$GAGSV,3,1,09,10,49,344,43,12,46,024,34,24,46,234,12,11,37,308,26,7*79
$GAGSV,3,2,09,04,34,149,40,19,32,078,31,25,28,300,21,33,12,070,15,7*79
$GAGSV,3,3,09,36,01,275,,7*4E
$GAGSV,2,1,07,10,49,344,47,12,46,024,36,24,46,234,17,11,37,308,22,1*77
$GAGSV,2,2,07,04,34,149,43,19,32,078,32,25,28,300,22,1*43
$GBGSV,4,1,14,40,80,160,41,07,77,233,42,10,72,278,25,33,71,135,44,1*74
$GBGSV,4,2,14,14,58,067,44,08,57,279,,43,52,068,45,28,42,331,47,1*7B
$GBGSV,4,3,14,42,35,047,39,11,30,089,37,41,30,198,,37,14,265,,1*7D
$GBGSV,4,4,14,34,14,104,26,23,14,215,,1*72
$GBGSV,2,1,06,40,80,160,46,33,71,135,43,43,52,068,43,28,42,331,43,4*7A
$GBGSV,2,2,06,42,35,047,39,34,14,104,24,4*7D
$GNGGA,040440.000,2500.7992578,N,12132.4336418,E,4,58,0.48,15.648,M,15.25,M,1,3335*4C
$GNRMC,040440.000,A,2500.7992578,N,12132.4336418,E,0.02,85.07,270623,,,R,V*23
$GPHDT,,T*1B
$GNGGA,040440.200,2500.7992576,N,12132.4336402,E,4,59,0.48,15.652,M,15.25,M,1,3335*41
$GNRMC,040440.200,A,2500.7992576,N,12132.4336402,E,0.01,85.07,270623,,,R,V*27
$GPHDT,,T*1B
$GNGGA,040440.400,2500.7992598,N,12132.4336424,E,4,59,0.48,15.670,M,15.25,M,1,3335*43
$GNRMC,040440.400,A,2500.7992598,N,12132.4336424,E,0.02,85.07,270623,,,R,V*26
$GPHDT,,T*1B
$GNGGA,040440.600,2500.7992582,N,12132.4336431,E,4,59,0.48,15.645,M,15.25,M,0,3335*49
$GNRMC,040440.600,A,2500.7992582,N,12132.4336431,E,0.02,85.07,270623,,,R,V*2B
$GPHDT,,T*1B
$GNGGA,040440.800,2500.7992584,N,12132.4336444,E,4,59,0.48,15.647,M,15.25,M,0,3335*41
$GNRMC,040440.800,A,2500.7992584,N,12132.4336444,E,0.02,85.07,270623,,,R,V*21
$GPHDT,,T*1B
$GNGSA,A,3,19,195,196,17,199,06,194,09,11,04,14,12,0.76,0.48,0.59,1*0D
$GNGSA,A,3,68,67,82,83,73,69,,,,,,,0.76,0.48,0.59,2*06
$GNGSA,A,3,10,12,24,11,04,19,25,33,,,,,0.76,0.48,0.59,3*0D
$GNGSA,A,3,40,07,10,33,14,43,28,42,11,34,,,0.76,0.48,0.59,4*0E
$GPGSV,4,1,15,19,70,042,40,195,68,046,41,196,66,124,40,17,61,095,42,1*6A
$GPGSV,4,2,15,50,60,167,38,199,60,167,35,06,50,353,42,194,38,172,42,1*6A
$GPGSV,4,3,15,09,36,095,42,20,35,237,17,11,31,294,22,04,20,064,26,1*68
$GPGSV,4,4,15,14,18,174,28,12,18,312,32,05,10,225,,1*5E
$GPGSV,3,1,09,195,68,046,42,196,66,124,44,199,60,167,45,06,50,353,42,8*5E
$GPGSV,3,2,09,194,38,172,44,09,36,095,43,11,31,294,12,04,20,064,22,8*5B
$GPGSV,3,3,09,14,18,174,29,8*51
$GLGSV,2,1,07,68,59,138,43,67,42,049,44,82,36,050,39,83,36,352,28,1*79
$GLGSV,2,2,07,73,21,279,18,69,19,184,30,80,17,223,,1*49
$GAGSV,2,1,08,10,49,344,43,12,46,024,34,24,46,234,12,11,37,308,26,7*79
$GAGSV,2,2,08,04,34,149,40,19,32,078,30,25,28,300,23,33,12,070,14,7*7B
$GAGSV,2,1,08,10,49,344,45,12,46,024,35,24,46,234,18,11,37,308,21,1*75
$GAGSV,2,2,08,04,34,149,43,19,32,078,33,25,28,300,19,33,12,070,18,1*78
$GBGSV,4,1,13,40,80,160,41,07,77,233,42,10,72,278,25,33,71,135,44,1*73
$GBGSV,4,2,13,14,58,067,44,43,52,068,46,28,42,331,47,42,35,047,43,1*7D
$GBGSV,4,3,13,11,30,089,38,41,30,198,,34,14,104,26,23,14,215,,1*7D
$GBGSV,4,4,13,37,14,265,,1*44
$GBGSV,2,1,06,40,80,160,46,33,71,135,43,43,52,068,43,28,42,331,44,4*7D
$GBGSV,2,2,06,42,35,047,43,34,14,104,23,4*77
$GNGGA,040441.000,2500.7992572,N,12132.4336415,E,4,59,0.48,15.654,M,15.25,M,1,3335*46
$GNRMC,040441.000,A,2500.7992572,N,12132.4336415,E,0.01,85.07,270623,,,R,V*26
$GPHDT,,T*1B
$GNGGA,040441.200,2500.7992569,N,12132.4336427,E,4,59,0.48,15.659,M,15.25,M,1,3335*42
$GNRMC,040441.200,A,2500.7992569,N,12132.4336427,E,0.01,85.07,270623,,,R,V*2F
$GPHDT,,T*1B
$GNGGA,040441.400,2500.7992575,N,12132.4336437,E,4,59,0.48,15.660,M,15.25,M,1,3335*42
$GNRMC,040441.400,A,2500.7992575,N,12132.4336437,E,0.09,85.07,270623,,,R,V*2D
$GPHDT,,T*1B
$GNGGA,040441.600,2500.7992587,N,12132.4336428,E,4,59,0.48,15.652,M,15.25,M,1,3335*42
$GNRMC,040441.600,A,2500.7992587,N,12132.4336428,E,0.08,85.07,270623,,,R,V*2D
$GPHDT,,T*1B
$GNGGA,040441.800,2500.7992560,N,12132.4336382,E,4,59,0.48,15.643,M,15.25,M,0,3335*43
$GNRMC,040441.800,A,2500.7992560,N,12132.4336382,E,0.02,85.07,270623,,,R,V*27
$GPHDT,,T*1B
$GNGSA,A,3,19,195,196,17,199,06,194,09,11,04,14,12,0.76,0.48,0.59,1*0D
$GNGSA,A,3,68,67,82,83,73,69,,,,,,,0.76,0.48,0.59,2*06
$GNGSA,A,3,10,12,24,11,04,19,25,33,,,,,0.76,0.48,0.59,3*0D
$GNGSA,A,3,40,07,10,33,14,43,28,42,11,34,,,0.76,0.48,0.59,4*0E
$GPGSV,4,1,14,19,70,042,38,195,68,046,40,196,66,124,40,17,61,095,42,1*65
$GPGSV,4,2,14,199,60,167,35,06,50,353,44,194,38,172,42,09,36,095,42,1*63
$GPGSV,4,3,14,20,35,237,17,11,31,294,25,04,20,064,26,14,18,174,28,1*6C
$GPGSV,4,4,14,12,18,312,30,05,10,225,,1*69
$GPGSV,3,1,09,195,68,046,42,196,66,124,45,199,60,167,45,06,50,353,43,8*5E
$GPGSV,3,2,09,194,38,172,44,09,36,095,43,11,31,294,13,04,20,064,19,8*52
$GPGSV,3,3,09,14,18,174,29,8*51
$GLGSV,2,1,07,68,59,138,43,67,42,049,44,82,36,050,39,83,36,352,31,1*71
$GLGSV,2,2,07,73,21,279,19,69,19,184,30,80,17,223,,1*48
$GAGSV,2,1,08,10,49,344,43,12,46,024,34,24,46,234,14,11,37,308,25,7*7C
$GAGSV,2,2,08,04,34,149,40,19,32,078,28,25,28,300,23,33,12,070,13,7*75
$GAGSV,2,1,08,10,49,344,45,12,46,024,36,24,46,234,18,11,37,308,18,1*7C
$GAGSV,2,2,08,04,34,149,43,19,32,078,33,25,28,300,19,33,12,070,18,1*78
$GBGSV,4,1,14,40,80,160,41,07,77,233,42,10,72,278,25,33,71,135,44,1*74
$GBGSV,4,2,14,14,58,067,43,08,57,279,,43,52,068,46,28,42,331,47,1*7F
$GBGSV,4,3,14,42,35,047,43,11,30,089,38,41,30,198,,34,14,104,26,1*7C
$GBGSV,4,4,14,37,14,265,,23,14,215,,1*71
$GBGSV,2,1,06,40,80,160,46,33,71,135,43,43,52,068,43,28,42,331,44,4*7D
$GBGSV,2,2,06,42,35,047,43,34,14,104,22,4*76
$GNGGA,040442.000,2500.7992565,N,12132.4336381,E,4,59,0.48,15.628,M,15.25,M,1,3335*42
$GNRMC,040442.000,A,2500.7992565,N,12132.4336381,E,0.07,85.07,270623,,,R,V*2F
$GPHDT,,T*1B
$GNGGA,040442.200,2500.7992597,N,12132.4336456,E,4,59,0.48,15.643,M,15.25,M,1,3335*4D
$GNRMC,040442.200,A,2500.7992597,N,12132.4336456,E,0.03,85.07,270623,,,R,V*29
$GPHDT,,T*1B
$GNGGA,040442.400,2500.7992578,N,12132.4336431,E,4,58,0.48,15.634,M,15.25,M,0,3335*4B
$GNRMC,040442.400,A,2500.7992578,N,12132.4336431,E,0.05,85.07,270623,,,R,V*29
$GPHDT,,T*1B
$GNGGA,040442.600,2500.7992592,N,12132.4336431,E,4,59,0.48,15.622,M,15.25,M,0,3335*4B
$GNRMC,040442.600,A,2500.7992592,N,12132.4336431,E,0.00,85.07,270623,,,R,V*2A
$GPHDT,,T*1B
$GNGGA,040442.800,2500.7992533,N,12132.4336414,E,4,58,0.48,15.634,M,15.25,M,0,3335*4F
$GNRMC,040442.800,A,2500.7992533,N,12132.4336414,E,0.00,85.07,270623,,,R,V*28
$GPHDT,,T*1B
$GNGSA,A,3,19,195,196,17,199,06,194,09,11,04,12,14,0.76,0.48,0.59,1*0D
$GNGSA,A,3,68,67,82,83,73,69,,,,,,,0.76,0.48,0.59,2*06
$GNGSA,A,3,10,24,12,11,04,19,25,33,,,,,0.76,0.48,0.59,3*0D
$GNGSA,A,3,40,07,10,33,14,43,28,42,11,34,,,0.76,0.48,0.59,4*0E
$GPGSV,4,1,14,19,70,043,36,195,68,046,39,196,66,124,40,17,61,095,42,1*64
$GPGSV,4,2,14,199,60,167,35,06,50,353,45,194,38,172,42,09,36,095,42,1*62
$GPGSV,4,3,14,20,35,237,16,11,31,294,23,04,20,064,25,12,18,312,32,1*67
$GPGSV,4,4,14,14,18,174,28,05,10,225,,1*64
$GPGSV,3,1,09,195,68,046,38,196,66,124,45,199,60,167,45,06,50,353,46,8*56
$GPGSV,3,2,09,194,38,172,44,09,36,095,45,11,31,294,10,04,20,064,23,8*5E
$GPGSV,3,3,09,14,18,174,28,8*50
$GLGSV,2,1,08,68,59,138,43,67,42,049,39,82,36,050,34,83,36,352,32,1*7A
$GLGSV,2,2,08,73,21,279,18,69,19,184,28,80,17,223,,74,06,320,,1*7B
$GAGSV,3,1,09,10,49,344,43,24,46,234,14,12,46,024,33,11,37,308,26,7*78
$GAGSV,3,2,09,04,34,149,40,19,32,078,30,25,28,300,23,33,12,070,14,7*7B
$GAGSV,3,3,09,09,04,191,,7*4E
$GAGSV,2,1,08,10,49,344,46,12,46,024,34,24,46,234,18,11,37,308,19,1*7C
$GAGSV,2,2,08,04,34,149,43,19,32,078,33,25,28,300,20,33,12,070,17,1*7D
$GBGSV,4,1,14,40,80,160,41,07,77,233,42,10,72,278,25,33,71,135,44,1*74
$GBGSV,4,2,14,14,58,067,41,08,57,279,,43,52,068,39,13,48,265,,1*74
$GBGSV,4,3,14,28,42,331,47,42,35,047,39,11,30,089,38,41,30,198,,1*7C
$GBGSV,4,4,14,34,14,104,24,23,14,215,,1*70
$GBGSV,2,1,06,40,80,160,46,33,71,135,43,43,52,068,40,28,42,331,43,4*79
$GBGSV,2,2,06,42,35,047,39,34,14,104,22,4*7B
$GNGGA,040443.000,2500.7992539,N,12132.4336331,E,4,58,0.48,15.624,M,15.25,M,1,3335*4C
$GNRMC,040443.000,A,2500.7992539,N,12132.4336331,E,0.05,85.07,270623,,,R,V*2E
$GPHDT,,T*1B
$GNGGA,040443.200,2500.7992555,N,12132.4336377,E,4,60,0.47,15.630,M,15.25,M,1,3335*47
$GNRMC,040443.200,A,2500.7992555,N,12132.4336377,E,0.06,85.07,270623,,,R,V*27
$GPHDT,,T*1B
$GNGGA,040443.400,2500.7992585,N,12132.4336428,E,4,58,0.48,15.637,M,15.25,M,1,3335*42
$GNRMC,040443.400,A,2500.7992585,N,12132.4336428,E,0.09,85.07,270623,,,R,V*2E
$GPHDT,,T*1B
$GNGGA,040443.600,2500.7992567,N,12132.4336446,E,4,59,0.47,15.658,M,15.25,M,0,3335*42
$GNRMC,040443.600,A,2500.7992567,N,12132.4336446,E,0.02,85.07,270623,,,R,V*23
$GPHDT,,T*1B
$GNGGA,040443.800,2500.7992575,N,12132.4336473,E,4,59,0.47,15.644,M,15.25,M,0,3335*44
$GNRMC,040443.800,A,2500.7992575,N,12132.4336473,E,0.24,85.07,270623,,,R,V*2C
$GPHDT,,T*1B
$GNGSA,A,3,19,195,196,17,199,06,194,09,20,11,04,14,0.75,0.47,0.59,1*00
$GNGSA,A,3,12,,,,,,,,,,,,0.75,0.47,0.59,1*0F
$GNGSA,A,3,68,67,82,83,73,69,,,,,,,0.75,0.47,0.59,2*0A
$GNGSA,A,3,10,12,24,11,04,19,25,33,,,,,0.75,0.47,0.59,3*01
$GNGSA,A,3,40,07,10,33,14,43,28,42,11,34,,,0.75,0.47,0.59,4*02
$GPGSV,4,1,14,19,70,043,37,195,68,046,39,196,66,124,38,17,61,095,38,1*67
$GPGSV,4,2,14,199,60,167,34,06,50,353,44,194,38,172,42,09,36,095,39,1*6E
$GPGSV,4,3,14,20,35,237,17,11,31,294,25,04,20,064,24,14,18,174,28,1*6E
$GPGSV,4,4,14,12,18,312,31,05,10,225,,1*68
$GPGSV,2,1,08,195,68,046,41,196,66,124,43,199,60,167,45,06,50,353,46,8*5E
$GPGSV,2,2,08,194,38,172,44,09,36,095,41,04,20,064,27,14,18,174,28,8*56
$GLGSV,3,1,09,68,59,138,43,67,42,049,43,82,36,050,40,83,36,352,32,1*74
$GLGSV,3,2,09,73,21,279,18,69,19,184,27,80,17,223,,74,06,320,,1*74
$GLGSV,3,3,09,84,01,301,,1*4E
$GAGSV,3,1,09,10,49,344,43,12,46,024,39,24,46,234,14,11,37,308,24,7*70
$GAGSV,3,2,09,04,34,149,40,19,32,078,22,25,28,300,22,33,12,070,14,7*79
$GAGSV,3,3,09,09,04,191,,7*4E
$GAGSV,2,1,08,10,49,344,46,12,46,024,40,24,46,234,16,11,37,308,20,1*7B
$GAGSV,2,2,08,04,34,149,43,19,32,078,29,25,28,300,22,33,12,070,16,1*75
$GBGSV,4,1,14,40,80,160,41,07,77,233,42,10,72,278,24,33,71,135,44,1*75
$GBGSV,4,2,14,14,58,067,40,08,57,279,,43,52,068,42,28,42,331,47,1*78
$GBGSV,4,3,14,42,35,047,43,41,30,198,,11,30,089,32,23,14,215,,1*77
$GBGSV,4,4,14,34,14,104,24,37,14,265,,1*72
$GBGSV,2,1,06,40,80,160,46,33,71,135,42,43,52,068,34,28,42,331,44,4*7C
$GBGSV,2,2,06,42,35,047,41,34,14,104,23,4*75
$GNGGA,040444.000,2500.7992593,N,12132.4336453,E,4,59,0.47,15.647,M,15.25,M,1,3335*43
$GNRMC,040444.000,A,2500.7992593,N,12132.4336453,E,0.10,85.07,270623,,,R,V*2E
$GPHDT,,T*1B
$GNGGA,040444.200,2500.7992569,N,12132.4336453,E,4,59,0.47,15.652,M,15.25,M,1,3335*40
$GNRMC,040444.200,A,2500.7992569,N,12132.4336453,E,0.12,85.07,270623,,,R,V*2B
$GPHDT,,T*1B
$GNGGA,040444.400,2500.7992548,N,12132.4336447,E,4,59,0.47,15.680,M,15.25,M,1,3335*4F
$GNRMC,040444.400,A,2500.7992548,N,12132.4336447,E,0.07,85.07,270623,,,R,V*2F
$GPHDT,,T*1B
$GNGGA,040444.600,2500.7992551,N,12132.4336452,E,4,59,0.47,15.643,M,15.25,M,0,3335*4F
$GNRMC,040444.600,A,2500.7992551,N,12132.4336452,E,0.04,85.07,270623,,,R,V*22
$GPHDT,,T*1B
$GNGGA,040444.800,2500.7992554,N,12132.4336455,E,4,59,0.47,15.653,M,15.25,M,0,3335*42
$GNRMC,040444.800,A,2500.7992554,N,12132.4336455,E,0.05,85.07,270623,,,R,V*2F
$GPHDT,,T*1B
$GNGSA,A,3,19,195,196,17,199,06,194,09,20,11,04,14,0.75,0.47,0.59,1*00
$GNGSA,A,3,12,,,,,,,,,,,,0.75,0.47,0.59,1*0F
$GNGSA,A,3,68,67,83,82,73,69,,,,,,,0.75,0.47,0.59,2*0A
$GNGSA,A,3,10,12,24,11,04,19,25,33,,,,,0.75,0.47,0.59,3*01
$GNGSA,A,3,40,07,10,33,14,43,28,42,11,34,,,0.75,0.47,0.59,4*02
$GPGSV,4,1,14,19,70,043,39,195,68,046,41,196,66,124,38,17,61,095,39,1*67
$GPGSV,4,2,14,199,60,167,36,06,50,353,44,194,38,172,42,09,36,095,42,1*60
$GPGSV,4,3,14,20,35,237,17,11,31,294,23,04,20,064,26,14,18,174,29,1*6B
$GPGSV,4,4,14,12,18,312,30,05,10,225,,1*69
$GPGSV,2,1,08,195,68,046,42,196,66,124,43,199,60,167,45,06,50,353,47,8*5C
$GPGSV,2,2,08,194,38,172,44,09,36,095,42,04,20,064,28,14,18,174,28,8*5A
$GLGSV,2,1,07,68,59,138,39,67,42,049,44,83,36,352,32,82,36,050,38,1*7E
$GLGSV,2,2,07,73,21,279,17,69,19,184,26,80,17,223,,1*41
$GAGSV,3,1,09,10,49,344,43,12,46,024,39,24,46,234,15,11,37,308,25,7*70
$GAGSV,3,2,09,04,34,149,41,19,32,078,28,25,28,300,22,33,12,070,13,7*75
$GAGSV,3,3,09,09,04,191,,7*4E
$GAGSV,2,1,08,10,49,344,46,12,46,024,40,24,46,234,16,11,37,308,21,1*7A
$GAGSV,2,2,08,04,34,149,42,19,32,078,35,25,28,300,23,33,12,070,15,1*7B
$GBGSV,4,1,14,40,80,160,41,07,77,233,42,10,72,278,25,33,71,135,43,1*73
$GBGSV,4,2,14,14,58,067,43,08,57,279,,43,52,068,45,28,42,331,47,1*7C
$GBGSV,4,3,14,42,35,047,43,11,30,089,37,41,30,198,,37,14,265,,1*70
$GBGSV,4,4,14,23,14,215,,34,14,104,23,1*77
$GBGSV,2,1,06,40,80,160,46,33,71,135,42,43,52,068,43,28,42,331,44,4*7C
$GBGSV,2,2,06,42,35,047,42,34,14,104,23,4*76
$GNGGA,040445.000,2500.7992535,N,12132.4336425,E,4,59,0.47,15.628,M,15.25,M,1,3335*46
$GNRMC,040445.000,A,2500.7992535,N,12132.4336425,E,0.07,85.07,270623,,,R,V*24
$GPHDT,,T*1B
$GNGGA,040445.200,2500.7992530,N,12132.4336414,E,4,59,0.47,15.621,M,15.25,M,1,3335*4A
$GNRMC,040445.200,A,2500.7992530,N,12132.4336414,E,0.09,85.07,270623,,,R,V*2F
$GPHDT,,T*1B
$GNGGA,040445.400,2500.7992529,N,12132.4336425,E,4,58,0.48,15.637,M,15.25,M,0,3335*4E
$GNRMC,040445.400,A,2500.7992529,N,12132.4336425,E,0.03,85.07,270623,,,R,V*29
$GPHDT,,T*1B
$GNGGA,040445.600,2500.7992551,N,12132.4336427,E,4,58,0.48,15.635,M,15.25,M,0,3335*43
$GNRMC,040445.600,A,2500.7992551,N,12132.4336427,E,0.07,85.07,270623,,,R,V*22
$GPHDT,,T*1B
$GNGGA,040445.800,2500.7992574,N,12132.4336439,E,4,57,0.50,15.646,M,15.25,M,0,3335*47
$GNRMC,040445.800,A,2500.7992574,N,12132.4336439,E,0.06,85.07,270623,,,R,V*25
$GPHDT,,T*1B
$GNGSA,A,3,19,195,196,17,199,06,194,09,04,14,12,,0.77,0.50,0.59,1*05
$GNGSA,A,3,68,67,83,82,73,69,,,,,,,0.77,0.50,0.59,2*0E
$GNGSA,A,3,10,12,24,11,04,19,25,33,,,,,0.77,0.50,0.59,3*05
$GNGSA,A,3,40,07,10,33,14,43,28,42,11,34,,,0.77,0.50,0.59,4*06
$GPGSV,4,1,14,19,70,043,40,195,68,046,41,196,66,124,38,17,61,095,36,1*66
$GPGSV,4,2,14,199,60,167,36,06,50,353,44,194,38,173,42,09,36,095,41,1*62
$GPGSV,4,3,14,20,35,237,15,11,31,294,24,04,20,064,25,14,18,174,29,1*6D
$GPGSV,4,4,14,12,18,312,28,05,10,225,,1*60
$GPGSV,2,1,08,195,68,046,43,196,66,124,43,199,60,167,46,06,50,353,47,8*5E
$GPGSV,2,2,08,194,38,173,45,09,36,095,40,04,20,064,28,14,18,174,29,8*59
$GLGSV,2,1,07,68,59,138,40,67,42,049,44,83,36,352,32,82,36,050,38,1*70
$GLGSV,2,2,07,73,21,279,18,69,19,184,23,80,17,223,,1*4B
$GAGSV,3,1,09,10,49,344,43,12,46,024,39,24,46,234,16,11,37,308,25,7*73
$GAGSV,3,2,09,04,34,149,40,19,32,078,29,25,28,300,23,33,12,070,13,7*74
$GAGSV,3,3,09,09,04,191,,7*4E
$GAGSV,2,1,08,10,49,344,46,12,46,024,40,24,46,234,17,11,37,308,21,1*7B
$GAGSV,2,2,08,04,34,149,42,19,32,078,33,25,28,300,23,33,12,070,14,1*7C
$GBGSV,4,1,14,40,80,160,41,07,77,233,42,10,72,278,25,33,71,135,43,1*73
$GBGSV,4,2,14,14,58,067,44,08,57,279,,43,52,068,45,13,48,265,,1*7A
$GBGSV,4,3,14,28,42,331,47,42,35,047,43,11,30,089,37,41,30,198,,1*7E
$GBGSV,4,4,14,34,14,104,22,23,14,215,,1*76
$GBGSV,2,1,06,40,80,160,46,33,71,135,42,43,52,068,43,28,42,331,43,4*7B
$GBGSV,2,2,06,42,35,047,42,34,14,104,23,4*76
$GNGGA,040446.000,2500.7992558,N,12132.4336436,E,4,57,0.50,15.639,M,15.25,M,1,3335*44
$GNRMC,040446.000,A,2500.7992558,N,12132.4336436,E,0.04,85.07,270623,,,R,V*2D
$GPHDT,,T*1B
$GNGGA,040446.200,2500.7992564,N,12132.4336446,E,4,57,0.48,15.643,M,15.25,M,1,3335*4A
$GNRMC,040446.200,A,2500.7992564,N,12132.4336446,E,0.03,85.07,270623,,,R,V*20
$GPHDT,,T*1B
$GNGGA,040446.400,2500.7992589,N,12132.4336469,E,4,58,0.48,15.656,M,15.25,M,1,3335*49
$GNRMC,040446.400,A,2500.7992589,N,12132.4336469,E,0.08,85.07,270623,,,R,V*23
$GPHDT,,T*1B
$GNGGA,040446.600,2500.7992561,N,12132.4336440,E,4,57,0.48,15.641,M,15.25,M,0,3335*4E
$GNRMC,040446.600,A,2500.7992561,N,12132.4336440,E,0.02,85.07,270623,,,R,V*26
$GPHDT,,T*1B
$GNGGA,040446.800,2500.7992573,N,12132.4336456,E,4,57,0.48,15.631,M,15.25,M,0,3335*43
$GNRMC,040446.800,A,2500.7992573,N,12132.4336456,E,0.03,85.07,270623,,,R,V*2D
$GPHDT,,T*1B
$GNGSA,A,3,19,195,196,17,199,06,194,09,11,04,14,12,0.76,0.48,0.59,1*0D
$GNGSA,A,3,68,67,83,82,73,69,,,,,,,0.76,0.48,0.59,2*06
$GNGSA,A,3,10,12,24,11,04,19,25,33,,,,,0.76,0.48,0.59,3*0D
$GNGSA,A,3,40,07,10,33,14,43,28,42,11,34,,,0.76,0.48,0.59,4*0E
$GPGSV,4,1,14,19,70,043,40,195,68,046,42,196,66,124,38,17,61,095,33,1*60
$GPGSV,4,2,14,199,60,167,37,06,50,353,44,194,38,173,42,09,36,095,38,1*6D
$GPGSV,4,3,14,20,35,237,13,11,31,294,25,04,20,064,28,14,18,174,28,1*66
$GPGSV,4,4,14,12,18,312,28,03,02,039,,1*6A
$GPGSV,2,1,08,195,68,046,43,196,66,124,42,199,60,167,46,06,50,353,47,8*5F
$GPGSV,2,2,08,194,38,173,45,09,36,095,38,04,20,064,25,14,18,174,29,8*5B
$GLGSV,2,1,07,68,59,138,40,67,42,049,44,83,36,352,32,82,36,050,38,1*70
$GLGSV,2,2,07,73,21,279,19,69,19,184,26,80,17,223,,1*4F
$GAGSV,3,1,09,10,49,344,43,12,46,024,39,24,46,234,16,11,37,308,26,7*70
$GAGSV,3,2,09,04,34,149,40,19,32,078,30,25,28,300,23,33,12,070,15,7*7A
$GAGSV,3,3,09,09,04,191,,7*4E
$GAGSV,2,1,08,10,49,344,46,12,46,024,40,24,46,234,17,11,37,308,22,1*78
$GAGSV,2,2,08,04,34,149,42,19,32,078,32,25,28,300,23,33,12,070,14,1*7D
$GBGSV,4,1,13,40,80,160,41,07,77,233,42,10,72,278,24,33,71,135,43,1*75
$GBGSV,4,2,13,14,58,067,44,43,52,068,45,28,42,331,47,42,35,047,43,1*7E
$GBGSV,4,3,13,41,30,198,,11,30,089,36,23,14,215,,34,14,104,19,1*7F
$GBGSV,4,4,13,37,14,265,,1*44
$GBGSV,2,1,06,40,80,160,46,33,71,135,42,43,52,068,43,28,42,331,43,4*7B
$GBGSV,2,2,06,42,35,047,42,34,14,104,22,4*77
$GNGGA,040447.000,2500.7992566,N,12132.4336457,E,4,57,0.48,15.639,M,15.25,M,1,3335*46
$GNRMC,040447.000,A,2500.7992566,N,12132.4336457,E,0.01,85.07,270623,,,R,V*23
$GPHDT,,T*1B
$GNGGA,040447.200,2500.7992575,N,12132.4336467,E,4,57,0.48,15.639,M,15.25,M,1,3335*45
$GNRMC,040447.200,A,2500.7992575,N,12132.4336467,E,0.09,85.07,270623,,,R,V*28
$GPHDT,,T*1B
$GNGGA,040447.400,2500.7992541,N,12132.4336448,E,4,57,0.48,15.638,M,15.25,M,0,3335*49
$GNRMC,040447.400,A,2500.7992541,N,12132.4336448,E,0.02,85.07,270623,,,R,V*2F
$GPHDT,,T*1B
$GNGGA,040447.600,2500.7992550,N,12132.4336439,E,4,56,0.48,15.635,M,15.25,M,0,3335*41
$GNRMC,040447.600,A,2500.7992550,N,12132.4336439,E,0.02,85.07,270623,,,R,V*2B
$GPHDT,,T*1B
$GNGGA,040447.800,2500.7992555,N,12132.4336447,E,4,56,0.48,15.646,M,15.25,M,0,3335*47
$GNRMC,040447.800,A,2500.7992555,N,12132.4336447,E,0.07,85.07,270623,,,R,V*2C
$GPHDT,,T*1B
$GNGSA,A,3,19,195,196,17,199,06,194,09,04,14,12,,0.77,0.50,0.59,1*05
$GNGSA,A,3,68,67,83,82,73,69,,,,,,,0.77,0.50,0.59,2*0E
$GNGSA,A,3,10,12,24,11,04,19,25,33,,,,,0.77,0.50,0.59,3*05
$GNGSA,A,3,40,07,10,33,14,43,28,42,11,34,,,0.77,0.50,0.59,4*06
$GPGSV,4,1,15,19,70,043,40,195,68,046,42,196,66,124,38,17,61,095,33,1*61
$GPGSV,4,2,15,199,60,167,37,06,50,353,44,194,38,173,42,09,36,095,38,1*6C
$GPGSV,4,3,15,20,35,237,14,11,31,294,23,04,20,064,27,14,18,174,27,1*66
$GPGSV,4,4,15,12,18,312,28,05,10,225,,03,02,039,,1*5A
$GPGSV,2,1,08,195,68,046,43,196,66,124,42,199,60,167,46,06,50,353,47,8*5F
$GPGSV,2,2,08,194,38,173,45,09,36,095,38,04,20,064,26,14,18,174,30,8*50
$GLGSV,2,1,07,68,59,138,40,67,42,049,44,83,36,352,32,82,36,050,38,1*70
$GLGSV,2,2,07,73,21,279,20,69,19,184,27,80,17,223,,1*44
$GAGSV,3,1,09,10,49,344,43,12,46,024,39,24,46,234,16,11,37,308,27,7*71
$GAGSV,3,2,09,04,34,149,40,19,32,078,30,25,28,300,24,33,12,070,14,7*7C
$GAGSV,3,3,09,09,04,191,,7*4E
$GAGSV,2,1,08,10,49,344,46,12,46,024,40,24,46,234,16,11,37,308,23,1*78
$GAGSV,2,2,08,04,34,149,42,19,32,078,32,25,28,300,23,33,12,070,14,1*7D
$GBGSV,3,1,12,40,80,160,41,07,77,233,42,10,72,278,24,33,71,135,43,1*73
$GBGSV,3,2,12,14,58,067,44,43,52,068,45,28,42,331,47,42,35,047,43,1*78
$GBGSV,3,3,12,41,30,198,,11,30,089,36,23,14,215,,34,14,104,18,1*78
$GBGSV,2,1,06,40,80,160,46,33,71,135,42,43,52,068,43,28,42,331,43,4*7B
$GBGSV,2,2,06,42,35,047,41,34,14,104,22,4*74
$GNGGA,040448.000,2500.7992565,N,12132.4336449,E,4,56,0.50,15.648,M,15.25,M,1,3335*4B
$GNRMC,040448.000,A,2500.7992565,N,12132.4336449,E,0.02,85.07,270623,,,R,V*23
$GPHDT,,T*1B
