$FW : RTK35X,V1.1X0314AS,Lib20210517,1*54
$Tool : LOCOSYS , GNSS Firebird , v1.0.0.19*39
$---------------------------------------------------*2D
$GNGGA,040240.800,2500.7992500,N,12132.4336493,E,4,52,0.54,15.663,M,15.25,M,0,3335*41
$GNRMC,040240.800,A,2500.7992500,N,12132.4336493,E,0.00,85.07,270623,,,R,V*23
$GPHDT,,T*1B
$GNGSA,A,3,19,195,196,17,199,06,194,09,11,04,14,12,0.96,0.53,0.80,1*0D
$GNGSA,A,3,68,67,82,83,,,,,,,,,0.96,0.53,0.80,2*0D
$GNGSA,A,3,10,24,12,11,04,19,25,33,,,,,0.96,0.53,0.80,3*0D
$GNGSA,A,3,40,07,10,33,14,43,28,42,34,,,,0.96,0.53,0.80,4*0E
$GPGSV,4,1,16,19,70,040,42,195,68,046,43,196,66,124,42,17,62,093,43,1*6D
$GPGSV,4,2,16,199,60,167,35,50,60,167,38,06,50,351,44,194,38,172,45,1*6A
$GPGSV,4,3,16,09,35,096,34,20,34,237,15,11,30,293,13,04,20,065,25,1*6F
$GPGSV,4,4,16,14,19,175,35,12,18,313,33,05,09,225,,03,03,039,,1*63
$GPGSV,3,1,09,195,68,046,44,196,66,124,46,199,60,167,43,06,50,351,45,8*59
$GPGSV,3,2,09,194,38,172,45,09,35,096,36,11,30,293,24,04,20,065,33,8*5A
$GPGSV,3,3,09,14,19,175,30,8*59
$GLGSV,2,1,07,68,58,139,41,67,43,050,43,82,36,048,43,83,36,350,31,1*7B
$GLGSV,2,2,07,73,21,280,13,69,18,184,26,80,18,224,16,1*4D
$GAGSV,2,1,08,10,49,343,43,24,47,235,15,12,46,023,39,11,36,307,30,7*7A
$GAGSV,2,2,08,04,33,150,33,19,32,079,30,25,27,301,17,33,12,069,16,7*72
$GAGSV,2,1,06,10,49,343,42,12,46,023,40,11,36,307,28,04,33,150,40,1*75
$GAGSV,2,2,06,19,32,079,31,25,27,301,29,1*7D
$GBGSV,4,1,13,40,81,158,38,07,78,234,40,10,72,279,26,33,70,137,45,1*7D
$GBGSV,4,2,13,14,59,068,44,43,52,067,45,28,42,330,47,42,35,048,44,1*76
$GBGSV,4,3,13,11,30,088,18,41,29,198,,23,14,216,,34,14,103,26,1*72
$GBGSV,4,4,13,39,04,177,,1*4B
$GBGSV,2,1,05,40,81,158,45,33,70,137,46,43,52,067,44,28,42,330,43,4*7F
$GBGSV,2,2,05,42,35,048,42,4*4C
$GNGGA,040241.000,2500.7992493,N,12132.4336498,E,4,53,0.53,15.659,M,15.25,M,1,3335*46
$GNRMC,040241.000,A,2500.7992493,N,12132.4336498,E,0.00,85.07,270623,,,R,V*2A
$GPHDT,,T*1B
$GNGGA,040241.200,2500.7992508,N,12132.4336504,E,4,53,0.53,15.657,M,15.25,M,1,3335*4D
$GNRMC,040241.200,A,2500.7992508,N,12132.4336504,E,0.00,85.07,270623,,,R,V*2F
$GPHDT,,T*1B
$GNGGA,040241.400,2500.7992533,N,12132.4336528,E,4,55,0.52,15.652,M,15.25,M,1,3335*4F
$GNRMC,040241.400,A,2500.7992533,N,12132.4336528,E,0.00,85.07,270623,,,R,V*2F
$GPHDT,,T*1B
$GNGGA,040241.600,2500.7992494,N,12132.4336493,E,4,54,0.52,15.662,M,15.25,M,0,3335*43
$GNRMC,040241.600,A,2500.7992494,N,12132.4336493,E,0.00,85.07,270623,,,R,V*20
$GPHDT,,T*1B
$GNGGA,040241.800,2500.7992503,N,12132.4336494,E,4,54,0.52,15.650,M,15.25,M,0,3335*44
$GNRMC,040241.800,A,2500.7992503,N,12132.4336494,E,0.00,85.07,270623,,,R,V*26
$GPHDT,,T*1B
$GNGSA,A,3,19,195,196,17,199,06,194,09,04,14,12,11,0.95,0.52,0.79,1*09
$GNGSA,A,3,68,67,82,83,,,,,,,,,0.95,0.52,0.79,2*09
$GNGSA,A,3,10,24,12,11,04,19,25,33,,,,,0.95,0.52,0.79,3*09
$GNGSA,A,3,40,07,10,33,14,43,28,42,11,34,,,0.95,0.52,0.79,4*0A
$GPGSV,4,1,16,19,70,040,42,195,68,046,43,196,66,124,42,17,62,093,43,1*6D
$GPGSV,4,2,16,199,60,167,35,50,60,167,37,06,50,351,44,194,38,172,45,1*65
$GPGSV,4,3,16,09,35,096,34,20,34,237,18,11,30,293,15,04,20,065,25,1*64
$GPGSV,4,4,16,14,19,175,35,12,18,313,33,05,09,225,,03,03,039,,1*63
$GPGSV,3,1,09,195,68,046,44,196,66,124,46,199,60,167,43,06,50,351,45,8*59
$GPGSV,3,2,09,194,38,172,45,09,35,096,36,11,30,293,23,04,20,065,33,8*5D
$GPGSV,3,3,09,14,19,175,32,8*5B
$GLGSV,2,1,08,68,58,139,41,67,43,050,43,82,36,048,42,83,36,350,31,1*75
$GLGSV,2,2,08,73,21,280,14,80,18,224,16,69,18,184,26,74,06,321,,1*70
$GAGSV,3,1,09,10,49,343,43,24,47,234,18,12,46,023,39,11,36,307,30,7*76
$GAGSV,3,2,09,04,33,150,32,19,32,079,30,25,27,301,16,33,12,069,15,7*71
$GAGSV,3,3,09,09,03,191,,7*49
$GAGSV,2,1,07,10,49,343,43,12,46,023,40,11,36,307,28,04,33,150,41,1*74
$GAGSV,2,2,07,19,32,079,31,25,27,301,29,33,12,069,17,1*46
$GBGSV,3,1,12,40,81,158,38,07,78,234,39,10,72,279,27,33,70,137,45,1*74
$GBGSV,3,2,12,14,59,068,44,43,52,067,45,28,42,330,47,42,35,048,44,1*70
$GBGSV,3,3,12,11,30,088,23,41,29,198,,34,14,103,27,23,14,216,,1*7D
$GBGSV,2,1,05,40,81,158,45,33,70,137,46,43,52,067,44,28,42,330,43,4*7F
$GBGSV,2,2,05,42,35,048,42,4*4C
$GNGGA,040242.000,2500.7992514,N,12132.4336529,E,4,54,0.52,15.652,M,15.25,M,1,3335*4D
$GNRMC,040242.000,A,2500.7992514,N,12132.4336529,E,0.00,85.07,270623,,,R,V*2C
$GPHDT,,T*1B
$GNGGA,040242.200,2500.7992535,N,12132.4336521,E,4,55,0.52,15.668,M,15.25,M,1,3335*4C
$GNRMC,040242.200,A,2500.7992535,N,12132.4336521,E,0.00,85.07,270623,,,R,V*25
$GPHDT,,T*1B
$GNGGA,040242.400,2500.7992540,N,12132.4336513,E,4,55,0.52,15.656,M,15.25,M,0,3335*45
$GNRMC,040242.400,A,2500.7992540,N,12132.4336513,E,0.00,85.07,270623,,,R,V*20
$GPHDT,,T*1B
$GNGGA,040242.600,2500.7992553,N,12132.4336509,E,4,55,0.52,15.663,M,15.25,M,0,3335*48
$GNRMC,040242.600,A,2500.7992553,N,12132.4336509,E,0.00,85.07,270623,,,R,V*2B
$GPHDT,,T*1B
$GNGGA,040242.800,2500.7992537,N,12132.4336504,E,4,55,0.52,15.690,M,15.25,M,0,3335*45
$GNRMC,040242.800,A,2500.7992537,N,12132.4336504,E,0.00,85.07,270623,,,R,V*2A
$GPHDT,,T*1B
$GNGSA,A,3,19,195,196,17,199,06,194,09,04,14,12,11,0.95,0.52,0.79,1*09
$GNGSA,A,3,68,67,83,82,,,,,,,,,0.95,0.52,0.79,2*09
$GNGSA,A,3,10,24,12,11,04,19,25,33,,,,,0.95,0.52,0.79,3*09
$GNGSA,A,3,40,07,10,33,14,43,28,42,11,34,,,0.95,0.52,0.79,4*0A
$GPGSV,4,1,15,19,70,040,42,195,68,046,43,196,66,124,42,17,62,093,43,1*6E
$GPGSV,4,2,15,50,60,167,37,199,60,167,35,06,50,351,44,194,38,172,45,1*66
$GPGSV,4,3,15,09,35,096,34,20,34,237,17,11,30,293,17,04,20,065,25,1*6A
$GPGSV,4,4,15,14,19,175,35,12,18,313,33,05,09,225,,1*5A
$GPGSV,3,1,09,195,68,046,44,196,66,124,47,199,60,167,44,06,50,351,45,8*5F
$GPGSV,3,2,09,194,38,172,45,09,35,096,36,11,30,293,23,04,20,065,33,8*5D
$GPGSV,3,3,09,14,19,175,31,8*58
$GLGSV,2,1,07,68,58,139,41,67,43,050,43,83,36,350,31,82,36,048,42,1*7A
$GLGSV,2,2,07,73,21,280,14,80,18,224,15,69,18,184,27,1*48
$GAGSV,3,1,09,10,49,343,43,24,47,234,18,12,46,023,39,11,36,307,30,7*76
$GAGSV,3,2,09,04,33,150,31,19,32,079,30,25,27,301,15,33,12,069,15,7*71
$GAGSV,3,3,09,09,03,191,,7*49
$GAGSV,2,1,07,10,49,343,43,12,46,023,40,11,36,307,28,04,33,150,41,1*74
$GAGSV,2,2,07,19,32,079,32,25,27,301,29,33,12,069,17,1*45
$GBGSV,4,1,13,40,81,158,39,07,78,234,39,10,72,279,27,33,70,137,45,1*73
$GBGSV,4,2,13,14,59,068,44,43,52,067,45,13,48,264,,28,42,330,47,1*74
$GBGSV,4,3,13,42,35,048,44,11,30,088,25,41,29,198,,34,14,103,26,1*71
$GBGSV,4,4,13,37,14,266,,1*47
$GBGSV,2,1,06,40,81,158,45,33,70,137,46,43,52,067,45,28,42,330,43,4*7D
$GBGSV,2,2,06,42,35,048,42,34,14,103,17,4*79
$GNGGA,040243.000,2500.7992550,N,12132.4336526,E,4,55,0.52,15.671,M,15.25,M,1,3335*43
$GNRMC,040243.000,A,2500.7992550,N,12132.4336526,E,0.00,85.07,270623,,,R,V*22
$GPHDT,,T*1B
$GNGGA,040243.200,2500.7992576,N,12132.4336509,E,4,55,0.52,15.683,M,15.25,M,1,3335*45
$GNRMC,040243.200,A,2500.7992576,N,12132.4336509,E,0.00,85.07,270623,,,R,V*29
$GPHDT,,T*1B
$GNGGA,040243.400,2500.7992531,N,12132.4336507,E,4,55,0.49,15.687,M,15.25,M,0,3335*41
$GNRMC,040243.400,A,2500.7992531,N,12132.4336507,E,0.00,85.07,270623,,,R,V*22
$GPHDT,,T*1B
$GNGGA,040243.600,2500.7992528,N,12132.4336507,E,4,56,0.49,15.671,M,15.25,M,0,3335*41
$GNRMC,040243.600,A,2500.7992528,N,12132.4336507,E,0.00,85.07,270623,,,R,V*28
$GPHDT,,T*1B
$GNGGA,040243.800,2500.7992545,N,12132.4336493,E,4,55,0.49,15.669,M,15.25,M,0,3335*42
$GNRMC,040243.800,A,2500.7992545,N,12132.4336493,E,0.00,85.07,270623,,,R,V*21
$GPHDT,,T*1B
$GNGSA,A,3,19,195,196,17,199,06,194,09,04,14,12,11,0.89,0.49,0.75,1*02
$GNGSA,A,3,68,67,83,82,80,,,,,,,,0.89,0.49,0.75,2*0A
$GNGSA,A,3,10,24,12,11,04,19,25,33,,,,,0.89,0.49,0.75,3*02
$GNGSA,A,3,40,07,10,33,14,43,28,42,11,34,,,0.89,0.49,0.75,4*01
$GPGSV,4,1,15,19,70,040,42,195,68,046,43,196,66,124,42,17,62,093,43,1*6E
$GPGSV,4,2,15,50,60,167,37,199,60,167,35,06,50,351,44,194,38,172,45,1*66
$GPGSV,4,3,15,09,35,096,34,20,34,237,17,11,30,293,17,04,20,065,25,1*6A
$GPGSV,4,4,15,14,19,175,35,12,18,313,33,05,09,225,,1*5A
$GPGSV,3,1,09,195,68,046,44,196,66,124,47,199,60,167,44,06,50,351,44,8*5E
$GPGSV,3,2,09,194,38,172,45,09,35,096,35,11,30,293,23,04,20,065,33,8*5E
$GPGSV,3,3,09,14,19,175,32,8*5B
$GLGSV,2,1,07,68,58,139,41,67,43,050,43,83,36,350,31,82,36,048,42,1*7A
$GLGSV,2,2,07,73,21,280,11,80,18,224,15,69,18,184,27,1*4D
$GAGSV,3,1,09,10,49,343,43,24,47,234,18,12,46,023,39,11,36,307,30,7*76
$GAGSV,3,2,09,04,33,150,31,19,32,079,29,25,27,301,15,33,12,070,16,7*72
$GAGSV,3,3,09,09,03,191,,7*49
$GAGSV,2,1,07,10,49,343,43,12,46,023,40,11,36,307,27,04,33,150,41,1*7B
$GAGSV,2,2,07,19,32,079,32,25,27,301,29,33,12,070,17,1*4D
$GBGSV,4,1,13,40,81,158,39,07,78,234,39,10,72,279,28,33,70,137,45,1*7C
$GBGSV,4,2,13,14,59,068,44,08,57,278,,43,52,067,45,28,42,330,47,1*7D
$GBGSV,4,3,13,42,35,048,44,11,30,088,27,41,29,198,,37,14,266,,1*74
$GBGSV,4,4,13,34,14,103,,1*44
$GBGSV,2,1,06,40,81,158,45,33,70,137,46,43,52,067,45,28,42,330,43,4*7D
$GBGSV,2,2,06,42,35,048,42,34,14,103,15,4*7B
$GNGGA,040244.000,2500.7992551,N,12132.4336521,E,4,55,0.49,15.676,M,15.25,M,1,3335*4F
$GNRMC,040244.000,A,2500.7992551,N,12132.4336521,E,0.00,85.07,270623,,,R,V*23
$GPHDT,,T*1B
$GNGGA,040244.200,2500.7992562,N,12132.4336532,E,4,55,0.49,15.675,M,15.25,M,1,3335*4C
$GNRMC,040244.200,A,2500.7992562,N,12132.4336532,E,0.00,85.07,270623,,,R,V*23
$GPHDT,,T*1B
$GNGGA,040244.400,2500.7992548,N,12132.4336548,E,4,55,0.49,15.678,M,15.25,M,1,3335*42
$GNRMC,040244.400,A,2500.7992548,N,12132.4336548,E,0.00,85.07,270623,,,R,V*20
$GPHDT,,T*1B
$GNGGA,040244.600,2500.7992528,N,12132.4336500,E,4,55,0.49,15.668,M,15.25,M,0,3335*4A
$GNRMC,040244.600,A,2500.7992528,N,12132.4336500,E,0.00,85.07,270623,,,R,V*28
$GPHDT,,T*1B
$GNGGA,040244.800,2500.7992544,N,12132.4336510,E,4,55,0.49,15.666,M,15.25,M,0,3335*41
$GNRMC,040244.800,A,2500.7992544,N,12132.4336510,E,0.00,85.07,270623,,,R,V*2D
$GPHDT,,T*1B
$GNGSA,A,3,19,195,196,17,199,06,194,09,04,14,12,11,0.89,0.49,0.75,1*02
$GNGSA,A,3,68,67,83,82,80,,,,,,,,0.89,0.49,0.75,2*0A
$GNGSA,A,3,10,24,12,11,04,19,25,33,,,,,0.89,0.49,0.75,3*02
$GNGSA,A,3,40,07,10,33,14,43,28,42,11,34,,,0.89,0.49,0.75,4*01
$GPGSV,4,1,14,19,70,040,43,195,68,046,43,196,66,124,42,17,62,093,43,1*6E
$GPGSV,4,2,14,199,60,167,35,50,60,167,37,06,50,351,44,194,38,172,46,1*64
$GPGSV,4,3,14,09,35,096,31,20,34,237,17,11,30,293,14,04,20,065,25,1*6D
$GPGSV,4,4,14,14,19,175,35,12,18,313,32,1*63
$GPGSV,3,1,09,195,68,046,44,196,66,124,47,199,60,167,43,06,50,351,44,8*59
$GPGSV,3,2,09,194,38,172,45,09,35,096,36,11,30,293,21,04,20,065,31,8*5D
$GPGSV,3,3,09,14,19,175,30,8*59
$GLGSV,2,1,07,68,58,139,41,67,43,050,43,83,36,350,31,82,36,048,42,1*7A
$GLGSV,2,2,07,73,21,280,07,69,18,184,27,80,18,224,17,1*48
$GAGSV,3,1,09,10,49,343,43,24,47,234,17,12,46,023,39,11,36,307,30,7*79
$GAGSV,3,2,09,04,33,150,33,19,32,079,30,25,27,301,15,33,12,070,15,7*7B
$GAGSV,3,3,09,09,03,191,,7*49
$GAGSV,2,1,07,10,49,343,42,12,46,023,40,11,36,307,27,04,33,150,41,1*7A
$GAGSV,2,2,07,19,32,079,32,25,27,301,29,33,12,070,17,1*4D
$GBGSV,4,1,14,40,81,158,39,07,78,234,39,10,72,279,28,33,70,137,44,1*7A
$GBGSV,4,2,14,14,59,068,44,08,57,278,,43,52,067,45,13,48,264,,1*7B
$GBGSV,4,3,14,28,42,330,47,42,35,048,44,11,30,088,26,41,29,198,,1*7E
$GBGSV,4,4,14,34,14,103,,23,14,216,,1*72
$GBGSV,2,1,06,40,81,158,45,33,70,137,46,43,52,067,45,28,42,330,43,4*7D
$GBGSV,2,2,06,42,35,048,42,34,14,103,15,4*7B
$GNGGA,040245.000,2500.7992518,N,12132.4336494,E,4,55,0.49,15.682,M,15.25,M,1,3335*47
$GNRMC,040245.000,A,2500.7992518,N,12132.4336494,E,0.00,85.07,270623,,,R,V*20
$GPHDT,,T*1B
$GNGGA,040245.200,2500.7992504,N,12132.4336492,E,4,55,0.49,15.672,M,15.25,M,1,3335*41
$GNRMC,040245.200,A,2500.7992504,N,12132.4336492,E,0.00,85.07,270623,,,R,V*29
$GPHDT,,T*1B
$GNGGA,040245.400,2500.7992561,N,12132.4336470,E,4,54,0.50,15.682,M,15.25,M,1,3335*4E
$GNRMC,040245.400,A,2500.7992561,N,12132.4336470,E,0.00,85.07,270623,,,R,V*20
$GPHDT,,T*1B
$GNGGA,040245.600,2500.7992545,N,12132.4336439,E,4,54,0.50,15.647,M,15.25,M,0,3335*4F
$GNRMC,040245.600,A,2500.7992545,N,12132.4336439,E,0.00,85.07,270623,,,R,V*29
$GPHDT,,T*1B
$GNGGA,040245.800,2500.7992515,N,12132.4336507,E,4,55,0.49,15.642,M,15.25,M,0,3335*44
$GNRMC,040245.800,A,2500.7992515,N,12132.4336507,E,0.00,85.07,270623,,,R,V*2E
$GPHDT,,T*1B
$GNGSA,A,3,19,195,196,17,199,06,194,09,04,14,12,11,0.89,0.49,0.75,1*02
$GNGSA,A,3,68,67,82,83,80,,,,,,,,0.89,0.49,0.75,2*0A
$GNGSA,A,3,10,24,12,11,04,19,25,33,,,,,0.89,0.49,0.75,3*02
$GNGSA,A,3,40,07,10,33,14,43,28,42,11,34,,,0.89,0.49,0.75,4*01
$GPGSV,4,1,15,19,70,040,43,195,68,046,43,196,66,124,42,17,62,093,43,1*6F
$GPGSV,4,2,15,50,60,167,34,199,60,167,32,06,50,351,44,194,38,172,43,1*64
$GPGSV,4,3,15,09,35,096,35,20,34,237,17,11,30,293,17,04,20,065,25,1*6B
$GPGSV,4,4,15,14,19,175,35,12,18,313,32,05,09,225,,1*5B
$GPGSV,3,1,09,195,68,046,44,196,66,124,47,199,60,167,43,06,50,351,44,8*59
$GPGSV,3,2,09,194,38,172,38,09,35,096,34,11,30,293,21,04,20,065,30,8*54
$GPGSV,3,3,09,14,19,175,27,8*5F
$GLGSV,2,1,07,68,58,139,41,67,43,050,42,82,36,048,42,83,36,350,31,1*7B
$GLGSV,2,2,07,73,21,280,14,69,18,184,27,80,18,224,15,1*48
$GAGSV,3,1,09,10,49,343,43,24,47,234,16,12,46,023,39,11,36,307,30,7*78
$GAGSV,3,2,09,04,33,150,35,19,32,079,30,25,27,301,15,33,12,070,14,7*7C
$GAGSV,3,3,09,09,03,191,,7*49
$GAGSV,2,1,07,10,49,343,42,12,46,023,40,11,36,307,27,04,33,150,41,1*7A
$GAGSV,2,2,07,19,32,079,30,25,27,301,29,33,12,070,17,1*4F
$GBGSV,4,1,13,40,81,158,40,07,78,234,39,10,72,279,28,33,70,137,44,1*73
$GBGSV,4,2,13,14,59,068,44,08,57,278,,43,52,067,45,13,48,264,,1*7C
$GBGSV,4,3,13,28,42,330,47,42,35,048,44,11,30,088,26,41,29,198,,1*79
$GBGSV,4,4,13,34,14,103,27,1*41
$GBGSV,2,1,06,40,81,158,45,33,70,137,46,43,52,067,45,28,42,330,43,4*7D
$GBGSV,2,2,06,42,35,048,41,34,14,103,17,4*7A
$GNGGA,040246.000,2500.7992492,N,12132.4336506,E,4,56,0.49,15.653,M,15.25,M,1,3335*42
$GNRMC,040246.000,A,2500.7992492,N,12132.4336506,E,0.00,85.07,270623,,,R,V*2A
$GPHDT,,T*1B
$GNGGA,040246.200,2500.7992569,N,12132.4336440,E,4,56,0.49,15.663,M,15.25,M,1,3335*45
$GNRMC,040246.200,A,2500.7992569,N,12132.4336440,E,0.00,85.07,270623,,,R,V*2E
$GPHDT,,T*1B
$GNGGA,040246.400,2500.7992501,N,12132.4336481,E,4,56,0.49,15.652,M,15.25,M,0,3335*43
$GNRMC,040246.400,A,2500.7992501,N,12132.4336481,E,0.00,85.07,270623,,,R,V*2B
$GPHDT,,T*1B
$GNGGA,040246.600,2500.7992495,N,12132.4336471,E,4,56,0.49,15.647,M,15.25,M,0,3335*46
$GNRMC,040246.600,A,2500.7992495,N,12132.4336471,E,0.00,85.07,270623,,,R,V*2A
$GPHDT,,T*1B
$GNGGA,040246.800,2500.7992490,N,12132.4336476,E,4,56,0.49,15.654,M,15.25,M,0,3335*48
$GNRMC,040246.800,A,2500.7992490,N,12132.4336476,E,0.00,85.07,270623,,,R,V*26
$GPHDT,,T*1B
$GNGSA,A,3,19,195,196,17,199,06,194,09,04,14,12,11,0.89,0.49,0.75,1*02
$GNGSA,A,3,68,67,82,83,80,,,,,,,,0.89,0.49,0.75,2*0A
$GNGSA,A,3,10,24,12,11,04,19,25,33,,,,,0.89,0.49,0.75,3*02
$GNGSA,A,3,40,07,10,33,14,43,28,42,11,34,,,0.89,0.49,0.75,4*01
$GPGSV,4,1,16,19,70,040,43,195,68,046,43,196,66,124,42,17,62,093,43,1*6C
$GPGSV,4,2,16,199,60,167,32,50,60,167,34,06,50,351,44,194,38,172,43,1*67
$GPGSV,4,3,16,09,35,096,35,20,34,237,17,11,30,293,17,04,20,065,26,1*6B
$GPGSV,4,4,16,14,19,175,35,12,18,313,31,05,09,225,,03,03,039,,1*61
$GPGSV,3,1,09,195,68,046,44,196,66,124,47,199,60,167,42,06,50,351,44,8*58
$GPGSV,3,2,09,194,38,172,38,09,35,096,34,11,30,293,21,04,20,065,31,8*55
$GPGSV,3,3,09,14,19,175,27,8*5F
$GLGSV,2,1,08,68,58,139,41,67,43,050,42,82,36,048,42,83,36,350,31,1*74
$GLGSV,2,2,08,73,21,280,12,80,18,224,14,69,18,184,29,84,01,300,,1*70
$GAGSV,3,1,09,10,49,343,43,24,47,234,15,12,46,023,39,11,36,307,31,7*7A
$GAGSV,3,2,09,04,33,150,35,19,32,079,30,25,27,301,15,33,12,070,15,7*7D
$GAGSV,3,3,09,36,01,275,,7*4E
$GAGSV,2,1,07,10,49,343,42,12,46,023,40,11,36,307,28,04,33,150,41,1*75
$GAGSV,2,2,07,19,32,079,29,25,27,301,29,33,12,070,16,1*46
$GBGSV,3,1,12,40,81,158,40,07,78,234,39,10,72,279,27,33,70,137,44,1*7A
$GBGSV,3,2,12,14,59,068,44,43,52,067,45,13,48,264,,28,42,330,47,1*72
$GBGSV,3,3,12,42,35,048,44,11,30,088,26,41,29,198,,34,14,103,25,1*77
$GBGSV,2,1,06,40,81,158,45,33,70,137,46,43,52,067,45,28,42,330,43,4*7D
$GBGSV,2,2,06,42,35,048,41,34,14,103,17,4*7A
$GNGGA,040247.000,2500.7992546,N,12132.4336433,E,4,56,0.49,15.663,M,15.25,M,1,3335*4F
$GNRMC,040247.000,A,2500.7992546,N,12132.4336433,E,0.00,85.07,270623,,,R,V*24
$GPHDT,,T*1B
$GNGGA,040247.200,2500.7992562,N,12132.4336468,E,4,56,0.49,15.649,M,15.25,M,1,3335*4D
$GNRMC,040247.200,A,2500.7992562,N,12132.4336468,E,0.00,85.07,270623,,,R,V*2E
$GPHDT,,T*1B
$GNGGA,040247.400,2500.7992549,N,12132.4336439,E,4,56,0.49,15.671,M,15.25,M,1,3335*4D
$GNRMC,040247.400,A,2500.7992549,N,12132.4336439,E,0.00,85.07,270623,,,R,V*25
$GPHDT,,T*1B
$GNGGA,040247.600,2500.7992549,N,12132.4336420,E,4,56,0.49,15.660,M,15.25,M,0,3335*46
$GNRMC,040247.600,A,2500.7992549,N,12132.4336420,E,0.00,85.07,270623,,,R,V*2F
$GPHDT,,T*1B
$GNGGA,040247.800,2500.7992551,N,12132.4336429,E,4,56,0.49,15.664,M,15.25,M,0,3335*4C
$GNRMC,040247.800,A,2500.7992551,N,12132.4336429,E,0.06,85.07,270623,,,R,V*27
$GPHDT,,T*1B
$GNGSA,A,3,19,195,196,17,199,06,194,09,11,04,14,12,0.89,0.49,0.75,1*02
$GNGSA,A,3,68,67,82,83,80,,,,,,,,0.89,0.49,0.75,2*0A
$GNGSA,A,3,10,24,12,11,04,19,25,33,,,,,0.89,0.49,0.75,3*02
$GNGSA,A,3,40,07,10,33,14,43,28,42,11,34,,,0.89,0.49,0.75,4*01
$GPGSV,4,1,16,19,70,040,43,195,68,046,43,196,66,124,42,17,62,093,43,1*6C
$GPGSV,4,2,16,199,60,167,31,50,60,167,34,06,50,351,44,194,38,172,41,1*66
$GPGSV,4,3,16,09,35,096,36,20,34,237,17,11,30,293,17,04,20,065,27,1*69
$GPGSV,4,4,16,14,19,175,34,12,18,313,31,05,09,225,,03,03,039,,1*60
$GPGSV,3,1,09,195,68,046,44,196,66,124,47,199,60,167,42,06,50,351,44,8*58
$GPGSV,3,2,09,194,38,172,35,09,35,096,33,11,30,293,21,04,20,065,30,8*5E
$GPGSV,3,3,09,14,19,175,23,8*5B
$GLGSV,2,1,07,68,58,139,41,67,43,050,42,82,36,049,43,83,36,351,31,1*7A
$GLGSV,2,2,07,73,21,280,13,69,18,184,29,80,18,224,14,1*40
$GAGSV,3,1,09,10,49,343,43,24,47,234,14,12,46,023,39,11,36,307,31,7*7B
$GAGSV,3,2,09,04,33,150,35,19,32,079,31,25,27,301,16,33,12,070,14,7*7E
$GAGSV,3,3,09,36,01,275,,7*4E
$GAGSV,2,1,07,10,49,343,42,12,46,023,40,11,36,307,27,04,33,150,41,1*7A
$GAGSV,2,2,07,19,32,079,28,25,27,301,28,33,12,070,16,1*46
$GBGSV,3,1,12,40,81,158,40,07,78,234,39,10,72,279,27,33,70,137,43,1*7D
$GBGSV,3,2,12,14,59,068,44,08,57,278,,43,52,067,45,13,48,264,,1*7A
$GBGSV,3,3,12,28,42,330,47,42,35,048,44,11,30,088,28,34,14,103,27,1*7A
$GBGSV,2,1,06,40,81,158,45,33,70,137,46,43,52,067,45,28,42,330,43,4*7D
$GBGSV,2,2,06,42,35,048,41,34,14,103,17,4*7A
$GNGGA,040248.000,2500.7992533,N,12132.4336427,E,4,57,0.49,15.662,M,15.25,M,1,3335*47
$GNRMC,040248.000,A,2500.7992533,N,12132.4336427,E,0.04,85.07,270623,,,R,V*28
$GPHDT,,T*1B
$GNGGA,040248.200,2500.7992551,N,12132.4336435,E,4,57,0.49,15.665,M,15.25,M,1,3335*45
$GNRMC,040248.200,A,2500.7992551,N,12132.4336435,E,0.01,85.07,270623,,,R,V*28
$GPHDT,,T*1B
$GNGGA,040248.400,2500.7992547,N,12132.4336443,E,4,57,0.49,15.665,M,15.25,M,1,3335*45
$GNRMC,040248.400,A,2500.7992547,N,12132.4336443,E,0.01,85.07,270623,,,R,V*28
$GPHDT,,T*1B
$GNGGA,040248.600,2500.7992543,N,12132.4336440,E,4,56,0.52,15.672,M,15.25,M,0,3335*4C
$GNRMC,040248.600,A,2500.7992543,N,12132.4336440,E,0.02,85.07,270623,,,R,V*2E
$GPHDT,,T*1B
$GNGGA,040248.800,2500.7992549,N,12132.4336463,E,4,56,0.52,15.671,M,15.25,M,0,3335*4A
$GNRMC,040248.800,A,2500.7992549,N,12132.4336463,E,0.02,85.07,270623,,,R,V*2B
$GPHDT,,T*1B
$GNGSA,A,3,19,195,196,17,199,06,194,09,11,04,14,12,0.96,0.53,0.80,1*0D
$GNGSA,A,3,68,67,82,83,,,,,,,,,0.96,0.53,0.80,2*0D
$GNGSA,A,3,10,24,12,11,04,19,25,33,,,,,0.96,0.53,0.80,3*0D
$GNGSA,A,3,40,07,10,33,14,43,28,42,34,,,,0.96,0.53,0.80,4*0E
$GPGSV,4,1,16,19,70,040,43,195,68,046,43,196,66,124,42,17,62,093,43,1*6C
$GPGSV,4,2,16,199,60,167,31,50,60,167,33,06,50,351,44,194,38,172,40,1*60
$GPGSV,4,3,16,09,35,096,35,20,34,237,16,11,30,293,21,04,20,065,26,1*6F
$GPGSV,4,4,16,14,19,175,34,12,18,313,31,05,09,225,,03,03,039,,1*60
$GPGSV,3,1,09,195,68,046,44,196,66,124,47,199,60,167,42,06,50,351,44,8*58
$GPGSV,3,2,09,194,38,172,32,09,35,096,33,11,30,293,21,04,20,065,30,8*59
$GPGSV,3,3,09,14,19,175,22,8*5A
$GLGSV,2,1,07,68,58,139,41,67,43,050,42,82,36,049,43,83,36,351,31,1*7A
$GLGSV,2,2,07,73,21,280,13,69,18,184,29,80,18,224,14,1*40
$GAGSV,3,1,09,10,49,343,43,24,47,234,13,12,46,023,39,11,36,307,31,7*7C
$GAGSV,3,2,09,04,33,150,35,19,32,079,32,25,27,301,14,33,12,070,15,7*7E
$GAGSV,3,3,09,36,01,275,,7*4E
$GAGSV,2,1,07,10,49,343,42,12,46,023,40,11,36,307,27,04,33,150,41,1*7A
$GAGSV,2,2,07,19,32,079,28,25,27,301,28,33,12,070,16,1*46
$GBGSV,3,1,12,40,81,158,40,07,78,234,39,10,72,279,27,33,70,137,43,1*7D
$GBGSV,3,2,12,14,59,068,44,08,57,278,,43,52,067,45,13,48,264,,1*7A
$GBGSV,3,3,12,28,42,330,47,42,35,048,44,11,30,088,29,34,14,103,24,1*78
$GBGSV,2,1,06,40,81,158,45,33,70,137,46,43,52,067,45,28,42,330,43,4*7D
$GBGSV,2,2,06,42,35,048,41,34,14,103,17,4*7A
$GNGGA,040249.000,2500.7992564,N,12132.4336448,E,4,55,0.53,15.664,M,15.25,M,1,3335*42
$GNRMC,040249.000,A,2500.7992564,N,12132.4336448,E,0.00,85.07,270623,,,R,V*26
$GPHDT,,T*1B
$GNGGA,040249.200,2500.7992561,N,12132.4336443,E,4,56,0.52,15.673,M,15.25,M,1,3335*4A
$GNRMC,040249.200,A,2500.7992561,N,12132.4336443,E,0.00,85.07,270623,,,R,V*2A
$GPHDT,,T*1B
$GNGGA,040249.400,2500.7992553,N,12132.4336459,E,4,56,0.52,15.666,M,15.25,M,0,3335*43
$GNRMC,040249.400,A,2500.7992553,N,12132.4336459,E,0.00,85.07,270623,,,R,V*26
$GPHDT,,T*1B
$GNGGA,040249.600,2500.7992565,N,12132.4336471,E,4,56,0.52,15.661,M,15.25,M,0,3335*49
$GNRMC,040249.600,A,2500.7992565,N,12132.4336471,E,0.01,85.07,270623,,,R,V*2A
$GPHDT,,T*1B
$GNGGA,040249.800,2500.7992549,N,12132.4336470,E,4,56,0.52,15.666,M,15.25,M,0,3335*4F
$GNRMC,040249.800,A,2500.7992549,N,12132.4336470,E,0.01,85.07,270623,,,R,V*2B
$GPHDT,,T*1B
$GNGSA,A,3,19,195,196,17,199,06,194,09,11,04,14,12,0.95,0.52,0.79,1*09
$GNGSA,A,3,68,67,82,83,,,,,,,,,0.95,0.52,0.79,2*09
$GNGSA,A,3,10,24,12,11,04,19,25,33,,,,,0.95,0.52,0.79,3*09
$GNGSA,A,3,40,07,10,33,14,43,28,42,11,34,,,0.95,0.52,0.79,4*0A
$GPGSV,4,1,16,19,70,040,43,195,68,046,43,196,66,124,42,17,62,093,43,1*6C
$GPGSV,4,2,16,199,60,167,31,50,60,167,33,06,50,351,44,194,38,172,40,1*60
$GPGSV,4,3,16,09,35,096,34,20,34,237,15,11,30,293,22,04,20,065,26,1*6E
$GPGSV,4,4,16,14,19,175,34,12,18,313,32,05,09,225,,03,03,039,,1*63
$GPGSV,3,1,09,195,68,046,44,196,66,124,47,199,60,167,42,06,50,351,44,8*58
$GPGSV,3,2,09,194,38,172,33,09,35,096,31,11,30,293,21,04,20,065,30,8*5A
$GPGSV,3,3,09,14,19,175,22,8*5A
$GLGSV,2,1,07,68,58,139,41,67,43,050,42,82,36,049,43,83,36,351,31,1*7A
$GLGSV,2,2,07,73,21,280,14,69,18,184,29,80,18,224,11,1*42
$GAGSV,3,1,09,10,49,343,43,24,47,234,13,12,46,023,39,11,36,307,31,7*7C
$GAGSV,3,2,09,04,33,150,35,19,32,079,31,25,27,301,14,33,12,070,15,7*7D
$GAGSV,3,3,09,36,01,275,,7*4E
$GAGSV,2,1,07,10,49,343,42,12,46,023,40,11,36,307,27,04,33,150,41,1*7A
$GAGSV,2,2,07,19,32,079,29,25,27,301,28,33,12,070,16,1*47
$GBGSV,3,1,12,40,81,158,41,07,78,233,39,10,72,279,28,33,70,137,43,1*74
$GBGSV,3,2,12,14,59,068,44,08,57,278,,43,52,067,45,28,42,330,47,1*7B
$GBGSV,3,3,12,42,35,048,44,11,30,088,29,41,29,198,,34,14,103,25,1*78
$GBGSV,2,1,06,40,81,158,45,33,70,137,46,43,52,067,45,28,42,330,43,4*7D
$GBGSV,2,2,06,42,35,048,41,34,14,103,17,4*7A
$GNGGA,040250.000,2500.7992552,N,12132.4336464,E,4,56,0.52,15.662,M,15.25,M,1,3335*45
$GNRMC,040250.000,A,2500.7992552,N,12132.4336464,E,0.00,85.07,270623,,,R,V*25
$GPHDT,,T*1B
$GNGGA,040250.200,2500.7992573,N,12132.4336466,E,4,56,0.52,15.666,M,15.25,M,1,3335*42
$GNRMC,040250.200,A,2500.7992573,N,12132.4336466,E,0.00,85.07,270623,,,R,V*26
$GPHDT,,T*1B
$GNGGA,040250.400,2500.7992559,N,12132.4336477,E,4,56,0.52,15.666,M,15.25,M,1,3335*4C
$GNRMC,040250.400,A,2500.7992559,N,12132.4336477,E,0.00,85.07,270623,,,R,V*28
$GPHDT,,T*1B
$GNGGA,040250.600,2500.7992545,N,12132.4336441,E,4,56,0.52,15.670,M,15.25,M,0,3335*40
$GNRMC,040250.600,A,2500.7992545,N,12132.4336441,E,0.00,85.07,270623,,,R,V*22
$GPHDT,,T*1B
$GNGGA,040250.800,2500.7992546,N,12132.4336409,E,4,56,0.52,15.664,M,15.25,M,0,3335*44
$GNRMC,040250.800,A,2500.7992546,N,12132.4336409,E,0.00,85.07,270623,,,R,V*23
$GPHDT,,T*1B
$GNGSA,A,3,19,195,196,17,199,06,194,09,11,04,14,12,0.95,0.52,0.79,1*09
$GNGSA,A,3,68,67,83,82,,,,,,,,,0.95,0.52,0.79,2*09
$GNGSA,A,3,10,24,12,11,04,19,25,33,,,,,0.95,0.52,0.79,3*09
$GNGSA,A,3,40,07,10,33,14,43,28,42,11,34,,,0.95,0.52,0.79,4*0A
$GPGSV,4,1,15,19,70,040,43,195,68,046,43,196,66,124,42,17,62,093,43,1*6F
$GPGSV,4,2,15,50,60,167,33,199,60,167,30,06,50,351,44,194,38,172,40,1*62
$GPGSV,4,3,15,09,35,096,34,20,34,237,14,11,30,293,21,04,20,065,27,1*6E
$GPGSV,4,4,15,14,19,175,34,12,18,313,32,05,09,225,,1*5A
$GPGSV,3,1,09,195,68,046,44,196,66,124,47,199,60,167,42,06,50,351,44,8*58
$GPGSV,3,2,09,194,38,172,34,09,35,096,32,11,30,293,22,04,20,065,30,8*5D
$GPGSV,3,3,09,14,19,175,23,8*5B
$GLGSV,2,1,07,68,58,139,41,67,43,050,42,83,36,351,31,82,36,049,42,1*7B
$GLGSV,2,2,07,73,21,280,,80,18,224,11,69,18,184,28,1*46
$GAGSV,3,1,09,10,49,343,43,24,47,234,13,12,46,023,39,11,36,307,31,7*7C
$GAGSV,3,2,09,04,33,150,35,19,32,079,31,25,27,301,16,33,12,070,13,7*79
$GAGSV,3,3,09,36,01,275,,7*4E
$GAGSV,2,1,07,10,49,343,42,12,46,023,40,11,36,307,27,04,33,150,41,1*7A
$GAGSV,2,2,07,19,32,079,29,25,27,301,28,33,12,070,15,1*44
$GBGSV,4,1,13,40,81,158,41,07,78,233,39,10,72,279,28,33,70,137,43,1*72
$GBGSV,4,2,13,14,59,068,44,08,57,278,,43,52,067,45,28,42,330,47,1*7D
$GBGSV,4,3,13,42,35,048,44,11,30,088,28,41,29,198,,34,14,103,25,1*7F
$GBGSV,4,4,13,23,14,216,,1*45
$GBGSV,2,1,06,40,81,158,45,33,70,137,46,43,52,067,45,28,42,330,43,4*7D
$GBGSV,2,2,06,42,35,048,42,34,14,103,17,4*79
$GNGGA,040251.000,2500.7992563,N,12132.4336438,E,4,56,0.52,15.663,M,15.25,M,1,3335*4E
$GNRMC,040251.000,A,2500.7992563,N,12132.4336438,E,0.00,85.07,270623,,,R,V*2F
$GPHDT,,T*1B
$GNGGA,040251.200,2500.7992565,N,12132.4336441,E,4,56,0.52,15.671,M,15.25,M,1,3335*47
$GNRMC,040251.200,A,2500.7992565,N,12132.4336441,E,0.01,85.07,270623,,,R,V*24
$GPHDT,,T*1B
$GNGGA,040251.400,2500.7992567,N,12132.4336479,E,4,56,0.52,15.666,M,15.25,M,1,3335*4E
$GNRMC,040251.400,A,2500.7992567,N,12132.4336479,E,0.00,85.07,270623,,,R,V*2A
$GPHDT,,T*1B
$GNGGA,040251.600,2500.7992516,N,12132.4336518,E,4,56,0.52,15.636,M,15.25,M,0,3335*48
$GNRMC,040251.600,A,2500.7992516,N,12132.4336518,E,0.00,85.07,270623,,,R,V*28
