$FW : RTK35X,V1.1X0314AS,Lib20210517,1*54
$Tool : LOCOSYS , GNSS Firebird , v1.0.0.19*39
$---------------------------------------------------*2D
$GPHDT,,T*1B
$GNGGA,040302.800,2500.7991523,N,12132.4336238,E,2,57,0.50,15.121,M,15.25,M,0,3335*45
$GNRMC,040302.800,A,2500.7991523,N,12132.4336238,E,0.03,85.07,270623,,,D,V*34
$GPHDT,,T*1B
$GNGSA,A,3,19,195,196,17,199,06,194,09,11,04,14,12,0.91,0.50,0.76,1*00
$GNGSA,A,3,68,67,82,83,73,,,,,,,,0.91,0.50,0.76,2*04
$GNGSA,A,3,10,24,12,11,04,19,25,33,,,,,0.91,0.50,0.76,3*00
$GNGSA,A,3,40,07,10,33,14,43,28,42,11,34,,,0.91,0.50,0.76,4*03
$GPGSV,4,1,16,19,70,040,41,195,68,046,43,196,66,124,38,17,62,093,40,1*60
$GPGSV,4,2,16,199,60,167,34,50,60,167,37,06,50,352,43,194,38,172,45,1*60
$GPGSV,4,3,16,09,35,096,40,20,34,237,17,11,30,293,20,04,20,065,32,1*68
$GPGSV,4,4,16,14,19,175,31,12,18,313,32,05,09,225,,03,03,039,,1*66
$GPGSV,3,1,09,195,68,046,44,196,66,124,43,199,60,167,44,06,50,352,45,8*58
$GPGSV,3,2,09,194,38,172,44,09,35,096,43,11,30,293,18,04,20,065,24,8*50
$GPGSV,3,3,09,14,19,175,25,8*5D
$GLGSV,2,1,07,68,58,139,40,67,43,050,41,82,36,049,40,83,36,351,33,1*79
$GLGSV,2,2,07,73,21,280,18,69,18,184,28,80,18,224,,1*4F
$GAGSV,3,1,09,10,49,343,41,24,47,234,14,12,46,023,39,11,36,307,31,7*79
$GAGSV,3,2,09,04,33,150,41,19,32,079,27,25,27,301,19,33,12,070,13,7*72
$GAGSV,3,3,09,09,03,191,,7*49
$GAGSV,2,1,07,10,49,343,39,12,46,023,40,11,36,307,24,04,33,150,37,1*74
$GAGSV,2,2,07,19,32,079,32,25,27,301,26,33,12,070,13,1*46
$GBGSV,3,1,12,40,81,158,41,07,78,233,41,10,72,279,21,33,70,137,41,1*70
$GBGSV,3,2,12,14,59,068,40,08,57,278,,43,52,067,42,13,48,264,,1*79
$GBGSV,3,3,12,28,42,330,46,42,35,047,44,11,30,088,32,34,14,103,15,1*7E
$GBGSV,2,1,06,40,81,158,44,33,70,137,44,43,52,067,42,28,42,330,42,4*78
$GBGSV,2,2,06,42,35,047,44,34,14,103,19,4*7E
$GNGGA,040303.000,2500.7991403,N,12132.4336178,E,2,57,0.50,15.109,M,15.25,M,1,3335*43
$GNRMC,040303.000,A,2500.7991403,N,12132.4336178,E,0.03,85.07,270623,,,D,V*39
$GPHDT,,T*1B
$GNGGA,040303.200,2500.7991343,N,12132.4336118,E,2,57,0.50,15.099,M,15.25,M,1,3335*4C
$GNRMC,040303.200,A,2500.7991343,N,12132.4336118,E,0.02,85.07,270623,,,D,V*3F
$GPHDT,,T*1B
$GNGGA,040303.400,2500.7991283,N,12132.4336058,E,2,56,0.48,15.088,M,15.25,M,1,3335*4A
$GNRMC,040303.400,A,2500.7991283,N,12132.4336058,E,0.02,85.07,270623,,,D,V*31
$GPHDT,,T*1B
$GNGGA,040303.600,2500.7991163,N,12132.4336058,E,2,55,0.50,15.072,M,15.25,M,0,3335*4B
$GNRMC,040303.600,A,2500.7991163,N,12132.4336058,E,0.01,85.07,270623,,,D,V*3D
$GPHDT,,T*1B
$GNGGA,040303.800,2500.7991103,N,12132.4335998,E,2,56,0.50,15.043,M,15.25,M,0,3335*44
$GNRMC,040303.800,A,2500.7991103,N,12132.4335998,E,0.01,85.07,270623,,,D,V*33
$GPHDT,,T*1B
$GNGSA,A,3,19,195,196,17,199,06,194,09,20,11,04,12,0.91,0.50,0.76,1*07
$GNGSA,A,3,14,,,,,,,,,,,,0.91,0.50,0.76,1*08
$GNGSA,A,3,68,67,82,83,73,,,,,,,,0.91,0.50,0.76,2*04
$GNGSA,A,3,10,24,12,11,04,25,33,19,,,,,0.91,0.50,0.76,3*00
$GNGSA,A,3,40,07,10,33,14,43,28,42,34,,,,0.91,0.50,0.76,4*03
$GPGSV,4,1,15,19,70,040,41,195,68,046,43,196,66,124,39,17,62,093,40,1*62
$GPGSV,4,2,15,50,60,167,34,199,60,167,31,06,50,352,43,194,38,172,46,1*66
$GPGSV,4,3,15,09,35,096,38,20,34,237,19,11,31,293,22,04,20,065,31,1*6A
$GPGSV,4,4,15,12,18,313,31,14,18,175,31,05,09,225,,1*5D
$GPGSV,3,1,09,195,68,046,45,196,66,124,45,199,60,167,42,06,50,352,45,8*59
$GPGSV,3,2,09,194,38,172,44,09,35,096,43,11,31,293,18,04,20,065,25,8*50
$GPGSV,3,3,09,14,18,175,26,8*5F
$GLGSV,2,1,07,68,58,139,40,67,43,050,41,82,36,049,41,83,36,351,33,1*78
$GLGSV,2,2,07,73,21,280,18,69,18,184,30,80,18,224,,1*46
$GAGSV,3,1,09,10,49,343,41,24,47,234,14,12,46,023,39,11,36,307,31,7*79
$GAGSV,3,2,09,04,33,150,32,19,32,079,,25,27,301,19,33,12,070,14,7*74
$GAGSV,3,3,09,09,03,191,,7*49
$GAGSV,2,1,07,10,49,343,40,12,46,023,41,11,36,307,23,04,33,150,38,1*73
$GAGSV,2,2,07,19,32,079,28,25,27,301,26,33,12,070,13,1*4D
$GBGSV,4,1,13,40,81,158,41,07,78,233,41,10,72,279,24,33,70,137,41,1*73
$GBGSV,4,2,13,14,59,068,39,43,52,067,43,28,42,330,46,42,35,047,44,1*74
$GBGSV,4,3,13,11,30,088,24,41,29,198,,37,14,266,,34,14,103,19,1*73
$GBGSV,4,4,13,23,14,216,,1*45
$GBGSV,2,1,06,40,81,158,44,33,70,137,44,43,52,067,41,28,42,330,42,4*7B
$GBGSV,2,2,06,42,35,047,44,34,14,103,19,4*7E
$GNGGA,040304.000,2500.7991043,N,12132.4335998,E,2,56,0.50,15.032,M,15.25,M,1,3335*49
$GNRMC,040304.000,A,2500.7991043,N,12132.4335998,E,0.01,85.07,270623,,,D,V*39
$GPHDT,,T*1B
$GNGGA,040304.200,2500.7990923,N,12132.4335938,E,2,57,0.48,15.013,M,15.25,M,1,3335*44
$GNRMC,040304.200,A,2500.7990923,N,12132.4335938,E,0.01,85.07,270623,,,D,V*3F
$GPHDT,,T*1B
$GNGGA,040304.400,2500.7990863,N,12132.4335878,E,2,57,0.48,15.010,M,15.25,M,0,3335*40
$GNRMC,040304.400,A,2500.7990863,N,12132.4335878,E,0.01,85.07,270623,,,D,V*39
$GPHDT,,T*1B
$GNGGA,040304.600,2500.7990743,N,12132.4335818,E,2,58,0.48,15.005,M,15.25,M,0,3335*42
$GNRMC,040304.600,A,2500.7990743,N,12132.4335818,E,0.01,85.07,270623,,,D,V*30
$GPHDT,,T*1B
$GNGGA,040304.800,2500.7990743,N,12132.4335758,E,2,57,0.48,15.000,M,15.25,M,0,3335*4D
$GNRMC,040304.800,A,2500.7990743,N,12132.4335758,E,0.01,85.07,270623,,,D,V*35
$GPHDT,,T*1B
$GNGSA,A,3,19,195,196,17,199,06,194,09,20,11,04,12,0.90,0.48,0.76,1*0F
$GNGSA,A,3,14,,,,,,,,,,,,0.90,0.48,0.76,1*00
$GNGSA,A,3,68,67,82,83,73,,,,,,,,0.90,0.48,0.76,2*0C
$GNGSA,A,3,10,24,12,11,04,19,25,33,,,,,0.90,0.48,0.76,3*08
$GNGSA,A,3,40,07,10,33,14,43,28,42,11,34,,,0.90,0.48,0.76,4*0B
$GPGSV,4,1,15,19,70,040,42,195,68,046,43,196,66,124,39,17,62,094,40,1*66
$GPGSV,4,2,15,50,60,167,32,199,60,167,30,06,50,352,44,194,38,172,46,1*66
$GPGSV,4,3,15,09,35,096,36,20,34,237,21,11,31,293,22,04,20,065,31,1*6F
$GPGSV,4,4,15,12,18,313,31,14,18,175,31,05,09,225,,1*5D
$GPGSV,3,1,09,195,68,046,45,196,66,124,45,199,60,167,42,06,50,352,45,8*59
$GPGSV,3,2,09,194,38,172,44,09,35,096,43,11,31,293,18,04,20,065,23,8*56
$GPGSV,3,3,09,14,18,175,25,8*5C
$GLGSV,2,1,07,68,58,139,38,67,43,050,41,82,36,049,41,83,36,351,32,1*76
$GLGSV,2,2,07,73,21,280,18,69,18,184,30,80,18,224,,1*46
$GAGSV,3,1,09,10,49,343,41,24,47,234,14,12,46,023,39,11,36,307,31,7*79
$GAGSV,3,2,09,04,33,150,33,19,32,079,19,25,27,301,19,33,12,070,16,7*7F
$GAGSV,3,3,09,09,03,191,,7*49
$GAGSV,2,1,07,10,49,343,40,12,46,023,41,11,36,307,24,04,33,150,38,1*74
$GAGSV,2,2,07,19,32,079,28,25,27,301,26,33,12,070,12,1*4C
$GBGSV,4,1,13,40,81,158,41,07,78,233,41,10,72,279,25,33,70,137,42,1*71
$GBGSV,4,2,13,14,59,068,39,43,52,067,43,28,42,330,46,42,35,047,44,1*74
$GBGSV,4,3,13,11,30,088,29,41,29,198,,37,14,266,,34,14,103,21,1*75
$GBGSV,4,4,13,23,14,216,,1*45
$GBGSV,2,1,06,40,81,158,44,33,70,137,44,43,52,067,41,28,42,330,42,4*7B
$GBGSV,2,2,06,42,35,047,44,34,14,103,19,4*7E
$GNGGA,040305.000,2500.7990623,N,12132.4335698,E,2,58,0.48,15.001,M,15.25,M,1,3335*41
$GNRMC,040305.000,A,2500.7990623,N,12132.4335698,E,0.01,85.07,270623,,,D,V*36
$GPHDT,,T*1B
$GNGGA,040305.200,2500.7990563,N,12132.4335638,E,2,58,0.48,14.997,M,15.25,M,1,3335*49
$GNRMC,040305.200,A,2500.7990563,N,12132.4335638,E,0.01,85.07,270623,,,D,V*39
$GPHDT,,T*1B
$GNGGA,040305.400,2500.7990443,N,12132.4335578,E,2,58,0.48,14.994,M,15.25,M,1,3335*48
$GNRMC,040305.400,A,2500.7990443,N,12132.4335578,E,0.01,85.07,270623,,,D,V*3B
$GPHDT,,T*1B
$GNGGA,040305.600,2500.7990383,N,12132.4335578,E,2,56,0.48,14.984,M,15.25,M,0,3335*4F
$GNRMC,040305.600,A,2500.7990383,N,12132.4335578,E,0.01,85.07,270623,,,D,V*32
$GPHDT,,T*1B
$GNGGA,040305.800,2500.7990263,N,12132.4335518,E,2,55,0.48,14.970,M,15.25,M,0,3335*40
$GNRMC,040305.800,A,2500.7990263,N,12132.4335518,E,0.01,85.07,270623,,,D,V*35
$GPHDT,,T*1B
$GNGSA,A,3,19,195,196,17,199,06,194,20,09,11,04,12,0.90,0.48,0.76,1*0F
$GNGSA,A,3,14,,,,,,,,,,,,0.90,0.48,0.76,1*00
$GNGSA,A,3,68,67,82,83,73,,,,,,,,0.90,0.48,0.76,2*0C
$GNGSA,A,3,10,24,12,11,04,19,25,33,,,,,0.90,0.48,0.76,3*08
$GNGSA,A,3,40,07,10,33,14,43,28,42,11,34,,,0.90,0.48,0.76,4*0B
$GPGSV,4,1,15,19,70,040,42,195,68,046,43,196,66,124,39,17,62,094,41,1*67
$GPGSV,4,2,15,199,60,167,29,50,60,167,31,06,50,352,44,194,38,172,46,1*6D
$GPGSV,4,3,15,20,35,237,21,09,35,096,36,11,31,293,22,04,20,065,32,1*6D
$GPGSV,4,4,15,12,18,313,31,14,18,175,31,05,09,225,,1*5D
$GPGSV,2,1,08,195,68,046,46,196,66,124,45,199,60,167,42,06,50,352,45,8*5A
$GPGSV,2,2,08,194,38,172,44,09,35,096,43,11,31,293,18,04,20,065,26,8*53
$GLGSV,2,1,07,68,58,139,37,67,43,050,41,82,36,049,41,83,36,351,32,1*79
$GLGSV,2,2,07,73,21,280,20,69,18,184,31,80,18,224,,1*4C
$GAGSV,3,1,09,10,49,343,41,24,47,234,14,12,46,023,39,11,36,307,32,7*7A
$GAGSV,3,2,09,04,33,150,34,19,32,079,18,25,27,301,19,33,12,070,16,7*79
$GAGSV,3,3,09,09,03,191,,7*49
$GAGSV,2,1,06,10,49,343,40,12,46,023,41,11,36,307,24,04,33,150,38,1*75
$GAGSV,2,2,06,19,32,079,28,25,27,301,27,1*7B
$GBGSV,4,1,13,40,81,158,41,07,78,233,41,10,72,279,25,33,70,137,42,1*71
$GBGSV,4,2,13,14,59,068,40,43,52,067,43,28,42,330,46,42,35,047,44,1*7A
$GBGSV,4,3,13,11,30,088,29,41,29,198,,37,14,266,,34,14,103,20,1*74
$GBGSV,4,4,13,23,14,216,,1*45
$GBGSV,2,1,06,40,81,158,44,33,70,137,44,43,52,067,41,28,42,330,42,4*7B
$GBGSV,2,2,06,42,35,047,44,34,14,103,19,4*7E
$GNGGA,040306.000,2500.7990203,N,12132.4335458,E,2,55,0.48,14.975,M,15.25,M,1,3335*4C
$GNRMC,040306.000,A,2500.7990203,N,12132.4335458,E,0.00,85.07,270623,,,D,V*3C
$GPHDT,,T*1B
$GNGGA,040306.200,2500.7990083,N,12132.4335398,E,2,56,0.48,14.974,M,15.25,M,1,3335*4D
$GNRMC,040306.200,A,2500.7990083,N,12132.4335398,E,0.00,85.07,270623,,,D,V*3F
$GPHDT,,T*1B
$GNGGA,040306.400,2500.7989963,N,12132.4335338,E,2,56,0.48,14.975,M,15.25,M,1,3335*4F
$GNRMC,040306.400,A,2500.7989963,N,12132.4335338,E,0.00,85.07,270623,,,D,V*3C
$GPHDT,,T*1B
$GNGGA,040306.600,2500.7989843,N,12132.4335278,E,2,55,0.48,14.965,M,15.25,M,1,3335*49
$GNRMC,040306.600,A,2500.7989843,N,12132.4335278,E,0.00,85.07,270623,,,D,V*38
$GPHDT,,T*1B
$GNGGA,040306.800,2500.7989783,N,12132.4335218,E,2,56,0.48,14.959,M,15.25,M,0,3335*4F
$GNRMC,040306.800,A,2500.7989783,N,12132.4335218,E,0.01,85.07,270623,,,D,V*32
$GPHDT,,T*1B
$GNGSA,A,3,19,195,196,17,199,06,194,20,09,11,04,14,0.90,0.48,0.76,1*09
$GNGSA,A,3,12,,,,,,,,,,,,0.90,0.48,0.76,1*06
$GNGSA,A,3,68,67,82,83,73,,,,,,,,0.90,0.48,0.76,2*0C
$GNGSA,A,3,10,24,12,11,04,19,25,33,,,,,0.90,0.48,0.76,3*08
$GNGSA,A,3,40,07,10,33,14,43,28,42,11,34,,,0.90,0.48,0.76,4*0B
$GPGSV,4,1,15,19,70,040,42,195,68,046,43,196,66,124,39,17,62,094,41,1*67
$GPGSV,4,2,15,50,60,167,32,199,60,167,29,06,50,352,44,194,38,172,46,1*6E
$GPGSV,4,3,15,20,35,237,20,09,35,096,35,11,31,293,22,04,20,065,31,1*6C
$GPGSV,4,4,15,14,18,175,31,12,18,313,31,05,09,225,,1*5D
$GPGSV,2,1,08,195,68,046,46,196,66,124,45,199,60,167,42,06,50,352,45,8*5A
$GPGSV,2,2,08,194,38,172,44,09,35,096,43,11,31,293,18,04,20,065,26,8*53
$GLGSV,2,1,08,68,58,139,37,67,43,050,41,82,36,049,41,83,36,351,32,1*76
$GLGSV,2,2,08,73,21,280,21,80,18,224,,69,18,184,31,84,01,300,,1*7C
$GAGSV,3,1,10,10,49,343,41,24,47,234,15,12,46,023,39,11,36,307,31,7*70
$GAGSV,3,2,10,04,33,150,35,19,32,079,17,25,27,301,19,33,12,070,16,7*7F
$GAGSV,3,3,10,09,03,191,,36,01,275,,7*75
$GAGSV,2,1,06,10,49,343,40,12,46,023,41,11,36,307,23,04,33,150,39,1*73
$GAGSV,2,2,06,19,32,079,28,25,27,301,26,1*7A
$GBGSV,4,1,13,40,81,158,41,07,78,233,41,10,72,279,25,33,70,137,42,1*71
$GBGSV,4,2,13,14,59,068,40,43,52,067,43,28,42,330,46,42,35,047,44,1*7A
$GBGSV,4,3,13,11,30,088,27,41,29,198,,34,14,103,26,37,14,266,,1*7C
$GBGSV,4,4,13,23,14,216,,1*45
$GBGSV,2,1,06,40,81,158,44,33,70,137,44,43,52,067,41,28,42,330,42,4*7B
$GBGSV,2,2,06,42,35,047,44,34,14,103,19,4*7E
$GNGGA,040307.000,2500.7989783,N,12132.4335098,E,2,56,0.48,14.974,M,15.25,M,1,3335*42
$GNRMC,040307.000,A,2500.7989783,N,12132.4335098,E,0.01,85.07,270623,,,D,V*31
$GPHDT,,T*1B
$GNGGA,040307.200,2500.7992553,N,12132.4336370,E,4,56,0.48,15.699,M,15.25,M,1,3335*48
$GNRMC,040307.200,A,2500.7992553,N,12132.4336370,E,0.02,85.07,270623,,,R,V*25
$GPHDT,,T*1B
$GNGGA,040307.400,2500.7992497,N,12132.4336389,E,4,56,0.48,15.681,M,15.25,M,0,3335*49
$GNRMC,040307.400,A,2500.7992497,N,12132.4336389,E,0.08,85.07,270623,,,R,V*26
$GPHDT,,T*1B
$GNGGA,040307.600,2500.7992501,N,12132.4336388,E,4,56,0.48,15.688,M,15.25,M,0,3335*4D
$GNRMC,040307.600,A,2500.7992501,N,12132.4336388,E,0.05,85.07,270623,,,R,V*26
$GPHDT,,T*1B
$GNGGA,040307.800,2500.7992550,N,12132.4336357,E,4,56,0.48,15.692,M,15.25,M,0,3335*4E
$GNRMC,040307.800,A,2500.7992550,N,12132.4336357,E,0.08,85.07,270623,,,R,V*23
$GPHDT,,T*1B
$GNGSA,A,3,19,195,196,17,199,06,194,20,09,11,04,14,0.90,0.48,0.76,1*09
$GNGSA,A,3,12,,,,,,,,,,,,0.90,0.48,0.76,1*06
$GNGSA,A,3,68,67,82,83,73,,,,,,,,0.90,0.48,0.76,2*0C
$GNGSA,A,3,10,24,12,11,04,19,25,33,,,,,0.90,0.48,0.76,3*08
$GNGSA,A,3,40,07,10,33,14,43,28,42,11,34,,,0.90,0.48,0.76,4*0B
$GPGSV,4,1,15,19,70,040,42,195,68,046,43,196,66,124,39,17,62,094,41,1*67
$GPGSV,4,2,15,50,60,167,32,199,60,167,31,06,50,352,44,194,38,172,46,1*67
$GPGSV,4,3,15,20,35,237,20,09,35,096,35,11,31,293,23,04,20,065,29,1*64
$GPGSV,4,4,15,14,18,175,31,12,18,313,32,05,09,225,,1*5E
$GPGSV,2,1,08,195,68,046,46,196,66,124,45,199,60,167,42,06,50,352,45,8*5A
$GPGSV,2,2,08,194,38,172,44,09,35,096,43,11,31,293,17,04,20,065,24,8*5E
$GLGSV,2,1,08,68,58,139,37,67,43,050,41,82,36,049,41,83,36,351,32,1*76
$GLGSV,2,2,08,73,21,280,21,80,18,224,,69,18,184,31,74,06,321,,1*77
$GAGSV,3,1,09,10,49,343,42,24,47,234,15,12,46,023,39,11,36,307,31,7*7B
$GAGSV,3,2,09,04,33,150,35,19,32,079,15,25,27,301,19,33,12,070,16,7*75
$GAGSV,3,3,09,36,01,275,,7*4E
$GAGSV,2,1,06,10,49,343,40,12,46,023,41,11,36,307,23,04,33,150,39,1*73
$GAGSV,2,2,06,19,32,079,28,25,27,301,25,1*79
$GBGSV,4,1,13,40,81,158,41,07,78,233,41,10,72,279,24,33,70,137,42,1*70
$GBGSV,4,2,13,14,59,068,40,43,52,067,43,28,42,330,46,42,35,047,44,1*7A
$GBGSV,4,3,13,11,30,088,28,41,29,198,,23,14,216,,34,14,103,25,1*72
$GBGSV,4,4,13,37,14,266,,1*47
$GBGSV,2,1,06,40,81,158,44,33,70,137,44,43,52,067,41,28,42,330,42,4*7B
$GBGSV,2,2,06,42,35,047,44,34,14,103,19,4*7E
$GNGGA,040308.000,2500.7992514,N,12132.4336412,E,4,56,0.48,15.678,M,15.25,M,1,3335*4A
$GNRMC,040308.000,A,2500.7992514,N,12132.4336412,E,0.01,85.07,270623,,,R,V*2B
$GPHDT,,T*1B
$GNGGA,040308.200,2500.7992514,N,12132.4336401,E,4,56,0.48,15.683,M,15.25,M,1,3335*4E
$GNRMC,040308.200,A,2500.7992514,N,12132.4336401,E,0.04,85.07,270623,,,R,V*2E
$GPHDT,,T*1B
$GNGGA,040308.400,2500.7992473,N,12132.4336408,E,4,56,0.48,15.669,M,15.25,M,0,3335*44
$GNRMC,040308.400,A,2500.7992473,N,12132.4336408,E,0.03,85.07,270623,,,R,V*26
$GPHDT,,T*1B
$GNGGA,040308.600,2500.7992556,N,12132.4336392,E,4,56,0.48,15.679,M,15.25,M,0,3335*45
$GNRMC,040308.600,A,2500.7992556,N,12132.4336392,E,0.08,85.07,270623,,,R,V*2D
$GPHDT,,T*1B
$GNGGA,040308.800,2500.7992565,N,12132.4336406,E,4,56,0.48,15.681,M,15.25,M,0,3335*46
$GNRMC,040308.800,A,2500.7992565,N,12132.4336406,E,0.06,85.07,270623,,,R,V*27
$GPHDT,,T*1B
$GNGSA,A,3,19,195,196,17,199,06,194,20,09,11,04,14,0.90,0.48,0.76,1*09
$GNGSA,A,3,12,,,,,,,,,,,,0.90,0.48,0.76,1*06
$GNGSA,A,3,68,67,82,83,73,,,,,,,,0.90,0.48,0.76,2*0C
$GNGSA,A,3,10,24,12,11,04,19,25,33,,,,,0.90,0.48,0.76,3*08
$GNGSA,A,3,40,07,10,33,14,43,28,42,11,34,,,0.90,0.48,0.76,4*0B
$GPGSV,4,1,15,19,70,040,42,195,68,046,43,196,66,124,39,17,62,094,41,1*67
$GPGSV,4,2,15,50,60,167,32,199,60,167,31,06,50,352,44,194,38,172,46,1*67
$GPGSV,4,3,15,20,35,237,21,09,35,096,36,11,31,293,24,04,20,065,28,1*60
$GPGSV,4,4,15,14,18,175,30,12,18,313,32,05,09,225,,1*5F
$GPGSV,2,1,08,195,68,046,46,196,66,124,45,199,60,167,42,06,50,352,45,8*5A
$GPGSV,2,2,08,194,38,172,44,09,35,096,43,11,31,293,18,04,20,065,25,8*50
$GLGSV,2,1,07,68,58,139,37,67,43,050,41,82,36,049,41,83,36,351,32,1*79
$GLGSV,2,2,07,73,21,280,21,69,18,184,31,80,18,224,,1*4D
$GAGSV,3,1,10,10,49,343,42,24,47,234,13,12,46,023,39,11,36,307,32,7*76
$GAGSV,3,2,10,04,33,150,35,19,32,079,18,25,27,301,19,33,12,070,16,7*70
$GAGSV,3,3,10,09,03,191,,36,01,275,,7*75
$GAGSV,2,1,06,10,49,343,40,12,46,023,41,11,36,307,24,04,33,150,39,1*74
$GAGSV,2,2,06,19,32,079,28,25,27,301,25,1*79
$GBGSV,4,1,13,40,81,158,41,07,78,233,40,10,72,279,22,33,70,137,42,1*77
$GBGSV,4,2,13,14,59,068,40,08,57,278,,43,52,067,43,28,42,330,46,1*7E
$GBGSV,4,3,13,42,35,047,44,11,30,088,27,41,29,198,,34,14,103,27,1*7D
$GBGSV,4,4,13,23,14,216,,1*45
$GBGSV,2,1,06,40,81,158,44,33,70,137,44,43,52,067,41,28,42,330,42,4*7B
$GBGSV,2,2,06,42,35,047,44,34,14,103,19,4*7E
$GNGGA,040309.000,2500.7992556,N,12132.4336419,E,4,56,0.48,15.678,M,15.25,M,1,3335*46
$GNRMC,040309.000,A,2500.7992556,N,12132.4336419,E,0.05,85.07,270623,,,R,V*23
$GPHDT,,T*1B
$GNGGA,040309.200,2500.7992562,N,12132.4336382,E,4,56,0.48,15.687,M,15.25,M,1,3335*46
$GNRMC,040309.200,A,2500.7992562,N,12132.4336382,E,0.04,85.07,270623,,,R,V*22
$GPHDT,,T*1B
$GNGGA,040309.400,2500.7992518,N,12132.4336421,E,4,56,0.48,15.683,M,15.25,M,1,3335*47
$GNRMC,040309.400,A,2500.7992518,N,12132.4336421,E,0.08,85.07,270623,,,R,V*2B
$GPHDT,,T*1B
$GNGGA,040309.600,2500.7992511,N,12132.4336432,E,4,56,0.48,15.677,M,15.25,M,0,3335*44
$GNRMC,040309.600,A,2500.7992511,N,12132.4336432,E,0.12,85.07,270623,,,R,V*29
$GPHDT,,T*1B
$GNGGA,040309.800,2500.7992581,N,12132.4336429,E,4,57,0.47,15.678,M,15.25,M,0,3335*48
$GNRMC,040309.800,A,2500.7992581,N,12132.4336429,E,0.19,85.07,270623,,,R,V*2F
$GPHDT,,T*1B
$GNGSA,A,3,19,195,196,17,199,06,194,20,09,11,04,14,0.87,0.47,0.73,1*05
$GNGSA,A,3,12,,,,,,,,,,,,0.87,0.47,0.73,1*0A
$GNGSA,A,3,68,67,82,83,73,69,,,,,,,0.87,0.47,0.73,2*0F
$GNGSA,A,3,10,24,12,11,04,19,25,33,,,,,0.87,0.47,0.73,3*04
$GNGSA,A,3,40,07,10,33,14,43,28,42,11,34,,,0.87,0.47,0.73,4*07
$GPGSV,4,1,15,19,70,040,42,195,68,046,43,196,66,124,39,17,62,094,41,1*67
$GPGSV,4,2,15,50,60,167,32,199,60,167,31,06,50,352,44,194,38,172,46,1*67
$GPGSV,4,3,15,20,35,237,21,09,35,096,36,11,31,293,23,04,20,065,27,1*68
$GPGSV,4,4,15,14,18,175,30,12,18,313,32,05,09,225,,1*5F
$GPGSV,2,1,08,195,68,046,46,196,66,124,45,199,60,167,42,06,50,352,45,8*5A
$GPGSV,2,2,08,194,38,172,44,09,35,096,43,11,31,293,18,04,20,065,25,8*50
$GLGSV,2,1,07,68,58,139,37,67,43,050,41,82,36,049,41,83,36,351,32,1*79
$GLGSV,2,2,07,73,21,280,21,80,18,224,,69,18,184,31,1*4D
$GAGSV,3,1,10,10,49,343,42,24,47,234,13,12,46,023,39,11,36,307,32,7*76
$GAGSV,3,2,10,04,33,150,35,19,32,079,18,25,27,301,19,33,12,070,14,7*72
$GAGSV,3,3,10,09,03,191,,36,01,275,,7*75
$GAGSV,2,1,06,10,49,343,40,12,46,023,41,11,36,307,24,04,33,150,39,1*74
$GAGSV,2,2,06,19,32,079,28,25,27,301,25,1*79
$GBGSV,4,1,13,40,81,158,41,07,78,233,40,10,72,279,22,33,70,137,42,1*77
$GBGSV,4,2,13,14,59,068,40,43,52,067,42,28,42,330,46,42,35,047,44,1*7B
$GBGSV,4,3,13,11,30,088,28,41,29,198,,23,14,216,,34,14,103,28,1*7F
$GBGSV,4,4,13,37,14,266,,1*47
$GBGSV,2,1,06,40,81,158,44,33,70,137,44,43,52,067,41,28,42,330,42,4*7B
$GBGSV,2,2,06,42,35,047,44,34,14,103,19,4*7E
$GNGGA,040310.000,2500.7992498,N,12132.4336423,E,4,57,0.47,15.673,M,15.25,M,1,3335*41
$GNRMC,040310.000,A,2500.7992498,N,12132.4336423,E,0.03,85.07,270623,,,R,V*27
$GPHDT,,T*1B
$GNGGA,040310.200,2500.7992512,N,12132.4336449,E,4,57,0.47,15.679,M,15.25,M,1,3335*46
$GNRMC,040310.200,A,2500.7992512,N,12132.4336449,E,0.01,85.07,270623,,,R,V*28
$GPHDT,,T*1B
$GNGGA,040310.400,2500.7992515,N,12132.4336444,E,4,57,0.47,15.679,M,15.25,M,1,3335*4A
$GNRMC,040310.400,A,2500.7992515,N,12132.4336444,E,0.02,85.07,270623,,,R,V*27
$GPHDT,,T*1B
$GNGGA,040310.600,2500.7992532,N,12132.4336423,E,4,57,0.47,15.687,M,15.25,M,0,3335*4C
$GNRMC,040310.600,A,2500.7992532,N,12132.4336423,E,0.08,85.07,270623,,,R,V*2B
$GPHDT,,T*1B
$GNGGA,040310.800,2500.7992515,N,12132.4336424,E,4,57,0.47,15.684,M,15.25,M,0,3335*43
$GNRMC,040310.800,A,2500.7992515,N,12132.4336424,E,0.09,85.07,270623,,,R,V*26
$GPHDT,,T*1B
$GNGSA,A,3,19,195,196,17,199,06,194,20,09,11,04,14,0.87,0.47,0.73,1*05
$GNGSA,A,3,12,,,,,,,,,,,,0.87,0.47,0.73,1*0A
$GNGSA,A,3,68,67,82,83,73,69,,,,,,,0.87,0.47,0.73,2*0F
$GNGSA,A,3,10,24,12,11,04,19,25,33,,,,,0.87,0.47,0.73,3*04
$GNGSA,A,3,40,07,10,33,14,43,28,42,11,34,,,0.87,0.47,0.73,4*07
$GPGSV,4,1,15,19,70,040,42,195,68,046,43,196,66,124,39,17,62,094,41,1*67
$GPGSV,4,2,15,50,60,167,32,199,60,167,30,06,50,352,44,194,38,172,46,1*66
$GPGSV,4,3,15,20,35,237,21,09,35,096,36,11,31,293,22,04,20,065,28,1*66
$GPGSV,4,4,15,14,18,175,30,12,18,313,32,05,09,225,,1*5F
$GPGSV,2,1,08,195,68,046,46,196,66,124,45,199,60,167,42,06,50,352,45,8*5A
$GPGSV,2,2,08,194,38,172,44,09,35,096,43,11,31,293,19,04,20,065,25,8*51
$GLGSV,2,1,07,68,58,139,37,67,43,050,41,82,36,049,41,83,36,351,31,1*7A
$GLGSV,2,2,07,73,21,280,21,80,18,224,,69,18,184,31,1*4D
$GAGSV,3,1,10,10,49,343,42,24,47,234,13,12,46,023,39,11,36,307,32,7*76
$GAGSV,3,2,10,04,33,150,35,19,32,079,16,25,27,301,19,33,12,070,13,7*7B
$GAGSV,3,3,10,09,04,191,,36,01,275,,7*72
$GAGSV,2,1,06,10,49,343,40,12,46,023,41,11,36,307,24,04,33,150,39,1*74
$GAGSV,2,2,06,19,32,079,28,25,27,301,25,1*79
$GBGSV,4,1,13,40,81,158,41,07,78,233,40,10,72,279,22,33,70,137,42,1*77
$GBGSV,4,2,13,14,59,068,40,43,52,067,42,28,42,330,46,42,35,047,44,1*7B
$GBGSV,4,3,13,11,30,088,29,41,29,198,,23,14,216,,34,14,103,25,1*73
$GBGSV,4,4,13,37,14,266,,1*47
$GBGSV,2,1,06,40,81,158,44,33,70,137,44,43,52,067,41,28,42,330,42,4*7B
$GBGSV,2,2,06,42,35,047,44,34,14,103,20,4*74
$GNGGA,040311.000,2500.7992496,N,12132.4336446,E,4,56,0.47,15.696,M,15.25,M,1,3335*47
$GNRMC,040311.000,A,2500.7992496,N,12132.4336446,E,0.03,85.07,270623,,,R,V*2B
$GPHDT,,T*1B
$GNGGA,040311.200,2500.7992529,N,12132.4336457,E,4,57,0.47,15.705,M,15.25,M,1,3335*4A
$GNRMC,040311.200,A,2500.7992529,N,12132.4336457,E,0.04,85.07,270623,,,R,V*2B
$GPHDT,,T*1B
$GNGGA,040311.400,2500.7992533,N,12132.4336462,E,4,57,0.47,15.660,M,15.25,M,0,3335*42
$GNRMC,040311.400,A,2500.7992533,N,12132.4336462,E,0.02,85.07,270623,,,R,V*26
$GPHDT,,T*1B
$GNGGA,040311.600,2500.7992518,N,12132.4336487,E,4,57,0.47,15.668,M,15.25,M,0,3335*4A
$GNRMC,040311.600,A,2500.7992518,N,12132.4336487,E,0.00,85.07,270623,,,R,V*24
$GPHDT,,T*1B
$GNGGA,040311.800,2500.7992548,N,12132.4336494,E,4,57,0.47,15.665,M,15.25,M,0,3335*4E
$GNRMC,040311.800,A,2500.7992548,N,12132.4336494,E,0.01,85.07,270623,,,R,V*2C
$GPHDT,,T*1B
$GNGSA,A,3,19,195,196,17,199,06,194,20,09,11,04,14,0.87,0.47,0.73,1*05
$GNGSA,A,3,12,,,,,,,,,,,,0.87,0.47,0.73,1*0A
$GNGSA,A,3,68,67,82,83,73,69,,,,,,,0.87,0.47,0.73,2*0F
$GNGSA,A,3,10,24,12,11,04,19,25,33,,,,,0.87,0.47,0.73,3*04
$GNGSA,A,3,40,07,10,33,14,43,28,42,11,34,,,0.87,0.47,0.73,4*07
$GPGSV,4,1,15,19,70,040,42,195,68,046,43,196,66,124,37,17,62,094,41,1*69
$GPGSV,4,2,15,50,60,167,36,199,60,167,34,06,50,352,44,194,38,172,46,1*66
$GPGSV,4,3,15,20,35,237,20,09,35,096,39,11,31,293,20,04,20,065,30,1*63
$GPGSV,4,4,15,14,18,175,32,12,18,313,31,05,09,225,,1*5E
$GPGSV,2,1,08,195,68,046,46,196,66,124,45,199,60,167,43,06,50,352,45,8*5B
$GPGSV,2,2,08,194,38,172,44,09,35,096,44,11,31,293,19,04,20,065,29,8*5A
$GLGSV,2,1,07,68,58,139,37,67,43,050,41,82,36,049,41,83,36,351,31,1*7A
$GLGSV,2,2,07,73,21,280,21,80,18,224,,69,18,184,27,1*4A
$GAGSV,3,1,10,10,49,343,42,24,47,234,14,12,46,023,39,11,37,307,32,7*70
$GAGSV,3,2,10,04,33,150,34,19,32,079,18,25,27,301,19,33,12,070,13,7*74
$GAGSV,3,3,10,09,04,191,,36,01,275,,7*72
$GAGSV,2,1,06,10,49,343,40,12,46,023,41,11,37,307,24,04,33,150,33,1*7F
$GAGSV,2,2,06,19,32,079,28,25,27,301,25,1*79
$GBGSV,3,1,12,40,81,158,39,07,78,233,40,10,72,279,22,33,70,137,42,1*7E
$GBGSV,3,2,12,14,59,068,40,08,57,278,,43,52,067,42,28,42,330,46,1*79
$GBGSV,3,3,12,42,35,047,43,11,30,088,26,41,29,198,,34,14,103,27,1*7D
$GBGSV,2,1,06,40,81,158,44,33,70,137,44,43,52,067,41,28,42,330,42,4*7B
$GBGSV,2,2,06,42,35,047,44,34,14,103,18,4*7F
$GNGGA,040312.000,2500.7992494,N,12132.4336445,E,4,57,0.47,15.669,M,15.25,M,1,3335*44
$GNRMC,040312.000,A,2500.7992494,N,12132.4336445,E,0.02,85.07,270623,,,R,V*28
$GPHDT,,T*1B
$GNGGA,040312.200,2500.7992519,N,12132.4336487,E,4,56,0.48,15.662,M,15.25,M,1,3335*49
$GNRMC,040312.200,A,2500.7992519,N,12132.4336487,E,0.03,85.07,270623,,,R,V*21
$GPHDT,,T*1B
$GNGGA,040312.400,2500.7992504,N,12132.4336474,E,4,57,0.48,15.677,M,15.25,M,1,3335*4A
$GNRMC,040312.400,A,2500.7992504,N,12132.4336474,E,0.02,85.07,270623,,,R,V*26
$GPHDT,,T*1B
$GNGGA,040312.600,2500.7992532,N,12132.4336513,E,4,56,0.48,15.655,M,15.25,M,1,3335*4C
$GNRMC,040312.600,A,2500.7992532,N,12132.4336513,E,0.02,85.07,270623,,,R,V*21
$GPHDT,,T*1B
$GNGGA,040312.800,2500.7992511,N,12132.4336448,E,4,56,0.48,15.650,M,15.25,M,0,3335*48
$GNRMC,040312.800,A,2500.7992511,N,12132.4336448,E,0.01,85.07,270623,,,R,V*22
$GPHDT,,T*1B
$GNGSA,A,3,19,195,196,17,199,06,194,09,11,04,14,12,0.87,0.48,0.73,1*0B
$GNGSA,A,3,68,67,82,83,73,69,,,,,,,0.87,0.48,0.73,2*00
$GNGSA,A,3,10,24,12,11,04,19,25,33,,,,,0.87,0.48,0.73,3*0B
$GNGSA,A,3,40,07,10,33,14,43,28,42,11,34,,,0.87,0.48,0.73,4*08
$GPGSV,4,1,15,19,70,040,41,195,68,046,43,196,66,124,39,17,62,094,41,1*64
$GPGSV,4,2,15,50,60,167,38,199,60,167,36,06,50,352,44,194,38,172,46,1*6A
$GPGSV,4,3,15,20,35,237,19,09,35,096,39,11,31,293,20,04,20,065,33,1*6A
$GPGSV,4,4,15,14,18,175,32,12,18,313,31,05,09,225,,1*5E
$GPGSV,2,1,08,195,68,046,46,196,66,124,45,199,60,167,44,06,50,352,45,8*5C
$GPGSV,2,2,08,194,38,172,44,09,35,096,45,11,31,293,20,04,20,065,31,8*58
$GLGSV,2,1,07,68,58,139,40,67,43,050,42,82,36,049,41,83,36,351,31,1*79
$GLGSV,2,2,07,73,21,280,19,80,18,224,,69,18,184,29,1*4F
$GAGSV,3,1,10,10,49,343,41,24,47,234,16,12,46,023,40,11,37,307,32,7*7F
$GAGSV,3,2,10,04,33,150,35,19,32,078,17,25,27,301,19,33,12,070,14,7*7C
$GAGSV,3,3,10,09,04,191,,36,01,275,,7*72
$GAGSV,2,1,06,10,49,343,40,12,46,023,42,11,37,307,24,04,33,150,33,1*7C
$GAGSV,2,2,06,19,32,078,28,25,27,301,25,1*78
$GBGSV,3,1,12,40,81,158,39,07,78,233,41,10,72,279,23,33,70,137,42,1*7E
$GBGSV,3,2,12,14,59,068,39,43,52,067,42,28,42,330,46,42,35,047,43,1*74
$GBGSV,3,3,12,11,30,088,26,41,29,198,,23,14,216,,34,14,103,27,1*78
$GBGSV,2,1,06,40,81,158,44,33,70,137,44,43,52,067,41,28,42,330,42,4*7B
$GBGSV,2,2,06,42,35,047,44,34,14,103,18,4*7F
$GNGGA,040313.000,2500.7992516,N,12132.4336451,E,4,56,0.48,15.639,M,15.25,M,1,3335*40
$GNRMC,040313.000,A,2500.7992516,N,12132.4336451,E,0.01,85.07,270623,,,R,V*24
$GPHDT,,T*1B
$GNGGA,040313.200,2500.7992519,N,12132.4336437,E,4,57,0.47,15.648,M,15.25,M,1,3335*45
$GNRMC,040313.200,A,2500.7992519,N,12132.4336437,E,0.02,85.07,270623,,,R,V*2A
$GPHDT,,T*1B
$GNGGA,040313.400,2500.7992512,N,12132.4336450,E,4,57,0.47,15.657,M,15.25,M,1,3335*47
$GNRMC,040313.400,A,2500.7992512,N,12132.4336450,E,0.01,85.07,270623,,,R,V*25
$GPHDT,,T*1B
$GNGGA,040313.600,2500.7992484,N,12132.4336409,E,4,57,0.47,15.664,M,15.25,M,1,3335*47
$GNRMC,040313.600,A,2500.7992484,N,12132.4336409,E,0.00,85.07,270623,,,R,V*24
