$FW : RTK35X,V1.1X0314AS,Lib20210517,1*54
$Tool : LOCOSYS , GNSS Firebird , v1.0.0.19*39
$---------------------------------------------------*2D
$GPHDT,183.177,T*3E
$GNGSA,A,3,19,195,196,17,199,06,194,09,11,04,12,14,0.87,0.47,0.74,1*03
$GNGSA,A,3,68,67,83,82,73,69,80,,,,,,0.87,0.47,0.74,2*00
$GNGSA,A,3,10,12,24,11,04,19,25,33,,,,,0.87,0.47,0.74,3*03
$GNGSA,A,3,40,07,10,33,14,43,28,42,11,,,,0.87,0.47,0.74,4*07
$GPGSV,4,1,15,19,71,044,41,195,68,046,41,196,67,123,40,17,61,097,41,1*6B
$GPGSV,4,2,15,199,60,167,34,35,54,132,41,06,50,354,42,194,37,173,44,1*6E
$GPGSV,4,3,15,09,36,094,44,20,35,238,,11,31,295,21,04,20,063,27,1*62
$GPGSV,4,4,15,12,19,311,32,14,17,174,28,05,10,226,,1*50
$GPGSV,3,1,09,195,68,046,44,196,67,123,46,199,60,167,46,06,50,354,47,8*5D
$GPGSV,3,2,09,194,37,173,43,09,36,094,42,11,31,295,26,04,20,063,32,8*52
$GPGSV,3,3,09,14,17,174,26,8*51
$GLGSV,2,1,07,68,60,137,43,67,41,048,44,83,37,353,32,82,36,051,40,1*7A
$GLGSV,2,2,07,73,21,278,18,69,20,184,30,80,17,222,16,1*44
$GAGSV,3,1,09,10,49,345,41,12,46,025,37,24,46,233,14,11,37,309,32,7*7D
$GAGSV,3,2,09,04,34,149,41,19,32,077,32,25,28,300,13,33,12,071,16,7*77
$GAGSV,3,3,09,09,04,191,,7*4E
$GAGSV,2,1,06,10,49,345,43,12,46,025,39,11,37,309,21,04,34,149,40,1*73
$GAGSV,2,2,06,19,32,077,36,25,28,300,29,1*7A
$GBGSV,4,1,15,40,80,162,41,07,77,232,43,10,71,277,23,33,71,133,43,1*7C
$GBGSV,4,2,15,14,58,065,44,08,57,279,,43,52,069,47,13,48,266,,1*79
$GBGSV,4,3,15,28,43,332,46,42,34,046,40,41,30,198,,11,29,090,33,1*7B
$GBGSV,4,4,15,37,14,265,,34,13,105,,23,13,215,,1*46
$GBGSV,2,1,05,40,80,162,44,33,71,133,46,43,52,069,45,28,43,332,44,4*78
$GBGSV,2,2,05,42,34,046,44,4*45
$GNGGA,040619.000,2500.7993383,N,12132.4327447,E,2,56,0.47,14.402,M,15.25,M,3,3335*43
$GNRMC,040619.000,A,2500.7993383,N,12132.4327447,E,0.00,85.07,270623,,,D,V*30
$GPHDT,183.063,T*3A
$GNGGA,040619.200,2500.7993383,N,12132.4327387,E,2,56,0.47,14.407,M,15.25,M,3,3335*4F
$GNRMC,040619.200,A,2500.7993383,N,12132.4327387,E,0.00,85.07,270623,,,D,V*39
$GPHDT,183.700,T*38
$GNGGA,040619.400,2500.7993383,N,12132.4327267,E,2,56,0.47,14.397,M,15.25,M,3,3335*48
$GNRMC,040619.400,A,2500.7993383,N,12132.4327267,E,0.00,85.07,270623,,,D,V*30
$GPHDT,183.233,T*3D
$GNGGA,040619.600,2500.7993383,N,12132.4327147,E,2,56,0.47,14.391,M,15.25,M,3,3335*4D
$GNRMC,040619.600,A,2500.7993383,N,12132.4327147,E,0.00,85.07,270623,,,D,V*33
$GPHDT,183.192,T*35
$GNGGA,040619.800,2500.7993383,N,12132.4327027,E,2,56,0.47,14.382,M,15.25,M,3,3335*46
$GNRMC,040619.800,A,2500.7993383,N,12132.4327027,E,0.00,85.07,270623,,,D,V*3A
$GPHDT,183.258,T*30
$GNGSA,A,3,19,195,196,17,199,06,194,09,11,04,12,14,0.87,0.47,0.74,1*03
$GNGSA,A,3,68,67,83,82,73,69,80,,,,,,0.87,0.47,0.74,2*00
$GNGSA,A,3,10,24,12,11,04,19,25,33,,,,,0.87,0.47,0.74,3*03
$GNGSA,A,3,40,07,10,33,14,43,28,42,11,,,,0.87,0.47,0.74,4*07
$GPGSV,4,1,16,19,71,045,41,195,68,046,41,196,67,123,40,17,61,097,41,1*69
$GPGSV,4,2,16,199,60,167,34,35,54,132,41,06,50,354,42,194,37,173,44,1*6D
$GPGSV,4,3,16,09,36,094,44,20,36,238,,11,31,295,23,04,20,063,28,1*6F
$GPGSV,4,4,16,12,19,311,32,14,17,174,28,05,10,226,,03,01,040,,1*65
$GPGSV,3,1,09,195,68,046,44,196,67,123,46,199,60,167,46,06,50,354,47,8*5D
$GPGSV,3,2,09,194,37,173,43,09,36,094,42,11,31,295,27,04,20,063,31,8*50
$GPGSV,3,3,09,14,17,174,26,8*51
$GLGSV,2,1,07,68,60,137,43,67,41,048,44,83,37,353,32,82,36,051,40,1*7A
$GLGSV,2,2,07,73,21,278,18,69,20,184,30,80,17,222,16,1*44
$GAGSV,3,1,09,10,49,345,41,24,46,233,13,12,46,025,37,11,37,309,31,7*79
$GAGSV,3,2,09,04,34,149,41,19,32,077,31,25,28,300,17,33,12,071,15,7*73
$GAGSV,3,3,09,09,04,191,,7*4E
$GAGSV,2,1,06,10,49,345,43,12,46,025,39,11,37,309,21,04,34,149,40,1*73
$GAGSV,2,2,06,19,32,077,36,25,28,300,29,1*7A
$GBGSV,4,1,14,40,80,162,41,07,77,232,43,10,71,277,23,33,71,133,43,1*7D
$GBGSV,4,2,14,14,58,065,44,08,57,279,,43,52,069,47,28,43,332,47,1*78
$GBGSV,4,3,14,42,34,046,40,41,30,198,,11,29,090,33,37,14,265,,1*77
$GBGSV,4,4,14,23,13,215,,34,13,105,,1*77
$GBGSV,2,1,05,40,80,162,44,33,71,133,46,43,52,069,45,28,43,332,44,4*78
$GBGSV,2,2,05,42,34,046,44,4*45
$GNGGA,040620.000,2500.7993383,N,12132.4326847,E,2,56,0.47,14.378,M,15.25,M,3,3335*4E
$GNRMC,040620.000,A,2500.7993383,N,12132.4326847,E,0.00,85.07,270623,,,D,V*37
$GPHDT,183.156,T*3D
$GNGGA,040620.200,2500.7993323,N,12132.4326667,E,2,56,0.47,14.362,M,15.25,M,1,3335*43
$GNRMC,040620.200,A,2500.7993323,N,12132.4326667,E,0.00,85.07,270623,,,D,V*33
$GPHDT,183.340,T*38
$GNGGA,040620.400,2500.7993323,N,12132.4326547,E,2,56,0.47,14.355,M,15.25,M,1,3335*40
$GNRMC,040620.400,A,2500.7993323,N,12132.4326547,E,0.00,85.07,270623,,,D,V*34
$GPHDT,182.945,T*36
$GNGGA,040620.600,2500.7993323,N,12132.4326367,E,2,56,0.47,14.350,M,15.25,M,0,3335*42
$GNRMC,040620.600,A,2500.7993323,N,12132.4326367,E,0.00,85.07,270623,,,D,V*32
$GPHDT,183.267,T*3C
$GNGGA,040620.800,2500.7993323,N,12132.4326307,E,2,56,0.47,14.336,M,15.25,M,0,3335*4A
$GNRMC,040620.800,A,2500.7993323,N,12132.4326307,E,0.00,85.07,270623,,,D,V*3A
$GPHDT,183.330,T*3F
$GNGSA,A,3,19,195,196,17,199,06,194,09,11,04,12,14,0.87,0.47,0.74,1*03
$GNGSA,A,3,68,67,83,82,73,69,80,,,,,,0.87,0.47,0.74,2*00
$GNGSA,A,3,10,24,12,11,04,19,25,33,,,,,0.87,0.47,0.74,3*03
$GNGSA,A,3,40,07,10,33,14,43,28,42,11,,,,0.87,0.47,0.74,4*07
$GPGSV,4,1,16,19,71,045,41,195,68,046,41,196,67,123,40,17,61,097,41,1*69
$GPGSV,4,2,16,199,60,167,35,35,54,132,42,06,50,354,42,194,37,173,44,1*6F
$GPGSV,4,3,16,09,36,094,44,20,36,238,,11,31,295,24,04,20,063,27,1*67
$GPGSV,4,4,16,12,19,311,32,14,17,174,28,05,10,226,,03,01,040,,1*65
$GPGSV,3,1,09,195,68,046,44,196,67,123,45,199,60,167,46,06,50,354,46,8*5F
$GPGSV,3,2,09,194,37,173,43,09,36,094,42,11,31,295,27,04,20,063,31,8*50
$GPGSV,3,3,09,14,17,174,26,8*51
$GLGSV,2,1,07,68,60,137,43,67,41,048,44,83,37,353,32,82,36,051,40,1*7A
$GLGSV,2,2,07,73,21,278,19,69,20,184,30,80,17,222,16,1*45
$GAGSV,3,1,09,10,49,345,42,24,46,233,13,12,46,025,37,11,37,309,31,7*7A
$GAGSV,3,2,09,04,34,149,41,19,32,077,31,25,28,300,17,33,12,071,14,7*72
$GAGSV,3,3,09,09,04,191,,7*4E
$GAGSV,2,1,06,10,49,345,43,12,46,025,39,11,37,309,22,04,34,149,40,1*70
$GAGSV,2,2,06,19,32,077,36,25,28,300,28,1*7B
$GBGSV,4,1,14,40,80,162,41,07,77,232,43,10,71,277,23,33,71,133,43,1*7D
$GBGSV,4,2,14,14,58,065,44,08,57,279,,43,52,069,47,28,43,332,47,1*78
$GBGSV,4,3,14,42,34,046,40,41,30,198,,11,29,090,34,37,14,265,,1*70
$GBGSV,4,4,14,23,13,215,,34,13,105,,1*77
$GBGSV,2,1,05,40,80,162,44,33,71,133,46,43,52,069,45,28,43,332,44,4*78
$GBGSV,2,2,05,42,34,046,43,4*42
$GNGGA,040621.000,2500.7993323,N,12132.4326187,E,2,56,0.47,14.322,M,15.25,M,1,3335*4D
$GNRMC,040621.000,A,2500.7993323,N,12132.4326187,E,0.00,85.07,270623,,,D,V*39
$GPHDT,183.478,T*34
$GNGGA,040621.200,2500.7993323,N,12132.4326007,E,2,56,0.47,14.309,M,15.25,M,1,3335*4F
$GNRMC,040621.200,A,2500.7993323,N,12132.4326007,E,0.00,85.07,270623,,,D,V*32
$GPHDT,183.295,T*31
$GNGGA,040621.400,2500.7993263,N,12132.4325887,E,2,56,0.47,14.298,M,15.25,M,1,3335*46
$GNRMC,040621.400,A,2500.7993263,N,12132.4325887,E,0.00,85.07,270623,,,D,V*32
$GPHDT,183.231,T*3F
$GNGGA,040621.600,2500.7993263,N,12132.4325767,E,2,56,0.47,14.283,M,15.25,M,1,3335*4F
$GNRMC,040621.600,A,2500.7993263,N,12132.4325767,E,0.00,85.07,270623,,,D,V*31
$GPHDT,183.261,T*3A
$GNGGA,040621.800,2500.7993263,N,12132.4325587,E,2,56,0.47,14.268,M,15.25,M,1,3335*48
$GNRMC,040621.800,A,2500.7993263,N,12132.4325587,E,0.00,85.07,270623,,,D,V*33
$GPHDT,183.185,T*33
$GNGSA,A,3,19,195,196,17,199,06,194,09,11,04,12,14,0.87,0.47,0.74,1*03
$GNGSA,A,3,68,67,83,82,73,69,80,,,,,,0.87,0.47,0.74,2*00
$GNGSA,A,3,10,12,24,11,04,19,25,33,,,,,0.87,0.47,0.74,3*03
$GNGSA,A,3,40,07,33,10,14,43,28,42,11,,,,0.87,0.47,0.74,4*07
$GPGSV,4,1,16,19,71,045,42,195,68,046,42,196,67,123,40,17,61,097,41,1*69
$GPGSV,4,2,16,199,60,167,35,35,54,132,42,06,50,354,42,194,37,173,44,1*6F
$GPGSV,4,3,16,09,36,094,44,20,36,238,,11,31,295,23,04,20,063,25,1*62
$GPGSV,4,4,16,12,19,311,32,14,17,174,29,05,10,226,,03,01,040,,1*64
$GPGSV,3,1,09,195,68,046,44,196,67,123,45,199,60,167,46,06,50,354,46,8*5F
$GPGSV,3,2,09,194,37,173,43,09,36,094,42,11,31,295,27,04,20,063,32,8*53
$GPGSV,3,3,09,14,17,174,26,8*51
$GLGSV,2,1,08,68,60,137,42,67,41,048,44,83,37,353,32,82,36,051,40,1*74
$GLGSV,2,2,08,73,21,278,19,69,20,184,30,80,17,222,16,84,01,302,,1*76
$GAGSV,3,1,09,10,49,345,41,12,46,025,37,24,46,233,12,11,37,309,31,7*78
$GAGSV,3,2,09,04,34,149,41,19,32,077,32,25,28,300,17,33,12,071,16,7*73
$GAGSV,3,3,09,36,01,276,,7*4D
$GAGSV,2,1,06,10,49,345,43,12,46,025,39,11,37,309,22,04,34,149,40,1*70
$GAGSV,2,2,06,19,32,077,36,25,28,300,29,1*7A
$GBGSV,4,1,14,40,80,162,41,07,77,232,43,33,71,133,43,10,71,277,22,1*7C
$GBGSV,4,2,14,14,58,065,44,08,57,279,,43,52,069,47,28,43,332,47,1*78
$GBGSV,4,3,14,42,34,046,41,41,30,198,,11,29,090,34,37,14,265,,1*71
$GBGSV,4,4,14,34,13,105,,23,13,215,,1*77
$GBGSV,2,1,05,40,80,162,44,33,71,133,46,43,52,069,45,28,43,332,44,4*78
$GBGSV,2,2,05,42,34,046,43,4*42
$GNGGA,040622.000,2500.7993203,N,12132.4325467,E,2,56,0.47,14.260,M,15.25,M,2,3335*41
$GNRMC,040622.000,A,2500.7993203,N,12132.4325467,E,0.00,85.07,270623,,,D,V*31
$GPHDT,183.203,T*3E
$GNGGA,040622.200,2500.7993203,N,12132.4325287,E,2,56,0.47,14.237,M,15.25,M,2,3335*49
$GNRMC,040622.200,A,2500.7993203,N,12132.4325287,E,0.00,85.07,270623,,,D,V*3B
$GPHDT,183.303,T*3F
$GNGGA,040622.400,2500.7993203,N,12132.4325167,E,2,56,0.47,14.219,M,15.25,M,2,3335*4E
$GNRMC,040622.400,A,2500.7993203,N,12132.4325167,E,0.00,85.07,270623,,,D,V*30
$GPHDT,183.235,T*3B
$GNGGA,040622.600,2500.7993143,N,12132.4325047,E,2,56,0.47,14.207,M,15.25,M,2,3335*47
$GNRMC,040622.600,A,2500.7993143,N,12132.4325047,E,0.00,85.07,270623,,,D,V*36
$GPHDT,183.082,T*35
$GNGGA,040622.800,2500.7993143,N,12132.4324927,E,2,56,0.47,14.194,M,15.25,M,2,3335*4E
$GNRMC,040622.800,A,2500.7993143,N,12132.4324927,E,0.00,85.07,270623,,,D,V*36
$GPHDT,183.423,T*3A
$GNGSA,A,3,19,195,196,17,199,06,194,09,20,11,04,12,0.88,0.47,0.75,1*0A
$GNGSA,A,3,14,,,,,,,,,,,,0.88,0.47,0.75,1*05
$GNGSA,A,3,68,67,83,82,73,69,80,,,,,,0.88,0.47,0.75,2*0E
$GNGSA,A,3,10,12,11,04,19,25,33,,,,,,0.88,0.47,0.75,3*0B
$GNGSA,A,3,40,07,33,10,14,43,28,42,11,,,,0.88,0.47,0.75,4*09
$GPGSV,4,1,15,19,71,045,42,195,68,046,42,196,67,123,40,17,61,097,40,1*6B
$GPGSV,4,2,15,199,60,167,35,06,50,354,42,194,37,173,44,09,36,094,44,1*6C
$GPGSV,4,3,15,20,36,238,16,11,31,295,22,04,20,063,27,12,19,311,32,1*6D
$GPGSV,4,4,15,14,17,174,28,05,10,226,,03,01,040,,1*5F
$GPGSV,3,1,09,195,68,046,44,196,67,123,45,199,60,167,46,06,50,354,46,8*5F
$GPGSV,3,2,09,194,37,173,43,09,36,094,42,11,31,295,27,04,20,063,32,8*53
$GPGSV,3,3,09,14,17,174,26,8*51
$GLGSV,2,1,08,68,60,137,42,67,41,048,44,83,37,353,32,82,36,051,40,1*74
$GLGSV,2,2,08,73,21,278,18,69,20,184,29,80,17,222,15,74,06,320,,1*74
$GAGSV,3,1,09,10,49,345,41,24,46,233,,12,46,025,37,11,37,309,31,7*7B
$GAGSV,3,2,09,04,34,149,41,19,32,077,32,25,28,300,17,33,12,071,17,7*72
$GAGSV,3,3,09,36,01,276,,7*4D
$GAGSV,2,1,06,10,49,345,43,12,46,025,39,11,37,309,21,04,34,149,40,1*73
$GAGSV,2,2,06,19,32,077,36,25,28,300,29,1*7A
$GBGSV,4,1,13,40,80,162,41,07,77,232,43,33,71,133,41,10,71,277,22,1*79
$GBGSV,4,2,13,14,58,065,44,08,57,279,,43,52,069,47,28,43,332,47,1*7F
$GBGSV,4,3,13,42,34,046,41,11,29,090,34,37,14,265,,23,13,215,,1*75
$GBGSV,4,4,13,34,13,105,,1*45
$GBGSV,2,1,05,40,80,162,44,33,71,133,46,43,52,069,45,28,43,332,44,4*78
$GBGSV,2,2,05,42,34,046,43,4*42
$GNGGA,040623.000,2500.7993083,N,12132.4324807,E,2,56,0.47,14.185,M,15.25,M,3,3335*48
$GNRMC,040623.000,A,2500.7993083,N,12132.4324807,E,0.00,85.07,270623,,,D,V*31
$GPHDT,183.137,T*3A
$GNGGA,040623.200,2500.7993083,N,12132.4324747,E,2,56,0.47,14.170,M,15.25,M,3,3335*4B
$GNRMC,040623.200,A,2500.7993083,N,12132.4324747,E,0.00,85.07,270623,,,D,V*38
$GPHDT,183.405,T*3E
$GNGGA,040623.400,2500.7993023,N,12132.4324627,E,2,56,0.47,14.159,M,15.25,M,3,3335*4B
$GNRMC,040623.400,A,2500.7993023,N,12132.4324627,E,0.00,85.07,270623,,,D,V*33
$GPHDT,183.368,T*32
$GNGGA,040623.600,2500.7993023,N,12132.4324567,E,2,56,0.47,14.148,M,15.25,M,3,3335*4E
$GNRMC,040623.600,A,2500.7993023,N,12132.4324567,E,0.00,85.07,270623,,,D,V*36
$GPHDT,183.393,T*36
$GNGGA,040623.800,2500.7992963,N,12132.4324507,E,2,55,0.49,14.142,M,15.25,M,3,3335*4D
$GNRMC,040623.800,A,2500.7992963,N,12132.4324507,E,0.00,85.07,270623,,,D,V*32
$GPHDT,183.254,T*3C
$GNGSA,A,3,19,195,196,17,199,06,194,09,20,11,04,12,0.91,0.49,0.77,1*0E
$GNGSA,A,3,14,,,,,,,,,,,,0.91,0.49,0.77,1*01
$GNGSA,A,3,68,67,83,82,73,69,,,,,,,0.91,0.49,0.77,2*02
$GNGSA,A,3,10,12,11,04,19,25,33,,,,,,0.91,0.49,0.77,3*0F
$GNGSA,A,3,40,07,33,10,14,43,28,42,11,,,,0.91,0.49,0.77,4*0D
$GPGSV,4,1,15,19,71,045,42,195,68,046,42,196,67,123,40,17,61,097,40,1*6B
$GPGSV,4,2,15,199,60,167,35,06,50,354,42,194,37,173,44,09,36,094,44,1*6C
$GPGSV,4,3,15,20,36,238,14,11,31,295,22,04,20,063,27,12,19,311,32,1*6F
$GPGSV,4,4,15,14,17,174,29,05,10,226,,03,01,040,,1*5E
$GPGSV,3,1,09,195,68,046,44,196,67,123,45,199,60,167,46,06,50,354,46,8*5F
$GPGSV,3,2,09,194,37,173,43,09,36,094,42,11,31,295,28,04,20,063,32,8*5C
$GPGSV,3,3,09,14,17,174,26,8*51
$GLGSV,3,1,09,68,60,137,42,67,41,048,44,83,37,353,32,82,36,051,40,1*74
$GLGSV,3,2,09,73,21,278,19,69,20,184,30,80,17,222,13,74,06,320,,1*7B
$GLGSV,3,3,09,84,01,302,,1*4D
$GAGSV,3,1,10,10,49,345,41,12,46,025,37,24,46,233,,11,37,309,30,7*72
$GAGSV,3,2,10,04,34,149,41,19,32,077,32,25,28,300,17,33,12,071,16,7*7B
$GAGSV,3,3,10,09,04,191,,36,01,276,,7*71
$GAGSV,2,1,06,10,49,345,43,12,46,025,39,11,37,309,21,04,34,149,40,1*73
$GAGSV,2,2,06,19,32,077,36,25,28,300,28,1*7B
$GBGSV,4,1,14,40,80,162,41,07,77,232,43,33,71,133,41,10,71,277,21,1*7D
$GBGSV,4,2,14,14,58,065,44,08,57,279,,43,52,069,47,13,48,266,,1*78
$GBGSV,4,3,14,28,43,332,47,42,34,046,41,41,30,198,,11,29,090,34,1*7D
$GBGSV,4,4,14,37,14,265,,34,13,105,,1*72
$GBGSV,2,1,05,40,80,162,44,33,71,133,46,43,52,069,45,28,43,332,44,4*78
$GBGSV,2,2,05,42,34,046,43,4*42
$GNGGA,040624.000,2500.7992963,N,12132.4324387,E,2,55,0.49,14.127,M,15.25,M,4,3335*48
$GNRMC,040624.000,A,2500.7992963,N,12132.4324387,E,0.00,85.07,270623,,,D,V*33
$GPHDT,183.522,T*3A
$GNGGA,040624.200,2500.7992903,N,12132.4324327,E,2,55,0.49,14.108,M,15.25,M,4,3335*4B
$GNRMC,040624.200,A,2500.7992903,N,12132.4324327,E,0.00,85.07,270623,,,D,V*3D
$GPHDT,183.247,T*3E
$GNGGA,040624.400,2500.7992843,N,12132.4324207,E,2,55,0.49,14.095,M,15.25,M,4,3335*4E
$GNRMC,040624.400,A,2500.7992843,N,12132.4324207,E,0.00,85.07,270623,,,D,V*3D
$GPHDT,183.663,T*3C
$GNGGA,040624.600,2500.7992843,N,12132.4324207,E,2,55,0.49,14.090,M,15.25,M,1,3335*4C
$GNRMC,040624.600,A,2500.7992843,N,12132.4324207,E,0.00,85.07,270623,,,D,V*3F
$GPHDT,183.128,T*34
$GNGGA,040624.800,2500.7992783,N,12132.4324207,E,2,55,0.49,14.081,M,15.25,M,1,3335*41
$GNRMC,040624.800,A,2500.7992783,N,12132.4324207,E,0.00,85.07,270623,,,D,V*32
$GPHDT,183.121,T*3D
$GNGSA,A,3,19,195,196,17,199,06,194,09,20,11,04,12,0.90,0.47,0.77,1*01
$GNGSA,A,3,14,,,,,,,,,,,,0.90,0.47,0.77,1*0E
$GNGSA,A,3,68,67,83,82,73,69,,,,,,,0.90,0.47,0.77,2*0D
$GNGSA,A,3,10,12,11,04,19,25,33,24,,,,,0.90,0.47,0.77,3*06
$GNGSA,A,3,40,07,10,33,14,43,28,42,11,,,,0.90,0.47,0.77,4*02
$GPGSV,4,1,15,19,71,045,42,195,68,046,42,196,67,123,40,17,61,097,40,1*6B
$GPGSV,4,2,15,199,60,167,35,06,50,354,42,194,37,173,44,09,36,094,44,1*6C
$GPGSV,4,3,15,20,36,238,15,11,31,295,21,04,20,063,27,12,19,311,32,1*6D
$GPGSV,4,4,15,14,17,174,29,05,10,226,,03,01,040,,1*5E
$GPGSV,3,1,09,195,68,046,44,196,67,123,45,199,60,167,46,06,50,354,46,8*5F
$GPGSV,3,2,09,194,37,173,43,09,36,094,42,11,31,295,28,04,20,063,33,8*5D
$GPGSV,3,3,09,14,17,174,26,8*51
$GLGSV,2,1,07,68,60,137,42,67,41,048,44,83,37,353,32,82,36,051,40,1*7B
$GLGSV,2,2,07,73,21,278,18,69,20,184,30,80,17,222,12,1*40
$GAGSV,3,1,10,10,49,345,41,12,46,025,37,24,46,233,18,11,37,309,31,7*7A
$GAGSV,3,2,10,04,34,149,41,19,32,077,32,25,28,300,16,33,12,071,17,7*7B
$GAGSV,3,3,10,09,04,191,,36,01,276,,7*71
$GAGSV,2,1,07,10,49,345,43,24,46,233,19,12,46,025,39,11,37,309,19,1*7C
$GAGSV,2,2,07,04,34,149,40,19,32,077,36,25,28,300,29,1*40
$GBGSV,4,1,13,40,80,162,41,07,77,232,43,10,71,277,23,33,71,133,41,1*78
$GBGSV,4,2,13,14,58,065,44,43,52,069,47,28,43,332,47,42,34,046,41,1*7F
$GBGSV,4,3,13,41,30,198,,11,29,090,34,37,14,265,,23,13,215,,1*75
$GBGSV,4,4,13,34,13,105,,1*45
$GBGSV,2,1,05,40,80,162,44,33,71,133,46,43,52,069,45,28,43,332,44,4*78
$GBGSV,2,2,05,42,34,046,43,4*42
$GNGGA,040625.000,2500.7992723,N,12132.4324147,E,2,56,0.47,14.071,M,15.25,M,2,3335*44
$GNRMC,040625.000,A,2500.7992723,N,12132.4324147,E,0.00,85.07,270623,,,D,V*36
$GPHDT,183.127,T*3B
$GNGGA,040625.200,2500.7992663,N,12132.4324087,E,2,56,0.47,14.063,M,15.25,M,2,3335*4D
$GNRMC,040625.200,A,2500.7992663,N,12132.4324087,E,0.00,85.07,270623,,,D,V*3C
$GPHDT,183.072,T*3A
$GNGGA,040625.400,2500.7992603,N,12132.4324027,E,2,56,0.47,14.056,M,15.25,M,1,3335*42
$GNRMC,040625.400,A,2500.7992603,N,12132.4324027,E,0.00,85.07,270623,,,D,V*36
$GPHDT,183.124,T*38
$GNGGA,040625.600,2500.7992603,N,12132.4324027,E,2,55,0.49,14.048,M,15.25,M,0,3335*43
$GNRMC,040625.600,A,2500.7992603,N,12132.4324027,E,0.00,85.07,270623,,,D,V*34
$GPHDT,183.260,T*3B
$GNGGA,040625.800,2500.7992543,N,12132.4324027,E,2,55,0.49,14.047,M,15.25,M,0,3335*45
$GNRMC,040625.800,A,2500.7992543,N,12132.4324027,E,0.00,85.07,270623,,,D,V*3D
$GPHDT,183.243,T*3A
$GNGSA,A,3,19,195,196,17,199,06,194,09,20,11,04,12,0.91,0.49,0.77,1*0E
$GNGSA,A,3,14,,,,,,,,,,,,0.91,0.49,0.77,1*01
$GNGSA,A,3,68,67,83,82,73,69,,,,,,,0.91,0.49,0.77,2*02
$GNGSA,A,3,10,12,11,04,19,25,33,,,,,,0.91,0.49,0.77,3*0F
$GNGSA,A,3,40,07,10,33,14,43,28,42,11,,,,0.91,0.49,0.77,4*0D
$GPGSV,4,1,15,19,71,045,42,195,68,046,42,196,67,123,40,17,61,097,40,1*6B
$GPGSV,4,2,15,199,60,167,35,06,50,354,42,194,37,173,44,09,36,094,44,1*6C
$GPGSV,4,3,15,20,36,238,15,11,31,295,21,04,20,063,24,12,19,311,32,1*6E
$GPGSV,4,4,15,14,17,174,28,05,10,226,,03,01,040,,1*5F
$GPGSV,3,1,09,195,68,046,44,196,67,123,45,199,60,167,46,06,50,354,46,8*5F
$GPGSV,3,2,09,194,37,173,43,09,36,094,42,11,31,295,28,04,20,063,33,8*5D
$GPGSV,3,3,09,14,17,174,26,8*51
$GLGSV,2,1,07,68,60,137,42,67,41,048,44,83,37,353,32,82,36,051,40,1*7B
$GLGSV,2,2,07,73,21,278,18,69,20,184,31,80,17,222,15,1*46
$GAGSV,3,1,10,10,49,345,41,12,46,025,37,24,46,233,15,11,37,309,32,7*74
$GAGSV,3,2,10,04,34,149,41,19,32,077,32,25,28,300,13,33,12,071,15,7*7C
$GAGSV,3,3,10,09,04,191,,36,01,276,,7*71
$GAGSV,2,1,06,10,49,345,43,12,46,025,39,11,37,309,19,04,34,149,40,1*78
$GAGSV,2,2,06,19,32,077,36,25,28,300,29,1*7A
$GBGSV,4,1,13,40,80,162,41,07,77,232,43,10,71,277,24,33,71,133,41,1*7F
$GBGSV,4,2,13,14,58,065,44,43,52,069,47,28,43,332,47,42,34,046,42,1*7C
$GBGSV,4,3,13,41,30,198,,11,29,090,35,37,14,265,,23,13,215,,1*74
$GBGSV,4,4,13,34,13,105,,1*45
$GBGSV,2,1,05,40,80,162,44,33,71,133,46,43,52,069,45,28,43,332,44,4*78
$GBGSV,2,2,05,42,34,046,43,4*42
$GNGGA,040626.000,2500.7992483,N,12132.4324027,E,2,55,0.49,14.041,M,15.25,M,1,3335*44
$GNRMC,040626.000,A,2500.7992483,N,12132.4324027,E,0.00,85.07,270623,,,D,V*3B
$GPHDT,183.187,T*31
$GNGGA,040626.200,2500.7992423,N,12132.4323967,E,2,56,0.47,14.035,M,15.25,M,1,3335*48
$GNRMC,040626.200,A,2500.7992423,N,12132.4323967,E,0.00,85.07,270623,,,D,V*39
$GPHDT,183.136,T*3B
$GNGGA,040626.400,2500.7992363,N,12132.4323967,E,2,56,0.47,14.032,M,15.25,M,1,3335*4A
$GNRMC,040626.400,A,2500.7992363,N,12132.4323967,E,0.00,85.07,270623,,,D,V*3C
$GPHDT,182.828,T*3C
$GNGGA,040626.600,2500.7992363,N,12132.4323907,E,2,56,0.47,14.026,M,15.25,M,1,3335*4B
$GNRMC,040626.600,A,2500.7992363,N,12132.4323907,E,0.00,85.07,270623,,,D,V*38
$GPHDT,183.057,T*3D
$GNGGA,040626.800,2500.7992303,N,12132.4323907,E,2,57,0.47,14.020,M,15.25,M,1,3335*44
$GNRMC,040626.800,A,2500.7992303,N,12132.4323907,E,0.00,85.07,270623,,,D,V*30
$GPHDT,183.141,T*3B
$GNGSA,A,3,19,195,196,17,199,06,194,09,20,11,04,12,0.87,0.47,0.73,1*03
$GNGSA,A,3,14,,,,,,,,,,,,0.87,0.47,0.73,1*0C
$GNGSA,A,3,68,67,83,82,73,69,,,,,,,0.87,0.47,0.73,2*0F
$GNGSA,A,3,10,12,11,04,19,25,33,24,,,,,0.87,0.47,0.73,3*04
$GNGSA,A,3,40,07,10,33,14,43,28,42,11,34,,,0.87,0.47,0.73,4*07
$GPGSV,4,1,15,19,71,045,42,195,68,046,42,196,67,123,40,17,61,097,40,1*6B
$GPGSV,4,2,15,199,60,167,35,06,50,354,42,194,37,173,44,09,36,094,44,1*6C
$GPGSV,4,3,15,20,36,238,18,11,31,295,24,04,20,063,23,12,19,311,32,1*61
$GPGSV,4,4,15,14,17,174,28,05,10,226,,03,01,040,,1*5F
$GPGSV,3,1,09,195,68,046,44,196,67,123,45,199,60,167,46,06,50,354,46,8*5F
$GPGSV,3,2,09,194,37,173,43,09,36,094,42,11,31,295,28,04,20,063,33,8*5D
$GPGSV,3,3,09,14,17,174,26,8*51
$GLGSV,2,1,07,68,60,137,42,67,41,048,44,83,37,353,32,82,36,051,40,1*7B
$GLGSV,2,2,07,73,21,278,15,69,20,184,30,80,17,222,10,1*4F
$GAGSV,3,1,10,10,49,345,41,12,46,025,37,24,46,233,15,11,37,309,32,7*74
$GAGSV,3,2,10,04,34,149,41,19,32,077,31,25,28,300,13,33,12,071,16,7*7C
$GAGSV,3,3,10,09,04,191,,36,01,276,,7*71
$GAGSV,2,1,07,10,49,345,43,24,46,233,21,12,46,025,39,11,37,309,22,1*7F
$GAGSV,2,2,07,04,34,149,40,19,32,077,36,25,28,300,29,1*40
$GBGSV,4,1,13,40,80,162,41,07,77,232,43,10,71,277,24,33,71,133,41,1*7F
$GBGSV,4,2,13,14,58,065,44,43,52,069,47,28,43,332,47,42,34,046,42,1*7C
$GBGSV,4,3,13,41,30,198,,11,29,090,35,37,14,265,,34,13,105,27,1*75
$GBGSV,4,4,13,27,04,303,,1*45
$GBGSV,2,1,05,40,80,162,44,33,71,133,46,43,52,069,45,28,43,332,44,4*78
$GBGSV,2,2,05,42,34,046,43,4*42
$GNGGA,040627.000,2500.7992243,N,12132.4323847,E,2,57,0.47,14.011,M,15.25,M,2,3335*4C
$GNRMC,040627.000,A,2500.7992243,N,12132.4323847,E,0.00,85.07,270623,,,D,V*39
$GPHDT,183.088,T*3F
$GNGGA,040627.200,2500.7992183,N,12132.4323847,E,2,56,0.47,14.007,M,15.25,M,2,3335*47
$GNRMC,040627.200,A,2500.7992183,N,12132.4323847,E,0.00,85.07,270623,,,D,V*34
$GPHDT,183.263,T*38
$GNGGA,040627.400,2500.7992183,N,12132.4323847,E,2,56,0.47,14.007,M,15.25,M,2,3335*41
$GNRMC,040627.400,A,2500.7992183,N,12132.4323847,E,0.00,85.07,270623,,,D,V*32
$GPHDT,183.112,T*3D
$GNGGA,040627.600,2500.7992123,N,12132.4323847,E,2,56,0.47,14.012,M,15.25,M,2,3335*4D
$GNRMC,040627.600,A,2500.7992123,N,12132.4323847,E,0.00,85.07,270623,,,D,V*3A
$GPHDT,183.050,T*3A
$GNGGA,040627.800,2500.7992063,N,12132.4323847,E,2,56,0.47,14.015,M,15.25,M,2,3335*41
$GNRMC,040627.800,A,2500.7992063,N,12132.4323847,E,0.00,85.07,270623,,,D,V*31
$GPHDT,183.217,T*3B
$GNGSA,A,3,19,195,196,17,199,06,194,09,20,11,04,12,0.87,0.47,0.73,1*03
$GNGSA,A,3,14,,,,,,,,,,,,0.87,0.47,0.73,1*0C
$GNGSA,A,3,68,67,83,82,73,69,,,,,,,0.87,0.47,0.73,2*0F
$GNGSA,A,3,10,12,11,04,19,33,24,25,,,,,0.87,0.47,0.73,3*04
$GNGSA,A,3,40,07,33,10,14,43,28,42,11,34,,,0.87,0.47,0.73,4*07
$GPGSV,4,1,14,19,71,045,42,195,68,046,42,196,67,123,40,17,61,097,40,1*6A
$GPGSV,4,2,14,199,60,167,35,06,50,354,42,194,37,173,44,09,36,094,44,1*6D
$GPGSV,4,3,14,20,36,238,17,11,31,295,24,04,20,063,21,12,19,311,32,1*6D
$GPGSV,4,4,14,14,17,174,28,05,10,226,,1*68
$GPGSV,3,1,09,195,68,046,44,196,67,123,45,199,60,167,46,06,50,354,46,8*5F
$GPGSV,3,2,09,194,37,173,43,09,36,094,42,11,31,295,28,04,20,063,33,8*5D
$GPGSV,3,3,09,14,17,174,25,8*52
$GLGSV,2,1,07,68,60,137,42,67,41,048,44,83,37,353,33,82,36,051,40,1*7A
$GLGSV,2,2,07,73,21,278,14,69,20,184,30,80,17,222,13,1*4D
$GAGSV,3,1,10,10,49,345,41,12,46,025,36,24,46,233,13,11,37,309,32,7*73
$GAGSV,3,2,10,04,34,149,41,19,32,077,32,25,28,300,,33,12,071,17,7*7C
$GAGSV,3,3,10,09,04,191,,36,01,276,,7*71
$GAGSV,2,1,07,10,49,345,43,24,46,233,20,12,46,025,39,11,37,309,20,1*7C
$GAGSV,2,2,07,04,34,149,40,19,32,077,36,25,28,300,29,1*40
$GBGSV,4,1,14,40,80,162,41,07,77,232,43,33,71,133,41,10,71,277,24,1*78
$GBGSV,4,2,14,14,58,065,44,43,52,069,47,28,43,332,47,42,34,046,42,1*7B
$GBGSV,4,3,14,41,30,198,,11,29,090,34,37,14,265,,23,13,215,,1*72
$GBGSV,4,4,14,34,13,105,28,27,04,303,,1*79
$GBGSV,2,1,05,40,80,162,44,33,71,133,46,43,52,069,45,28,43,332,44,4*78
$GBGSV,2,2,05,42,34,046,43,4*42
$GNGGA,040628.000,2500.7992063,N,12132.4323907,E,2,56,0.47,14.014,M,15.25,M,3,3335*43
$GNRMC,040628.000,A,2500.7992063,N,12132.4323907,E,0.00,85.07,270623,,,D,V*33
$GPHDT,183.471,T*3D
$GNGGA,040628.200,2500.7992003,N,12132.4323847,E,2,56,0.47,14.022,M,15.25,M,3,3335*47
$GNRMC,040628.200,A,2500.7992003,N,12132.4323847,E,0.00,85.07,270623,,,D,V*32
$GPHDT,183.245,T*3C
$GNGGA,040628.400,2500.7991943,N,12132.4323847,E,2,55,0.47,14.021,M,15.25,M,3,3335*4F
$GNRMC,040628.400,A,2500.7991943,N,12132.4323847,E,0.00,85.07,270623,,,D,V*3A
$GPHDT,183.285,T*30
$GNGGA,040628.600,2500.7991883,N,12132.4323787,E,2,56,0.47,14.026,M,15.25,M,3,3335*47
$GNRMC,040628.600,A,2500.7991883,N,12132.4323787,E,0.00,85.07,270623,,,D,V*36
$GPHDT,183.433,T*3B
$GNGGA,040628.800,2500.7991883,N,12132.4323787,E,2,54,0.47,14.025,M,15.25,M,3,3335*48
$GNRMC,040628.800,A,2500.7991883,N,12132.4323787,E,0.00,85.07,270623,,,D,V*38
$GPHDT,183.327,T*39
$GNGSA,A,3,19,195,196,17,199,06,194,20,09,04,12,14,0.90,0.47,0.77,1*04
$GNGSA,A,3,11,,,,,,,,,,,,0.90,0.47,0.77,1*0B
$GNGSA,A,3,68,67,83,82,73,69,,,,,,,0.90,0.47,0.77,2*0D
$GNGSA,A,3,10,12,11,04,19,33,24,25,,,,,0.90,0.47,0.77,3*06
$GNGSA,A,3,40,07,10,33,14,43,28,42,11,,,,0.90,0.47,0.77,4*02
$GPGSV,4,1,14,19,71,045,42,195,68,046,41,196,67,123,40,17,61,097,41,1*68
$GPGSV,4,2,14,199,60,167,35,06,50,354,43,194,37,173,44,20,36,238,15,1*67
$GPGSV,4,3,14,09,36,094,44,11,31,295,19,04,20,063,21,12,19,311,32,1*6A
$GPGSV,4,4,14,14,17,174,28,05,10,226,,1*68
$GPGSV,3,1,09,195,68,046,44,196,67,123,45,199,60,167,46,06,50,354,45,8*5C
$GPGSV,3,2,09,194,37,173,43,09,36,094,42,11,31,295,26,04,20,063,31,8*51
$GPGSV,3,3,09,14,17,174,25,8*52
$GLGSV,2,1,08,68,60,137,42,67,41,048,44,83,37,353,32,82,36,051,40,1*74
$GLGSV,2,2,08,73,21,278,16,69,20,184,29,80,17,222,14,84,01,302,,1*73
$GAGSV,3,1,09,10,49,345,41,12,46,025,36,24,46,233,11,11,37,309,31,7*7A
$GAGSV,3,2,09,04,34,149,41,19,32,077,33,25,28,300,,33,12,071,17,7*75
$GAGSV,3,3,09,36,01,276,,7*4D
$GAGSV,2,1,07,10,49,345,43,24,46,233,20,12,46,025,38,11,37,309,24,1*79
$GAGSV,2,2,07,04,34,149,40,19,32,077,36,25,28,300,24,1*4D
$GBGSV,4,1,15,40,80,162,41,07,77,232,43,10,71,277,24,33,71,133,42,1*7A
$GBGSV,4,2,15,14,58,065,44,08,57,279,,43,52,069,47,13,48,266,,1*79
$GBGSV,4,3,15,28,43,332,47,42,34,046,42,41,30,198,,11,29,090,33,1*78
$GBGSV,4,4,15,37,14,265,,34,13,105,24,23,13,215,,1*40
$GBGSV,2,1,05,40,80,162,44,33,71,133,46,43,52,069,45,28,43,332,43,4*7F
$GBGSV,2,2,05,42,34,046,43,4*42
$GNGGA,040629.000,2500.7991823,N,12132.4323787,E,2,54,0.47,14.024,M,15.25,M,4,3335*4D
$GNRMC,040629.000,A,2500.7991823,N,12132.4323787,E,0.00,85.07,270623,,,D,V*3B
$GPHDT,183.656,T*3A
$GNGGA,040629.200,2500.7991763,N,12132.4323787,E,2,55,0.47,14.015,M,15.25,M,1,3335*42
$GNRMC,040629.200,A,2500.7991763,N,12132.4323787,E,0.00