$FW : RTK35X,V1.1X0314AS,Lib20210517,1*54
$Tool : LOCOSYS , GNSS Firebird , v1.0.0.19*39
$---------------------------------------------------*2D
$GPHDT,,T*1B
$GNGGA,040401.600,2500.7993931,N,12132.4338159,E,2,55,0.47,15.725,M,15.25,M,0,3335*4E
$GNRMC,040401.600,A,2500.7993931,N,12132.4338159,E,0.06,85.07,270623,,,D,V*3C
$GPHDT,,T*1B
$GNGGA,040401.800,2500.7993931,N,12132.4338159,E,2,55,0.47,15.726,M,15.25,M,0,3335*43
$GNRMC,040401.800,A,2500.7993931,N,12132.4338159,E,0.03,85.07,270623,,,D,V*37
$GPHDT,,T*1B
$GNGSA,A,3,19,195,196,17,199,06,194,09,04,12,14,11,0.75,0.47,0.58,1*00
$GNGSA,A,3,68,67,82,83,73,69,80,,,,,,0.75,0.47,0.58,2*03
$GNGSA,A,3,10,12,11,04,19,25,33,,,,,,0.75,0.47,0.58,3*06
$GNGSA,A,3,40,07,10,33,14,43,28,42,11,34,,,0.75,0.47,0.58,4*03
$GPGSV,4,1,15,19,70,041,40,195,68,046,43,196,66,124,40,17,61,094,41,1*69
$GPGSV,4,2,15,199,60,167,35,06,50,352,37,194,38,172,44,09,36,096,39,1*6E
$GPGSV,4,3,15,20,35,237,18,11,31,294,15,04,20,064,32,12,18,312,36,1*6F
$GPGSV,4,4,15,14,18,174,25,05,09,225,,49,01,265,,1*5D
$GPGSV,3,1,09,195,68,046,44,196,66,124,46,199,60,167,45,06,50,352,39,8*57
$GPGSV,3,2,09,194,38,172,45,09,36,096,44,11,31,294,23,04,20,064,25,8*5B
$GPGSV,3,3,09,14,18,174,24,8*5C
$GLGSV,2,1,07,68,59,138,41,67,42,049,46,82,36,049,40,83,36,351,29,1*7D
$GLGSV,2,2,07,73,21,279,18,69,19,184,29,80,17,223,15,1*45
$GAGSV,3,1,09,10,49,344,35,24,47,234,,12,46,024,39,11,37,308,29,7*78
$GAGSV,3,2,09,04,34,150,40,19,32,078,31,25,28,301,23,33,12,070,18,7*7F
$GAGSV,3,3,09,09,04,191,,7*4E
$GAGSV,2,1,06,10,49,344,37,12,46,024,42,11,37,308,25,04,34,150,42,1*73
$GAGSV,2,2,06,19,32,078,31,25,28,301,25,1*7F
$GBGSV,4,1,14,40,81,159,41,07,78,233,41,10,72,278,26,33,70,135,42,1*77
$GBGSV,4,2,14,14,59,067,44,08,57,278,,43,52,068,46,28,42,331,41,1*7E
$GBGSV,4,3,14,42,35,047,43,11,30,089,36,41,29,198,,37,14,266,,1*7A
$GBGSV,4,4,14,34,14,104,20,23,14,215,,1*74
$GBGSV,2,1,06,40,81,159,44,33,70,135,45,43,52,068,44,28,42,331,39,4*7E
$GBGSV,2,2,06,42,35,047,42,34,14,104,15,4*73
$GNGGA,040402.000,2500.7993931,N,12132.4338159,E,2,56,0.47,15.728,M,15.25,M,1,3335*44
$GNRMC,040402.000,A,2500.7993931,N,12132.4338159,E,0.01,85.07,270623,,,D,V*3E
$GPHDT,,T*1B
$GNGGA,040402.200,2500.7992436,N,12132.4336461,E,4,56,0.47,15.661,M,15.25,M,1,3335*47
$GNRMC,040402.200,A,2500.7992436,N,12132.4336461,E,0.05,85.07,270623,,,R,V*25
$GPHDT,,T*1B
$GNGGA,040402.400,2500.7992457,N,12132.4336465,E,4,56,0.47,15.650,M,15.25,M,1,3335*40
$GNRMC,040402.400,A,2500.7992457,N,12132.4336465,E,0.09,85.07,270623,,,R,V*2C
$GPHDT,,T*1B
$GNGGA,040402.600,2500.7992437,N,12132.4336460,E,4,54,0.47,15.658,M,15.25,M,1,3335*4B
$GNRMC,040402.600,A,2500.7992437,N,12132.4336460,E,0.06,85.07,270623,,,R,V*22
$GPHDT,,T*1B
$GNGGA,040402.800,2500.7992425,N,12132.4336455,E,4,55,0.47,15.667,M,15.25,M,0,3335*4C
$GNRMC,040402.800,A,2500.7992425,N,12132.4336455,E,0.07,85.07,270623,,,R,V*28
$GPHDT,,T*1B
$GNGSA,A,3,19,195,196,17,199,06,194,09,04,14,12,11,0.75,0.47,0.58,1*00
$GNGSA,A,3,68,67,83,82,73,69,80,,,,,,0.75,0.47,0.58,2*03
$GNGSA,A,3,10,12,11,04,19,25,33,,,,,,0.75,0.47,0.58,3*06
$GNGSA,A,3,40,07,10,33,14,43,28,42,11,34,,,0.75,0.47,0.58,4*03
$GPGSV,4,1,15,19,70,041,41,195,68,046,44,196,66,124,40,17,61,094,41,1*6F
$GPGSV,4,2,15,199,60,167,35,06,50,352,37,194,38,172,44,09,36,096,39,1*6E
$GPGSV,4,3,15,20,35,237,16,11,31,294,13,04,20,064,33,14,18,174,26,1*63
$GPGSV,4,4,15,12,18,312,36,05,09,225,,49,01,265,,1*5B
$GPGSV,2,1,08,195,68,046,44,196,66,124,46,199,60,167,45,06,50,352,39,8*57
$GPGSV,2,2,08,194,38,172,45,09,36,096,44,11,31,294,23,04,20,064,25,8*5B
$GLGSV,2,1,07,68,59,138,42,67,42,049,46,83,36,351,29,82,36,049,40,1*7E
$GLGSV,2,2,07,73,21,279,20,69,19,184,29,80,17,223,15,1*4E
$GAGSV,3,1,09,10,49,344,35,24,47,234,,12,46,024,39,11,37,308,30,7*70
$GAGSV,3,2,09,04,34,150,40,19,32,078,31,25,28,301,21,33,12,070,18,7*7D
$GAGSV,3,3,09,09,04,191,,7*4E
$GAGSV,2,1,06,10,49,344,37,12,46,024,42,11,37,308,25,04,34,150,42,1*73
$GAGSV,2,2,06,19,32,078,31,25,28,301,27,1*7D
$GBGSV,4,1,13,40,81,159,41,07,78,233,41,10,72,278,26,33,70,135,42,1*70
$GBGSV,4,2,13,14,59,067,44,43,52,068,46,28,42,331,41,42,35,047,43,1*7A
$GBGSV,4,3,13,11,30,089,35,41,29,198,,23,14,215,,34,14,104,20,1*7E
$GBGSV,4,4,13,37,14,266,,1*47
$GBGSV,2,1,06,40,81,159,44,33,70,135,45,43,52,068,44,28,42,331,39,4*7E
$GBGSV,2,2,06,42,35,047,42,34,14,104,17,4*71
$GNGGA,040403.000,2500.7992460,N,12132.4336464,E,4,55,0.47,15.670,M,15.25,M,1,3335*41
$GNRMC,040403.000,A,2500.7992460,N,12132.4336464,E,0.01,85.07,270623,,,R,V*24
$GPHDT,,T*1B
$GNGGA,040403.200,2500.7992470,N,12132.4336457,E,4,54,0.49,15.668,M,15.25,M,1,3335*44
$GNRMC,040403.200,A,2500.7992470,N,12132.4336457,E,0.04,85.07,270623,,,R,V*22
$GPHDT,,T*1B
$GNGGA,040403.400,2500.7992425,N,12132.4336422,E,4,55,0.49,15.672,M,15.25,M,0,3335*4B
$GNRMC,040403.400,A,2500.7992425,N,12132.4336422,E,0.03,85.07,270623,,,R,V*21
$GPHDT,,T*1B
$GNGGA,040403.600,2500.7992438,N,12132.4336439,E,4,54,0.49,15.672,M,15.25,M,0,3335*4E
$GNRMC,040403.600,A,2500.7992438,N,12132.4336439,E,0.11,85.07,270623,,,R,V*26
$GPHDT,,T*1B
$GNGGA,040403.800,2500.7992456,N,12132.4336464,E,4,55,0.49,15.675,M,15.25,M,0,3335*46
$GNRMC,040403.800,A,2500.7992456,N,12132.4336464,E,0.08,85.07,270623,,,R,V*20
$GPHDT,,T*1B
$GNGSA,A,3,19,195,196,17,199,06,194,09,04,14,12,11,0.77,0.49,0.59,1*0D
$GNGSA,A,3,68,67,83,82,73,69,,,,,,,0.77,0.49,0.59,2*06
$GNGSA,A,3,10,12,11,04,19,25,33,,,,,,0.77,0.49,0.59,3*0B
$GNGSA,A,3,40,07,10,33,14,43,28,42,11,34,,,0.77,0.49,0.59,4*0E
$GPGSV,4,1,15,19,70,041,41,195,68,046,44,196,66,124,39,17,61,094,42,1*62
$GPGSV,4,2,15,199,60,167,35,06,50,352,37,194,38,172,44,09,36,096,39,1*6E
$GPGSV,4,3,15,20,35,237,16,11,31,294,15,04,20,064,32,14,18,174,25,1*67
$GPGSV,4,4,15,12,18,312,36,05,09,225,,49,01,265,,1*5B
$GPGSV,3,1,09,195,68,046,45,196,66,124,46,199,60,167,45,06,50,352,39,8*56
$GPGSV,3,2,09,194,38,172,45,09,36,096,44,11,31,294,23,04,20,064,26,8*58
$GPGSV,3,3,09,14,18,174,24,8*5C
$GLGSV,2,1,07,68,59,138,42,67,42,049,46,83,36,351,29,82,36,049,42,1*7C
$GLGSV,2,2,07,73,21,279,21,69,19,184,29,80,17,223,17,1*4D
$GAGSV,3,1,09,10,49,344,35,24,47,234,,12,46,024,39,11,37,308,30,7*70
$GAGSV,3,2,09,04,34,150,39,19,32,078,32,25,28,301,21,33,12,070,18,7*70
$GAGSV,3,3,09,09,04,191,,7*4E
$GAGSV,2,1,06,10,49,344,37,12,46,024,42,11,37,308,25,04,34,150,42,1*73
$GAGSV,2,2,06,19,32,078,31,25,28,301,27,1*7D
$GBGSV,4,1,13,40,81,159,41,07,78,233,41,10,72,278,26,33,70,135,41,1*73
$GBGSV,4,2,13,14,59,067,44,43,52,068,46,28,42,331,41,42,35,047,43,1*7A
$GBGSV,4,3,13,11,30,089,35,41,29,198,,23,14,215,,34,14,104,21,1*7F
$GBGSV,4,4,13,37,14,266,,1*47
$GBGSV,2,1,06,40,81,159,44,33,70,135,45,43,52,068,44,28,42,331,40,4*70
$GBGSV,2,2,06,42,35,047,42,34,14,104,15,4*73
$GNGGA,040404.000,2500.7992438,N,12132.4336466,E,4,55,0.49,15.671,M,15.25,M,1,3335*46
$GNRMC,040404.000,A,2500.7992438,N,12132.4336466,E,0.11,85.07,270623,,,R,V*2D
$GPHDT,,T*1B
$GNGGA,040404.200,2500.7992456,N,12132.4336469,E,4,55,0.49,15.678,M,15.25,M,1,3335*4A
$GNRMC,040404.200,A,2500.7992456,N,12132.4336469,E,0.07,85.07,270623,,,R,V*2F
$GPHDT,,T*1B
$GNGGA,040404.400,2500.7992456,N,12132.4336452,E,4,54,0.49,15.679,M,15.25,M,1,3335*44
$GNRMC,040404.400,A,2500.7992456,N,12132.4336452,E,0.07,85.07,270623,,,R,V*21
$GPHDT,,T*1B
$GNGGA,040404.600,2500.7992456,N,12132.4336455,E,4,55,0.47,15.678,M,15.25,M,0,3335*4E
$GNRMC,040404.600,A,2500.7992456,N,12132.4336455,E,0.08,85.07,270623,,,R,V*2B
$GPHDT,,T*1B
$GNGGA,040404.800,2500.7992472,N,12132.4336457,E,4,55,0.47,15.679,M,15.25,M,0,3335*45
$GNRMC,040404.800,A,2500.7992472,N,12132.4336457,E,0.04,85.07,270623,,,R,V*2D
$GPHDT,,T*1B
$GNGSA,A,3,19,195,196,17,199,06,194,09,04,12,14,11,0.75,0.47,0.58,1*00
$GNGSA,A,3,68,67,82,83,73,69,80,,,,,,0.75,0.47,0.58,2*03
$GNGSA,A,3,10,12,11,04,19,25,33,,,,,,0.75,0.47,0.58,3*06
$GNGSA,A,3,40,07,10,33,14,43,28,42,11,34,,,0.75,0.47,0.58,4*03
$GPGSV,4,1,15,19,70,041,41,195,68,046,44,196,66,124,38,17,61,094,42,1*63
$GPGSV,4,2,15,199,60,167,35,06,50,352,37,194,38,172,44,09,36,096,39,1*6E
$GPGSV,4,3,15,20,35,237,16,11,31,294,13,04,20,064,32,12,18,312,36,1*67
$GPGSV,4,4,15,14,18,174,28,05,09,225,,49,01,265,,1*50
$GPGSV,3,1,09,195,68,046,45,196,66,124,46,199,60,167,43,06,50,352,37,8*5E
$GPGSV,3,2,09,194,38,172,45,09,36,096,43,11,31,294,23,04,20,064,28,8*51
$GPGSV,3,3,09,14,18,174,23,8*5B
$GLGSV,2,1,07,68,59,138,42,67,42,049,45,82,36,049,42,83,36,351,31,1*76
$GLGSV,2,2,07,73,21,279,20,69,19,184,30,80,17,223,16,1*45
$GAGSV,3,1,09,10,49,344,35,24,47,234,,12,46,024,39,11,37,308,30,7*70
$GAGSV,3,2,09,04,34,150,39,19,32,078,33,25,28,301,21,33,12,070,18,7*71
$GAGSV,3,3,09,09,04,191,,7*4E
$GAGSV,2,1,06,10,49,344,36,12,46,024,42,11,37,308,25,04,34,150,42,1*72
$GAGSV,2,2,06,19,32,078,31,25,28,301,27,1*7D
$GBGSV,4,1,14,40,81,159,41,07,78,233,41,10,72,278,26,33,70,135,41,1*74
$GBGSV,4,2,14,14,59,067,44,08,57,278,,43,52,068,46,28,42,331,41,1*7E
$GBGSV,4,3,14,42,35,047,43,11,30,089,35,41,29,198,,37,14,266,,1*79
$GBGSV,4,4,14,34,14,104,21,23,14,215,,1*75
$GBGSV,2,1,05,40,81,159,44,33,70,135,44,43,52,068,44,28,42,331,40,4*72
$GBGSV,2,2,05,42,35,047,42,4*43
$GNGGA,040405.000,2500.7992459,N,12132.4336463,E,4,55,0.47,15.684,M,15.25,M,1,3335*41
$GNRMC,040405.000,A,2500.7992459,N,12132.4336463,E,0.03,85.07,270623,,,R,V*2D
$GPHDT,,T*1B
$GNGGA,040405.200,2500.7992482,N,12132.4336582,E,4,55,0.48,15.701,M,15.25,M,1,3335*48
$GNRMC,040405.200,A,2500.7992482,N,12132.4336582,E,0.00,85.07,270623,,,R,V*24
$GPHDT,,T*1B
$GNGGA,040405.400,2500.7992480,N,12132.4336520,E,4,55,0.48,15.704,M,15.25,M,1,3335*41
$GNRMC,040405.400,A,2500.7992480,N,12132.4336520,E,0.01,85.07,270623,,,R,V*29
$GPHDT,,T*1B
$GNGGA,040405.600,2500.7992483,N,12132.4336462,E,4,55,0.48,15.689,M,15.25,M,1,3335*43
$GNRMC,040405.600,A,2500.7992483,N,12132.4336462,E,0.03,85.07,270623,,,R,V*2D
$GPHDT,,T*1B
$GNGGA,040405.800,2500.7992475,N,12132.4336469,E,4,56,0.47,15.680,M,15.25,M,1,3335*4A
$GNRMC,040405.800,A,2500.7992475,N,12132.4336469,E,0.10,85.07,270623,,,R,V*23
$GPHDT,,T*1B
$GNGSA,A,3,19,195,196,17,199,06,194,09,04,14,12,11,0.75,0.47,0.58,1*00
$GNGSA,A,3,68,67,82,83,73,69,80,,,,,,0.75,0.47,0.58,2*03
$GNGSA,A,3,10,12,11,04,19,25,33,,,,,,0.75,0.47,0.58,3*06
$GNGSA,A,3,40,07,10,33,14,43,28,42,11,34,,,0.75,0.47,0.58,4*03
$GPGSV,4,1,15,19,70,041,41,195,68,046,44,196,66,124,38,17,61,094,42,1*63
$GPGSV,4,2,15,199,60,167,35,06,50,352,37,194,38,172,44,09,36,096,39,1*6E
$GPGSV,4,3,15,20,35,237,15,11,31,294,13,04,20,064,32,14,18,174,28,1*6F
$GPGSV,4,4,15,12,18,312,35,05,09,225,,49,01,265,,1*58
$GPGSV,3,1,09,195,68,046,45,196,66,124,46,199,60,167,43,06,50,352,37,8*5E
$GPGSV,3,2,09,194,38,172,45,09,36,096,43,11,31,294,23,04,20,064,28,8*51
$GPGSV,3,3,09,14,18,174,24,8*5C
$GLGSV,2,1,08,68,59,138,42,67,42,049,45,82,36,049,42,83,36,351,31,1*79
$GLGSV,2,2,08,73,21,279,20,69,19,184,30,80,17,223,17,84,01,301,,1*74
$GAGSV,3,1,09,10,49,344,35,24,47,234,,12,46,024,39,11,37,308,30,7*70
$GAGSV,3,2,09,04,34,150,39,19,32,078,33,25,28,301,19,33,12,070,18,7*7A
$GAGSV,3,3,09,36,01,275,,7*4E
$GAGSV,2,1,07,10,49,344,36,12,46,024,42,11,37,308,25,04,34,150,42,1*73
$GAGSV,2,2,07,19,32,078,31,25,28,301,26,33,12,070,18,1*40
$GBGSV,4,1,14,40,81,159,41,07,78,233,41,10,72,278,27,33,70,135,41,1*75
$GBGSV,4,2,14,14,59,067,44,08,57,278,,43,52,068,46,28,42,331,41,1*7E
$GBGSV,4,3,14,42,35,047,43,11,30,089,35,41,29,198,,23,14,215,,1*78
$GBGSV,4,4,14,34,14,104,22,37,14,266,,1*77
$GBGSV,2,1,05,40,81,159,44,33,70,135,44,43,52,068,44,28,42,331,40,4*72
$GBGSV,2,2,05,42,35,047,42,4*43
$GNGGA,040406.000,2500.7992493,N,12132.4336482,E,4,56,0.47,15.684,M,15.25,M,2,3335*4B
$GNRMC,040406.000,A,2500.7992493,N,12132.4336482,E,0.04,85.07,270623,,,R,V*20
$GPHDT,,T*1B
$GNGGA,040406.200,2500.7992443,N,12132.4336436,E,4,56,0.47,15.683,M,15.25,M,1,3335*4F
$GNRMC,040406.200,A,2500.7992443,N,12132.4336436,E,0.05,85.07,270623,,,R,V*21
$GPHDT,,T*1B
$GNGGA,040406.400,2500.7992472,N,12132.4336445,E,4,55,0.47,15.669,M,15.25,M,0,3335*49
$GNRMC,040406.400,A,2500.7992472,N,12132.4336445,E,0.04,85.07,270623,,,R,V*20
$GPHDT,,T*1B
$GNGGA,040406.600,2500.7992478,N,12132.4336458,E,4,55,0.47,15.669,M,15.25,M,0,3335*4D
$GNRMC,040406.600,A,2500.7992478,N,12132.4336458,E,0.08,85.07,270623,,,R,V*28
$GPHDT,,T*1B
$GNGGA,040406.800,2500.7992466,N,12132.4336452,E,4,56,0.46,15.679,M,15.25,M,0,3335*45
$GNRMC,040406.800,A,2500.7992466,N,12132.4336452,E,0.08,85.07,270623,,,R,V*23
$GPHDT,,T*1B
$GNGSA,A,3,19,195,196,17,199,06,194,09,20,04,14,12,0.74,0.46,0.58,1*02
$GNGSA,A,3,11,,,,,,,,,,,,0.74,0.46,0.58,1*0D
$GNGSA,A,3,68,67,82,83,73,69,80,,,,,,0.74,0.46,0.58,2*03
$GNGSA,A,3,10,12,11,04,19,25,33,,,,,,0.74,0.46,0.58,3*06
$GNGSA,A,3,40,07,10,33,14,43,28,42,11,34,,,0.74,0.46,0.58,4*03
$GPGSV,4,1,15,19,70,041,41,195,68,046,44,196,66,124,38,17,61,094,43,1*62
$GPGSV,4,2,15,199,60,167,35,06,50,352,37,194,38,172,44,09,36,096,39,1*6E
$GPGSV,4,3,15,20,35,237,16,11,31,294,15,04,20,064,32,14,18,174,29,1*6B
$GPGSV,4,4,15,12,18,312,35,05,09,225,,49,01,265,,1*58
$GPGSV,2,1,08,195,68,046,45,196,66,124,46,199,60,167,43,06,50,352,37,8*5E
$GPGSV,2,2,08,194,38,172,45,09,36,096,43,11,31,294,22,04,20,064,28,8*50
$GLGSV,2,1,08,68,59,138,42,67,42,049,45,82,36,049,42,83,36,351,31,1*79
$GLGSV,2,2,08,73,21,279,20,69,19,184,30,80,17,223,17,84,01,301,,1*74
$GAGSV,3,1,09,10,49,344,35,24,47,234,,12,46,024,39,11,37,308,30,7*70
$GAGSV,3,2,09,04,34,150,39,19,32,078,33,25,28,301,19,33,12,070,18,7*7A
$GAGSV,3,3,09,36,01,275,,7*4E
$GAGSV,2,1,07,10,49,344,36,12,46,024,42,11,37,308,26,04,34,150,42,1*70
$GAGSV,2,2,07,19,32,078,31,25,28,301,26,33,12,070,18,1*40
$GBGSV,4,1,14,40,81,159,41,07,78,233,40,10,72,278,27,33,70,135,41,1*74
$GBGSV,4,2,14,14,59,067,44,08,57,278,,43,52,068,46,28,42,331,41,1*7E
$GBGSV,4,3,14,42,35,047,43,11,30,089,35,41,29,198,,23,14,215,,1*78
$GBGSV,4,4,14,34,14,104,22,37,14,266,,1*77
$GBGSV,2,1,05,40,81,159,44,33,70,135,44,43,52,068,44,28,42,331,40,4*72
$GBGSV,2,2,05,42,35,047,42,4*43
$GNGGA,040407.000,2500.7992491,N,12132.4336461,E,4,56,0.46,15.674,M,15.25,M,1,3335*48
$GNRMC,040407.000,A,2500.7992491,N,12132.4336461,E,0.05,85.07,270623,,,R,V*2F
$GPHDT,,T*1B
$GNGGA,040407.200,2500.7992471,N,12132.4336489,E,4,55,0.47,15.684,M,15.25,M,1,3335*4F
$GNRMC,040407.200,A,2500.7992471,N,12132.4336489,E,0.01,85.07,270623,,,R,V*21
$GPHDT,,T*1B
$GNGGA,040407.400,2500.7992460,N,12132.4336437,E,4,55,0.47,15.678,M,15.25,M,0,3335*4E
$GNRMC,040407.400,A,2500.7992460,N,12132.4336437,E,0.01,85.07,270623,,,R,V*22
$GPHDT,,T*1B
$GNGGA,040407.600,2500.7992456,N,12132.4336451,E,4,56,0.46,15.684,M,15.25,M,0,3335*48
$GNRMC,040407.600,A,2500.7992456,N,12132.4336451,E,0.05,85.07,270623,,,R,V*21
$GPHDT,,T*1B
$GNGGA,040407.800,2500.7992465,N,12132.4336570,E,4,57,0.46,15.696,M,15.25,M,0,3335*46
$GNRMC,040407.800,A,2500.7992465,N,12132.4336570,E,0.07,85.07,270623,,,R,V*2F
$GPHDT,,T*1B
$GNGSA,A,3,19,195,196,17,199,06,194,09,20,04,14,12,0.74,0.46,0.58,1*02
$GNGSA,A,3,11,,,,,,,,,,,,0.74,0.46,0.58,1*0D
$GNGSA,A,3,68,67,83,82,73,69,80,,,,,,0.74,0.46,0.58,2*03
$GNGSA,A,3,10,12,11,04,19,25,33,,,,,,0.74,0.46,0.58,3*06
$GNGSA,A,3,40,07,10,33,14,43,28,42,11,34,,,0.74,0.46,0.58,4*03
$GPGSV,4,1,14,19,70,041,41,195,68,046,44,196,66,124,38,17,61,094,43,1*63
$GPGSV,4,2,14,199,60,167,36,06,50,352,37,194,38,172,44,09,36,096,40,1*62
$GPGSV,4,3,14,20,35,237,16,11,31,294,13,04,20,064,32,14,18,174,27,1*62
$GPGSV,4,4,14,12,18,312,35,05,09,225,,1*64
$GPGSV,3,1,09,195,68,046,45,196,66,124,46,199,60,167,43,06,50,352,37,8*5E
$GPGSV,3,2,09,194,38,172,45,09,36,096,43,11,31,294,23,04,20,064,28,8*51
$GPGSV,3,3,09,14,18,174,24,8*5C
$GLGSV,2,1,07,68,59,138,42,67,42,049,45,83,36,351,31,82,36,049,42,1*76
$GLGSV,2,2,07,73,21,279,19,69,19,184,30,80,17,223,17,1*4E
$GAGSV,3,1,09,10,49,344,35,24,47,234,,12,46,024,39,11,37,308,30,7*70
$GAGSV,3,2,09,04,34,150,39,19,32,078,33,25,28,301,18,33,12,070,17,7*74
$GAGSV,3,3,09,36,01,275,,7*4E
$GAGSV,2,1,07,10,49,344,36,12,46,024,42,11,37,308,26,04,34,150,42,1*70
$GAGSV,2,2,07,19,32,078,31,25,28,301,26,33,12,070,17,1*4F
$GBGSV,4,1,14,40,81,159,41,07,78,233,40,10,72,278,28,33,70,135,41,1*7B
$GBGSV,4,2,14,14,59,067,44,08,57,278,,43,52,068,46,28,42,331,41,1*7E
$GBGSV,4,3,14,42,35,047,43,11,30,089,36,41,29,198,,37,14,266,,1*7A
$GBGSV,4,4,14,23,14,215,,34,14,104,22,1*76
$GBGSV,2,1,05,40,81,159,44,33,70,135,44,43,52,068,44,28,42,331,40,4*72
$GBGSV,2,2,05,42,35,047,42,4*43
$GNGGA,040408.000,2500.7992458,N,12132.4336532,E,4,57,0.46,15.690,M,15.25,M,1,3335*4E
$GNRMC,040408.000,A,2500.7992458,N,12132.4336532,E,0.01,85.07,270623,,,R,V*26
$GPHDT,,T*1B
$GNGGA,040408.200,2500.7992472,N,12132.4336474,E,4,57,0.46,15.682,M,15.25,M,1,3335*44
$GNRMC,040408.200,A,2500.7992472,N,12132.4336474,E,0.07,85.07,270623,,,R,V*29
$GPHDT,,T*1B
$GNGGA,040408.400,2500.7992482,N,12132.4336467,E,4,55,0.47,15.688,M,15.25,M,1,3335*46
$GNRMC,040408.400,A,2500.7992482,N,12132.4336467,E,0.09,85.07,270623,,,R,V*2C
$GPHDT,,T*1B
$GNGGA,040408.600,2500.7992487,N,12132.4336470,E,4,56,0.47,15.684,M,15.25,M,1,3335*48
$GNRMC,040408.600,A,2500.7992487,N,12132.4336470,E,0.13,85.07,270623,,,R,V*26
$GPHDT,,T*1B
$GNGGA,040408.800,2500.7992488,N,12132.4336472,E,4,56,0.47,15.680,M,15.25,M,0,3335*4E
$GNRMC,040408.800,A,2500.7992488,N,12132.4336472,E,0.12,85.07,270623,,,R,V*24
$GPHDT,,T*1B
$GNGSA,A,3,19,195,196,17,199,06,194,09,04,12,14,11,0.75,0.47,0.58,1*00
$GNGSA,A,3,68,67,82,83,73,69,80,,,,,,0.75,0.47,0.58,2*03
$GNGSA,A,3,10,12,11,04,19,25,33,,,,,,0.75,0.47,0.58,3*06
$GNGSA,A,3,40,07,10,33,14,43,28,42,11,34,,,0.75,0.47,0.58,4*03
$GPGSV,4,1,15,19,70,041,41,195,68,046,44,196,66,124,38,17,61,094,43,1*62
$GPGSV,4,2,15,199,60,167,36,06,50,352,37,41,38,242,,194,38,172,44,1*6E
$GPGSV,4,3,15,09,36,096,40,20,35,237,16,11,31,294,13,04,20,064,32,1*6F
$GPGSV,4,4,15,12,18,312,35,14,18,174,28,05,09,225,,1*51
$GPGSV,3,1,09,195,68,046,45,196,66,124,46,199,60,167,43,06,50,352,36,8*5F
$GPGSV,3,2,09,194,38,172,45,09,36,096,43,11,31,294,23,04,20,064,28,8*51
$GPGSV,3,3,09,14,18,174,24,8*5C
$GLGSV,2,1,07,68,59,138,42,67,42,049,45,82,36,049,42,83,36,351,31,1*76
$GLGSV,2,2,07,73,21,279,19,69,19,184,30,80,17,223,17,1*4E
$GAGSV,3,1,09,10,49,344,35,24,47,234,,12,46,024,40,11,37,308,30,7*7E
$GAGSV,3,2,09,04,34,150,39,19,32,078,33,25,28,301,18,33,12,070,16,7*75
$GAGSV,3,3,09,36,01,275,,7*4E
$GAGSV,2,1,07,10,49,344,36,12,46,024,42,11,37,308,26,04,34,150,42,1*70
$GAGSV,2,2,07,19,32,078,31,25,28,301,27,33,12,070,17,1*4E
$GBGSV,4,1,13,40,81,159,41,07,78,233,40,10,72,278,27,33,70,135,41,1*73
$GBGSV,4,2,13,14,59,067,44,08,57,278,,43,52,068,46,28,42,331,41,1*79
$GBGSV,4,3,13,42,35,047,43,11,30,089,36,41,29,198,,37,14,266,,1*7D
$GBGSV,4,4,13,34,14,104,23,1*42
$GBGSV,2,1,05,40,81,159,44,33,70,135,44,43,52,068,44,28,42,331,40,4*72
$GBGSV,2,2,05,42,35,047,42,4*43
$GNGGA,040409.000,2500.7992506,N,12132.4336503,E,4,56,0.47,15.678,M,15.25,M,1,3335*41
$GNRMC,040409.000,A,2500.7992506,N,12132.4336503,E,0.10,85.07,270623,,,R,V*2F
$GPHDT,,T*1B
$GNGGA,040409.200,2500.7992494,N,12132.4336575,E,4,55,0.47,15.708,M,15.25,M,1,3335*4D
$GNRMC,040409.200,A,2500.7992494,N,12132.4336575,E,0.09,85.07,270623,,,R,V*2E
$GPHDT,,T*1B
$GNGGA,040409.400,2500.7992468,N,12132.4336543,E,4,55,0.47,15.697,M,15.25,M,0,3335*4B
$GNRMC,040409.400,A,2500.7992468,N,12132.4336543,E,0.07,85.07,270623,,,R,V*20
$GPHDT,,T*1B
$GNGGA,040409.600,2500.7992452,N,12132.4336531,E,4,55,0.47,15.705,M,15.25,M,0,3335*4F
$GNRMC,040409.600,A,2500.7992452,N,12132.4336531,E,0.01,85.07,270623,,,R,V*28
$GPHDT,,T*1B
$GNGGA,040409.800,2500.7992462,N,12132.4336563,E,4,55,0.47,15.721,M,15.25,M,0,3335*43
$GNRMC,040409.800,A,2500.7992462,N,12132.4336563,E,0.09,85.07,270623,,,R,V*2A
$GPHDT,,T*1B
$GNGSA,A,3,19,195,196,17,199,06,194,09,04,14,12,11,0.77,0.48,0.60,1*06
$GNGSA,A,3,68,67,83,82,73,69,80,,,,,,0.77,0.48,0.60,2*05
$GNGSA,A,3,10,12,11,04,19,25,33,,,,,,0.77,0.48,0.60,3*00
$GNGSA,A,3,40,07,10,33,14,43,28,42,11,,,,0.77,0.48,0.60,4*02
$GPGSV,4,1,14,19,70,042,41,195,68,046,44,196,66,124,38,17,61,095,43,1*61
$GPGSV,4,2,14,199,60,167,36,06,50,352,37,194,38,172,44,09,36,096,40,1*62
$GPGSV,4,3,14,20,35,237,17,11,31,294,15,04,20,064,32,14,18,174,28,1*6A
$GPGSV,4,4,14,12,18,312,34,05,09,225,,1*65
$GPGSV,2,1,08,195,68,046,46,196,66,124,46,199,60,167,43,06,50,352,36,8*5C
$GPGSV,2,2,08,194,38,172,45,09,36,096,43,11,31,294,23,04,20,064,28,8*51
$GLGSV,2,1,07,68,59,138,42,67,42,049,45,83,36,351,31,82,36,049,42,1*76
$GLGSV,2,2,07,73,21,279,20,69,19,184,30,80,17,223,17,1*44
$GAGSV,3,1,09,10,49,344,34,24,47,234,,12,46,024,40,11,37,308,30,7*7F
$GAGSV,3,2,09,04,34,150,39,19,32,078,33,25,28,301,19,33,12,070,14,7*76
$GAGSV,3,3,09,36,01,275,,7*4E
$GAGSV,2,1,07,10,49,344,36,12,46,024,42,11,37,308,26,04,34,150,42,1*70
$GAGSV,2,2,07,19,32,078,31,25,28,301,27,33,12,070,17,1*4E
$GBGSV,4,1,14,40,81,159,41,07,78,233,40,10,72,278,27,33,70,135,41,1*74
$GBGSV,4,2,14,14,59,067,44,08,57,278,,43,52,068,46,28,42,331,41,1*7E
$GBGSV,4,3,14,42,35,047,43,11,30,089,37,41,29,198,,37,14,266,,1*7B
$GBGSV,4,4,14,23,14,215,,34,14,104,25,1*71
$GBGSV,2,1,05,40,81,159,44,33,70,135,44,43,52,068,44,28,42,331,40,4*72
$GBGSV,2,2,05,42,35,047,42,4*43
$GNGGA,040410.000,2500.7992455,N,12132.4336556,E,4,54,0.48,15.718,M,15.25,M,1,3335*44
$GNRMC,040410.000,A,2500.7992455,N,12132.4336556,E,0.05,85.07,270623,,,R,V*24
$GPHDT,,T*1B
$GNGGA,040410.200,2500.7992468,N,12132.4336559,E,4,54,0.48,15.716,M,15.25,M,1,3335*49
$GNRMC,040410.200,A,2500.7992468,N,12132.4336559,E,0.05,85.07,270623,,,R,V*27
$GPHDT,,T*1B
$GNGGA,040410.400,2500.7992464,N,12132.4336563,E,4,56,0.46,15.726,M,15.25,M,1,3335*45
$GNRMC,040410.400,A,2500.7992464,N,12132.4336563,E,0.04,85.07,270623,,,R,V*25
$GPHDT,,T*1B
$GNGGA,040410.600,2500.7992469,N,12132.4336583,E,4,55,0.47,15.729,M,15.25,M,1,3335*49
$GNRMC,040410.600,A,2500.7992469,N,12132.4336583,E,0.01,85.07,270623,,,R,V*21
$GPHDT,,T*1B
$GNGGA,040410.800,2500.7992460,N,12132.4336540,E,4,55,0.47,15.718,M,15.25,M,0,3335*42
$GNRMC,040410.800,A,2500.7992460,N,12132.4336540,E,0.05,85.07,270623,,,R,V*2D
$GPHDT,,T*1B
$GNGSA,A,3,19,195,196,17,199,06,194,09,04,14,12,11,0.75,0.47,0.58,1*00
$GNGSA,A,3,68,67,83,82,73,69,80,,,,,,0.75,0.47,0.58,2*03
$GNGSA,A,3,10,12,11,04,19,25,33,,,,,,0.75,0.47,0.58,3*06
$GNGSA,A,3,40,07,10,33,14,43,28,42,11,34,,,0.75,0.47,0.58,4*03
$GPGSV,4,1,14,19,70,042,41,195,68,046,44,196,66,124,38,17,61,095,43,1*61
$GPGSV,4,2,14,199,60,167,36,06,50,352,38,194,38,172,44,09,36,096,40,1*6D
$GPGSV,4,3,14,20,35,237,17,11,31,294,16,04,20,064,32,14,18,174,27,1*66
$GPGSV,4,4,14,12,18,312,34,05,09,225,,1*65
$GPGSV,2,1,08,195,68,046,46,196,66,124,46,199,60,167,43,06,50,352,36,8*5C
$GPGSV,2,2,08,194,38,172,45,09,36,096,43,11,31,294,23,04,20,064,27,8*5E
$GLGSV,2,1,07,68,59,138,42,67,42,049,45,83,36,351,31,82,36,049,42,1*76
$GLGSV,2,2,07,73,21,279,20,69,19,184,30,80,17,223,17,1*44
$GAGSV,3,1,09,10,49,344,33,24,47,234,,12,46,024,40,11,37,308,30,7*78
$GAGSV,3,2,09,04,34,150,39,19,32,078,33,25,28,301,20,33,12,070,13,7*7B
$GAGSV,3,3,09,36,01,275,,7*4E
$GAGSV,2,1,07,10,49,344,35,12,46,024,41,11,37,308,26,04,34,150,42,1*70
$GAGSV,2,2,07,19,32,078,31,25,28,301,27,33,12,070,17,1*4E
$GBGSV,4,1,14,40,81,159,41,07,78,233,40,10,72,278,27,33,70,135,42,1*77
$GBGSV,4,2,14,14,59,067,44,08,57,278,,43,52,068,46,28,42,331,41,1*7E
$GBGSV,4,3,14,42,35,047,43,11,30,089,37,41,29,198,,37,14,266,,1*7B
$GBGSV,4,4,14,23,14,215,,34,14,104,26,1*72
$GBGSV,2,1,05,40,81,159,44,33,70,135,44,43,52,068,44,28,42,331,40,4*72
$GBGSV,2,2,05,42,35,047,42,4*43
$GNGGA,040411.000,2500.7992519,N,12132.4336575,E,4,55,0.47,15.693,M,15.25,M,1,3335*41
$GNRMC,040411.000,A,2500.7992519,N,12132.4336575,E,0.04,85.07,270623,,,R,V*2C
$GPHDT,,T*1B
$GNGGA,040411.200,2500.7992511,N,12132.4336607,E,4,55,0.47,15.702,M,15.25,M,1,3335*44
$GNRMC,040411.200,A,2500.7992511,N,12132.4336607,E,0.03,85.07,270623,,,R,V*27
$GPHDT,,T*1B
$GNGGA,040411.400,2500.7992505,N,12132.4336603,E,4,55,0.47,15.703,M,15.25,M,1,3335*42
$GNRMC,040411.400,A,2500.7992505,N,12132.4336603,E,0.03,85.07,270623,,,R,V*20
$GPHDT,,T*1B
$GNGGA,040411.600,2500.7992494,N,12132.4336577,E,4,55,0.47,15.710,M,15.25,M,0,3335*4A
$GNRMC,040411.600,A,2500.7992494,N,12132.4336577,E,0.12,85.07,270623,,,R,V*2B
$GPHDT,,T*1B
$GNGGA,040411.800,2500.7992500,N,12132.4336575,E,4,55,0.47,15.711,M,15.25,M,0,3335*4B
$GNRMC,040411.800,A,2500.7992500,N,12132.4336575,E,0.08,85.07,270623,,,R,V*20
$GPHDT,,T*1B
$GNGSA,A,3,19,195,196,17,199,06,194,09,04,12,14,11,0.75,0.47,0.58,1*00
$GNGSA,A,3,68,67,82,83,73,69,80,,,,,,0.75,0.47,0.58,2*03
$GNGSA,A,3,10,12,11,04,19,25,33,,,,,,0.75,0.47,0.58,3*06
$GNGSA,A,3,40,07,10,33,14,43,28,42,11,34,,,0.75,0.47,0.58,4*03
$GPGSV,4,1,14,19,70,042,41,195,68,046,44,196,66,124,38,17,61,095,43,1*61
$GPGSV,4,2,14,199,60,167,36,06,50,352,38,194,38,172,44,09,36,096,40,1*6D
$GPGSV,4,3,14,20,35,237,15,11,31,294,15,04,20,064,32,12,18,312,34,1*61
$GPGSV,4,4,14,14,18,174,28,05,09,225,,1*6C
$GPGSV,2,1,08,195,68,046,46,196,66,124,46,199,60,167,43,06,50,352,36,8*5C
$GPGSV,2,2,08,194,38,172,45,09,36,096,43,11,31,294,24,04,20,064,27,8*59
$GLGSV,2,1,08,68,59,138,42,67,42,049,45,82,36,049,42,83,36,351,31,1*79
$GLGSV,2,2,08,73,21,279,21,69,19,184,30,80,17,223,17,74,06,321,,1*7F
$GAGSV,3,1,09,10,49,344,33,24,47,234,,12,46,024,40,11,37,308,30,7*78
$GAGSV,3,2,09,04,34,150,39,19,32,078,32,25,28,301,20,33,12,070,13,7*7A
$GAGSV,3,3,09,09,04,191,,7*4E
$GAGSV,2,1,07,10,49,344,35,12,46,024,41,11,37,308,27,04,34,150,42,1*71
$GAGSV,2,2,07,19,32,078,30,25,28,301,26,33,12,070,17,1*4E
$GBGSV,4,1,14,40,81,159,41,07,78,233,40,10,72,278,27,33,70,135,42,1*77
$GBGSV,4,2,14,14,59,067,44,08,57,278,,43,52,068,46,28,42,331,41,1*7E
$GBGSV,4,3,14,42,35,047,43,11,30,089,37,41,29,198,,37,14,266,,1*7B
$GBGSV,4,4,14,34,14,104,26,23,14,215,,1*72
$GBGSV,2,1,05,40,81,159,44,33,70,135,44,43,52,068,44,28,42,331,40,4*72
$GBGSV,2,2,05,42,35,047,42,4*43
$GNGGA,040412.000,2500.7992493,N,12132.4336579,E,4,55,0.47,15.703,M,15.25,M,1,3335*45
$GNRMC,040412.000,A,2500.7992493,N,12132.4336579,E,0.06,85.07,270623,,,R,V*22
$GPHDT,,T*1B
$GNGGA,040412.200,2500.7992500,N,12132.4336565,E,4,55,0.47,15.708,M,15.25,M,1,3335*4A
$GNRMC,040412.200,A,2500.7992500,N,12132.4336565,E,0.05,85.07,270623,,,R,V*25
$GPHDT,,T*1B
$GNGGA,040412.400,2500.7992499,N,12132.4336549,E,4,55,0.47,15.703,M,15.25,M,1,3335*48
$GNRMC,040412.400,A,2500.7992499,N,12132.4336549,E,0.02,85.07,270623,,,R,V*2B
