$FW : RTK35X,V1.1X0314AS,Lib20210517,1*54
$Tool : LOCOSYS , GNSS Firebird , v1.0.0.19*39
$---------------------------------------------------*2D
SV,2,2,06,15,16,040,19,04,12,302,14,7*79
$GAGSV,1,1,04,21,54,007,45,13,54,086,30,26,40,172,35,15,16,040,29,1*75
$GBGSV,4,1,13,09,74,272,39,06,73,215,39,23,71,022,48,16,70,197,45,1*7D
$GBGSV,4,2,13,43,62,038,45,40,61,326,41,07,61,306,42,39,60,185,38,1*72
$GBGSV,4,3,13,28,53,218,43,10,51,287,29,25,39,114,40,37,27,320,40,1*79
$GBGSV,4,4,13,34,14,040,,1*42
$GBGSV,2,1,07,23,71,022,47,43,62,038,45,40,61,326,45,39,60,185,40,4*7B
$GBGSV,2,2,07,28,53,218,42,37,27,320,43,34,14,040,24,4*42
$GNACCURACY,4.6*14
$PAIRSAT,1,29,2,0,201,3,0,200,4,0,221,5,0,200,6,0,200,7,0,201,8,0,221,9,0,200,10,0,200,11,0,200,12,0,200,16,0,1,20,0,200,21,0,201,22,0,200,23,0,200,24,0,200,25,0,200,26,0,220,27,0,221,28,0,200,29,0,200,30,0,200,31,0,200,32,0,200,194,0,21,195,0,621,196,0,600,199,0,621*64
$PAIRSAT,2,23,65,0,200,66,0,200,67,0,200,68,0,200,69,0,200,70,0,200,71,0,200,72,0,200,73,0,200,74,0,200,75,0,200,76,0,200,77,0,1,78,0,201,79,0,201,80,0,200,81,0,201,83,0,200,84,0,200,85,0,200,86,0,200,87,0,201,88,0,201*5B
$PAIRSAT,3,22,2,0,1200,3,0,1200,4,0,1200,5,0,200,7,0,1200,8,0,1200,9,0,1200,10,0,200,11,0,200,12,0,200,13,0,221,15,0,220,19,0,200,21,0,221,25,0,1000,26,0,1021,27,0,1021,30,0,1000,31,0,1000,33,0,1200,34,0,1000,36,0,1200*41
$PAIRSAT,4,43,1,0,200,2,0,200,3,0,400,6,0,1,7,0,1,9,0,201,10,0,201,11,0,200,12,0,200,13,0,200,14,0,200,16,0,201,19,0,600,20,0,600,21,0,600,22,0,600,23,0,621,24,0,600,25,0,621,26,0,600,27,0,400,28,0,421,29,0,400,30,0,400,32,0,400,33,0,400,34,0,421,35,0,400,36,0,400,37,0,421,38,0,400,39,0,421,40,0,421,41,0,400,42,0,400,43,0,421,44,0,400,45,0,400,46,0,400,59,0,400,60,0,400,61,0,400,62,0,400*5A
$PAIRDGP,7,2,7,8,16,21,26,27*56
$GNGGA,040109.200,2500.7873728,N,12132.4458488,E,4,50,0.54,16.825,M,15.25,M,1,3335*4A
$GNRMC,040109.200,A,2500.7873728,N,12132.4458488,E,0.01,170.32,090324,,,R,V*16
$GPHDT,226.685,T*38
$GNACCURACY,4.6*14
$GNGGA,040109.300,2500.7873725,N,12132.4458498,E,4,50,0.54,16.828,M,15.25,M,1,3335*4A
$GNRMC,040109.300,A,2500.7873725,N,12132.4458498,E,0.01,170.32,090324,,,R,V*1B
$GPHDT,,T*1B
$GNACCURACY,4.6*14
$GNGGA,040109.400,2500.7873726,N,12132.4458522,E,4,50,0.54,16.826,M,15.25,M,1,3335*40
$GNRMC,040109.400,A,2500.7873726,N,12132.4458522,E,0.01,170.32,090324,,,R,V*1F
$GPHDT,226.675,T*37
$GNACCURACY,4.6*14
$GNGGA,040109.500,2500.7873735,N,12132.4458495,E,4,50,0.54,16.830,M,15.25,M,1,3335*49
$GNRMC,040109.500,A,2500.7873735,N,12132.4458495,E,0.01,170.32,090324,,,R,V*11
$GPHDT,,T*1B
$GNACCURACY,4.6*14
$GNGGA,040109.600,2500.7873708,N,12132.4458431,E,4,50,0.54,16.839,M,15.25,M,1,3335*43
$GNRMC,040109.600,A,2500.7873708,N,12132.4458431,E,0.04,170.32,090324,,,R,V*17
$GPHDT,225.506,T*33
$GNACCURACY,4.6*14
$GNGGA,040109.700,2500.7873777,N,12132.4458466,E,4,50,0.54,16.820,M,15.25,M,0,3335*41
$GNRMC,040109.700,A,2500.7873777,N,12132.4458466,E,0.16,170.32,090324,,,R,V*1F
$GPHDT,,T*1B
$GNACCURACY,4.6*14
$GNGGA,040109.800,2500.7873741,N,12132.4458436,E,4,50,0.54,16.844,M,15.25,M,0,3335*4C
$GNRMC,040109.800,A,2500.7873741,N,12132.4458436,E,0.02,170.32,090324,,,R,V*15
$GPHDT,226.092,T*38
$GNACCURACY,4.6*14
$GNGGA,040109.900,2500.7873744,N,12132.4458569,E,4,50,0.54,16.821,M,15.25,M,0,3335*40
$GNRMC,040109.900,A,2500.7873744,N,12132.4458569,E,0.14,170.32,090324,,,R,V*1D
$GPHDT,,T*1B
$GNACCURACY,4.6*14
$GNGGA,040110.000,2500.7873732,N,12132.4458471,E,4,49,0.55,16.833,M,15.25,M,1,3335*43
$GNRMC,040110.000,A,2500.7873732,N,12132.4458471,E,0.06,170.32,090324,,,R,V*16
$GPHDT,226.324,T*36
$GNACCURACY,4.6*14
$GNGGA,040110.100,2500.7873740,N,12132.4458476,E,4,51,0.55,16.822,M,15.25,M,1,3335*49
$GNRMC,040110.100,A,2500.7873740,N,12132.4458476,E,0.03,170.32,090324,,,R,V*10
$GPHDT,,T*1B
$GNGSA,A,3,08,194,195,199,21,02,07,27,04,26,,,0.83,0.55,0.63,1*34
$GNGSA,A,3,81,88,78,77,79,,,,,,,,0.83,0.55,0.63,2*04
$GNGSA,A,3,21,13,26,27,15,,,,,,,,0.83,0.55,0.63,3*09
$GNGSA,A,3,09,06,23,16,43,40,07,39,28,10,25,37,0.83,0.55,0.63,4*05
$GNGSA,A,3,34,,,,,,,,,,,,0.83,0.55,0.63,4*0D
$GPGSV,4,1,13,08,65,348,45,194,64,051,40,195,63,116,40,50,60,167,36,1*64
$GPGSV,4,2,13,199,60,167,34,21,56,159,41,02,44,178,36,07,38,318,47,1*54
$GPGSV,4,3,13,27,36,034,32,16,29,071,22,04,20,205,42,196,20,170,25,1*57
$GPGSV,4,4,13,26,10,096,20,1*5E
$GPGSV,2,1,08,08,65,348,48,194,64,051,36,195,63,116,41,199,60,167,46,8*5F
$GPGSV,2,2,08,27,36,034,42,04,20,205,47,196,20,170,26,26,10,096,12,8*51
$GLGSV,2,1,06,81,60,197,39,88,59,035,39,78,55,030,46,77,25,106,19,1*71
$GLGSV,2,2,06,79,23,331,44,87,06,026,,1*7D
$GAGSV,2,1,06,21,54,007,41,13,54,086,27,26,40,172,37,27,30,076,25,7*7E
$GAGSV,2,2,06,15,16,040,19,04,12,302,14,7*79
$GAGSV,2,1,05,13,54,086,32,21,54,007,44,26,40,172,37,27,30,076,19,1*75
$GAGSV,2,2,05,15,16,040,29,1*4C
$GBGSV,4,1,13,09,74,272,41,06,73,215,38,23,71,022,48,16,70,197,45,1*73
$GBGSV,4,2,13,43,62,038,46,40,61,326,40,07,61,306,42,39,60,185,39,1*71
$GBGSV,4,3,13,28,53,218,43,10,51,287,30,25,39,114,40,37,27,320,39,1*7F
$GBGSV,4,4,13,34,14,040,,1*42
$GBGSV,2,1,08,23,71,022,47,43,62,038,45,40,61,326,46,39,60,185,40,4*77
$GBGSV,2,2,08,28,53,218,42,25,39,114,20,37,27,320,43,34,14,040,25,4*77
$GNACCURACY,4.6*14
$PAIRSAT,1,29,2,0,201,3,0,200,4,0,221,5,0,200,6,0,200,7,0,201,8,0,221,9,0,200,10,0,200,11,0,200,12,0,200,16,0,1,20,0,200,21,0,201,22,0,200,23,0,200,24,0,200,25,0,200,26,0,220,27,0,221,28,0,200,29,0,200,30,0,200,31,0,200,32,0,200,194,0,21,195,0,621,196,0,600,199,0,621*64
$PAIRSAT,2,23,65,0,200,66,0,200,67,0,200,68,0,200,69,0,200,70,0,200,71,0,200,72,0,200,73,0,200,74,0,200,75,0,200,76,0,200,77,0,1,78,0,201,79,0,201,80,0,200,81,0,201,83,0,200,84,0,200,85,0,200,86,0,200,87,0,201,88,0,201*5B
$PAIRSAT,3,22,2,0,1200,3,0,1200,4,0,1200,5,0,200,7,0,1200,8,0,1200,9,0,1200,10,0,200,11,0,200,12,0,200,13,0,221,15,0,220,19,0,200,21,0,221,25,0,1000,26,0,1021,27,0,1021,30,0,1000,31,0,1000,33,0,1200,34,0,1000,36,0,1200*41
$PAIRSAT,4,43,1,0,200,2,0,200,3,0,400,6,0,1,7,0,1,9,0,201,10,0,201,11,0,200,12,0,200,13,0,200,14,0,200,16,0,201,19,0,600,20,0,600,21,0,600,22,0,600,23,0,621,24,0,600,25,0,621,26,0,600,27,0,400,28,0,421,29,0,400,30,0,400,32,0,400,33,0,400,34,0,421,35,0,400,36,0,400,37,0,421,38,0,400,39,0,421,40,0,421,41,0,400,42,0,400,43,0,421,44,0,400,45,0,400,46,0,400,59,0,400,60,0,400,61,0,400,62,0,400*5A
$PAIRDGP,7,2,7,8,16,21,26,27*56
$GNGGA,040110.200,2500.7873743,N,12132.4458521,E,4,51,0.55,16.820,M,15.25,M,1,3335*48
$GNRMC,040110.200,A,2500.7873743,N,12132.4458521,E,0.01,170.32,090324,,,R,V*11
$GPHDT,227.020,T*30
$GNACCURACY,4.6*14
$GNGGA,040110.300,2500.7873731,N,12132.4458454,E,4,51,0.55,16.824,M,15.25,M,1,3335*4B
$GNRMC,040110.300,A,2500.7873731,N,12132.4458454,E,0.02,170.32,090324,,,R,V*15
$GPHDT,,T*1B
$GNACCURACY,4.6*14
$GNGGA,040110.400,2500.7873747,N,12132.4458433,E,4,50,0.55,16.829,M,15.25,M,1,3335*40
$GNRMC,040110.400,A,2500.7873747,N,12132.4458433,E,0.01,170.32,090324,,,R,V*11
$GPHDT,226.154,T*33
$GNACCURACY,4.6*14
$GNGGA,040110.500,2500.7873746,N,12132.4458465,E,4,50,0.55,16.826,M,15.25,M,1,3335*4C
$GNRMC,040110.500,A,2500.7873746,N,12132.4458465,E,0.02,170.32,090324,,,R,V*11
$GPHDT,,T*1B
$GNACCURACY,4.6*14
$GNGGA,040110.600,2500.7873758,N,12132.4458448,E,4,50,0.55,16.823,M,15.25,M,1,3335*4A
$GNRMC,040110.600,A,2500.7873758,N,12132.4458448,E,0.03,170.32,090324,,,R,V*13
$GPHDT,226.153,T*34
$GNACCURACY,4.7*15
$GNGGA,040110.700,2500.7873773,N,12132.4458424,E,4,51,0.54,16.825,M,15.25,M,0,3335*4F
$GNRMC,040110.700,A,2500.7873773,N,12132.4458424,E,0.00,170.32,090324,,,R,V*12
$GPHDT,,T*1B
$GNACCURACY,4.7*15
$GNGGA,040110.800,2500.7873774,N,12132.4458428,E,4,52,0.54,16.829,M,15.25,M,0,3335*44
$GNRMC,040110.800,A,2500.7873774,N,12132.4458428,E,0.04,170.32,090324,,,R,V*12
$GPHDT,226.021,T*30
$GNACCURACY,4.7*15
$GNGGA,040110.900,2500.7873770,N,12132.4458427,E,4,52,0.54,16.832,M,15.25,M,0,3335*44
$GNRMC,040110.900,A,2500.7873770,N,12132.4458427,E,0.03,170.32,090324,,,R,V*1F
$GPHDT,,T*1B
$GNACCURACY,4.7*15
$GNGGA,040111.000,2500.7873749,N,12132.4458404,E,4,52,0.54,16.832,M,15.25,M,1,3335*46
$GNRMC,040111.000,A,2500.7873749,N,12132.4458404,E,0.04,170.32,090324,,,R,V*1B
$GPHDT,226.405,T*32
$GNACCURACY,4.7*15
$GNGGA,040111.100,2500.7873754,N,12132.4458456,E,4,52,0.54,16.822,M,15.25,M,1,3335*4D
$GNRMC,040111.100,A,2500.7873754,N,12132.4458456,E,0.04,170.32,090324,,,R,V*11
$GPHDT,,T*1B
$GNGSA,A,3,08,194,195,199,21,02,07,27,16,04,26,,0.83,0.54,0.63,1*32
$GNGSA,A,3,81,88,78,77,79,,,,,,,,0.83,0.54,0.63,2*05
$GNGSA,A,3,21,13,26,27,15,,,,,,,,0.83,0.54,0.63,3*08
$GNGSA,A,3,09,06,23,16,43,40,07,39,28,10,25,37,0.83,0.54,0.63,4*04
$GNGSA,A,3,34,,,,,,,,,,,,0.83,0.54,0.63,4*0C
$GPGSV,4,1,13,08,65,348,45,194,64,051,40,195,63,116,39,50,60,167,37,1*6B
$GPGSV,4,2,13,199,60,167,34,21,56,159,41,02,44,178,36,07,38,318,47,1*54
$GPGSV,4,3,13,27,36,034,35,16,29,071,25,04,20,205,41,196,20,170,21,1*50
$GPGSV,4,4,13,26,10,096,20,1*5E
$GPGSV,2,1,08,08,65,348,47,194,64,051,36,195,63,116,40,199,60,167,46,8*51
$GPGSV,2,2,08,27,36,034,42,04,20,205,47,196,20,170,28,26,10,096,12,8*5F
$GLGSV,2,1,06,81,60,197,39,88,59,035,40,78,55,030,47,77,25,106,19,1*7E
$GLGSV,2,2,06,79,23,331,44,87,06,026,,1*7D
$GAGSV,2,1,06,21,54,007,41,13,54,086,27,26,40,172,37,27,30,076,25,7*7E
$GAGSV,2,2,06,15,16,040,19,04,12,302,14,7*79
$GAGSV,2,1,05,13,54,086,29,21,54,007,42,26,40,172,34,27,30,076,20,1*70
$GAGSV,2,2,05,15,16,040,29,1*4C
$GBGSV,4,1,13,09,74,272,41,06,73,215,38,23,71,022,48,16,70,197,45,1*73
$GBGSV,4,2,13,43,62,038,46,40,61,326,40,07,61,306,42,39,60,185,38,1*70
$GBGSV,4,3,13,28,53,218,43,10,51,287,29,25,39,114,41,37,27,320,41,1*79
$GBGSV,4,4,13,34,14,040,,1*42
$GBGSV,2,1,08,23,71,022,47,43,62,038,47,40,61,326,46,39,60,185,40,4*75
$GBGSV,2,2,08,28,53,218,42,25,39,114,17,37,27,320,43,34,14,040,25,4*73
$GNACCURACY,4.7*15
$PAIRSAT,1,29,2,0,201,3,0,200,4,0,221,5,0,200,6,0,200,7,0,201,8,0,221,9,0,200,10,0,200,11,0,200,12,0,200,16,0,1,20,0,200,21,0,201,22,0,200,23,0,200,24,0,200,25,0,200,26,0,220,27,0,221,28,0,200,29,0,200,30,0,200,31,0,200,32,0,200,194,0,21,195,0,621,196,0,600,199,0,621*64
$PAIRSAT,2,23,65,0,200,66,0,200,67,0,200,68,0,200,69,0,200,70,0,200,71,0,200,72,0,200,73,0,200,74,0,200,75,0,200,76,0,200,77,0,1,78,0,201,79,0,201,80,0,200,81,0,201,83,0,200,84,0,200,85,0,200,86,0,200,87,0,201,88,0,201*5B
$PAIRSAT,3,22,2,0,1200,3,0,1200,4,0,1200,5,0,200,7,0,1200,8,0,1200,9,0,1200,10,0,200,11,0,200,12,0,200,13,0,221,15,0,220,19,0,200,21,0,221,25,0,1000,26,0,1021,27,0,1021,30,0,1000,31,0,1000,33,0,1200,34,0,1000,36,0,1200*41
$PAIRSAT,4,43,1,0,200,2,0,200,3,0,400,6,0,1,7,0,1,9,0,201,10,0,201,11,0,200,12,0,200,13,0,200,14,0,200,16,0,201,19,0,600,20,0,600,21,0,600,22,0,600,23,0,621,24,0,600,25,0,621,26,0,600,27,0,400,28,0,421,29,0,400,30,0,400,32,0,400,33,0,400,34,0,421,35,0,400,36,0,400,37,0,421,38,0,400,39,0,421,40,0,421,41,0,400,42,0,400,43,0,421,44,0,400,45,0,400,46,0,400,59,0,400,60,0,400,61,0,400,62,0,400*5A
$PAIRDGP,7,2,7,8,16,21,26,27*56
$GNGGA,040111.200,2500.7873744,N,12132.4458445,E,4,52,0.54,16.832,M,15.25,M,1,3335*4C
$GNRMC,040111.200,A,2500.7873744,N,12132.4458445,E,0.02,170.32,090324,,,R,V*17
$GPHDT,226.187,T*3D
$GNACCURACY,4.7*15
$GNGGA,040111.300,2500.7873723,N,12132.4458437,E,4,52,0.54,16.830,M,15.25,M,1,3335*4B
$GNRMC,040111.300,A,2500.7873723,N,12132.4458437,E,0.03,170.32,090324,,,R,V*13
$GPHDT,,T*1B
$GNACCURACY,4.6*14
$GNGGA,040111.400,2500.7873768,N,12132.4458436,E,4,51,0.54,16.815,M,15.25,M,1,3335*46
$GNRMC,040111.400,A,2500.7873768,N,12132.4458436,E,0.02,170.32,090324,,,R,V*1B
$GPHDT,226.841,T*3E
$GNACCURACY,4.6*14
$GNGGA,040111.500,2500.7873789,N,12132.4458479,E,4,51,0.54,16.813,M,15.25,M,1,3335*45
$GNRMC,040111.500,A,2500.7873789,N,12132.4458479,E,0.01,170.32,090324,,,R,V*1D
$GPHDT,,T*1B
$GNACCURACY,4.6*14
$GNGGA,040111.600,2500.7873751,N,12132.4458438,E,4,50,0.55,16.835,M,15.25,M,0,3335*43
$GNRMC,040111.600,A,2500.7873751,N,12132.4458438,E,0.01,170.32,090324,,,R,V*1E
$GPHDT,226.837,T*3F
$GNACCURACY,4.6*14
$GNGGA,040111.700,2500.7873758,N,12132.4458390,E,4,50,0.55,16.829,M,15.25,M,0,3335*43
$GNRMC,040111.700,A,2500.7873758,N,12132.4458390,E,0.09,170.32,090324,,,R,V*1B
$GPHDT,,T*1B
$GNACCURACY,4.6*14
$GNGGA,040111.800,2500.7873754,N,12132.4458425,E,4,50,0.55,16.817,M,15.25,M,0,3335*44
$GNRMC,040111.800,A,2500.7873754,N,12132.4458425,E,0.03,170.32,090324,,,R,V*1B
$GPHDT,226.458,T*3A
$GNACCURACY,4.6*14
$GNGGA,040111.900,2500.7873751,N,12132.4458412,E,4,50,0.55,16.810,M,15.25,M,0,3335*43
$GNRMC,040111.900,A,2500.7873751,N,12132.4458412,E,0.08,170.32,090324,,,R,V*10
$GPHDT,,T*1B
$GNACCURACY,4.6*14
$GNGGA,040112.000,2500.7873771,N,12132.4458456,E,4,50,0.55,16.816,M,15.25,M,1,3335*4C
$GNRMC,040112.000,A,2500.7873771,N,12132.4458456,E,0.03,170.32,090324,,,R,V*13
$GPHDT,227.214,T*35
$GNACCURACY,4.6*14
$GNGGA,040112.100,2500.7873780,N,12132.4458468,E,4,50,0.55,16.817,M,15.25,M,1,3335*4F
$GNRMC,040112.100,A,2500.7873780,N,12132.4458468,E,0.03,170.32,090324,,,R,V*11
$GPHDT,,T*1B
$GNGSA,A,3,08,194,195,199,21,02,07,27,16,04,,,0.86,0.55,0.66,1*37
$GNGSA,A,3,81,88,78,77,79,,,,,,,,0.86,0.55,0.66,2*04
$GNGSA,A,3,21,13,26,27,15,,,,,,,,0.86,0.55,0.66,3*09
$GNGSA,A,3,09,06,23,16,43,40,07,39,28,10,25,37,0.86,0.55,0.66,4*05
$GNGSA,A,3,34,,,,,,,,,,,,0.86,0.55,0.66,4*0D
$GPGSV,4,1,13,08,65,348,45,194,64,051,39,195,63,116,42,50,60,167,38,1*66
$GPGSV,4,2,13,199,60,167,35,21,56,159,42,02,44,178,33,07,38,318,47,1*53
$GPGSV,4,3,13,27,36,034,35,16,29,071,27,04,20,205,41,196,20,170,21,1*52
$GPGSV,4,4,13,26,10,096,20,1*5E
$GPGSV,2,1,07,08,65,348,47,194,64,051,29,195,63,116,42,199,60,167,46,8*52
$GPGSV,2,2,07,27,36,034,42,04,20,205,47,196,20,170,29,8*68
$GLGSV,2,1,06,81,60,197,39,88,59,035,37,78,55,030,46,77,25,106,19,1*7F
$GLGSV,2,2,06,79,23,331,44,87,06,026,,1*7D
$GAGSV,2,1,06,21,54,007,41,13,54,086,29,26,40,172,36,27,30,076,25,7*71
$GAGSV,2,2,06,15,16,040,18,04,12,302,15,7*79
$GAGSV,2,1,05,13,54,086,33,21,54,007,45,26,40,172,37,27,30,076,18,1*74
$GAGSV,2,2,05,15,16,040,29,1*4C
$GBGSV,4,1,13,09,74,272,41,06,73,215,38,23,71,022,48,16,70,197,45,1*73
$GBGSV,4,2,13,43,62,038,45,40,61,326,40,07,61,306,42,39,60,185,40,1*7C
$GBGSV,4,3,13,28,53,218,43,10,51,287,29,25,39,114,40,37,27,320,40,1*79
$GBGSV,4,4,13,34,14,040,,1*42
$GBGSV,2,1,07,23,71,022,47,43,62,038,46,40,61,326,46,39,60,185,38,4*74
$GBGSV,2,2,07,28,53,218,42,37,27,320,44,34,14,040,24,4*45
$GNACCURACY,4.6*14
$PAIRSAT,1,30,2,0,201,3,0,200,4,0,221,5,0,200,6,0,200,7,0,201,8,0,221,9,0,200,10,0,200,11,0,200,12,0,200,13,0,200,16,0,1,20,0,200,21,0,201,22,0,200,23,0,200,24,0,200,25,0,200,26,0,220,27,0,221,28,0,200,29,0,200,30,0,200,31,0,200,32,0,200,194,0,221,195,0,621,196,0,600,199,0,621*72
$PAIRSAT,2,23,65,0,200,66,0,200,67,0,200,68,0,200,69,0,200,70,0,200,71,0,200,72,0,200,73,0,200,74,0,200,75,0,200,76,0,200,77,0,1,78,0,201,79,0,201,80,0,200,81,0,201,83,0,200,84,0,200,85,0,200,86,0,200,87,0,201,88,0,201*5B
$PAIRSAT,3,22,2,0,1200,3,0,1200,4,0,1200,5,0,200,7,0,1200,8,0,1200,9,0,1200,10,0,200,11,0,200,12,0,200,13,0,221,15,0,220,19,0,200,21,0,221,25,0,1000,26,0,1021,27,0,1021,30,0,1000,31,0,1000,33,0,1200,34,0,1000,36,0,1200*41
$PAIRSAT,4,43,1,0,200,2,0,200,3,0,400,6,0,1,7,0,1,9,0,201,10,0,201,11,0,200,12,0,200,13,0,200,14,0,200,16,0,201,19,0,600,20,0,600,21,0,600,22,0,600,23,0,621,24,0,600,25,0,621,26,0,600,27,0,400,28,0,421,29,0,400,30,0,400,32,0,400,33,0,400,34,0,421,35,0,400,36,0,400,37,0,421,38,0,400,39,0,421,40,0,421,41,0,400,42,0,400,43,0,421,44,0,400,45,0,400,46,0,400,59,0,400,60,0,400,61,0,400,62,0,400*5A
$PAIRDGP,7,2,7,8,16,21,26,27*56
$GNGGA,040112.200,2500.7873790,N,12132.4458411,E,4,50,0.55,16.825,M,15.25,M,1,3335*42
$GNRMC,040112.200,A,2500.7873790,N,12132.4458411,E,0.01,170.32,090324,,,R,V*1F
$GPHDT,226.703,T*37
$GNACCURACY,4.6*14
$GNGGA,040112.300,2500.7873756,N,12132.4458456,E,4,50,0.55,16.820,M,15.25,M,1,3335*4F
$GNRMC,040112.300,A,2500.7873756,N,12132.4458456,E,0.01,170.32,090324,,,R,V*17
$GPHDT,,T*1B
$GNACCURACY,4.6*14
$GNGGA,040112.400,2500.7873765,N,12132.4458433,E,4,49,0.55,16.825,M,15.25,M,1,3335*46
$GNRMC,040112.400,A,2500.7873765,N,12132.4458433,E,0.01,170.32,090324,,,R,V*13
$GPHDT,227.047,T*31
$GNACCURACY,4.6*14
$GNGGA,040112.500,2500.7873772,N,12132.4458463,E,4,49,0.55,16.807,M,15.25,M,1,3335*44
$GNRMC,040112.500,A,2500.7873772,N,12132.4458463,E,0.03,170.32,090324,,,R,V*13
$GPHDT,,T*1B
$GNACCURACY,4.6*14
$GNGGA,040112.600,2500.7873757,N,12132.4458471,E,4,49,0.55,16.818,M,15.25,M,1,3335*4D
$GNRMC,040112.600,A,2500.7873757,N,12132.4458471,E,0.02,170.32,090324,,,R,V*15
$GPHDT,227.622,T*34
$GNACCURACY,4.6*14
$GNGGA,040112.700,2500.7873748,N,12132.4458467,E,4,49,0.55,16.820,M,15.25,M,0,3335*4F
$GNRMC,040112.700,A,2500.7873748,N,12132.4458467,E,0.06,170.32,090324,,,R,V*19
$GPHDT,,T*1B
$GNACCURACY,4.6*14
$GNGGA,040112.800,2500.7873766,N,12132.4458475,E,4,49,0.55,16.816,M,15.25,M,0,3335*4A
$GNRMC,040112.800,A,2500.7873766,N,12132.4458475,E,0.17,170.32,090324,,,R,V*19
$GPHDT,227.494,T*3B
$GNACCURACY,4.6*14
$GNGGA,040112.900,2500.7873755,N,12132.4458490,E,4,49,0.55,16.814,M,15.25,M,0,3335*42
$GNRMC,040112.900,A,2500.7873755,N,12132.4458490,E,0.09,170.32,090324,,,R,V*1C
$GPHDT,,T*1B
$GNACCURACY,4.6*14
$GNGGA,040113.000,2500.7873750,N,12132.4458448,E,4,48,0.56,16.811,M,15.25,M,1,3335*4C
$GNRMC,040113.000,A,2500.7873750,N,12132.4458448,E,0.11,170.32,090324,,,R,V*1D
$GPHDT,228.223,T*3E
$GNACCURACY,4.6*14
$GNGGA,040113.100,2500.7873754,N,12132.4458480,E,4,48,0.56,16.811,M,15.25,M,1,3335*4D
$GNRMC,040113.100,A,2500.7873754,N,12132.4458480,E,0.06,170.32,090324,,,R,V*1A
$GPHDT,,T*1B
$GNGSA,A,3,08,194,195,199,21,02,07,27,04,,,,0.87,0.56,0.66,1*32
$GNGSA,A,3,81,88,78,77,79,,,,,,,,0.87,0.56,0.66,2*06
$GNGSA,A,3,21,13,26,27,15,,,,,,,,0.87,0.56,0.66,3*0B
$GNGSA,A,3,09,06,23,16,43,40,07,39,28,10,25,37,0.87,0.56,0.66,4*07
$GNGSA,A,3,34,,,,,,,,,,,,0.87,0.56,0.66,4*0F
$GPGSV,4,1,13,08,65,348,45,194,64,051,39,195,63,116,42,50,60,167,39,1*67
$GPGSV,4,2,13,199,60,167,36,21,56,159,42,02,44,178,38,07,38,318,47,1*5B
$GPGSV,4,3,13,27,36,034,36,16,29,071,21,04,20,205,41,196,20,170,24,1*52
$GPGSV,4,4,13,26,10,096,19,1*54
$GPGSV,2,1,07,08,65,348,47,194,64,051,31,195,63,116,41,199,60,167,45,8*5B
$GPGSV,2,2,07,27,36,034,42,04,20,205,46,196,20,170,28,8*68
$GLGSV,2,1,06,81,60,197,40,88,59,035,38,78,55,030,46,77,25,106,19,1*7E
$GLGSV,2,2,06,79,23,331,44,87,06,026,,1*7D
$GAGSV,2,1,06,21,54,007,41,13,54,086,29,26,40,172,37,27,30,076,25,7*70
$GAGSV,2,2,06,15,16,040,17,04,12,302,15,7*76
$GAGSV,1,1,04,13,54,086,32,21,54,007,45,26,40,172,37,15,16,040,29,1*75
$GBGSV,4,1,13,09,74,272,41,06,73,215,38,23,71,022,48,16,70,197,45,1*73
$GBGSV,4,2,13,43,62,038,45,40,61,326,40,07,61,306,42,39,60,185,40,1*7C
$GBGSV,4,3,13,28,53,218,43,10,51,287,29,25,39,114,40,37,27,320,39,1*77
$GBGSV,4,4,13,34,14,040,,1*42
$GBGSV,2,1,07,23,71,022,47,43,62,038,46,40,61,326,46,39,60,185,40,4*7B
$GBGSV,2,2,07,28,53,218,42,37,27,320,44,34,14,040,23,4*42
$GNACCURACY,4.6*14
$PAIRSAT,1,30,2,0,201,3,0,200,4,0,221,5,0,200,6,0,200,7,0,201,8,0,221,9,0,200,10,0,200,11,0,200,12,0,200,13,0,200,16,0,1,20,0,200,21,0,201,22,0,200,23,0,200,24,0,200,25,0,200,26,0,220,27,0,221,28,0,200,29,0,200,30,0,200,31,0,200,32,0,200,194,0,221,195,0,621,196,0,600,199,0,621*72
$PAIRSAT,2,23,65,0,200,66,0,200,67,0,200,68,0,200,69,0,200,70,0,200,71,0,200,72,0,200,73,0,200,74,0,200,75,0,200,76,0,200,77,0,1,78,0,201,79,0,201,80,0,200,81,0,201,83,0,200,84,0,200,85,0,200,86,0,200,87,0,201,88,0,201*5B
$PAIRSAT,3,22,2,0,1200,3,0,1200,4,0,1200,5,0,200,7,0,1200,8,0,1200,9,0,1200,10,0,200,11,0,200,12,0,200,13,0,221,15,0,220,19,0,200,21,0,221,25,0,1000,26,0,1021,27,0,1021,30,0,1000,31,0,1000,33,0,1200,34,0,1000,36,0,1200*41
$PAIRSAT,4,43,1,0,200,2,0,200,3,0,400,6,0,1,7,0,1,9,0,201,10,0,201,11,0,200,12,0,200,13,0,200,14,0,200,16,0,201,19,0,600,20,0,600,21,0,600,22,0,600,23,0,621,24,0,600,25,0,621,26,0,600,27,0,400,28,0,421,29,0,400,30,0,400,32,0,400,33,0,400,34,0,421,35,0,400,36,0,400,37,0,421,38,0,400,39,0,421,40,0,421,41,0,400,42,0,400,43,0,421,44,0,400,45,0,400,46,0,400,59,0,400,60,0,400,61,0,400,62,0,400*5A
$PAIRDGP,7,2,7,8,16,21,26,27*56
$GNGGA,040113.200,2500.7873768,N,12132.4458470,E,4,48,0.56,16.802,M,15.25,M,1,3335*4C
$GNRMC,040113.200,A,2500.7873768,N,12132.4458470,E,0.06,170.32,090324,,,R,V*19
$GPHDT,227.947,T*38
$GNACCURACY,4.6*14
$GNGGA,040113.300,2500.7873765,N,12132.4458439,E,4,48,0.56,16.816,M,15.25,M,1,3335*48
$GNRMC,040113.300,A,2500.7873765,N,12132.4458439,E,0.07,170.32,090324,,,R,V*19
$GPHDT,,T*1B
$GNACCURACY,4.6*14
$GNGGA,040113.400,2500.7873769,N,12132.4458466,E,4,48,0.56,16.809,M,15.25,M,1,3335*47
$GNRMC,040113.400,A,2500.7873769,N,12132.4458466,E,0.07,170.32,090324,,,R,V*18
$GPHDT,227.721,T*36
$GNACCURACY,4.6*14
$GNGGA,040113.500,2500.7873766,N,12132.4458429,E,4,48,0.56,16.815,M,15.25,M,1,3335*4F
$GNRMC,040113.500,A,2500.7873766,N,12132.4458429,E,0.06,170.32,090324,,,R,V*1C
$GPHDT,,T*1B
$GNACCURACY,4.6*14
$GNGGA,040113.600,2500.7873783,N,12132.4458442,E,4,48,0.56,16.800,M,15.25,M,1,3335*4E
$GNRMC,040113.600,A,2500.7873783,N,12132.4458442,E,0.05,170.32,090324,,,R,V*1A
$GPHDT,227.374,T*32
$GNACCURACY,4.6*14
$GNGGA,040113.700,2500.7873767,N,12132.4458452,E,4,48,0.56,16.814,M,15.25,M,0,3335*40
$GNRMC,040113.700,A,2500.7873767,N,12132.4458452,E,0.03,170.32,090324,,,R,V*16
$GPHDT,,T*1B
$GNACCURACY,4.6*14
$GNGGA,040113.800,2500.7873761,N,12132.4458471,E,4,48,0.56,16.801,M,15.25,M,0,3335*4C
$GNRMC,040113.800,A,2500.7873761,N,12132.4458471,E,0.07,170.32,090324,,,R,V*1A
$GPHDT,227.836,T*3F
$GNACCURACY,4.6*14
$GNGGA,040113.900,2500.7873775,N,12132.4458468,E,4,48,0.56,16.811,M,15.25,M,0,3335*41
$GNRMC,040113.900,A,2500.7873775,N,12132.4458468,E,0.10,170.32,090324,,,R,V*10
$GPHDT,,T*1B
$GNACCURACY,4.7*15
$GNGGA,040114.000,2500.7873760,N,12132.4458443,E,4,48,0.56,16.816,M,15.25,M,1,3335*44
$GNRMC,040114.000,A,2500.7873760,N,12132.4458443,E,0.03,170.32,090324,,,R,V*11
$GPHDT,227.445,T*37
$GNACCURACY,4.7*15
$GNGGA,040114.100,2500.7873774,N,12132.4458453,E,4,48,0.56,16.810,M,15.25,M,1,3335*47
$GNRMC,040114.100,A,2500.7873774,N,12132.4458453,E,0.02,170.32,090324,,,R,V*15
$GPHDT,,T*1B
$GNGSA,A,3,08,194,195,199,21,02,07,27,04,,,,0.87,0.56,0.66,1*32
$GNGSA,A,3,81,88,78,77,79,,,,,,,,0.87,0.56,0.66,2*06
$GNGSA,A,3,21,13,26,27,15,,,,,,,,0.87,0.56,0.66,3*0B
$GNGSA,A,3,09,06,23,16,43,40,07,39,28,10,25,37,0.87,0.56,0.66,4*07
$GNGSA,A,3,34,,,,,,,,,,,,0.87,0.56,0.66,4*0F
$GPGSV,4,1,13,08,65,348,44,194,64,051,39,195,63,116,42,50,60,167,39,1*66
$GPGSV,4,2,13,199,60,167,36,21,56,159,42,02,44,178,35,07,38,318,47,1*56
$GPGSV,4,3,13,27,36,034,36,16,29,071,19,04,20,205,41,196,20,170,27,1*5A
$GPGSV,4,4,13,26,10,096,21,1*5F
$GPGSV,2,1,07,08,65,348,47,194,64,051,36,195,63,116,43,199,60,167,46,8*5D
$GPGSV,2,2,07,27,36,034,41,04,20,205,46,196,20,170,28,8*6B
$GLGSV,2,1,06,81,60,197,40,88,59,035,39,78,55,030,46,77,25,106,18,1*7E
$GLGSV,2,2,06,79,23,331,44,87,06,026,,1*7D
$GAGSV,2,1,06,21,54,007,41,13,54,086,31,26,40,172,38,27,30,076,25,7*76
$GAGSV,2,2,06,15,16,040,17,04,12,302,16,7*75
$GAGSV,1,1,04,13,54,086,33,21,54,007,45,26,40,172,39,15,16,040,29,1*7A
$GBGSV,4,1,13,09,74,272,41,06,73,215,38,23,71,022,48,16,70,197,45,1*73
$GBGSV,4,2,13,43,62,038,45,40,61,326,40,07,61,306,42,39,60,185,40,1*7C
$GBGSV,4,3,13,28,53,218,43,10,51,287,28,25,39,114,40,37,27,320,42,1*7A
$GBGSV,4,4,13,34,14,040,,1*42
$GBGSV,2,1,07,23,71,022,47,43,62,038,46,40,61,326,46,39,60,185,40,4*7B
$GBGSV,2,2,07,28,53,218,42,37,27,320,44,34,14,040,24,4*45
$GNACCURACY,4.6*14
$PAIRSAT,1,30,2,0,201,3,0,200,4,0,221,5,0,200,6,0,200,7,0,201,8,0,221,9,0,200,10,0,200,11,0,200,12,0,200,13,0,200,16,0,1,20,0,200,21,0,201,22,0,200,23,0,200,24,0,200,25,0,200,26,0,220,27,0,221,28,0,200,29,0,200,30,0,200,31,0,200,32,0,200,194,0,221,195,0,621,196,0,600,199,0,621*72
$PAIRSAT,2,23,65,0,200,66,0,200,67,0,200,68,0,200,69,0,200,70,0,200,71,0,200,72,0,200,73,0,200,74,0,200,75,0,200,76,0,200,77,0,1,78,0,201,79,0,201,80,0,200,81,0,201,83,0,200,84,0,200,85,0,200,86,0,200,87,0,201,88,0,201*5B
$PAIRSAT,3,22,2,0,1200,3,0,1200,4,0,1200,5,0,200,7,0,1200,8,0,1200,9,0,1200,10,0,200,11,0,200,12,0,200,13,0,221,15,0,220,19,0,200,21,0,221,25,0,1000,26,0,1021,27,0,1021,30,0,1000,31,0,1000,33,0,1200,34,0,1000,36,0,1200*41
$PAIRSAT,4,43,1,0,200,2,0,200,3,0,400,6,0,1,7,0,1,9,0,201,10,0,201,11,0,200,12,0,200,13,0,200,14,0,200,16,0,201,19,0,600,20,0,600,21,0,600,22,0,600,23,0,621,24,0,600,25,0,621,26,0,600,27,0,400,28,0,421,29,0,400,30,0,400,32,0,400,33,0,400,34,0,421,35,0,400,36,0,400,37,0,421,38,0,400,39,0,421,40,0,421,41,0,400,42,0,400,43,0,421,44,0,400,45,0,400,46,0,400,59,0,400,60,0,400,61,0,400,62,0,400*5A
$PAIRDGP,7,2,7,8,16,21,26,27*56
$GNGGA,040114.200,2500.7873774,N,12132.4458450,E,4,48,0.56,16.814,M,15.25,M,1,3335*43
$GNRMC,040114.200,A,2500.7873774,N,12132.4458450,E,0.04,170.32,090324,,,R,V*13
$GPHDT,227.215,T*34
$GNACCURACY,4.7*15
$GNGGA,040114.300,2500.7873756,N,12132.4458451,E,4,50,0.55,16.810,M,15.25,M,1,3335*4D
$GNRMC,040114.300,A,2500.7873756,N,12132.4458451,E,0.03,170.32,090324,,,R,V*14
$GPHDT,,T*1B
$GNACCURACY,4.7*15
$GNGGA,040114.400,2500.7873772,N,12132.4458440,E,4,50,0.55,16.814,M,15.25,M,0,3335*49
$GNRMC,040114.400,A,2500.7873772,N,12132.4458440,E,0.02,170.32,090324,,,R,V*14
$GPHDT,227.412,T*35
$GNACCURACY,4.7*15
$GNGGA,040114.500,2500.7873768,N,12132.4458430,E,4,50,0.55,16.820,M,15.25,M,0,3335*43
$GNRMC,040114.500,A,2500.7873768,N,12132.4458430,E,0.02,170.32,090324,,,R,V*19
$GPHDT,,T*1B
$GNACCURACY,4.7*15
$GNGGA,040114.600,2500.7873781,N,12132.4458442,E,4,50,0.55,16.808,M,15.25,M,0,3335*48
$GNRMC,040114.600,A,2500.7873781,N,12132.4458442,E,0.01,170.32,090324,,,R,V*1B
$GPHDT,227.406,T*30
$GNACCURACY,4.7*15
$GNGGA,040114.700,2500.7873769,N,12132.4458384,E,4,50,0.55,16.822,M,15.25,M,0,3335*4A
$GNRMC,040114.700,A,2500.7873769,N,12132.4458384,E,0.02,170.32,090324,,,R,V*12
$GPHDT,,T*1B
$GNACCURACY,4.7*15
$GNGGA,040114.800,2500.7873761,N,12132.4458437,E,4,50,0.55,16.820,M,15.25,M,0,3335*40
$GNRMC,040114.800,A,2500.7873761,N,12132.4458437,E,0.07,170.32,090324,,,R,V*1F
$GPHDT,227.257,T*32
$GNACCURACY,4.7*15
$GNGGA,040114.900,2500.7873759,N,12132.4458460,E,4,50,0.55,16.800,M,15.25,M,0,3335*4A
$GNRMC,040114.900,A,2500.7873759,N,12132.4458460,E,0.06,170.32,090324,,,R,V*16
$GPHDT,,T*1B
$GNACCURACY,4.7*15
$GNGGA,040115.000,2500.7873752,N,12132.4458471,E,4,50,0.55,16.800,M,15.25,M,1,3335*48
$GNRMC,040115.000,A,2500.7873752,N,12132.4458471,E,0.01,170.32,090324,,,R,V*12
$GPHDT,227.889,T*3B
$GNACCURACY,4.8*1A
$GNGGA,040115.100,2500.7873766,N,12132.4458468,E,4,50,0.55,16.806,M,15.25,M,1,3335*40
$GNRMC,040115.100,A,2500.7873766,N,12132.4458468,E,0.02,170.32,090324,,,R,V*1F
$GPHDT,,T*1B
$GNGSA,A,3,08,194,195,199,21,02,07,27,16,04,,,0.86,0.55,0.66,1*37
$GNGSA,A,3,81,88,78,77,79,,,,,,,,0.86,0.55,0.66,2*04
$GNGSA,A,3,21,13,26,27,15,,,,,,,,0.86,0.55,0.66,3*09
$GNGSA,A,3,09,06,23,16,43,40,07,39,28,10,25,37,0.86,0.55,0.66,4*05
$GNGSA,A,3,34,,,,,,,,,,,,0.86,0.55,0.66,4*0D
$GPGSV,4,1,13,08,65,348,43,194,64,051,39,195,63,116,40,50,60,167,39,1*63
$GPGSV,4,2,13,199,60,167,36,21,56,159,43,02,44,178,36,07,38,318,47,1*54
$GPGSV,4,3,13,27,36,034,37,16,29,072,22,04,20,205,42,196,20,170,27,1*53
$GPGSV,4,4,13,26,10,096,19,1*54
$GPGSV,2,1,07,08,65,348,47,194,64,051,30,195,63,116,40,199,60,167,47,8*59
$GPGSV,2,2,07,27,36,034,42,04,20,205,46,196,20,170,27,8*67
$GLGSV,2,1,06,81,60,197,40,88,59,035,39,78,55,030,46,77,25,106,19,1*7F
$GLGSV,2,2,06,79,23,331,44,87,06,026,,1*7D
$GAGSV,2,1,06,21,54,007,41,13,54,086,33,26,40,172,38,27,30,076,23,7*72
$GAGSV,2,2,06,15,16,040,15,04,12,302,16,7*77
$GAGSV,1,1,04,13,54,086,30,21,54,007,44,26,40,172,38,15,16,040,28,1*78
$GBGSV,4,1,13,09,74,272,41,06,73,215,38,23,71,022,48,16,70,197,44,1*72
$GBGSV,4,2,13,43,62,038,45,40,61,326,40,07,61,306,42,39,60,185,40,1*7C
$GBGSV,4,3,13,28,53,218,44,10,51,287,28,25,39,114,41,37,27,320,41,1*7F
$GBGSV,4,4,13,34,14,040,,1*42
$GBGSV,2,1,08,23,71,022,46,43,62,038,46,40,61,326,46,39,60,185,40,4*75
$GBGSV,2,2,08,28,53,218,41,25,39,114,31,37,27,320,44,34,14,040,24,4*72
$GNACCURACY,4.8*1A
$PAIRSAT,1,30,2,0,201,3,0,200,4,0,221,5,0,200,6,0,200,7,0,201,8,0,221,9,0,200,10,0,200,11,0,200,12,0,200,13,0,200,16,0,1,20,0,200,21,0,201,22,0,200,23,0,200,24,0,200,25,0,200,26,0,220,27,0,221,28,0,200,29,0,200,30,0,200,31,0,200,32,0,200,194,0,221,195,0,621,196,0,600,199,0,621*72
$PAIRSAT,2,23,65,0,200,66,0,200,67,0,200,68,0,200,69,0,200,70,0,200,71,0,200,72,0,200,73,0,200,74,0,200,75,0,200,76,0,200,77,0,1,78,0,201,79,0,201,80,0,200,81,0,201,83,0,200,84,0,200,85,0,200,86,0,200,87,0,201,88,0,201*5B
$PAIRSAT,3,22,2,0,1200,3,0,1200,4,0,1200,5,0,200,7,0,1200,8,0,1200,9,0,1200,10,0,200,11,0,200,12,0,200,13,0,221,15,0,220,19,0,200,21,0,221,25,0,1000,26,0,1021,27,0,1021,30,0,1000,31,0,1000,33,0,1200,34,0,1000,36,0,1200*41
$PAIRSAT,4,43,1,0,200,2,0,200,3,0,400,6,0,1,7,0,1,9,0,201,10,0,201,11,0,200,12,0,200,13,0,200,14,0,200,16,0,201,19,0,600,20,0,600,21,0,600,22,0,600,23,0,621,24,0,600,25,0,621,26,0,600,27,0,400,28,0,421,29,0,400,30,0,400,32,0,400,33,0,400,34,0,421,35,0,400,36,0,400,37,0,421,38,0,400,39,0,421,40,0,421,41,0,400,42,0,400,43,0,421,44,0,400,45,0,400,46,0,400,59,0,400,60,0,400,61,0,400,62,0,400*5A
$PAIRDGP,7,2,7,8,16,21,26,27*56
$GNGGA,040115.200,2500.7873749,N,12132.4458449,E,4,50,0.55,16.809,M,15.25,M,1,3335*42
$GNRMC,040115.200,A,2500.7873749,N,12132.4458449,E,0.03,170.32,090324,,,R,V*13
$GPHDT,228.371,T*38
$GNACCURACY,4.8*1A
$GNGGA,040115.300,2500.7873767,N,12132.4458438,E,4,51,0.55,16.819,M,15.25,M,1,3335*49
$GNRMC,040115.300,A,2500.7873767,N,12132.4458438,E,0.02,170.32,090324,,,R,V*19
$GPHDT,,T*1B
$GNACCURACY,4.8*1A
$GNGGA,040115.400,2500.7873760,N,12132.4458432,E,4,51,0.55,16.823,M,15.25,M,1,3335*4A
$GNRMC,040115.400,A,2500.7873760,N,12132.4458432,E,0.03,170.32,090324,,,R,V*12
$GPHDT,227.956,T*38
$GNACCURACY,4.8*1A
$GNGGA,040115.500,2500.7873748,N,12132.4458416,E,4,51,0.55,16.826,M,15.25,M,0,3335*43
$GNRMC,040115.500,A,2500.7873748,N,12132.4458416,E,0.02,170.32,090324,,,R,V*1E
$GPHDT,,T*1B
$GNACCURACY,4.8*1A
$GNGGA,040115.600,2500.7873759,N,12132.4458388,E,4,50,0.55,16.830,M,15.25,M,0,3335*46
$GNRMC,040115.600,A,2500.7873759,N,12132.4458388,E,0.08,170.32,090324,,,R,V*17
$GPHDT,227.926,T*3F
$GNACCURACY,4.8*1A
$GNGGA,040115.700,2500.7873764,N,12132.4458344,E,4,50,0.55,16.820,M,15.25,M,0,3335*48
$GNRMC,040115.700,A,2500.7873764,N,12132.4458344,E,0.11,170.32,090324,,,R,V*10
$GPHDT,,T*1B
$GNACCURACY,4.8*1A
$GNGGA,040115.800,2500.7873763,N,12132.4458388,E,4,50,0.55,16.822,M,15.25,M,0,3335*42
$GNRMC,040115.800,A,2500.7873763,N,12132.4458388,E,0.04,170.32,090324,,,R,V*1C
$GPHDT,227.837,T*3E
$GNACCURACY,4.8*1A
$GNGGA,040115.900,2500.7873769,N,12132.4458419,E,4,50,0.55,16.822,M,15.25,M,0,3335*46
$GNRMC,040115.900,A,2500.7873769,N,12132.4458419,E,0.05,170.32,090324,,,R,V*19
$GPHDT,,T*1B
$GNACCURACY,4.8*1A
$GNGGA,040116.000,2500.7873762,N,12132.4458412,E,4,50,0.55,16.814,M,15.25,M,1,3335*48
$GNRMC,040116.000,A,2500.7873762,N,12132.4458412,E,0.04,170.32,090324,,,R,V*12
$GPHDT,228.221,T*3C
$GNACCURACY,4.8*1A
$GNGGA,040116.100,2500.7873765,N,12132.4458422,E,4,50,0.55,16.811,M,15.25,M,1,3335*48
$GNRMC,040116.100,A,2500.7873765,N,12132.4458422,E,0.04,170.32,090324,,,R,V*17
$GPHDT,,T*1B
$GNGSA,A,3,08,194,195,199,21,02,07,27,16,04,,,0.86,0.55,0.66,1*37
$GNGSA,A,3,81,88,78,77,79,,,,,,,,0.86,0.55,0.66,2*04
$GNGSA,A,3,21,13,26,27,15,,,,,,,,0.86,0.55,0.66,3*09
$GNGSA,A,3,09,06,23,16,43,40,07,39,28,10,25,37,0.86,0.55,0.66,4*05
$GNGSA,A,3,34,,,,,,,,,,,,0.86,0.55,0.66,4*0D
$GPGSV,4,1,14,08,65,348,43,194,64,051,39,195,63,116,43,50,60,167,39,1*67
$GPGSV,4,2,14,199,60,167,36,21,56,159,43,02,44,178,36,07,38,318,47,1*53
$GPGSV,4,3,14,27,36,034,36,16,29,072,17,09,25,250,,04,20,205,42,1*65
$GPGSV,4,4,14,196,20,170,25,26,10,096,19,1*5E
$GPGSV,2,1,07,08,65,348,47,194,64,051,33,195,63,116,42,199,60,167,47,8*58
$GPGSV,2,2,07,27,36,034,42,04,20,205,46,196,20,170,26,8*66
$GLGSV,2,1,06,81,60,197,41,88,59,035,40,78,55,030,46,77,25,106,21,1*7B
$GLGSV,2,2,06,79,23,331,44,87,06,026,,1*7D
$GAGSV,2,1,06,21,54,007,41,13,54,086,34,26,40,172,37,27,30,076,24,7*7D
$GAGSV,2,2,06,15,16,040,17,04,12,302,14,7*77
$GAGSV,1,1,04,13,54,086,33,21,54,007,44,26,40,172,39,15,16,040,29,1*7B
$GBGSV,4,1,13,09,74,272,40,06,73,215,38,23,71,022,48,16,70,197,44,1*73
$GBGSV,4,2,13,43,62,038,45,40,61,326,41,07,61,306,42,39,60,185,40,1*7D
$GBGSV,4,3,13,28,53,218,44,10,51,287,29,25,39,114,41,37,27,320,41,1*7E
$GBGSV,4,4,13,34,14,040,,1*42
$GBGSV,2,1,08,23,71,022,46,43,62,038,46,40,61,326,46,39,60,185,40,4*75
$GBGSV,2,2,08,28,53,218,42,25,39,114,33,37,27,320,44,34,14,040,24,4*73
$GNACCURACY,4.8*1A
$PAIRSAT,1,30,2,0,201,3,0,200,4,0,221,5,0,200,6,0,200,7,0,201,8,0,221,9,0,200,10,0,200,11,0,200,12,0,200,13,0,200,16,0,1,20,0,200,21,0,201,22,0,200,23,0,200,24,0,200,25,0,200,26,0,220,27,0,221,28,0,200,29,0,200,30,0,200,31,0,200,32,0,200,194,0,221,195,0,621,196,0,600,199,0,621*72
$PAIRSAT,2,23,65,0,200,66,0,200,67,0,200,68,0,200,69,0,200,70,0,200,71,0,200,72,0,200,73,0,200,74,0,200,75,0,200,76,0,200,77,0,1,78,0,201,79,0,201,80,0,200,81,0,201,83,0,200,84,0,200,85,0,200,86,0,200,87,0,201,88,0,201*5B
$PAIRSAT,3,22,2,0,1200,3,0,1200,4,0,1200,5,0,200,7,0,1200,8,0,1200,9,0,1200,10,0,200,11,0,200,12,0,200,13,0,221,15,0,220,19,0,200,21,0,221,25,0,1000,26,0,1021,27,0,1021,30,0,1000,31,0,1000,33,0,1200,34,0,1000,36,0,1200*41
$PAIRSAT,4,43,1,0,200,2,0,200,3,0,400,6,0,1,7,0,1,9,0,201,10,0,201,11,0,200,12,0,200,13,0,200,14,0,200,16,0,201,19,0,600,20,0,600,21,0,600,22,0,600,23,0,621,24,0,600,25,0,621,26,0,600,27,0,400,28,0,421,29,0,400,30,0,400,32,0,400,33,0,400,34,0,421,35,0,400,36,0,400,37,0,421,38,0,400,39,0,421,40,0,421,41,0,400,42,0,400,43,0,421,44,0,400,45,0,400,46,0,400,59,0,400,60,0,400,61,0,400,62,0,400*5A
$PAIRDGP,7,2,7,8,16,21,26,27*56
$GNGGA,040116.200,2500.7873773,N,12132.4458399,E,4,50,0.55,16.814,M,15.25,M,1,3335*4E
$GNRMC,040116.200,A,2500.7873773,N,12132.4458399,E,0.03,170.32,090324,,,R,V*13
$GPHDT,228.053,T*3B
$GNACCURACY,4.8*1A
$GNGGA,040116.300,2500.7873762,N,12132.4458399,E,4,50,0.55,16.821,M,15.25,M,1,3335*49
$GNRMC,040116.300,A,2500.7873762,N,12132.4458399,E,0.02,170.32,090324,,,R,V*13
$GPHDT,,T*1B
$GNACCURACY,4.8*1A
$GNGGA,040116.400,2500.7873764,N,12132.4458386,E,4,50,0.55,16.817,M,15.25,M,1,3335*43
$GNRMC,040116.400,A,2500.7873764,N,12132.4458386,E,0.02,170.32,090324,,,R,V*1C
$GPHDT,227.662,T*30
$GNACCURACY,4.8*1A
$GNGGA,040116.500,2500.7873768,N,12132.4458369,E,4,50,0.55,16.814,M,15.25,M,1,3335*4C
$GNRMC,040116.500,A,2500.7873768,N,12132.4458369,E,0.02,170.32,090324,,,R,V*10
$GPHDT,,T*1B
$GNACCURACY,4.8*1A
$GNGGA,040116.600,2500.7873785,N,12132.4458367,E,4,50,0.55,16.807,M,15.25,M,0,3335*41
$GNRMC,040116.600,A,2500.7873785,N,12132.4458367,E,0.06,170.32,090324,,,R,V*1A
$GPHDT,227.642,T*32
$GNACCURACY,4.8*1A
$GNGGA,040116.700,2500.7873793,N,12132.4458377,E,4,50,0.55,16.814,M,15.25,M,0,3335*44
$GNRMC,040116.700,A,2500.7873793,N,12132.4458377,E,0.04,170.32,090324,,,R,V*1F
$GPHDT,,T*1B
$GNACCURACY,4.7*15
$GNGGA,040116.800,2500.7873755,N,12132.4458339,E,4,50,0.55,16.822,M,15.25,M,0,3335*4E
$GNRMC,040116.800,A,2500.7873755,N,12132.4458339,E,0.07,170.32,090324,,,R,V*13
$GPHDT,226.927,T*3F
$GNACCURACY,4.7*15
$GNGGA,040116.900,2500.7873788,N,12132.4458367,E,4,50,0.55,16.820,M,15.25,M,0,3335*46
$GNRMC,040116.900,A,2500.7873788,N,12132.4458367,E,0.09,170.32,090324,,,R,V*17
$GPHDT,,T*1B
$GNACCURACY,4.7*15
$GNGGA,040117.000,2500.7873744,N,12132.4458408,E,4,50,0.55,16.820,M,15.25,M,1,3335*41
$GNRMC,040117.000,A,2500.7873744,N,12132.4458408,E,0.08,170.32,090324,,,R,V*10
$GPHDT,226.754,T*35
$GNACCURACY,4.7*15
$GNGGA,040117.100,2500.7873757,N,12132.4458405,E,4,50,0.55,16.819,M,15.25,M,1,3335*45
$GNRMC,040117.100,A,2500.7873757,N,12132.4458405,E,0.04,170.32,090324,,,R,V*12
$GPHDT,,T*1B
$GNGSA,A,3,08,194,195,199,21,02,07,27,16,04,,,0.86,0.55,0.66,1*37
$GNGSA,A,3,81,88,78,77,79,,,,,,,,0.86,0.55,0.66,2*04
$GNGSA,A,3,21,13,26,27,15,,,,,,,,0.86,0.55,0.66,3*09
$GNGSA,A,3,09,06,23,16,43,40,07,39,28,10,25,37,0.86,0.55,0.66,4*05
$GNGSA,A,3,34,,,,,,,,,,,,0.86,0.55,0.66,4*0D
$GPGSV,4,1,14,08,65,348,43,194,64,051,40,195,63,116,42,50,60,167,39,1*68
$GPGSV,4,2,14,199,60,167,36,21,56,159,44,02,44,178,35,07,38,318,47,1*57
$GPGSV,4,3,14,27,36,034,37,16,29,072,18,196,20,170,25,04,20,205,42,1*5F
$GPGSV,4,4,14,26,10,096,19,30,08,320,,1*69
$GPGSV,2,1,07,08,65,348,47,194,64,051,33,195,63,116,42,199,60,167,46,8*59
$GPGSV,2,2,07,27,36,034,41,04,20,205,46,196,20,170,26,8*65
$GLGSV,2,1,06,81,60,197,41,88,59,035,40,78,55,030,46,77,25,106,21,1*7B
$GLGSV,2,2,06,79,23,331,44,87,06,026,,1*7D
$GAGSV,2,1,06,21,54,007,41,13,54,086,32,26,40,172,38,27,30,076,26,7*76
$GAGSV,2,2,06,15,16,040,18,04,12,302,14,7*78
$GAGSV,1,1,04,13,54,086,31,21,54,007,43,26,40,172,38,15,16,040,29,1*7F
$GBGSV,4,1,13,09,74,272,40,06,73,215,38,23,71,022,48,16,70,197,44,1*73
$GBGSV,4,2,13,43,62,038,45,40,61,326,41,07,61,306,42,39,60,185,40,1*7D
$GBGSV,4,3,13,28,53,218,44,10,51,287,28,25,39,114,41,37,27,320,40,1*7E
$GBGSV,4,4,13,34,14,040,,1*42
$GBGSV,2,1,08,23,71,022,46,43,62,038,46,40,61,326,46,39,60,185,39,4*7B
$GBGSV,2,2,08,28,53,218,42,25,39,114,33,37,27,320,44,34,14,040,24,4*73
$GNACCURACY,4.7*15
$PAIRSAT,1,30,2,0,201,3,0,200,4,0,221,5,0,200,6,0,200,7,0,201,8,0,221,9,0,200,10,0,200,11,0,200,12,0,200,13,0,200,16,0,1,20,0,200,21,0,201,22,0,200,23,0,200,24,0,200,25,0,200,26,0,220,27,0,221,28,0,200,29,0,200,30,0,200,31,0,200,32,0,200,194,0,221,195,0,621,196,0,600,199,0,621*72
$PAIRSAT,2,23,65,0,200,66,0,200,67,0,200,68,0,200,69,0,200,70,0,200,71,0,200,72,0,200,73,0,200,74,0,200,75,0,200,76,0,200,77,0,1,78,0,201,79,0,201,80,0,200,81,0,201,83,0,200,84,0,200,85,0,200,86,0,200,87,0,201,88,0,201*5B
$PAIRSAT,3,22,2,0,1200,3,0,1200,4,0,1200,5,0,200,7,0,1200,8,0,1200,9,0,1200,10,0,200,11,0,200,12,0,200,13,0,221,15,0,220,19,0,200,21,0,221,25,0,1000,26,0,1021,27,0,1021,30,0,1000,31,0,1000,33,0,1200,34,0,1000,36,0,1200*41
$PAIRSAT,4,43,1,0,200,2,0,200,3,0,400,6,0,1,7,0,1,9,0,201,10,0,201,11,0,200,12,0,200,13,0,200,14,0,200,16,0,201,19,0,600,20,0,600,21,0,600,22,0,600,23,0,621,24,0,600,25,0,621,26,0,600,27,0,400,28,0,421,29,0,400,30,0,400,32,0,400,33,0,400,34,0,421,35,0,400,36,0,400,37,0,421,38,0,400,39,0,421,40,0,421,41,0,400,42,0,400,43,0,421,44,0,400,45,0,400,46,0,400,59,0,400,60,0,400,61,0,400,62,0,400*5A
$PAIRDGP,7,2,7,8,16,21,26,27*56
$GNGGA,040117.200,2500.7873747,N,12132.4458420,E,4,50,0.55,16.813,M,15.25,M,1,3335*4A
$GNRMC,040117.200,A,2500.7873747,N,12132.4458420,E,0.05,170.32,090324,,,R,V*16
$GPHDT,226.503,T*35
$GNACCURACY,4.7*15
$GNGGA,040117.300,2500.7873753,N,12132.4458384,E,4,50,0.55,16.809,M,15.25,M,1,3335*4C
$GNRMC,040117.300,A,2500.7873753,N,12132.4458384,E,0.04,170.32,090324,,,R,V*1A
$GPHDT,,T*1B
$GNACCURACY,4.7*15
$GNGGA,040117.400,2500.7873745,N,12132.4458412,E,4,50,0.55,16.816,M,15.25,M,1,3335*4A
$GNRMC,040117.400,A,2500.7873745,N,12132.4458412,E,0.03,170.32,090324,,,R,V*15
$GPHDT,226.156,T*31
$GNACCURACY,4.7*15
$GNGGA,040117.500,2500.7873751,N,12132.4458393,E,4,50,0.55,16.815,M,15.25,M,1,3335*43
$GNRMC,040117.500,A,2500.7873751,N,12132.4458393,E,0.02,170.32,090324,,,R,V*1E
$GPHDT,,T*1B
$GNACCURACY,4.8*1A
$GNGGA,040117.600,2500.7873743,N,12132.4458384,E,4,50,0.55,16.822,M,15.25,M,0,3335*40
$GNRMC,040117.600,A,2500.7873743,N,12132.4458384,E,0.02,170.32,090324,,,R,V*18
$GPHDT,225.625,T*31
$GNACCURACY,4.7*15
$GNGGA,040117.700,2500.7873775,N,12132.4458376,E,4,50,0.55,16.819,M,15.25,M,0,3335*41
$GNRMC,040117.700,A,2500.7873775,N,12132.4458376,E,0.01,170.32,090324,,,R,V*12
$GPHDT,,T*1B
$GNACCURACY,4.7*15
$GNGGA,040117.800,2500.7873745,N,12132.4458394,E,4,50,0.55,16.817,M,15.25,M,0,3335*4F
$GNRMC,040117.800,A,2500.7873745,N,12132.4458394,E,0.04,170.32,090324,,,R,V*17
$GPHDT,225.756,T*34
$GNACCURACY,4.7*15
$GNGGA,040117.900,2500.7873767,N,12132.4458411,E,4,50,0.55,16.830,M,15.25,M,0,3335*41
$GNRMC,040117.900,A,2500.7873767,N,12132.4458411,E,0.07,170.32,090324,,,R,V*1F
$GPHDT,,T*1B
$GNACCURACY,4.7*15
$GNGGA,040118.000,2500.7873773,N,12132.4458406,E,4,50,0.55,16.820,M,15.25,M,1,3335*44
$GNRMC,040118.000,A,2500.7873773,N,12132.4458406,E,0.05,170.32,090324,,,R,V*18
$GPHDT,226.142,T*34
$GNACCURACY,4.7*15
$GNGGA,040118.100,2500.7873742,N,12132.4458513,E,4,50,0.55,16.783,M,15.25,M,1,3335*44
$GNRMC,040118.100,A,2500.7873742,N,12132.4458513,E,0.05,170.32,090324,,,R,V*1E
$GPHDT,,T*1B
$GNGSA,A,3,08,194,195,199,21,02,07,27,16,04,,,0.86,0.55,0.66,1*37
$GNGSA,A,3,81,88,78,77,79,,,,,,,,0.86,0.55,0.66,2*04
$GNGSA,A,3,21,13,26,27,15,,,,,,,,0.86,0.55,0.66,3*09
$GNGSA,A,3,09,06,23,16,43,40,07,39,28,10,25,37,0.86,0.55,0.66,4*05
$GNGSA,A,3,34,,,,,,,,,,,,0.86,0.55,0.66,4*0D
$GPGSV,4,1,14,08,65,348,43,194,64,051,40,195,63,116,42,50,60,167,39,1*68
$GPGSV,4,2,14,199,60,167,36,21,56,159,44,02,44,178,36,07,38,318,47,1*54
$GPGSV,4,3,14,27,36,034,37,16,29,072,17,196,20,170,26,04,20,205,42,1*53
$GPGSV,4,4,14,26,10,096,20,30,08,320,,1*63
$GPGSV,2,1,07,08,65,348,47,194,64,051,34,195,63,116,44,199,60,167,46,8*58
$GPGSV,2,2,07,27,36,034,42,04,20,205,47,196,20,170,27,8*66
$GLGSV,2,1,06,81,60,197,41,88,59,035,39,78,55,030,46,77,25,106,23,1*77
$GLGSV,2,2,06,79,23,331,44,87,06,026,,1*7D
$GAGSV,2,1,06,21,54,007,41,13,54,086,31,26,40,172,38,27,30,076,26,7*75
$GAGSV,2,2,06,15,16,040,16,04,12,302,14,7*76
$GAGSV,1,1,04,13,54,086,33,21,54,007,44,26,40,172,38,15,16,040,29,1*7A
$GBGSV,4,1,13,09,74,272,40,06,73,215,38,23,71,022,48,16,70,197,44,1*73
$GBGSV,4,2,13,43,62,038,45,40,61,326,41,07,61,306,42,39,60,185,40,1*7D
$GBGSV,4,3,13,28,53,218,44,10,51,287,30,25,39,114,41,37,27,320,40,1*77
$GBGSV,4,4,13,34,14,040,,1*42
$GBGSV,2,1,08,23,71,022,47,43,62,038,46,40,61,326,46,39,60,185,40,4*74
$GBGSV,2,2,08,28,53,218,42,25,39,114,33,37,27,320,44,34,14,040,24,4*73
$GNACCURACY,4.7*15
$PAIRSAT,1,30,2,0,201,3,0,200,4,0,221,5,0,200,6,0,200,7,0,201,8,0,221,9,0,200,10,0,200,11,0,200,12,0,200,13,0,200,16,0,1,20,0,200,21,0,201,22,0,200,23,0,200,24,0,200,25,0,200,26,0,220,27,0,221,28,0,200,29,0,200,30,0,200,31,0,200,32,0,200,194,0,221,195,0,621,196,0,600,199,0,621*72
$PAIRSAT,2,23,65,0,200,66,0,200,67,0,200,68,0,200,69,0,200,70,0,200,71,0,200,72,0,200,73,0,200,74,0,200,75,0,200,76,0,200,77,0,1,78,0,201,79,0,201,80,0,200,81,0,201,83,0,200,84,0,200,85,0,200,86,0,200,87,0,201,88,0,201*5B
$PAIRSAT,3,22,2,0,1200,3,0,1200,4,0,1200,5,0,200,7,0,1200,8,0,1200,9,0,1200,10,0,200,11,0,200,12,0,200,13,0,221,15,0,220,19,0,200,21,0,221,25,0,1000,26,0,1021,27,0,1021,30,0,1000,31,0,1000,33,0,1200,34,0,1000,36,0,1200*41
$PAIRSAT,4,43,1,0,200,2,0,200,3,0,400,6,0,1,7,0,1,9,0,201,10,0,201,11,0,200,12,0,200,13,0,200,14,0,200,16,0,201,19,0,600,20,0,600,21,0,600,22,0,600,23,0,621,24,0,600,25,0,621,26,0,600,27,0,400,28,0,421,29,0,400,30,0,400,32,0,400,33,0,400,34,0,421,35,0,400,36,0,400,37,0,421,38,0,400,39,0,421,40,0,421,41,0,400,42,0,400,43,0,421,44,0,400,45,0,400,46,0,400,59,0,400,60,0,400,61,0,400,62,0,400*5A
$PAIRDGP,7,2,7,8,16,21,26,27*56
$GNGGA,040118.200,2500.7873763,N,12132.4458508,E,4,50,0.55,16.787,M,15.25,M,1,3335*4A
$GNRMC,040118.200,A,2500.7873763,N,12132.4458508,E,0.03,170.32,090324,,,R,V*12
$GPHDT,226.647,T*36
$GNACCURACY,4.7*15
$GNGGA,040118.300,2500.7873768,N,12132.4458561,E,4,50,0.55,16.785,M,15.25,M,1,3335*4D
$GNRMC,040118.300,A,2500.7873768,N,12132.4458561,E,0.02,170.32,090324,,,R,V*16
$GPHDT,,T*1B
$GNACCURACY,4.7*15
$GNGGA,040118.400,2500.7873750,N,12132.4458528,E,4,50,0.55,16.784,M,15.25,M,1,3335*4D
$GNRMC,040118.400,A,2500.7873750,N,12132.4458528,E,0.03,170.32,090324,,,R,V*16
$GPHDT,226.294,T*3C
$GNACCURACY,4.7*15
$GNGGA,040118.500,2500.7873751,N,12132.4458564,E,4,50,0.55,16.788,M,15.25,M,0,3335*48
$GNRMC,040118.500,A,2500.7873751,N,12132.4458564,E,0.02,170.32,090324,,,R,V*1F
$GPHDT,,T*1B
$GNACCURACY,4.7*15
$GNGGA,040118.600,2500.7873753,N,12132.4458545,E,4,50,0.55,16.789,M,15.25,M,0,3335*4B
$GNRMC,040118.600,A,2500.7873753,N,12132.4458545,E,0.04,170.32,090324,,,R,V*1B
$GPHDT,226.000,T*33
$GNACCURACY,4.8*1A
$GNGGA,040118.700,2500.7873737,N,12132.4458611,E,4,51,0.54,16.776,M,15.25,M,0,3335*4A
$GNRMC,040118.700,A,2500.7873737,N,12132.4458611,E,0.10,170.32,090324,,,R,V*1F
$GPHDT,,T*1B
$GNACCURACY,4.8*1A
$GNGGA,040118.800,2500.7873730,N,12132.4458533,E,4,51,0.54,16.787,M,15.25,M,0,3335*4F
$GNRMC,040118.800,A,2500.7873730,N,12132.4458533,E,0.03,170.32,090324,,,R,V*16
$GPHDT,226.176,T*33
$GNACCURACY,4.8*1A
$GNGGA,040118.900,2500.7873750,N,12132.4458564,E,4,51,0.54,16.784,M,15.25,M,0,3335*49
$GNRMC,040118.900,A,2500.7873750,N,12132.4458564,E,0.09,170.32,090324,,,R,V*19
$GPHDT,,T*1B
$GNACCURACY,4.8*1A
$GNGGA,040119.000,2500.7873753,N,12132.4458515,E,4,51,0.54,16.804,M,15.25,M,1,3335*42
$GNRMC,040119.000,A,2500.7873753,N,12132.4458515,E,0.07,170.32,090324,,,R,V*1A
$GPHDT,225.940,T*3D
$GNACCURACY,4.8*1A
$GNGGA,040119.100,2500.7873750,N,12132.4458558,E,4,51,0.54,16.786,M,15.25,M,1,3335*4C
$GNRMC,040119.100,A,2500.7873750,N,12132.4458558,E,0.02,170.32,090324,,,R,V*14
$GPHDT,,T*1B
$GNGSA,A,3,08,194,195,199,21,02,07,27,16,04,26,,0.83,0.54,0.63,1*32
$GNGSA,A,3,81,88,78,77,79,,,,,,,,0.83,0.54,0.63,2*05
$GNGSA,A,3,13,21,26,27,15,,,,,,,,0.83,0.54,0.63,3*08
$GNGSA,A,3,09,06,23,16,43,40,07,39,28,10,25,37,0.83,0.54,0.63,4*04
$GNGSA,A,3,34,,,,,,,,,,,,0.83,0.54,0.63,4*0C
$GPGSV,4,1,13,08,65,348,44,194,64,051,40,195,63,116,42,50,60,167,39,1*68
$GPGSV,4,2,13,199,60,167,36,21,56,159,44,02,44,178,36,07,38,318,47,1*53
$GPGSV,4,3,13,27,36,034,38,16,29,072,18,04,20,205,42,196,20,170,26,1*54
$GPGSV,4,4,13,26,10,096,17,1*5A
$GPGSV,2,1,08,08,65,348,47,194,64,051,35,195,63,116,45,199,60,167,46,8*57
$GPGSV,2,2,08,27,36,034,41,04,20,205,48,196,20,170,27,26,10,096,20,8*5D
$GLGSV,2,1,06,81,60,197,41,88,59,035,39,78,55,030,46,77,25,106,24,1*70
$GLGSV,2,2,06,79,23,331,44,87,06,026,20,1*7F
$GAGSV,2,1,07,13,54,086,34,21,54,007,41,26,40,172,38,27,30,076,26,7*71
$GAGSV,2,2,07,19,29,244,,15,16,040,15,04,12,302,13,7*42
$GAGSV,1,1,04,13,54,086,32,21,54,007,44,26,40,172,37,15,16,040,29,1*74
$GBGSV,4,1,13,09,74,272,40,06,73,215,38,23,71,022,48,16,70,197,44,1*73
$GBGSV,4,2,13,43,62,038,45,40,61,326,40,07,61,306,42,39,60,185,40,1*7C
$GBGSV,4,3,13,28,53,218,44,10,51,287,29,25,39,114,41,37,27,320,40,1*7F
$GBGSV,4,4,13,34,14,040,,1*42
$GBGSV,2,1,08,23,71,022,46,43,62,038,46,40,61,326,46,39,60,185,39,4*7B
$GBGSV,2,2,08,28,53,218,42,25,39,114,31,37,27,320,43,34,14,040,24,4*76
$GNACCURACY,4.8*1A
$PAIRSAT,1,30,2,0,201,3,0,200,4,0,221,5,0,200,6,0,200,7,0,201,8,0,221,9,0,200,10,0,200,11,0,200,12,0,200,13,0,200,16,0,1,20,0,200,21,0,201,22,0,200,23,0,200,24,0,200,25,0,200,26,0,220,27,0,221,28,0,200,29,0,200,30,0,200,31,0,200,32,0,200,194,0,221,195,0,621,196,0,600,199,0,621*72
$PAIRSAT,2,23,65,0,200,66,0,200,67,0,200,68,0,200,69,0,200,70,0,200,71,0,200,72,0,200,73,0,200,74,0,200,75,0,200,76,0,200,77,0,1,78,0,201,79,0,201,80,0,200,81,0,201,83,0,200,84,0,200,85,0,200,86,0,200,87,0,201,88,0,201*5B
$PAIRSAT,3,22,2,0,1200,3,0,1200,4,0,1200,5,0,200,7,0,1200,8,0,1200,9,0,1200,10,0,200,11,0,200,12,0,200,13,0,221,15,0,220,19,0,200,21,0,221,25,0,1000,26,0,1021,27,0,1021,30,0,1000,31,0,1000,33,0,1200,34,0,1000,36,0,1200*41
$PAIRSAT,4,43,1,0,200,2,0,200,3,0,400,6,0,1,7,0,1,9,0,201,10,0,201,11,0,200,12,0,200,13,0,200,14,0,200,16,0,201,19,0,600,20,0,600,21,0,600,22,0,600,23,0,621,24,0,600,25,0,621,26,0,600,27,0,400,28,0,421,29,0,400,30,0,400,32,0,400,33,0,400,34,0,421,35,0,400,36,0,400,37,0,421,38,0,400,39,0,421,40,0,421,41,0,400,42,0,400,43,0,421,44,0,400,45,0,400,46,0,400,59,0,400,60,0,400,61,0,400,62,0,400*5A
$PAIRDGP,7,2,7,8,16,21,26,27*56
$GNGGA,040119.200,2500.7873751,N,12132.4458506,E,4,51,0.54,16.799,M,15.25,M,1,3335*4B
$GNRMC,040119.200,A,2500.7873751,N,12132.4458506,E,0.01,170.32,090324,,,R,V*1E
$GPHDT,226.010,T*32
$GNACCURACY,4.8*1A
$GNGGA,040119.300,2500.7873747,N,12132.4458509,E,4,51,0.54,16.792,M,15.25,M,1,3335*49
$GNRMC,040119.300,A,2500.7873747,N,12132.4458509,E,0.02,170.32,090324,,,R,V*14
$GPHDT,,T*1B
$GNACCURACY,4.8*1A
$GNGGA,040119.400,2500.7873748,N,12132.4458568,E,4,51,0.54,16.783,M,15.25,M,1,3335*46
$GNRMC,040119.400,A,2500.7873748,N,12132.4458568,E,0.02,170.32,090324,,,R,V*1B
$GPHDT,226.479,T*39
$GNACCURACY,4.8*1A
$GNGGA,040119.500,2500.7873746,N,12132.4458557,E,4,51,0.54,16.785,M,15.25,M,1,3335*43
$GNRMC,040119.500,A,2500.7873746,N,12132.4458557,E,0.02,170.32,090324,,,R,V*18
$GPHDT,,T*1B
$GNACCURACY,4.8*1A
$GNGGA,040119.600,2500.7873754,N,12132.4458526,E,4,51,0.54,16.796,M,15.25,M,0,3335*46
$GNRMC,040119.600,A,2500.7873754,N,12132.4458526,E,0.01,170.32,090324,,,R,V*1D
$GPHDT,226.679,T*3B
$GNACCURACY,4.7*15
$GNGGA,040119.700,2500.7873760,N,12132.4458568,E,4,51,0.54,16.787,M,15.25,M,0,3335*4A
$GNRMC,040119.700,A,2500.7873760,N,12132.4458568,E,0.01,170.32,090324,,,R,V*11
$GPHDT,,T*1B
$GNACCURACY,4.7*15
$GNGGA,040119.800,2500.7873758,N,12132.4458522,E,4,51,0.54,16.811,M,15.25,M,0,3335*40
$GNRMC,040119.800,A,2500.7873758,N,12132.4458522,E,0.02,170.32,090324,,,R,V*18
$GPHDT,226.144,T*32
$GNACCURACY,4.7*15
$GNGGA,040119.900,2500.7873763,N,12132.4458562,E,4,51,0.54,16.791,M,15.25,M,0,3335*4A
$GNRMC,040119.900,A,2500.7873763,N,12132.4458562,E,0.04,170.32,090324,,,R,V*13
$GPHDT,,T*1B
$GNACCURACY,4.7*15
$GNGGA,040120.000,2500.7873761,N,12132.4458520,E,4,51,0.54,16.814,M,15.25,M,1,3335*4E
$GNRMC,040120.000,A,2500.7873761,N,12132.4458520,E,0.02,170.32,090324,,,R,V*12
$GPHDT,226.637,T*31
$GNACCURACY,4.7*15
$GNGGA,040120.100,2500.7873757,N,12132.4458563,E,4,51,0.54,16.793,M,15.25,M,1,3335*4D
$GNRMC,040120.100,A,2500.7873757,N,12132.4458563,E,0.02,170.32,090324,,,R,V*11
$GPHDT,,T*1B
$GNGSA,A,3,08,194,195,199,21,02,07,27,16,04,26,,0.83,0.54,0.63,1*32
$GNGSA,A,3,81,88,78,77,79,,,,,,,,0.83,0.54,0.63,2*05
$GNGSA,A,3,13,21,26,27,15,,,,,,,,0.83,0.54,0.63,3*08
$GNGSA,A,3,09,06,23,16,43,40,07,39,28,10,25,37,0.83,0.54,0.63,4*04
$GNGSA,A,3,34,,,,,,,,,,,,0.83,0.54,0.63,4*0C
$GPGSV,4,1,13,08,65,348,44,194,64,051,40,195,63,116,42,50,60,167,39,1*68
$GPGSV,4,2,13,199,60,167,36,21,56,159,43,02,44,178,38,07,38,318,47,1*5A
$GPGSV,4,3,13,27,36,034,38,16,29,072,15,04,20,205,42,196,20,170,27,1*58
$GPGSV,4,4,13,26,10,096,16,1*5B
$GPGSV,2,1,08,08,65,348,47,194,64,051,34,195,63,116,46,199,60,167,46,8*55
$GPGSV,2,2,08,27,36,034,41,04,20,205,48,196,20,170,27,26,10,096,21,8*5C
$GLGSV,2,1,06,81,60,197,41,88,59,035,40,78,55,030,47,77,25,106,24,1*7F
$GLGSV,2,2,06,79,23,331,44,87,06,026,20,1*7F
$GAGSV,2,1,07,13,54,086,34,21,54,007,41,26,41,172,36,27,30,076,27,7*7F
$GAGSV,2,2,07,19,29,244,,15,16,040,15,04,12,302,12,7*43
$GAGSV,1,1,04,13,54,086,33,21,54,007,44,26,41,172,37,15,16,040,28,1*75
$GBGSV,4,1,13,09,74,272,40,06,73,215,38,23,71,022,48,16,70,197,44,1*73
$GBGSV,4,2,13,43,62,038,45,40,61,326,40,07,61,306,42,39,60,185,40,1*7C
$GBGSV,4,3,13,28,53,218,44,10,51,287,28,25,39,114,41,37,27,320,41,1*7F
$GBGSV,4,4,13,34,14,040,,1*42
$GBGSV,2,1,08,23,71,022,47,43,62,038,46,40,61,326,46,39,60,185,40,4*74
$GBGSV,2,2,08,28,53,218,42,25,39,114,32,37,27,320,43,34,14,040,25,4*74
$GNACCURACY,4.7*15
$PAIRSAT,1,30,2,0,201,3,0,200,4,0,221,5,0,200,6,0,200,7,0,201,8,0,221,9,0,200,10,0,200,11,0,200,12,0,200,13,0,200,16,0,1,20,0,200,21,0,201,22,0,200,23,0,200,24,0,200,25,0,200,26,0,220,27,0,221,28,0,200,29,0,200,30,0,200,31,0,200,32,0,200,194,0,221,195,0,621,196,0,600,199,0,621*72
$PAIRSAT,2,23,65,0,200,66,0,200,67,0,200,68,0,200,69,0,200,70,0,200,71,0,200,72,0,200,73,0,200,74,0,200,75,0,200,76,0,200,77,0,1,78,0,201,79,0,201,80,0,200,81,0,201,83,0,200,84,0,200,85,0,200,86,0,200,87,0,201,88,0,201*5B
$PAIRSAT,3,22,2,0,1200,3,0,1200,4,0,1200,5,0,200,7,0,1200,8,0,1200,9,0,1200,10,0,200,11,0,200,12,0,200,13,0,221,15,0,220,19,0,200,21,0,221,25,0,1000,26,0,1021,27,0,1021,30,0,1000,31,0,1000,33,0,1200,34,0,1000,36,0,1200*41
$PAIRSAT,4,43,1,0,200,2,0,200,3,0,400,6,0,1,7,0,1,9,0,201,10,0,201,11,0,200,12,0,200,13,0,200,14,0,200,16,0,201,19,0,600,20,0,600,21,0,600,22,0,600,23,0,621,24,0,600,25,0,621,26,0,600,27,0,400,28,0,421,29,0,400,30,0,400,32,0,400,33,0,400,34,0,421,35,0,400,36,0,400,37,0,421,38,0,400,39,0,421,40,0,421,41,0,400,42,0,400,43,0,421,44,0,400,45,0,400,46,0,400,59,0,400,60,0,400,61,0,400,62,0,400*5A
$PAIRDGP,7,2,7,8,16,21,26,27*56
$GNGGA,040120.200,2500.7873760,N,12132.4458510,E,4,51,0.54,16.815,M,15.25,M,1,3335*4F
$GNRMC,040120.200,A,2500.7873760,N,12132.4458510,E,0.01,170.32,090324,,,R,V*11
$GPHDT,226.432,T*36
$GNACCURACY,4.8*1A
$GNGGA,040120.300,2500.7873765,N,12132.4458517,E,4,51,0.54,16.815,M,15.25,M,1,3335*4C
$GNRMC,040120.300,A,2500.7873765,N,12132.4458517,E,0.02,170.32,090324,,,R,V*11
$GPHDT,,T*1B
$GNACCURACY,4.7*15
$GNGGA,040120.400,2500.7873760,N,12132.4458554,E,4,51,0.54,16.802,M,15.25,M,1,3335*4F
$GNRMC,040120.400,A,2500.7873760,N,12132.4458554,E,0.00,170.32,090324,,,R,V*16
$GPHDT,226.478,T*38
$GNACCURACY,4.8*1A
$GNGGA,040120.500,2500.7873772,N,12132.4458520,E,4,51,0.54,16.811,M,15.25,M,1,3335*4C
$GNRMC,040120.500,A,2500.7873772,N,12132.4458520,E,0.02,170.32,090324,,,R,V*15
$GPHDT,,T*1B
$GNACCURACY,4.7*15
$GNGGA,040120.600,2500.7873761,N,12132.4458527,E,4,51,0.54,16.807,M,15.25,M,1,3335*4D
$GNRMC,040120.600,A,2500.7873761,N,12132.4458527,E,0.01,170.32,090324,,,R,V*10
$GPHDT,226.264,T*33
$GNACCURACY,4.8*1A
$GNGGA,040120.700,2500.7873735,N,12132.4458477,E,4,51,0.54,16.826,M,15.25,M,0,3335*4B
$GNRMC,040120.700,A,2500.7873735,N,12132.4458477,E,0.01,170.32,090324,,,R,V*14
$GPHDT,,T*1B
$GNACCURACY,4.7*15
$GNGGA,040120.800,2500.7873751,N,12132.4458485,E,4,51,0.54,16.813,M,15.25,M,0,3335*4D
$GNRMC,040120.800,A,2500.7873751,N,12132.4458485,E,0.05,170.32,090324,,,R,V*10
$GPHDT,226.377,T*30
$GNACCURACY,4.7*15
$GNGGA,040120.900,2500.7873746,N,12132.4458429,E,4,51,0.54,16.830,M,15.25,M,0,3335*4D
$GNRMC,040120.900,A,2500.7873746,N,12132.4458429,E,0.07,170.32,090324,,,R,V*13
$GPHDT,,T*1B
