$FW : RTK35X,V1.1X0314AS,Lib20210517,1*54
$Tool : LOCOSYS , GNSS Firebird , v1.0.0.19*39
$---------------------------------------------------*2D
000,A,2500.7873810,N,12132.4458712,E,0.01,170.32,090324,,,R,V*12
$GPHDT,137.201,T*33
$GNACCURACY,4.0*12
$GNGGA,040129.100,2500.7873840,N,12132.4458732,E,4,52,0.54,16.740,M,15.25,M,1,3335*46
$GNRMC,040129.100,A,2500.7873840,N,12132.4458732,E,0.01,170.32,090324,,,R,V*14
$GPHDT,,T*1B
$GNGSA,A,3,08,194,195,199,21,02,07,27,16,04,26,,0.83,0.54,0.63,1*32
$GNGSA,A,3,81,88,78,77,79,,,,,,,,0.83,0.54,0.63,2*05
$GNGSA,A,3,13,21,26,27,15,,,,,,,,0.83,0.54,0.63,3*08
$GNGSA,A,3,09,06,23,16,43,07,40,39,28,10,25,37,0.83,0.54,0.63,4*04
$GNGSA,A,3,34,,,,,,,,,,,,0.83,0.54,0.63,4*0C
$GPGSV,4,1,13,08,65,348,40,194,64,051,34,195,63,116,41,50,60,167,35,1*60
$GPGSV,4,2,13,199,60,167,32,21,56,159,38,02,44,178,37,07,38,318,46,1*5C
$GPGSV,4,3,13,27,36,034,32,16,29,072,28,04,20,205,42,196,20,170,22,1*59
$GPGSV,4,4,13,26,10,096,19,1*54
$GPGSV,2,1,08,08,65,348,44,194,64,051,36,195,63,116,45,199,60,167,44,8*55
$GPGSV,2,2,08,27,36,034,37,04,20,205,42,196,20,170,28,26,10,096,24,8*5D
$GLGSV,2,1,06,81,60,197,43,88,59,035,36,78,55,030,39,77,25,106,20,1*71
$GLGSV,2,2,06,79,23,331,40,87,06,026,20,1*7B
$GAGSV,2,1,07,13,54,086,30,21,54,007,37,26,41,172,26,27,30,076,24,7*78
$GAGSV,2,2,07,15,16,040,21,04,12,302,,33,01,199,,7*46
$GAGSV,2,1,05,13,54,086,35,21,54,007,39,26,41,172,27,27,30,076,27,1*75
$GAGSV,2,2,05,15,16,040,18,1*4E
$GBGSV,4,1,13,09,74,272,39,06,73,215,41,23,72,022,40,16,70,198,44,1*77
$GBGSV,4,2,13,43,61,038,42,07,61,306,38,40,61,327,40,39,59,185,33,1*7A
$GBGSV,4,3,13,28,53,218,46,10,51,287,27,25,39,114,43,37,27,320,36,1*70
$GBGSV,4,4,13,34,14,040,,1*42
$GBGSV,2,1,08,23,72,022,44,40,61,327,40,43,61,038,39,39,59,185,39,4*7C
$GBGSV,2,2,08,28,53,218,43,25,39,114,29,37,27,320,42,34,14,040,19,4*71
$GNACCURACY,4.0*12
$PAIRSAT,1,30,2,0,201,3,0,200,4,0,221,5,0,200,6,0,200,7,0,201,8,0,221,9,0,200,10,0,200,11,0,200,12,0,200,13,0,200,16,0,1,20,0,200,21,0,201,22,0,200,23,0,200,24,0,200,25,0,200,26,0,220,27,0,221,28,0,200,29,0,200,30,0,200,31,0,200,32,0,200,194,0,221,195,0,621,196,0,600,199,0,621*72
$PAIRSAT,2,23,65,0,200,66,0,200,67,0,200,68,0,200,69,0,200,70,0,200,71,0,200,72,0,200,73,0,200,74,0,200,75,0,200,76,0,200,77,0,1,78,0,201,79,0,201,80,0,200,81,0,201,83,0,200,84,0,200,85,0,200,86,0,200,87,0,201,88,0,201*5B
$PAIRSAT,3,23,2,0,1200,3,0,1200,4,0,1200,5,0,200,7,0,1200,8,0,1200,9,0,1200,10,0,200,11,0,200,12,0,200,13,0,221,15,0,220,19,0,200,21,0,221,24,0,200,25,0,1000,26,0,1021,27,0,1021,30,0,1000,31,0,1000,33,0,1200,34,0,1000,36,0,1200*68
$PAIRSAT,4,43,1,0,200,2,0,200,3,0,600,6,0,1,7,0,1,9,0,201,10,0,201,11,0,200,12,0,200,13,0,200,14,0,200,16,0,201,19,0,600,20,0,600,21,0,600,22,0,600,23,0,621,24,0,600,25,0,621,26,0,600,27,0,600,28,0,421,29,0,400,30,0,400,32,0,400,33,0,400,34,0,421,35,0,400,36,0,400,37,0,421,38,0,400,39,0,421,40,0,421,41,0,400,42,0,400,43,0,421,44,0,400,45,0,400,46,0,400,59,0,400,60,0,400,61,0,400,62,0,400*5A
$PAIRDGP,7,2,7,8,16,21,26,27*56
$GNGGA,040129.200,2500.7873812,N,12132.4458706,E,4,52,0.54,16.750,M,15.25,M,1,3335*44
$GNRMC,040129.200,A,2500.7873812,N,12132.4458706,E,0.01,170.32,090324,,,R,V*17
$GPHDT,137.636,T*33
$GNACCURACY,4.0*12
$GNGGA,040129.300,2500.7873743,N,12132.4458623,E,4,52,0.54,16.771,M,15.25,M,1,3335*4B
$GNRMC,040129.300,A,2500.7873743,N,12132.4458623,E,0.01,170.32,090324,,,R,V*1B
$GPHDT,,T*1B
$GNACCURACY,4.0*12
$GNGGA,040129.400,2500.7873806,N,12132.4458744,E,4,52,0.54,16.748,M,15.25,M,1,3335*48
$GNRMC,040129.400,A,2500.7873806,N,12132.4458744,E,0.00,170.32,090324,,,R,V*13
$GPHDT,137.977,T*39
$GNACCURACY,4.0*12
$GNGGA,040129.500,2500.7873794,N,12132.4458735,E,4,52,0.54,16.761,M,15.25,M,0,3335*41
$GNRMC,040129.500,A,2500.7873794,N,12132.4458735,E,0.02,170.32,090324,,,R,V*12
$GPHDT,,T*1B
$GNACCURACY,4.0*12
$GNGGA,040129.600,2500.7873817,N,12132.4458657,E,4,52,0.54,16.769,M,15.25,M,0,3335*4B
$GNRMC,040129.600,A,2500.7873817,N,12132.4458657,E,0.01,170.32,090324,,,R,V*13
$GPHDT,137.269,T*3D
$GNACCURACY,4.0*12
$GNGGA,040129.700,2500.7873786,N,12132.4458711,E,4,52,0.54,16.756,M,15.25,M,0,3335*42
$GNRMC,040129.700,A,2500.7873786,N,12132.4458711,E,0.01,170.32,090324,,,R,V*16
$GPHDT,,T*1B
$GNACCURACY,4.0*12
$GNGGA,040129.800,2500.7873762,N,12132.4458701,E,4,52,0.54,16.776,M,15.25,M,0,3335*44
$GNRMC,040129.800,A,2500.7873762,N,12132.4458701,E,0.01,170.32,090324,,,R,V*12
$GPHDT,136.751,T*32
$GNACCURACY,4.0*12
$GNGGA,040129.900,2500.7873786,N,12132.4458712,E,4,52,0.54,16.761,M,15.25,M,0,3335*4B
$GNRMC,040129.900,A,2500.7873786,N,12132.4458712,E,0.01,170.32,090324,,,R,V*1B
$GPHDT,,T*1B
$GNACCURACY,4.0*12
$GNGGA,040130.000,2500.7873792,N,12132.4458692,E,4,52,0.54,16.750,M,15.25,M,1,3335*45
$GNRMC,040130.000,A,2500.7873792,N,12132.4458692,E,0.01,170.32,090324,,,R,V*16
$GPHDT,137.873,T*3C
$GNACCURACY,4.0*12
$GNGGA,040130.100,2500.7873785,N,12132.4458680,E,4,52,0.54,16.763,M,15.25,M,1,3335*41
$GNRMC,040130.100,A,2500.7873785,N,12132.4458680,E,0.02,170.32,090324,,,R,V*11
$GPHDT,,T*1B
$GNGSA,A,3,08,194,195,199,21,02,07,27,16,04,26,,0.83,0.54,0.63,1*32
$GNGSA,A,3,81,88,78,77,79,,,,,,,,0.83,0.54,0.63,2*05
$GNGSA,A,3,13,21,26,27,15,,,,,,,,0.83,0.54,0.63,3*08
$GNGSA,A,3,09,06,23,16,43,07,40,39,28,10,25,37,0.83,0.54,0.63,4*04
$GNGSA,A,3,34,,,,,,,,,,,,0.83,0.54,0.63,4*0C
$GPGSV,4,1,13,08,65,348,42,194,64,051,35,195,63,116,40,50,60,167,36,1*61
$GPGSV,4,2,13,199,60,167,33,21,56,159,39,02,44,177,39,07,38,318,47,1*5C
$GPGSV,4,3,13,27,36,034,27,16,29,072,30,04,20,205,41,196,20,170,27,1*52
$GPGSV,4,4,13,26,10,096,19,1*54
$GPGSV,2,1,08,08,65,348,43,194,64,051,37,195,63,116,44,199,60,167,44,8*52
$GPGSV,2,2,08,27,36,034,36,04,20,205,40,196,20,170,28,26,10,096,24,8*5E
$GLGSV,2,1,06,81,60,197,43,88,59,035,34,78,55,030,39,77,25,106,22,1*71
$GLGSV,2,2,06,79,23,331,39,87,06,026,19,1*7F
$GAGSV,2,1,07,13,54,086,33,21,54,007,35,26,41,172,24,27,30,076,23,7*7C
$GAGSV,2,2,07,15,16,040,24,04,12,302,16,33,01,199,,7*44
$GAGSV,2,1,05,13,54,086,36,21,54,007,32,26,41,172,30,27,30,076,27,1*7B
$GAGSV,2,2,05,15,16,040,15,1*43
$GBGSV,4,1,13,09,74,272,39,06,73,215,41,23,72,022,42,16,70,198,44,1*75
$GBGSV,4,2,13,43,61,038,43,07,61,306,41,40,61,327,39,39,59,185,33,1*7B
$GBGSV,4,3,13,28,53,218,46,10,51,287,26,25,39,114,43,37,27,320,36,1*71
$GBGSV,4,4,13,34,14,040,,1*42
$GBGSV,2,1,08,23,72,022,44,40,61,327,41,43,61,038,41,39,59,185,40,4*7C
$GBGSV,2,2,08,28,53,218,42,25,39,114,26,37,27,320,42,34,14,040,19,4*7F
$GNACCURACY,4.0*12
$PAIRSAT,1,30,2,0,201,3,0,200,4,0,221,5,0,200,6,0,200,7,0,201,8,0,221,9,0,200,10,0,200,11,0,200,12,0,200,13,0,200,16,0,1,20,0,200,21,0,201,22,0,200,23,0,200,24,0,200,25,0,200,26,0,220,27,0,221,28,0,200,29,0,200,30,0,200,31,0,200,32,0,200,194,0,221,195,0,621,196,0,600,199,0,621*72
$PAIRSAT,2,23,65,0,200,66,0,200,67,0,200,68,0,200,69,0,200,70,0,200,71,0,200,72,0,200,73,0,200,74,0,200,75,0,200,76,0,200,77,0,1,78,0,201,79,0,201,80,0,200,81,0,201,83,0,200,84,0,200,85,0,200,86,0,200,87,0,201,88,0,201*5B
$PAIRSAT,3,23,2,0,1200,3,0,1200,4,0,1200,5,0,200,7,0,1200,8,0,1200,9,0,1200,10,0,200,11,0,200,12,0,200,13,0,221,15,0,220,19,0,200,21,0,221,24,0,200,25,0,1000,26,0,1021,27,0,1021,30,0,1000,31,0,1000,33,0,1200,34,0,1000,36,0,1200*68
$PAIRSAT,4,43,1,0,200,2,0,200,3,0,600,6,0,1,7,0,1,9,0,201,10,0,201,11,0,200,12,0,200,13,0,200,14,0,200,16,0,201,19,0,600,20,0,600,21,0,600,22,0,600,23,0,621,24,0,600,25,0,621,26,0,600,27,0,600,28,0,421,29,0,400,30,0,400,32,0,400,33,0,400,34,0,421,35,0,400,36,0,400,37,0,421,38,0,400,39,0,421,40,0,421,41,0,400,42,0,400,43,0,421,44,0,400,45,0,400,46,0,400,59,0,400,60,0,400,61,0,400,62,0,400*5A
$PAIRDGP,7,2,7,8,16,21,26,27*56
$GNGGA,040130.200,2500.7873806,N,12132.4458680,E,4,52,0.54,16.764,M,15.25,M,1,3335*41
$GNRMC,040130.200,A,2500.7873806,N,12132.4458680,E,0.01,170.32,090324,,,R,V*15
$GPHDT,138.115,T*3A
$GNACCURACY,4.0*12
$GNGGA,040130.300,2500.7873797,N,12132.4458648,E,4,52,0.54,16.768,M,15.25,M,1,3335*4F
$GNRMC,040130.300,A,2500.7873797,N,12132.4458648,E,0.02,170.32,090324,,,R,V*14
$GPHDT,,T*1B
$GNACCURACY,4.0*12
$GNGGA,040130.400,2500.7873801,N,12132.4458643,E,4,52,0.54,16.757,M,15.25,M,1,3335*4F
$GNRMC,040130.400,A,2500.7873801,N,12132.4458643,E,0.02,170.32,090324,,,R,V*18
$GPHDT,137.330,T*30
$GNACCURACY,4.0*12
$GNGGA,040130.500,2500.7873793,N,12132.4458621,E,4,52,0.54,16.780,M,15.25,M,0,3335*45
$GNRMC,040130.500,A,2500.7873793,N,12132.4458621,E,0.02,170.32,090324,,,R,V*19
$GPHDT,,T*1B
$GNACCURACY,4.0*12
$GNGGA,040130.600,2500.7873793,N,12132.4458684,E,4,52,0.54,16.778,M,15.25,M,0,3335*4E
$GNRMC,040130.600,A,2500.7873793,N,12132.4458684,E,0.01,170.32,090324,,,R,V*16
$GPHDT,137.501,T*34
$GNACCURACY,4.0*12
$GNGGA,040130.700,2500.7873754,N,12132.4458638,E,4,52,0.54,16.788,M,15.25,M,0,3335*4C
$GNRMC,040130.700,A,2500.7873754,N,12132.4458638,E,0.01,170.32,090324,,,R,V*1B
$GPHDT,,T*1B
$GNACCURACY,4.0*12
$GNGGA,040130.800,2500.7873746,N,12132.4458669,E,4,52,0.54,16.791,M,15.25,M,0,3335*4C
$GNRMC,040130.800,A,2500.7873746,N,12132.4458669,E,0.01,170.32,090324,,,R,V*13
$GPHDT,137.235,T*34
$GNACCURACY,4.0*12
$GNGGA,040130.900,2500.7873763,N,12132.4458683,E,4,52,0.54,16.769,M,15.25,M,0,3335*49
$GNRMC,040130.900,A,2500.7873763,N,12132.4458683,E,0.00,170.32,090324,,,R,V*10
$GPHDT,,T*1B
$GNACCURACY,4.0*12
$GNGGA,040131.000,2500.7873792,N,12132.4458742,E,4,52,0.54,16.770,M,15.25,M,1,3335*4A
$GNRMC,040131.000,A,2500.7873792,N,12132.4458742,E,0.01,170.32,090324,,,R,V*1B
$GPHDT,139.096,T*31
$GNACCURACY,4.0*12
$GNGGA,040131.100,2500.7873759,N,12132.4458699,E,4,52,0.54,16.779,M,15.25,M,1,3335*42
$GNRMC,040131.100,A,2500.7873759,N,12132.4458699,E,0.01,170.32,090324,,,R,V*1A
$GPHDT,,T*1B
$GNGSA,A,3,08,194,195,199,21,02,07,27,16,04,26,,0.83,0.54,0.63,1*32
$GNGSA,A,3,81,88,78,77,79,,,,,,,,0.83,0.54,0.63,2*05
$GNGSA,A,3,13,21,26,27,15,,,,,,,,0.83,0.54,0.63,3*08
$GNGSA,A,3,09,06,23,16,43,07,40,39,28,10,25,37,0.83,0.54,0.63,4*04
$GNGSA,A,3,34,,,,,,,,,,,,0.83,0.54,0.63,4*0C
$GPGSV,4,1,13,08,65,348,44,194,64,051,35,195,63,116,40,50,60,167,37,1*66
$GPGSV,4,2,13,199,60,167,34,21,56,159,38,02,44,177,38,07,38,318,47,1*5B
$GPGSV,4,3,13,27,36,034,26,16,29,072,31,04,20,205,42,196,20,170,25,1*53
$GPGSV,4,4,13,26,10,096,16,1*5B
$GPGSV,2,1,08,08,65,348,46,194,64,051,38,195,63,116,45,199,60,167,45,8*58
$GPGSV,2,2,08,27,36,034,38,04,20,205,42,196,20,170,28,26,10,096,24,8*52
$GLGSV,2,1,06,81,60,197,43,88,59,035,32,78,55,030,38,77,25,106,20,1*74
$GLGSV,2,2,06,79,23,331,42,87,06,026,20,1*79
$GAGSV,2,1,07,13,54,086,33,21,54,007,37,26,41,172,29,27,30,076,22,7*72
$GAGSV,2,2,07,15,16,040,23,04,12,302,15,33,01,199,,7*40
$GAGSV,1,1,04,13,54,086,36,21,54,007,38,26,41,172,27,27,30,076,29,1*7B
$GBGSV,4,1,13,09,74,272,36,06,73,215,41,23,72,022,43,16,70,198,44,1*7B
$GBGSV,4,2,13,43,61,038,42,07,61,306,40,40,61,327,41,39,59,185,36,1*71
$GBGSV,4,3,13,28,53,218,46,10,51,287,28,25,39,114,43,37,27,320,39,1*70
$GBGSV,4,4,13,34,14,040,,1*42
$GBGSV,2,1,08,23,72,022,45,40,61,327,44,43,61,038,41,39,59,185,40,4*78
$GBGSV,2,2,08,28,53,218,43,25,39,114,30,37,27,320,44,34,14,040,20,4*75
$GNACCURACY,4.0*12
$PAIRSAT,1,30,2,0,201,3,0,200,4,0,221,5,0,200,6,0,200,7,0,201,8,0,221,9,0,200,10,0,200,11,0,200,12,0,200,13,0,200,16,0,1,20,0,200,21,0,201,22,0,200,23,0,200,24,0,200,25,0,200,26,0,220,27,0,221,28,0,200,29,0,200,30,0,200,31,0,200,32,0,200,194,0,221,195,0,621,196,0,600,199,0,621*72
$PAIRSAT,2,23,65,0,200,66,0,200,67,0,200,68,0,200,69,0,200,70,0,200,71,0,200,72,0,200,73,0,200,74,0,200,75,0,200,76,0,200,77,0,1,78,0,201,79,0,201,80,0,200,81,0,201,83,0,200,84,0,200,85,0,200,86,0,200,87,0,201,88,0,201*5B
$PAIRSAT,3,23,2,0,1200,3,0,1200,4,0,1200,5,0,200,7,0,1200,8,0,1200,9,0,1200,10,0,200,11,0,200,12,0,200,13,0,221,15,0,220,19,0,200,21,0,221,24,0,200,25,0,1000,26,0,1021,27,0,1021,30,0,1000,31,0,1000,33,0,1200,34,0,1000,36,0,1200*68
$PAIRSAT,4,43,1,0,200,2,0,200,3,0,600,6,0,1,7,0,1,9,0,201,10,0,201,11,0,200,12,0,200,13,0,200,14,0,200,16,0,201,19,0,600,20,0,600,21,0,600,22,0,600,23,0,621,24,0,600,25,0,621,26,0,600,27,0,600,28,0,421,29,0,400,30,0,400,32,0,400,33,0,400,34,0,421,35,0,400,36,0,400,37,0,421,38,0,400,39,0,421,40,0,421,41,0,400,42,0,400,43,0,421,44,0,400,45,0,400,46,0,400,59,0,400,60,0,400,61,0,400,62,0,400*5A
$PAIRDGP,7,2,7,8,16,21,26,27*56
$GNGGA,040131.200,2500.7873761,N,12132.4458686,E,4,51,0.54,16.776,M,15.25,M,1,3335*48
$GNRMC,040131.200,A,2500.7873761,N,12132.4458686,E,0.00,170.32,090324,,,R,V*1D
$GPHDT,137.608,T*3E
$GNACCURACY,4.0*12
$GNGGA,040131.300,2500.7873761,N,12132.4458692,E,4,51,0.54,16.774,M,15.25,M,1,3335*4E
$GNRMC,040131.300,A,2500.7873761,N,12132.4458692,E,0.02,170.32,090324,,,R,V*1B
$GPHDT,,T*1B
$GNACCURACY,4.0*12
$GNGGA,040131.400,2500.7873774,N,12132.4458705,E,4,51,0.54,16.767,M,15.25,M,1,3335*40
$GNRMC,040131.400,A,2500.7873774,N,12132.4458705,E,0.01,170.32,090324,,,R,V*14
$GPHDT,137.146,T*33
$GNACCURACY,4.0*12
$GNGGA,040131.500,2500.7873785,N,12132.4458717,E,4,51,0.54,16.765,M,15.25,M,1,3335*4E
$GNRMC,040131.500,A,2500.7873785,N,12132.4458717,E,0.02,170.32,090324,,,R,V*1B
$GPHDT,,T*1B
$GNACCURACY,4.0*12
$GNGGA,040131.600,2500.7873797,N,12132.4458679,E,4,51,0.54,16.754,M,15.25,M,1,3335*45
$GNRMC,040131.600,A,2500.7873797,N,12132.4458679,E,0.01,170.32,090324,,,R,V*11
$GPHDT,137.052,T*37
$GNACCURACY,4.0*12
$GNGGA,040131.700,2500.7873804,N,12132.4458678,E,4,51,0.54,16.754,M,15.25,M,1,3335*40
$GNRMC,040131.700,A,2500.7873804,N,12132.4458678,E,0.02,170.32,090324,,,R,V*17
$GPHDT,,T*1B
$GNACCURACY,4.0*12
$GNGGA,040131.800,2500.7873791,N,12132.4458684,E,4,50,0.54,16.771,M,15.25,M,1,3335*49
$GNRMC,040131.800,A,2500.7873791,N,12132.4458684,E,0.02,170.32,090324,,,R,V*18
$GPHDT,137.507,T*32
$GNACCURACY,4.0*12
$GNGGA,040131.900,2500.7873793,N,12132.4458664,E,4,50,0.54,16.782,M,15.25,M,0,3335*49
$GNRMC,040131.900,A,2500.7873793,N,12132.4458664,E,0.02,170.32,090324,,,R,V*15
$GPHDT,,T*1B
$GNACCURACY,4.0*12
$GNGGA,040132.000,2500.7873777,N,12132.4458650,E,4,50,0.54,16.770,M,15.25,M,1,3335*42
$GNRMC,040132.000,A,2500.7873777,N,12132.4458650,E,0.03,170.32,090324,,,R,V*13
$GPHDT,137.360,T*35
$GNACCURACY,4.0*12
$GNGGA,040132.100,2500.7873773,N,12132.4458639,E,4,50,0.54,16.770,M,15.25,M,1,3335*48
$GNRMC,040132.100,A,2500.7873773,N,12132.4458639,E,0.03,170.32,090324,,,R,V*19
$GPHDT,,T*1B
$GNGSA,A,3,08,194,195,199,21,02,07,27,16,04,26,,0.83,0.54,0.63,1*32
$GNGSA,A,3,81,88,78,77,79,,,,,,,,0.83,0.54,0.63,2*05
$GNGSA,A,3,13,21,26,27,15,,,,,,,,0.83,0.54,0.63,3*08
$GNGSA,A,3,09,06,23,16,43,07,40,39,28,10,25,37,0.83,0.54,0.63,4*04
$GNGSA,A,3,34,,,,,,,,,,,,0.83,0.54,0.63,4*0C
$GPGSV,4,1,13,08,65,348,42,194,64,051,36,195,63,116,40,50,60,167,37,1*63
$GPGSV,4,2,13,199,60,167,34,21,56,159,40,02,44,177,39,07,38,318,48,1*5A
$GPGSV,4,3,13,27,36,034,35,16,29,072,29,04,20,205,42,196,20,170,26,1*5B
$GPGSV,4,4,13,26,10,097,17,1*5B
$GPGSV,2,1,08,08,65,348,45,194,64,051,34,195,63,116,45,199,60,167,45,8*57
$GPGSV,2,2,08,27,36,034,37,04,20,205,40,196,20,170,26,26,10,097,20,8*54
$GLGSV,2,1,06,81,60,197,43,88,59,035,35,78,55,030,40,77,25,106,22,1*7E
$GLGSV,2,2,06,79,23,331,45,87,06,026,22,1*7C
$GAGSV,2,1,07,13,54,086,31,21,54,007,36,26,41,172,32,27,30,076,25,7*7C
$GAGSV,2,2,07,15,16,040,24,04,12,302,13,33,01,199,,7*41
$GAGSV,1,1,03,21,54,007,42,13,54,086,33,27,30,076,29,1*44
$GBGSV,4,1,13,09,74,272,38,06,73,215,41,23,72,022,44,16,70,198,44,1*72
$GBGSV,4,2,13,43,61,038,43,07,61,306,39,40,61,327,42,39,59,185,35,1*7E
$GBGSV,4,3,13,28,53,218,46,10,51,287,28,25,39,114,43,37,27,320,39,1*70
$GBGSV,4,4,13,34,14,040,,1*42
$GBGSV,2,1,08,23,72,022,46,40,61,327,44,43,61,038,39,39,59,185,40,4*74
$GBGSV,2,2,08,28,53,218,43,25,39,114,30,37,27,320,44,34,14,040,19,4*7F
$GNACCURACY,4.0*12
$PAIRSAT,1,30,2,0,201,3,0,200,4,0,221,5,0,200,6,0,200,7,0,201,8,0,221,9,0,200,10,0,200,11,0,200,12,0,200,13,0,200,16,0,1,20,0,200,21,0,201,22,0,200,23,0,200,24,0,200,25,0,200,26,0,220,27,0,221,28,0,200,29,0,200,30,0,200,31,0,200,32,0,200,194,0,221,195,0,621,196,0,600,199,0,621*72
$PAIRSAT,2,23,65,0,200,66,0,200,67,0,200,68,0,200,69,0,200,70,0,200,71,0,200,72,0,200,73,0,200,74,0,200,75,0,200,76,0,200,77,0,1,78,0,201,79,0,201,80,0,200,81,0,201,83,0,200,84,0,200,85,0,200,86,0,200,87,0,201,88,0,201*5B
$PAIRSAT,3,23,2,0,1200,3,0,1200,4,0,1200,5,0,200,7,0,1200,8,0,1200,9,0,1200,10,0,200,11,0,200,12,0,200,13,0,221,15,0,220,19,0,200,21,0,221,24,0,200,25,0,1000,26,0,1021,27,0,1021,30,0,1000,31,0,1000,33,0,1200,34,0,1000,36,0,1200*68
$PAIRSAT,4,43,1,0,200,2,0,200,3,0,600,6,0,1,7,0,1,9,0,201,10,0,201,11,0,200,12,0,200,13,0,200,14,0,200,16,0,201,19,0,600,20,0,600,21,0,600,22,0,600,23,0,621,24,0,600,25,0,621,26,0,600,27,0,600,28,0,421,29,0,400,30,0,400,32,0,400,33,0,400,34,0,421,35,0,400,36,0,400,37,0,421,38,0,400,39,0,421,40,0,421,41,0,400,42,0,400,43,0,421,44,0,400,45,0,400,46,0,400,59,0,400,60,0,400,61,0,400,62,0,400*5A
$PAIRDGP,7,2,7,8,16,21,26,27*56
$GNGGA,040132.200,2500.7873750,N,12132.4458635,E,4,50,0.54,16.774,M,15.25,M,1,3335*42
$GNRMC,040132.200,A,2500.7873750,N,12132.4458635,E,0.03,170.32,090324,,,R,V*17
$GPHDT,136.991,T*30
$GNACCURACY,4.0*12
$GNGGA,040132.300,2500.7873789,N,12132.4458662,E,4,50,0.54,16.772,M,15.25,M,1,3335*43
$GNRMC,040132.300,A,2500.7873789,N,12132.4458662,E,0.03,170.32,090324,,,R,V*10
$GPHDT,,T*1B
$GNACCURACY,4.0*12
$GNGGA,040132.400,2500.7873766,N,12132.4458632,E,4,50,0.54,16.778,M,15.25,M,1,3335*4A
$GNRMC,040132.400,A,2500.7873766,N,12132.4458632,E,0.03,170.32,090324,,,R,V*13
$GPHDT,137.221,T*31
$GNACCURACY,4.0*12
$GNGGA,040132.500,2500.7873771,N,12132.4458613,E,4,50,0.54,16.773,M,15.25,M,0,3335*44
$GNRMC,040132.500,A,2500.7873771,N,12132.4458613,E,0.03,170.32,090324,,,R,V*17
$GPHDT,,T*1B
$GNACCURACY,4.0*12
$GNGGA,040132.600,2500.7873792,N,12132.4458645,E,4,50,0.54,16.776,M,15.25,M,0,3335*4C
$GNRMC,040132.600,A,2500.7873792,N,12132.4458645,E,0.03,170.32,090324,,,R,V*1A
$GPHDT,137.625,T*31
$GNACCURACY,4.0*12
$GNGGA,040132.700,2500.7873786,N,12132.4458654,E,4,50,0.54,16.768,M,15.25,M,0,3335*47
$GNRMC,040132.700,A,2500.7873786,N,12132.4458654,E,0.02,170.32,090324,,,R,V*1F
$GPHDT,,T*1B
$GNACCURACY,4.0*12
$GNGGA,040132.800,2500.7873791,N,12132.4458652,E,4,50,0.54,16.753,M,15.25,M,0,3335*40
$GNRMC,040132.800,A,2500.7873791,N,12132.4458652,E,0.01,170.32,090324,,,R,V*13
$GPHDT,137.978,T*36
$GNACCURACY,4.0*12
$GNGGA,040132.900,2500.7873769,N,12132.4458646,E,4,50,0.54,16.749,M,15.25,M,0,3335*48
$GNRMC,040132.900,A,2500.7873769,N,12132.4458646,E,0.01,170.32,090324,,,R,V*10
$GPHDT,,T*1B
$GNACCURACY,4.0*12
$GNGGA,040133.000,2500.7873813,N,12132.4458644,E,4,51,0.54,16.742,M,15.25,M,1,3335*4B
$GNRMC,040133.000,A,2500.7873813,N,12132.4458644,E,0.02,170.32,090324,,,R,V*1B
$GPHDT,137.186,T*3F
$GNACCURACY,4.0*12
$GNGGA,040133.100,2500.7873794,N,12132.4458642,E,4,51,0.54,16.754,M,15.25,M,1,3335*4B
$GNRMC,040133.100,A,2500.7873794,N,12132.4458642,E,0.02,170.32,090324,,,R,V*1C
$GPHDT,,T*1B
$GNGSA,A,3,08,194,195,199,21,02,07,27,16,04,26,,0.83,0.54,0.63,1*32
$GNGSA,A,3,81,88,78,77,79,,,,,,,,0.83,0.54,0.63,2*05
$GNGSA,A,3,21,13,26,27,15,,,,,,,,0.83,0.54,0.63,3*08
$GNGSA,A,3,09,06,23,16,07,43,40,39,28,10,25,37,0.83,0.54,0.63,4*04
$GNGSA,A,3,34,,,,,,,,,,,,0.83,0.54,0.63,4*0C
$GPGSV,4,1,13,08,65,348,44,194,64,051,38,195,63,116,40,50,60,167,37,1*6B
$GPGSV,4,2,13,199,60,167,34,21,56,159,39,02,44,177,39,07,38,318,48,1*54
$GPGSV,4,3,13,27,36,034,30,16,29,072,29,04,20,205,43,196,20,170,27,1*5E
$GPGSV,4,4,13,26,10,097,18,1*54
$GPGSV,2,1,08,08,65,348,47,194,64,051,37,195,63,116,45,199,60,167,45,8*56
$GPGSV,2,2,08,27,36,034,39,04,20,205,40,196,20,170,26,26,10,097,22,8*58
$GLGSV,2,1,06,81,60,197,43,88,59,035,38,78,55,030,41,77,25,106,22,1*72
$GLGSV,2,2,06,79,23,331,43,87,06,026,20,1*78
$GAGSV,2,1,06,21,54,007,41,13,54,086,31,26,41,172,33,27,30,076,26,7*7F
$GAGSV,2,2,06,15,16,040,23,04,12,302,15,7*71
$GAGSV,1,1,04,13,54,086,33,21,54,007,44,26,41,172,28,27,30,076,27,1*74
$GBGSV,4,1,13,09,74,272,38,06,73,215,41,23,72,022,44,16,70,198,43,1*75
$GBGSV,4,2,13,07,61,306,39,43,61,038,44,40,61,327,42,39,59,185,34,1*78
$GBGSV,4,3,13,28,53,218,46,10,51,287,29,25,39,114,44,37,27,320,40,1*78
$GBGSV,4,4,13,34,14,040,,1*42
$GBGSV,2,1,08,23,72,022,47,40,61,327,44,43,61,038,43,39,59,185,40,4*78
$GBGSV,2,2,08,28,53,218,43,25,39,114,29,37,27,320,44,34,14,040,18,4*76
$GNACCURACY,4.0*12
$PAIRSAT,1,30,2,0,201,3,0,200,4,0,221,5,0,200,6,0,200,7,0,201,8,0,221,9,0,200,10,0,200,11,0,200,12,0,200,13,0,200,16,0,1,20,0,200,21,0,201,22,0,200,23,0,200,24,0,200,25,0,200,26,0,220,27,0,221,28,0,200,29,0,200,30,0,200,31,0,200,32,0,200,194,0,221,195,0,621,196,0,600,199,0,621*72
$PAIRSAT,2,23,65,0,200,66,0,200,67,0,200,68,0,200,69,0,200,70,0,200,71,0,200,72,0,200,73,0,200,74,0,200,75,0,200,76,0,200,77,0,1,78,0,201,79,0,201,80,0,200,81,0,201,83,0,200,84,0,200,85,0,200,86,0,200,87,0,201,88,0,201*5B
$PAIRSAT,3,23,2,0,1200,3,0,1200,4,0,1200,5,0,200,7,0,1200,8,0,1200,9,0,1200,10,0,200,11,0,200,12,0,200,13,0,221,15,0,220,19,0,200,21,0,221,24,0,200,25,0,1000,26,0,1021,27,0,1021,30,0,1000,31,0,1000,33,0,1200,34,0,1000,36,0,1200*68
$PAIRSAT,4,43,1,0,200,2,0,200,3,0,600,6,0,1,7,0,1,9,0,201,10,0,201,11,0,200,12,0,200,13,0,200,14,0,200,16,0,201,19,0,600,20,0,600,21,0,600,22,0,600,23,0,621,24,0,600,25,0,621,26,0,600,27,0,600,28,0,421,29,0,400,30,0,400,32,0,400,33,0,400,34,0,421,35,0,400,36,0,400,37,0,421,38,0,400,39,0,421,40,0,421,41,0,400,42,0,400,43,0,421,44,0,400,45,0,400,46,0,400,59,0,400,60,0,400,61,0,400,62,0,400*5A
$PAIRDGP,7,2,7,8,16,21,26,27*56
$GNGGA,040133.200,2500.7873764,N,12132.4458633,E,4,51,0.54,16.753,M,15.25,M,1,3335*46
$GNRMC,040133.200,A,2500.7873764,N,12132.4458633,E,0.01,170.32,090324,,,R,V*15
$GPHDT,136.990,T*31
$GNACCURACY,4.0*12
$GNGGA,040133.300,2500.7873778,N,12132.4458636,E,4,50,0.54,16.757,M,15.25,M,1,3335*4A
$GNRMC,040133.300,A,2500.7873778,N,12132.4458636,E,0.01,170.32,090324,,,R,V*1C
$GPHDT,,T*1B
$GNACCURACY,4.0*12
$GNGGA,040133.400,2500.7873783,N,12132.4458630,E,4,50,0.54,16.752,M,15.25,M,1,3335*4A
$GNRMC,040133.400,A,2500.7873783,N,12132.4458630,E,0.00,170.32,090324,,,R,V*18
$GPHDT,137.042,T*36
$GNACCURACY,4.0*12
$GNGGA,040133.500,2500.7873756,N,12132.4458628,E,4,50,0.54,16.749,M,15.25,M,1,3335*40
$GNRMC,040133.500,A,2500.7873756,N,12132.4458628,E,0.01,170.32,090324,,,R,V*19
$GPHDT,,T*1B
$GNACCURACY,4.0*12
$GNGGA,040133.600,2500.7873760,N,12132.4458650,E,4,50,0.54,16.747,M,15.25,M,1,3335*47
$GNRMC,040133.600,A,2500.7873760,N,12132.4458650,E,0.01,170.32,090324,,,R,V*10
$GPHDT,137.378,T*3C
$GNACCURACY,4.0*12
$GNGGA,040133.700,2500.7873780,N,12132.4458650,E,4,50,0.54,16.746,M,15.25,M,1,3335*49
$GNRMC,040133.700,A,2500.7873780,N,12132.4458650,E,0.02,170.32,090324,,,R,V*1C
$GPHDT,,T*1B
$GNACCURACY,4.0*12
$GNGGA,040133.800,2500.7873764,N,12132.4458648,E,4,50,0.54,16.753,M,15.25,M,0,3335*40
$GNRMC,040133.800,A,2500.7873764,N,12132.4458648,E,0.01,170.32,090324,,,R,V*13
$GPHDT,137.652,T*31
$GNACCURACY,4.0*12
$GNGGA,040133.900,2500.7873772,N,12132.4458634,E,4,50,0.54,16.772,M,15.25,M,0,3335*4E
$GNRMC,040133.900,A,2500.7873772,N,12132.4458634,E,0.00,170.32,090324,,,R,V*1F
$GPHDT,,T*1B
$GNACCURACY,4.0*12
$GNGGA,040134.000,2500.7873799,N,12132.4458650,E,4,50,0.54,16.769,M,15.25,M,1,3335*4C
$GNRMC,040134.000,A,2500.7873799,N,12132.4458650,E,0.01,170.32,090324,,,R,V*17
$GPHDT,137.227,T*37
$GNACCURACY,4.0*12
$GNGGA,040134.100,2500.7873814,N,12132.4458645,E,4,50,0.54,16.766,M,15.25,M,1,3335*4C
$GNRMC,040134.100,A,2500.7873814,N,12132.4458645,E,0.01,170.32,090324,,,R,V*18
$GPHDT,,T*1B
$GNGSA,A,3,08,194,195,199,21,02,07,27,16,04,26,,0.83,0.54,0.63,1*32
$GNGSA,A,3,81,88,78,77,79,,,,,,,,0.83,0.54,0.63,2*05
$GNGSA,A,3,21,13,26,27,15,,,,,,,,0.83,0.54,0.63,3*08
$GNGSA,A,3,09,06,23,16,07,43,40,39,28,10,25,37,0.83,0.54,0.63,4*04
$GNGSA,A,3,34,,,,,,,,,,,,0.83,0.54,0.63,4*0C
$GPGSV,4,1,13,08,65,348,45,194,64,051,37,195,63,116,40,50,60,167,37,1*65
$GPGSV,4,2,13,199,60,167,34,21,56,159,40,02,44,177,38,07,38,318,48,1*5B
$GPGSV,4,3,13,27,36,034,28,16,29,072,28,04,20,205,43,196,20,170,27,1*56
$GPGSV,4,4,13,26,10,097,17,1*5B
$GPGSV,2,1,08,08,65,348,47,194,64,051,37,195,63,116,45,199,60,167,45,8*56
$GPGSV,2,2,08,27,36,034,38,04,20,205,41,196,20,170,28,26,10,097,22,8*56
$GLGSV,2,1,06,81,60,197,43,88,59,035,39,78,55,030,42,77,25,106,23,1*71
$GLGSV,2,2,06,79,23,331,43,87,06,026,20,1*78
$GAGSV,2,1,06,21,54,007,40,13,54,086,29,26,41,172,35,27,30,076,27,7*70
$GAGSV,2,2,06,15,16,040,23,04,12,302,14,7*70
$GAGSV,1,1,04,13,54,086,32,21,54,007,42,26,41,172,29,27,30,076,27,1*72
$GBGSV,4,1,13,09,74,272,37,06,73,215,40,23,72,022,44,16,70,198,44,1*7C
$GBGSV,4,2,13,07,61,306,39,43,61,038,45,40,61,327,42,39,59,185,33,1*7E
$GBGSV,4,3,13,28,53,218,46,10,51,287,29,25,39,114,44,37,27,320,40,1*78
$GBGSV,4,4,13,34,14,040,,1*42
$GBGSV,2,1,08,23,72,022,48,40,61,327,44,43,61,038,43,39,59,185,40,4*77
$GBGSV,2,2,08,28,53,218,43,25,39,114,30,37,27,320,44,34,14,040,16,4*70
$GNACCURACY,4.0*12
$PAIRSAT,1,30,2,0,201,3,0,200,4,0,221,5,0,200,6,0,200,7,0,201,8,0,221,9,0,200,10,0,200,11,0,200,12,0,200,13,0,200,16,0,1,20,0,200,21,0,201,22,0,200,23,0,200,24,0,200,25,0,200,26,0,220,27,0,221,28,0,200,29,0,200,30,0,200,31,0,200,32,0,200,194,0,221,195,0,621,196,0,600,199,0,621*72
$PAIRSAT,2,23,65,0,200,66,0,200,67,0,200,68,0,200,69,0,200,70,0,200,71,0,200,72,0,200,73,0,200,74,0,200,75,0,200,76,0,200,77,0,1,78,0,201,79,0,201,80,0,200,81,0,201,83,0,200,84,0,200,85,0,200,86,0,200,87,0,201,88,0,201*5B
$PAIRSAT,3,23,2,0,1200,3,0,1200,4,0,1200,5,0,200,7,0,1200,8,0,1200,9,0,1200,10,0,200,11,0,200,12,0,200,13,0,221,15,0,220,19,0,200,21,0,221,24,0,200,25,0,1000,26,0,1021,27,0,1021,30,0,1000,31,0,1000,33,0,1200,34,0,1000,36,0,1200*68
$PAIRSAT,4,43,1,0,200,2,0,200,3,0,600,6,0,1,7,0,1,9,0,201,10,0,201,11,0,200,12,0,200,13,0,200,14,0,200,16,0,201,19,0,600,20,0,600,21,0,600,22,0,600,23,0,621,24,0,600,25,0,621,26,0,600,27,0,600,28,0,421,29,0,400,30,0,400,32,0,400,33,0,400,34,0,421,35,0,400,36,0,400,37,0,421,38,0,400,39,0,421,40,0,421,41,0,400,42,0,400,43,0,421,44,0,400,45,0,400,46,0,400,59,0,400,60,0,400,61,0,400,62,0,400*5A
$PAIRDGP,7,2,7,8,16,21,26,27*56
$GNGGA,040134.200,2500.7873828,N,12132.4458661,E,4,51,0.54,16.768,M,15.25,M,1,3335*49
$GNRMC,040134.200,A,2500.7873828,N,12132.4458661,E,0.00,170.32,090324,,,R,V*13
$GPHDT,137.273,T*36
$GNACCURACY,4.0*12
$GNGGA,040134.300,2500.7873816,N,12132.4458661,E,4,51,0.54,16.767,M,15.25,M,1,3335*4A
$GNRMC,040134.300,A,2500.7873816,N,12132.4458661,E,0.01,170.32,090324,,,R,V*1E
$GPHDT,,T*1B
$GNACCURACY,4.0*12
$GNGGA,040134.400,2500.7873803,N,12132.4458687,E,4,51,0.54,16.761,M,15.25,M,1,3335*47
$GNRMC,040134.400,A,2500.7873803,N,12132.4458687,E,0.01,170.32,090324,,,R,V*15
$GPHDT,137.849,T*35
$GNACCURACY,4.0*12
$GNGGA,040134.500,2500.7873809,N,12132.4458665,E,4,51,0.54,16.773,M,15.25,M,1,3335*43
$GNRMC,040134.500,A,2500.7873809,N,12132.4458665,E,0.01,170.32,090324,,,R,V*12
$GPHDT,,T*1B
$GNACCURACY,4.0*12
$GNGGA,040134.600,2500.7873815,N,12132.4458646,E,4,51,0.54,16.764,M,15.25,M,1,3335*4A
$GNRMC,040134.600,A,2500.7873815,N,12132.4458646,E,0.01,170.32,090324,,,R,V*1D
$GPHDT,137.370,T*34
$GNACCURACY,4.0*12
$GNGGA,040134.700,2500.7873821,N,12132.4458660,E,4,51,0.54,16.761,M,15.25,M,1,3335*4D
$GNRMC,040134.700,A,2500.7873821,N,12132.4458660,E,0.01,170.32,090324,,,R,V*1F
$GPHDT,,T*1B
$GNACCURACY,4.0*12
$GNGGA,040134.800,2500.7873780,N,12132.4458642,E,4,51,0.54,16.750,M,15.25,M,0,3335*45
$GNRMC,040134.800,A,2500.7873780,N,12132.4458642,E,0.00,170.32,090324,,,R,V*15
$GPHDT,138.036,T*3A
$GNACCURACY,4.0*12
$GNGGA,040134.900,2500.7873768,N,12132.4458595,E,4,51,0.54,16.739,M,15.25,M,0,3335*44
$GNRMC,040134.900,A,2500.7873768,N,12132.4458595,E,0.00,170.32,090324,,,R,V*1B
$GPHDT,,T*1B
$GNACCURACY,4.0*12
$GNGGA,040135.000,2500.7873795,N,12132.4458582,E,4,52,0.54,16.768,M,15.25,M,1,3335*4E
$GNRMC,040135.000,A,2500.7873795,N,12132.4458582,E,0.01,170.32,090324,,,R,V*16
$PAIR010,0,0,2304,532913*31
$GPHDT,137.441,T*31
$GNACCURACY,4.0*12
$GNGGA,040135.100,2500.7873774,N,12132.4458583,E,4,51,0.54,16.777,M,15.25,M,1,3335*4C
$GNRMC,040135.100,A,2500.7873774,N,12132.4458583,E,0.01,170.32,090324,,,R,V*19
$GPHDT,,T*1B
$GNGSA,A,3,08,194,195,199,21,02,07,27,16,04,26,,0.83,0.54,0.63,1*32
$GNGSA,A,3,81,88,78,77,79,,,,,,,,0.83,0.54,0.63,2*05
$GNGSA,A,3,21,13,26,27,15,,,,,,,,0.83,0.54,0.63,3*08
$GNGSA,A,3,09,06,23,16,07,43,40,39,28,10,25,37,0.83,0.54,0.63,4*04
$GNGSA,A,3,34,,,,,,,,,,,,0.83,0.54,0.63,4*0C
$GPGSV,4,1,13,08,65,348,45,194,64,051,38,195,63,116,40,50,60,167,37,1*6A
$GPGSV,4,2,13,199,60,167,33,21,56,159,39,02,44,177,39,07,38,318,47,1*5C
$GPGSV,4,3,13,27,36,034,30,16,29,072,27,04,20,205,42,196,20,170,28,1*5E
$GPGSV,4,4,13,26,10,097,18,1*54
$GPGSV,2,1,08,08,65,348,47,194,64,051,39,195,63,116,45,199,60,167,45,8*58
$GPGSV,2,2,08,27,36,034,38,04,20,205,42,196,20,170,29,26,10,097,23,8*55
$GLGSV,2,1,06,81,60,197,43,88,59,035,39,78,55,030,44,77,25,106,24,1*70
$GLGSV,2,2,06,79,23,331,44,87,06,026,20,1*7F
$GAGSV,2,1,06,21,54,007,41,13,54,086,32,26,41,172,34,27,30,076,28,7*75
$GAGSV,2,2,06,15,15,040,24,04,12,302,15,7*75
$GAGSV,1,1,04,13,54,086,37,21,54,007,44,27,30,076,28,15,15,040,17,1*72
$GBGSV,4,1,13,09,74,272,37,06,73,215,40,23,72,022,45,16,70,198,44,1*7D
$GBGSV,4,2,13,07,61,306,40,43,61,038,45,40,61,327,42,39,59,185,34,1*77
$GBGSV,4,3,13,28,53,218,47,10,51,287,30,25,39,114,44,37,27,320,39,1*7F
$GBGSV,4,4,13,34,14,040,,1*42
$GBGSV,2,1,08,23,72,022,49,40,61,327,46,43,61,038,45,39,59,185,41,4*73
$GBGSV,2,2,08,28,53,218,44,25,39,114,30,37,27,320,44,34,14,040,17,4*76
$GNACCURACY,4.0*12
$PAIRSAT,1,30,2,0,201,3,0,200,4,0,221,5,0,200,6,0,200,7,0,201,8,0,221,9,0,200,10,0,200,11,0,200,12,0,200,13,0,200,16,0,1,20,0,200,21,0,201,22,0,200,23,0,200,24,0,200,25,0,200,26,0,220,27,0,221,28,0,200,29,0,200,30,0,200,31,0,200,32,0,200,194,0,221,195,0,621,196,0,600,199,0,621*72
$PAIRSAT,2,23,65,0,200,66,0,200,67,0,200,68,0,200,69,0,200,70,0,200,71,0,200,72,0,200,73,0,200,74,0,200,75,0,200,76,0,200,77,0,1,78,0,201,79,0,201,80,0,200,81,0,201,83,0,200,84,0,200,85,0,200,86,0,200,87,0,201,88,0,201*5B
$PAIRSAT,3,23,2,0,1200,3,0,1200,4,0,1200,5,0,200,7,0,1200,8,0,1200,9,0,1200,10,0,200,11,0,200,12,0,200,13,0,221,15,0,220,19,0,200,21,0,221,24,0,200,25,0,1000,26,0,1021,27,0,1021,30,0,1000,31,0,1000,33,0,1200,34,0,1000,36,0,1200*68
$PAIRSAT,4,43,1,0,200,2,0,200,3,0,600,6,0,1,7,0,1,9,0,201,10,0,201,11,0,200,12,0,200,13,0,200,14,0,200,16,0,201,19,0,600,20,0,600,21,0,600,22,0,600,23,0,621,24,0,600,25,0,621,26,0,600,27,0,600,28,0,421,29,0,400,30,0,400,32,0,400,33,0,400,34,0,421,35,0,400,36,0,400,37,0,421,38,0,400,39,0,421,40,0,421,41,0,400,42,0,400,43,0,421,44,0,400,45,0,400,46,0,400,59,0,400,60,0,400,61,0,400,62,0,400*5A
$PAIRDGP,7,2,7,8,16,21,26,27*56
$GNGGA,040135.200,2500.7873779,N,12132.4458598,E,4,51,0.54,16.768,M,15.25,M,1,3335*46
$GNRMC,040135.200,A,2500.7873779,N,12132.4458598,E,0.01,170.32,090324,,,R,V*1D
$GPHDT,137.544,T*35
$GNACCURACY,3.9*1C
$GNGGA,040135.300,2500.7873761,N,12132.4458603,E,4,51,0.54,16.761,M,15.25,M,1,3335*46
$GNRMC,040135.300,A,2500.7873761,N,12132.4458603,E,0.01,170.32,090324,,,R,V*14
$GPHDT,,T*1B
$GNACCURACY,3.9*1C
$GNGGA,040135.400,2500.7873755,N,12132.4458577,E,4,51,0.54,16.766,M,15.25,M,1,3335*41
$GNRMC,040135.400,A,2500.7873755,N,12132.4458577,E,0.01,170.32,090324,,,R,V*14
$GPHDT,136.968,T*36
$GNACCURACY,3.9*1C
$GNGGA,040135.500,2500.7873770,N,12132.4458612,E,4,51,0.54,16.764,M,15.25,M,1,3335*45
$GNRMC,040135.500,A,2500.7873770,N,12132.4458612,E,0.01,170.32,090324,,,R,V*12
$GPHDT,,T*1B
$GNACCURACY,4.0*12
$GNGGA,040135.600,2500.7873766,N,12132.4458584,E,4,51,0.54,16.771,M,15.25,M,0,3335*48
$GNRMC,040135.600,A,2500.7873766,N,12132.4458584,E,0.00,170.32,090324,,,R,V*1B
$GPHDT,137.243,T*35
$GNACCURACY,4.0*12
$GNGGA,040135.700,2500.7873789,N,12132.4458617,E,4,51,0.54,16.768,M,15.25,M,0,3335*49
$GNRMC,040135.700,A,2500.7873789,N,12132.4458617,E,0.01,170.32,090324,,,R,V*13
$GPHDT,,T*1B
$GNACCURACY,4.0*12
$GNGGA,040135.800,2500.7873785,N,12132.4458632,E,4,52,0.54,16.769,M,15.25,M,0,3335*4F
$GNRMC,040135.800,A,2500.7873785,N,12132.4458632,E,0.01,170.32,090324,,,R,V*17
$GPHDT,137.740,T*33
$GNACCURACY,4.0*12
$GNGGA,040135.900,2500.7873767,N,12132.4458656,E,4,51,0.54,16.745,M,15.25,M,0,3335*4D
$GNRMC,040135.900,A,2500.7873767,N,12132.4458656,E,0.01,170.32,090324,,,R,V*18
$GPHDT,,T*1B
$GNACCURACY,4.0*12
$GNGGA,040136.000,2500.7873757,N,12132.4458641,E,4,51,0.54,16.771,M,15.25,M,1,3335*44
$GNRMC,040136.000,A,2500.7873757,N,12132.4458641,E,0.00,170.32,090324,,,R,V*16
$GPHDT,137.768,T*39
$GNACCURACY,4.0*12
$GNGGA,040136.100,2500.7873772,N,12132.4458629,E,4,51,0.54,16.765,M,15.25,M,1,3335*49
$GNRMC,040136.100,A,2500.7873772,N,12132.4458629,E,0.01,170.32,090324,,,R,V*1F
$GPHDT,,T*1B
$GNGSA,A,3,08,194,195,199,21,02,07,27,16,04,26,,0.83,0.54,0.63,1*32
$GNGSA,A,3,81,88,78,77,79,,,,,,,,0.83,0.54,0.63,2*05
$GNGSA,A,3,21,13,26,27,15,,,,,,,,0.83,0.54,0.63,3*08
$GNGSA,A,3,09,06,23,16,07,43,40,39,28,10,25,37,0.83,0.54,0.63,4*04
$GNGSA,A,3,34,,,,,,,,,,,,0.83,0.54,0.63,4*0C
$GPGSV,4,1,13,08,65,348,45,194,64,051,39,195,63,116,40,50,60,167,35,1*69
$GPGSV,4,2,13,199,60,167,32,21,56,159,40,02,44,177,40,07,38,318,47,1*5D
$GPGSV,4,3,13,27,36,034,27,16,29,072,29,04,20,205,42,196,20,170,28,1*56
$GPGSV,4,4,13,26,10,097,17,1*5B
$GPGSV,2,1,08,08,65,348,47,194,64,051,37,195,63,116,45,199,60,167,45,8*56
$GPGSV,2,2,08,27,36,034,38,04,20,205,42,196,20,170,29,26,10,097,24,8*52
$GLGSV,2,1,06,81,60,197,43,88,59,035,40,78,55,030,43,77,25,106,24,1*79
$GLGSV,2,2,06,79,23,331,44,87,06,026,20,1*7F
$GAGSV,2,1,06,21,54,007,42,13,54,086,31,26,41,172,32,27,30,076,28,7*73
$GAGSV,2,2,06,15,15,040,26,04,12,302,15,7*77
$GAGSV,1,1,04,13,54,086,35,21,54,007,44,27,30,076,28,15,15,040,14,1*73
$GBGSV,4,1,13,09,74,272,38,06,73,215,40,23,72,022,46,16,70,198,44,1*71
$GBGSV,4,2,13,07,61,306,40,43,61,038,46,40,61,327,42,39,59,185,34,1*74
$GBGSV,4,3,13,28,53,218,47,10,51,287,30,25,39,114,44,37,27,320,39,1*7F
$GBGSV,4,4,13,34,14,040,,1*42
$GBGSV,2,1,08,23,72,022,49,40,61,327,45,43,61,038,44,39,59,185,41,4*71
$GBGSV,2,2,08,28,53,218,44,25,39,114,29,37,27,320,44,34,14,040,19,4*70
$GNACCURACY,4.0*12
$PAIRSAT,1,30,2,0,201,3,0,200,4,0,221,5,0,200,6,0,200,7,0,201,8,0,221,9,0,200,10,0,200,11,0,200,12,0,200,13,0,200,16,0,1,20,0,200,21,0,201,22,0,200,23,0,200,24,0,200,25,0,200,26,0,220,27,0,221,28,0,200,29,0,200,30,0,200,31,0,200,32,0,200,194,0,221,195,0,621,196,0,600,199,0,621*72
$PAIRSAT,2,23,65,0,200,66,0,200,67,0,200,68,0,200,69,0,200,70,0,200,71,0,200,72,0,200,73,0,200,74,0,200,75,0,200,76,0,200,77,0,1,78,0,201,79,0,201,80,0,200,81,0,201,83,0,200,84,0,200,85,0,200,86,0,200,87,0,201,88,0,201*5B
$PAIRSAT,3,23,2,0,1200,3,0,1200,4,0,1200,5,0,200,7,0,1200,8,0,1200,9,0,1200,10,0,200,11,0,200,12,0,200,13,0,221,15,0,220,19,0,200,21,0,221,24,0,200,25,0,1000,26,0,1021,27,0,1021,30,0,1000,31,0,1000,33,0,1200,34,0,1000,36,0,1200*68
$PAIRSAT,4,43,1,0,200,2,0,200,3,0,600,6,0,1,7,0,1,9,0,201,10,0,201,11,0,200,12,0,200,13,0,200,14,0,200,16,0,201,19,0,600,20,0,600,21,0,600,22,0,600,23,0,621,24,0,600,25,0,621,26,0,600,27,0,600,28,0,421,29,0,400,30,0,400,32,0,400,33,0,400,34,0,421,35,0,400,36,0,400,37,0,421,38,0,400,39,0,421,40,0,421,41,0,400,42,0,400,43,0,421,44,0,400,45,0,400,46,0,400,59,0,400,60,0,400,61,0,400,62,0,400*5A
$PAIRDGP,7,2,7,8,16,21,26,27*56
$GNGGA,040136.200,2500.7873792,N,12132.4458679,E,4,51,0.54,16.761,M,15.25,M,1,3335*45
$GNRMC,040136.200,A,2500.7873792,N,12132.4458679,E,0.02,170.32,090324,,,R,V*14
$GPHDT,138.235,T*3B
$GNACCURACY,4.0*12
$GNGGA,040136.300,2500.7873786,N,12132.4458676,E,4,52,0.54,16.764,M,15.25,M,1,3335*48
$GNRMC,040136.300,A,2500.7873786,N,12132.4458676,E,0.02,170.32,090324,,,R,V*1F
$GPHDT,,T*1B
$GNACCURACY,4.0*12
$GNGGA,040136.400,2500.7873775,N,12132.4458658,E,4,52,0.54,16.763,M,15.25,M,1,3335*48
$GNRMC,040136.400,A,2500.7873775,N,12132.4458658,E,0.02,170.32,090324,,,R,V*18
$GPHDT,137.344,T*33
$GNACCURACY,4.0*12
$GNGGA,040136.500,2500.7873839,N,12132.4458714,E,4,51,0.54,16.749,M,15.25,M,1,3335*4C
$GNRMC,040136.500,A,2500.7873839,N,12132.4458714,E,0.02,170.32,090324,,,R,V*17
$GPHDT,,T*1B
$GNACCURACY,4.0*12
$GNGGA,040136.600,2500.7873791,N,12132.4458620,E,4,51,0.54,16.769,M,15.25,M,0,3335*47
$GNRMC,040136.600,A,2500.7873791,N,12132.4458620,E,0.01,170.32,090324,,,R,V*1C
$GPHDT,137.961,T*3E
$GNACCURACY,4.0*12
$GNGGA,040136.700,2500.7873776,N,12132.4458654,E,4,51,0.54,16.768,M,15.25,M,0,3335*4D
$GNRMC,040136.700,A,2500.7873776,N,12132.4458654,E,0.01,170.32,090324,,,R,V*17
$GPHDT,,T*1B
$GNACCURACY,4.0*12
$GNGGA,040136.800,2500.7873771,N,12132.4458628,E,4,51,0.54,16.755,M,15.25,M,0,3335*40
$GNRMC,040136.800,A,2500.7873771,N,12132.4458628,E,0.00,170.32,090324,,,R,V*15
$GPHDT,137.957,T*3B
$GNACCURACY,4.0*12
$GNGGA,040136.900,2500.7873758,N,12132.4458641,E,4,51,0.54,16.762,M,15.25,M,0,3335*41
$GNRMC,040136.900,A,2500.7873758,N,12132.4458641,E,0.00,170.32,090324,,,R,V*10
$GPHDT,,T*1B
$GNACCURACY,4.0*12
$GNGGA,040137.000,2500.7873773,N,12132.4458600,E,4,51,0.54,16.756,M,15.25,M,1,3335*43
$GNRMC,040137.000,A,2500.7873773,N,12132.4458600,E,0.01,170.32,090324,,,R,V*15
$GPHDT,138.007,T*38
$GNACCURACY,4.0*12
$GNGGA,040137.100,2500.7873778,N,12132.4458570,E,4,51,0.54,16.765,M,15.25,M,1,3335*4D
$GNRMC,040137.100,A,2500.7873778,N,12132.4458570,E,0.01,170.32,090324,,,R,V*1B
$GPHDT,,T*1B
$GNGSA,A,3,08,194,195,199,21,02,07,27,16,04,26,,0.83,0.54,0.63,1*32
$GNGSA,A,3,81,88,78,77,79,,,,,,,,0.83,0.54,0.63,2*05
$GNGSA,A,3,21,13,26,27,15,,,,,,,,0.83,0.54,0.63,3*08
$GNGSA,A,3,09,06,23,16,07,43,40,39,28,10,25,37,0.83,0.54,0.63,4*04
$GNGSA,A,3,34,,,,,,,,,,,,0.83,0.54,0.63,4*0C
$GPGSV,4,1,13,08,65,348,44,194,64,051,39,195,63,116,39,50,60,167,37,1*64
$GPGSV,4,2,13,199,60,167,34,21,56,159,40,02,44,177,40,07,38,318,47,1*5B
$GPGSV,4,3,13,27,36,034,29,16,29,072,28,04,20,205,42,196,20,170,26,1*57
$GPGSV,4,4,13,26,10,097,18,1*54
$GPGSV,2,1,08,08,65,348,47,194,64,051,38,195,63,116,45,199,60,167,45,8*59
$GPGSV,2,2,08,27,36,034,38,04,20,205,42,196,20,170,28,26,10,097,21,8*56
$GLGSV,2,1,06,81,60,197,43,88,59,035,40,78,55,030,44,77,25,106,25,1*7F
$GLGSV,2,2,06,79,23,331,44,87,06,026,18,1*74
$GAGSV,2,1,06,21,54,007,42,13,54,086,29,26,41,172,33,27,30,076,28,7*7B
$GAGSV,2,2,06,15,15,040,24,04,12,302,15,7*75
$GAGSV,1,1,04,13,54,086,35,21,54,007,44,27,30,076,28,15,15,040,14,1*73
$GBGSV,4,1,13,09,74,272,38,06,73,215,40,23,72,022,46,16,70,198,44,1*71
$GBGSV,4,2,13,07,61,306,40,43,61,038,45,40,61,327,41,39,59,185,34,1*74
$GBGSV,4,3,13,28,53,218,47,10,51,287,29,25,39,114,44,37,27,320,39,1*77
$GBGSV,4,4,13,34,14,040,,1*42
$GBGSV,2,1,08,23,72,022,49,40,61,327,45,43,61,038,44,39,59,185,40,4*70
$GBGSV,2,2,08,28,53,218,44,25,39,114,31,37,27,320,44,34,14,040,17,4*77
$GNACCURACY,4.0*12
$PAIRSAT,1,30,2,0,201,3,0,200,4,0,221,5,0,200,6,0,200,7,0,201,8,0,221,9,0,200,10,0,200,11,0,200,12,0,200,13,0,200,16,0,1,20,0,200,21,0,201,22,0,200,23,0,200,24,0,200,25,0,200,26,0,220,27,0,221,28,0,200,29,0,200,30,0,200,31,0,200,32,0,200,194,0,221,195,0,621,196,0,600,199,0,621*72
$PAIRSAT,2,23,65,0,200,66,0,200,67,0,200,68,0,200,69,0,200,70,0,200,71,0,200,72,0,200,73,0,200,74,0,200,75,0,200,76,0,200,77,0,1,78,0,201,79,0,201,80,0,200,81,0,201,83,0,200,84,0,200,85,0,200,86,0,200,87,0,201,88,0,201*5B
$PAIRSAT,3,23,2,0,1200,3,0,1200,4,0,1200,5,0,200,7,0,1200,8,0,1200,9,0,1200,10,0,200,11,0,200,12,0,200,13,0,221,15,0,220,19,0,200,21,0,221,24,0,200,25,0,1000,26,0,1021,27,0,1021,30,0,1000,31,0,1000,33,0,1200,34,0,1000,36,0,1200*68
$PAIRSAT,4,43,1,0,200,2,0,200,3,0,600,6,0,1,7,0,1,9,0,201,10,0,201,11,0,200,12,0,200,13,0,200,14,0,200,16,0,201,19,0,600,20,0,600,21,0,600,22,0,600,23,0,621,24,0,600,25,0,621,26,0,600,27,0,600,28,0,421,29,0,400,30,0,400,32,0,400,33,0,400,34,0,421,35,0,400,36,0,400,37,0,421,38,0,400,39,0,421,40,0,421,41,0,400,42,0,400,43,0,421,44,0,400,45,0,400,46,0,400,59,0,400,60,0,400,61,0,400,62,0,400*5A
$PAIRDGP,7,2,7,8,16,21,26,27*56
$GNGGA,040137.200,2500.7873746,N,12132.4458583,E,4,51,0.54,16.769,M,15.25,M,1,3335*43
$GNRMC,040137.200,A,2500.7873746,N,12132.4458583,E,0.04,170.32,090324,,,R,V*1C
$GPHDT,137.452,T*33
$GNACCURACY,4.0*12
$GNGGA,040137.300,2500.7873773,N,12132.4458614,E,4,51,0.54,16.776,M,15.25,M,1,3335*47
$GNRMC,040137.300,A,2500.7873773,N,12132.4458614,E,0.02,170.32,090324,,,R,V*10
$GPHDT,,T*1B
$GNACCURACY,4.0*12
$GNGGA,040137.400,2500.7873768,N,12132.4458614,E,4,51,0.54,16.768,M,15.25,M,1,3335*45
$GNRMC,040137.400,A,2500.7873768,N,12132.4458614,E,0.02,170.32,090324,,,R,V*1D
$GPHDT,138.124,T*38
$GNACCURACY,4.0*12
$GNGGA,040137.500,2500.7873744,N,12132.4458583,E,4,51,0.54,16.775,M,15.25,M,1,3335*4B
$GNRMC,040137.500,A,2500.7873744,N,12132.4458583,E,0.01,170.32,090324,,,R,V*1C
$GPHDT,,T*1B
$GNACCURACY,4.0*12
$GNGGA,040137.600,2500.7873761,N,12132.4458605,E,4,51,0.54,16.774,M,15.25,M,1,3335*43
$GNRMC,040137.600,A,2500.7873761,N,12132.4458605,E,0.02,170.32,090324,,,R,V*16
$GPHDT,138.228,T*37
$GNACCURACY,4.0*12
$GNGGA,040137.700,2500.7873770,N,12132.4458590,E,4,51,0.54,16.775,M,15.25,M,0,3335*4D
$GNRMC,040137.700,A,2500.7873770,N,12132.4458590,E,0.01,170.32,090324,,,R,V*1B
$GPHDT,,T*1B
$GNACCURACY,4.0*12
$GNGGA,040137.800,2500.7873781,N,12132.4458576,E,4,51,0.54,16.775,M,15.25,M,0,3335*44
$GNRMC,040137.800,A,2500.7873781,N,12132.4458576,E,0.01,170.32,090324,,,R,V*12
$GPHDT,137.769,T*38
$GNACCURACY,4.0*12
$GNGGA,040137.900,2500.7873771,N,12132.4458561,E,4,52,0.54,16.780,M,15.25,M,0,3335*45
$GNRMC,040137.900,A,2500.7873771,N,12132.4458561,E,0.00,170.32,090324,,,R,V*1B
$GPHDT,,T*1B
$GNACCURACY,4.0*12
$GNGGA,040138.000,2500.7873777,N,12132.4458562,E,4,51,0.54,16.768,M,15.25,M,1,3335*42
$GNRMC,040138.000,A,2500.7873777,N,12132.4458562,E,0.00,170.32,090324,,,R,V*18
$GPHDT,137.797,T*39
$GNACCURACY,4.0*12
$GNGGA,040138.100,2500.7873812,N,12132.4458578,E,4,51,0.54,16.766,M,15.25,M,1,3335*4A
$GNRMC,040138.100,A,2500.7873812,N,12132.4458578,E,0.01,170.32,090324,,,R,V*1F
$GPHDT,,T*1B
$GNGSA,A,3,08,194,195,199,21,02,07,27,16,04,26,,0.83,0.54,0.63,1*32
$GNGSA,A,3,81,88,78,77,79,,,,,,,,0.83,0.54,0.63,2*05
$GNGSA,A,3,21,13,26,27,15,,,,,,,,0.83,0.54,0.63,3*08
$GNGSA,A,3,09,06,23,16,07,43,40,39,28,10,25,37,0.83,0.54,0.63,4*04
$GNGSA,A,3,34,,,,,,,,,,,,0.83,0.54,0.63,4*0C
$GPGSV,4,1,14,08,65,348,44,194,64,051,40,195,63,116,40,50,60,167,37,1*63
$GPGSV,4,2,14,199,60,167,34,21,56,159,40,02,44,177,40,07,38,318,47,1*5C
$GPGSV,4,3,14,27,36,034,32,16,29,072,28,09,25,250,,04,20,205,41,1*6E
$GPGSV,4,4,14,196,20,170,26,26,10,097,18,1*5D
$GPGSV,2,1,08,08,65,348,47,194,64,051,39,195,63,116,45,199,60,167,45,8*58
$GPGSV,2,2,08,27,36,034,38,04,20,205,42,196,20,170,29,26,10,097,22,8*54
$GLGSV,2,1,06,81,60,197,43,88,59,035,40,78,55,030,45,77,25,106,26,1*7D
$GLGSV,2,2,06,79,23,331,44,87,06,026,18,1*74
$GAGSV,2,1,06,21,54,007,42,13,54,086,33,26,41,172,35,27,30,076,28,7*76
$GAGSV,2,2,06,15,15,040,25,04,12,302,15,7*74
$GAGSV,2,1,05,13,54,086,37,21,54,007,45,26,41,172,31,27,30,076,29,1*75
$GAGSV,2,2,05,15,15,040,15,1*40
$GBGSV,4,1,13,09,74,272,38,06,73,215,40,23,72,022,45,16,70,198,44,1*72
$GBGSV,4,2,13,07,61,306,40,43,61,038,46,40,61,327,41,39,59,185,34,1*77
$GBGSV,4,3,13,28,53,218,47,10,51,287,30,25,39,114,45,37,27,320,40,1*70
$GBGSV,4,4,13,34,14,040,,1*42
$GBGSV,2,1,08,23,72,022,49,40,61,327,46,43,61,038,46,39,59,185,40,4*71
$GBGSV,2,2,08,28,53,218,44,25,39,114,31,37,27,320,45,34,14,040,19,4*78
$GNACCURACY,4.0*12
$PAIRSAT,1,30,2,0,201,3,0,200,4,0,221,5,0,200,6,0,200,7,0,201,8,0,221,9,0,200,10,0,200,11,0,200,12,0,200,13,0,200,16,0,1,20,0,200,21,0,201,22,0,200,23,0,200,24,0,200,25,0,200,26,0,220,27,0,221,28,0,200,29,0,200,30,0,200,31,0,200,32,0,200,194,0,221,195,0,621,196,0,600,199,0,621*72
$PAIRSAT,2,23,65,0,200,66,0,200,67,0,200,68,0,200,69,0,200,70,0,200,71,0,200,72,0,200,73,0,200,74,0,200,75,0,200,76,0,200,77,0,1,78,0,201,79,0,201,80,0,200,81,0,201,83,0,200,84,0,200,85,0,200,86,0,200,87,0,201,88,0,201*5B
$PAIRSAT,3,23,2,0,1200,3,0,1200,4,0,1200,5,0,200,7,0,1200,8,0,1200,9,0,1200,10,0,200,11,0,200,12,0,200,13,0,221,15,0,220,19,0,200,21,0,221,24,0,200,25,0,1000,26,0,1021,27,0,1021,30,0,1000,31,0,1000,33,0,1200,34,0,1000,36,0,1200*68
$PAIRSAT,4,43,1,0,200,2,0,200,3,0,600,6,0,1,7,0,1,9,0,201,10,0,201,11,0,200,12,0,200,13,0,200,14,0,200,16,0,201,19,0,600,20,0,600,21,0,600,22,0,600,23,0,621,24,0,600,25,0,621,26,0,600,27,0,600,28,0,421,29,0,400,30,0,400,32,0,400,33,0,400,34,0,421,35,0,400,36,0,400,37,0,421,38,0,400,39,0,421,40,0,421,41,0,400,42,0,400,43,0,421,44,0,400,45,0,400,46,0,400,59,0,400,60,0,400,61,0,400,62,0,400*5A
$PAIRDGP,7,2,7,8,16,21,26,27*56
$GNGGA,040138.200,2500.7873768,N,12132.4458601,E,4,52,0.54,16.757,M,15.25,M,1,3335*47
$GNRMC,040138.200,A,2500.7873768,N,12132.4458601,E,0.01,170.32,090324,,,R,V*13
$GPHDT,138.791,T*30
$GNACCURACY,4.0*12
$GNGGA,040138.300,2500.7873763,N,12132.4458601,E,4,52,0.54,16.753,M,15.25,M,1,3335*49
$GNRMC,040138.300,A,2500.7873763,N,12132.4458601,E,0.01,170.32,090324,,,R,V*19
$GPHDT,,T*1B
$GNACCURACY,4.0*12
$GNGGA,040138.400,2500.7873790,N,12132.4458605,E,4,51,0.54,16.757,M,15.25,M,1,3335*41
$GNRMC,040138.400,A,2500.7873790,N,12132.4458605,E,0.02,170.32,090324,,,R,V*15
$GPHDT,139.283,T*37
$GNACCURACY,4.0*12
$GNGGA,040138.500,2500.7873777,N,12132.4458580,E,4,51,0.54,16.767,M,15.25,M,1,3335*44
$GNRMC,040138.500,A,2500.7873777,N,12132.4458580,E,0.02,170.32,090324,,,R,V*13
$GPHDT,,T*1B
$GNACCURACY,4.0*12
$GNGGA,040138.600,2500.7873784,N,12132.4458599,E,4,51,0.54,16.768,M,15.25,M,0,3335*4D
$GNRMC,040138.600,A,2500.7873784,N,12132.4458599,E,0.03,170.32,090324,,,R,V*15
$GPHDT,139.188,T*3F
$GNACCURACY,4.0*12
$GNGGA,040138.700,2500.7873822,N,12132.4458602,E,4,51,0.54,16.771,M,15.25,M,0,3335*46
$GNRMC,040138.700,A,2500.7873822,N,12132.4458602,E,0.02,170.32,090324,,,R,V*17
$GPHDT,,T*1B
$GNACCURACY,4.0*12
$GNGGA,040138.800,2500.7873817,N,12132.4458624,E,4,51,0.54,16.770,M,15.25,M,0,3335*4A
$GNRMC,040138.800,A,2500.7873817,N,12132.4458624,E,0.02,170.32,090324,,,R,V*1A
$GPHDT,138.887,T*38
$GNACCURACY,4.0*12
$GNGGA,040138.900,2500.7873806,N,12132.4458598,E,4,51,0.54,16.780,M,15.25,M,0,3335*40
$GNRMC,040138.900,A,2500.7873806,N,12132.4458598,E,0.02,170.32,090324,,,R,V*1F
$GPHDT,,T*1B
$GNACCURACY,4.0*12
$GNGGA,040139.000,2500.7873809,N,12132.4458585,E,4,51,0.54,16.773,M,15.25,M,1,3335*46
$GNRMC,040139.000,A,2500.7873809,N,12132.4458585,E,0.02,170.32,090324,,,R,V*14
$GPHDT,138.700,T*38
$GNACCURACY,4.0*12
$GNGGA,040139.100,2500.7873800,N,12132.4458618,E,4,52,0.54,16.774,M,15.25,M,1,3335*4D
$GNRMC,040139.100,A,2500.7873800,N,12132.4458618,E,0.01,170.32,090324,,,R,V*18
$GPHDT,,T*1B
$GNGSA,A,3,08,194,195,199,21,02,07,27,16,04,26,,0.83,0.54,0.63,1*32
$GNGSA,A,3,81,88,78,77,79,,,,,,,,0.83,0.54,0.63,2*05
$GNGSA,A,3,21,13,26,27,15,,,,,,,,0.83,0.54,0.63,3*08
$GNGSA,A,3,09,06,23,16,07,43,40,39,28,10,25,37,0.83,0.54,0.63,4*04
$GNGSA,A,3,34,,,,,,,,,,,,0.83,0.54,0.63,4*0C
$GPGSV,4,1,15,08,65,348,45,194,64,051,37,195,63,116,41,50,60,167,37,1*62
$GPGSV,4,2,15,199,60,167,34,21,56,159,41,02,44,177,39,07,38,318,47,1*52
$GPGSV,4,3,15,27,36,034,31,16,29,072,32,09,25,250,,04,20,205,41,1*67
$GPGSV,4,4,15,196,20,170,26,26,10,097,18,30,08,320,,1*66
$GPGSV,2,1,08,08,65,348,47,194,64,051,38,195,63,116,45,199,60,167,45,8*59
$GPGSV,2,2,08,27,36,034,37,04,20,205,42,196,20,170,28,26,10,097,22,8*5A
$GLGSV,2,1,06,81,60,197,43,88,59,035,39,78,55,030,42,77,25,106,25,1*77
$GLGSV,2,2,06,79,23,331,44,87,06,026,16,1*7A
$GAGSV,2,1,06,21,54,007,42,13,54,086,26,26,41,172,37,27,30,076,29,7*71
$GAGSV,2,2,06,15,15,040,25,04,12,302,16,7*77
$GAGSV,2,1,05,13,54,086,34,21,54,007,44,26,41,172,33,27,30,076,28,1*74
$GAGSV,2,2,05,15,15,040,17,1*42
$GBGSV,4,1,13,09,74,272,38,06,73,215,40,23,72,022,45,16,70,198,44,1*72
$GBGSV,4,2,13,07,61,306,38,43,61,038,44,40,61,327,41,39,59,185,34,1*7A
$GBGSV,4,3,13,28,53,218,47,10,51,287,31,25,39,114,45,37,27,320,40,1*71
$GBGSV,4,4,13,34,14,040,27,1*47
$GBGSV,2,1,08,23,72,022,48,40,61,327,45,43,61,038,45,39,59,185,39,4*7E
$GBGSV,2,2,08,28,53,218,44,25,39,114,30,37,27,320,45,34,14,040,18,4*78
$GNACCURACY,4.0*12
$PAIRSAT,1,30,2,0,201,3,0,200,4,0,221,5,0,200,6,0,200,7,0,201,8,0,221,9,0,200,10,0,200,11,0,200,12,0,200,13,0,200,16,0,1,20,0,200,21,0,201,22,0,200,23,0,200,24,0,200,25,0,200,26,0,220,27,0,221,28,0,200,29,0,200,30,0,200,31,0,200,32,0,200,194,0,221,195,0,621,196,0,600,199,0,621*72
$PAIRSAT,2,23,65,0,200,66,0,200,67,0,200,68,0,200,69,0,200,70,0,200,71,0,200,72,0,200,73,0,200,74,0,200,75,0,200,76,0,200,77,0,1,78,0,201,79,0,201,80,0,200,81,0,201,83,0,200,84,0,200,85,0,200,86,0,200,87,0,201,88,0,201*5B
$PAIRSAT,3,23,2,0,1200,3,0,1200,4,0,1200,5,0,200,7,0,1200,8,0,1200,9,0,1200,10,0,200,11,0,200,12,0,200,13,0,221,15,0,220,19,0,200,21,0,221,24,0,200,25,0,1000,26,0,1021,27,0,1021,30,0,1000,31,0,1000,33,0,1200,34,0,1000,36,0,1200*68
$PAIRSAT,4,43,1,0,200,2,0,200,3,0,600,6,0,1,7,0,1,9,0,201,10,0,201,11,0,200,12,0,200,13,0,200,14,0,200,16,0,201,19,0,600,20,0,600,21,0,600,22,0,600,23,0,621,24,0,600,25,0,621,26,0,600,27,0,600,28,0,421,29,0,400,30,0,400,32,0,400,33,0,400,34,0,421,35,0,400,36,0,400,37,0,421,38,0,400,39,0,421,40,0,421,41,0,400,42,0,400,43,0,421,44,0,400,45,0,400,46,0,400,59,0,400,60,0,400,61,0,400,62,0,400*5A
$PAIRDGP,7,2,7,8,16,21,26,27*56
$GNGGA,040139.200,2500.7873811,N,12132.4458605,E,4,52,0.54,16.775,M,15.25,M,1,3335*43
$GNRMC,040139.200,A,2500.7873811,N,12132.4458605,E,0.02,170.32,090324,,,R,V*14
$GPHDT,138.904,T*32
$GNACCURACY,4.0*12
$GNGGA,040139.300,2500.7873801,N,12132.4458591,E,4,52,0.54,16.779,M,15.25,M,1,3335*41
$GNRMC,040139.300,A,2500.7873801,N,12132.4458591,E,0.01,170.32,090324,,,R,V*19
$GPHDT,,T*1B
$GNACCURACY,4.0*12
$GNGGA,040139.400,2500.7873812,N,12132.4458603,E,4,52,0.54,16.769,M,15.25,M,1,3335*4D
$GNRMC,040139.400,A,2500.7873812,N,12132.4458603,E,0.02,170.32,090324,,,R,V*17
$GPHDT,138.808,T*3F
$GNACCURACY,4.0*12
$GNGGA,040139.500,2500.7873798,N,12132.4458580,E,4,52,0.54,16.781,M,15.25,M,0,3335*4E
$GNRMC,040139.500,A,2500.7873798,N,12132.4458580,E,0.02,170.32,090324,,,R,V*13
$GPHDT,,T*1B
