$FW : RTK35X,V1.1X0314AS,Lib20210517,1*54
$Tool : LOCOSYS , GNSS Firebird , v1.0.0.19*39
$---------------------------------------------------*2D
$GNGSA,A,3,08,194,195,199,21,02,07,27,16,04,26,,0.86,0.56,0.65,1*33
$GNGSA,A,3,81,88,78,79,,,,,,,,,0.86,0.56,0.65,2*04
$GNGSA,A,3,13,21,26,27,,,,,,,,,0.86,0.56,0.65,3*0D
$GNGSA,A,3,09,06,23,16,43,40,07,39,28,10,25,37,0.86,0.56,0.65,4*05
$GNGSA,A,3,34,,,,,,,,,,,,0.86,0.56,0.65,4*0D
$GPGSV,4,1,13,08,65,348,43,194,64,051,41,195,63,116,41,50,60,167,38,1*6C
$GPGSV,4,2,13,199,60,167,35,21,56,160,40,02,44,178,40,07,38,318,42,1*5A
$GPGSV,4,3,13,27,36,034,39,16,29,071,24,04,20,205,43,196,20,170,18,1*55
$GPGSV,4,4,13,26,10,096,16,1*5B
$GPGSV,2,1,08,08,65,348,45,194,64,051,38,195,63,116,44,199,60,167,44,8*5B
$GPGSV,2,2,08,27,36,034,42,04,20,205,45,196,20,170,22,26,10,096,20,8*56
$GLGSV,2,1,06,81,60,197,39,88,59,036,41,78,55,030,46,77,25,106,12,1*76
$GLGSV,2,2,06,79,23,331,36,87,06,026,09,1*71
$GAGSV,2,1,07,13,54,087,33,21,54,007,34,26,40,172,37,27,30,076,23,7*7F
$GAGSV,2,2,07,19,29,244,,15,16,040,19,04,12,302,16,7*4B
$GAGSV,2,1,05,13,54,087,36,21,54,007,43,26,40,172,37,27,30,076,27,1*7A
$GAGSV,2,2,05,15,16,040,25,1*40
$GBGSV,4,1,13,09,74,272,39,06,73,216,38,23,71,021,47,16,70,197,42,1*74
$GBGSV,4,2,13,43,62,039,47,40,61,326,40,07,61,305,40,39,60,185,35,1*7C
$GBGSV,4,3,13,28,52,217,44,10,51,287,30,25,39,114,32,37,27,320,42,1*7F
$GBGSV,4,4,13,34,14,040,,1*42
$GBGSV,2,1,08,23,71,021,47,43,62,039,47,40,61,326,44,39,60,185,41,4*74
$GBGSV,2,2,08,28,52,217,43,25,39,114,31,37,27,320,38,34,14,040,26,4*77
$GNACCURACY,4.6*14
$PAIRSAT,1,29,2,0,201,3,0,200,4,0,221,5,0,200,6,0,200,7,0,201,8,0,221,9,0,200,10,0,200,11,0,200,12,0,200,16,0,1,20,0,200,21,0,201,22,0,200,23,0,200,24,0,200,25,0,200,26,0,220,27,0,221,28,0,200,29,0,200,30,0,200,31,0,200,32,0,200,194,0,21,195,0,621,196,0,600,199,0,621*64
$PAIRSAT,2,22,65,0,200,66,0,200,67,0,200,68,0,200,69,0,200,70,0,200,71,0,200,73,0,200,74,0,200,75,0,200,76,0,200,77,0,1,78,0,201,79,0,201,80,0,200,81,0,201,83,0,200,84,0,200,85,0,200,86,0,200,87,0,201,88,0,201*71
$PAIRSAT,3,22,2,0,1200,3,0,1200,4,0,1200,5,0,200,7,0,1200,8,0,1200,9,0,1200,10,0,200,11,0,200,12,0,200,13,0,221,15,0,200,19,0,200,21,0,221,25,0,1000,26,0,1021,27,0,1021,30,0,1000,31,0,1000,33,0,1200,34,0,1000,36,0,1200*43
$PAIRSAT,4,42,1,0,200,3,0,400,6,0,1,7,0,1,9,0,201,10,0,201,11,0,200,12,0,200,13,0,200,14,0,200,16,0,201,19,0,600,20,0,600,21,0,600,22,0,600,23,0,621,24,0,600,25,0,621,26,0,400,27,0,400,28,0,421,29,0,400,30,0,400,32,0,400,33,0,400,34,0,421,35,0,400,36,0,400,37,0,421,38,0,400,39,0,421,40,0,421,41,0,400,42,0,400,43,0,421,44,0,400,45,0,400,46,0,400,59,0,400,60,0,400,61,0,400,62,0,400*45
$PAIRDGP,7,2,7,8,16,21,26,27*56
$GNGGA,040050.200,2500.7873737,N,12132.4458490,E,4,49,0.56,16.779,M,15.25,M,1,3335*4C
$GNRMC,040050.200,A,2500.7873737,N,12132.4458490,E,0.01,170.32,090324,,,R,V*1C
$GPHDT,,T*1B
$GNACCURACY,4.5*17
$GNGGA,040050.300,2500.7873717,N,12132.4458471,E,4,49,0.56,16.771,M,15.25,M,1,3335*48
$GNRMC,040050.300,A,2500.7873717,N,12132.4458471,E,0.01,170.32,090324,,,R,V*10
$GPHDT,,T*1B
$GNACCURACY,4.5*17
$GNGGA,040050.400,2500.7873726,N,12132.4458475,E,4,48,0.57,16.775,M,15.25,M,1,3335*4D
$GNRMC,040050.400,A,2500.7873726,N,12132.4458475,E,0.01,170.32,090324,,,R,V*11
$GPHDT,,T*1B
$GNACCURACY,4.5*17
$GNGGA,040050.500,2500.7873752,N,12132.4458485,E,4,48,0.57,16.756,M,15.25,M,1,3335*41
$GNRMC,040050.500,A,2500.7873752,N,12132.4458485,E,0.01,170.32,090324,,,R,V*1C
$GPHDT,,T*1B
$GNACCURACY,4.6*14
$GNGGA,040050.600,2500.7873722,N,12132.4458491,E,4,48,0.57,16.753,M,15.25,M,0,3335*44
$GNRMC,040050.600,A,2500.7873722,N,12132.4458491,E,0.01,170.32,090324,,,R,V*1D
$GPHDT,,T*1B
$GNACCURACY,4.6*14
$GNGGA,040050.700,2500.7873714,N,12132.4458453,E,4,48,0.57,16.765,M,15.25,M,0,3335*4B
$GNRMC,040050.700,A,2500.7873714,N,12132.4458453,E,0.01,170.32,090324,,,R,V*17
$GPHDT,,T*1B
$GNACCURACY,4.6*14
$GNGGA,040050.800,2500.7873720,N,12132.4458537,E,4,48,0.57,16.744,M,15.25,M,0,3335*43
$GNRMC,040050.800,A,2500.7873720,N,12132.4458537,E,0.01,170.32,090324,,,R,V*1C
$GPHDT,,T*1B
$GNACCURACY,4.6*14
$GNGGA,040050.900,2500.7873715,N,12132.4458461,E,4,49,0.56,16.749,M,15.25,M,0,3335*4B
$GNRMC,040050.900,A,2500.7873715,N,12132.4458461,E,0.04,170.32,090324,,,R,V*1C
$GPHDT,,T*1B
$GNACCURACY,4.6*14
$GNGGA,040051.000,2500.7873710,N,12132.4458511,E,4,49,0.56,16.761,M,15.25,M,1,3335*4B
$GNRMC,040051.000,A,2500.7873710,N,12132.4458511,E,0.05,170.32,090324,,,R,V*16
$GPHDT,,T*1B
$GNACCURACY,4.6*14
$GNGGA,040051.100,2500.7873695,N,12132.4458500,E,4,49,0.56,16.768,M,15.25,M,1,3335*4F
$GNRMC,040051.100,A,2500.7873695,N,12132.4458500,E,0.06,170.32,090324,,,R,V*18
$GPHDT,,T*1B
$GNGSA,A,3,08,194,195,199,21,02,07,27,16,04,26,,0.86,0.56,0.65,1*33
$GNGSA,A,3,81,88,78,79,,,,,,,,,0.86,0.56,0.65,2*04
$GNGSA,A,3,13,21,26,27,,,,,,,,,0.86,0.56,0.65,3*0D
$GNGSA,A,3,09,06,23,16,43,07,40,39,28,10,25,37,0.86,0.56,0.65,4*05
$GNGSA,A,3,34,,,,,,,,,,,,0.86,0.56,0.65,4*0D
$GPGSV,4,1,13,08,65,348,43,194,64,051,41,195,63,116,41,50,60,167,38,1*6C
$GPGSV,4,2,13,199,60,167,35,21,56,160,41,02,44,178,39,07,38,318,42,1*55
$GPGSV,4,3,13,27,36,034,40,16,29,071,26,04,20,205,42,196,20,170,17,1*57
$GPGSV,4,4,13,26,10,096,17,1*5A
$GPGSV,2,1,08,08,65,348,45,194,64,051,38,195,63,116,45,199,60,167,44,8*5A
$GPGSV,2,2,08,27,36,034,42,04,20,205,44,196,20,170,26,26,10,096,17,8*57
$GLGSV,2,1,07,81,60,197,39,88,59,035,41,78,55,030,46,77,25,106,14,1*72
$GLGSV,2,2,07,79,23,331,38,87,06,026,11,69,05,285,,1*42
$GAGSV,2,1,07,13,54,087,34,21,54,007,37,26,40,172,35,27,30,076,25,7*7F
$GAGSV,2,2,07,19,29,244,,15,16,040,20,04,12,302,18,7*4F
$GAGSV,2,1,05,13,54,087,34,21,54,007,42,26,40,172,37,27,30,076,27,1*79
$GAGSV,2,2,05,15,16,040,25,1*40
$GBGSV,4,1,13,09,74,272,39,06,73,215,37,23,71,021,46,16,70,197,41,1*7A
$GBGSV,4,2,13,43,62,039,47,07,61,305,39,40,61,326,39,39,60,185,36,1*7F
$GBGSV,4,3,13,28,52,217,44,10,51,287,31,25,39,114,34,37,27,320,42,1*78
$GBGSV,4,4,13,34,14,040,,1*42
$GBGSV,2,1,08,23,71,021,47,43,62,039,47,40,61,326,44,39,60,185,41,4*74
$GBGSV,2,2,08,28,52,217,44,25,39,114,32,37,27,320,41,34,14,040,25,4*7E
$GNACCURACY,4.6*14
$PAIRSAT,1,29,2,0,201,3,0,200,4,0,221,5,0,200,6,0,200,7,0,201,8,0,221,9,0,200,10,0,200,11,0,200,12,0,200,16,0,1,20,0,200,21,0,201,22,0,200,23,0,200,24,0,200,25,0,200,26,0,220,27,0,221,28,0,200,29,0,200,30,0,200,31,0,200,32,0,200,194,0,21,195,0,621,196,0,600,199,0,621*64
$PAIRSAT,2,22,65,0,200,66,0,200,67,0,200,68,0,200,69,0,200,70,0,200,71,0,200,73,0,200,74,0,200,75,0,200,76,0,200,77,0,1,78,0,201,79,0,201,80,0,200,81,0,201,83,0,200,84,0,200,85,0,200,86,0,200,87,0,201,88,0,201*71
$PAIRSAT,3,22,2,0,1200,3,0,1200,4,0,1200,5,0,200,7,0,1200,8,0,1200,9,0,1200,10,0,200,11,0,200,12,0,200,13,0,221,15,0,200,19,0,200,21,0,221,25,0,1000,26,0,1021,27,0,1021,30,0,1000,31,0,1000,33,0,1200,34,0,1000,36,0,1200*43
$PAIRSAT,4,43,1,0,200,2,0,200,3,0,400,6,0,1,7,0,1,9,0,201,10,0,201,11,0,200,12,0,200,13,0,200,14,0,200,16,0,201,19,0,600,20,0,600,21,0,600,22,0,600,23,0,621,24,0,600,25,0,621,26,0,400,27,0,400,28,0,421,29,0,400,30,0,400,32,0,400,33,0,400,34,0,421,35,0,400,36,0,400,37,0,421,38,0,400,39,0,421,40,0,421,41,0,400,42,0,400,43,0,421,44,0,400,45,0,400,46,0,400,59,0,400,60,0,400,61,0,400,62,0,400*58
$PAIRDGP,7,2,7,8,16,21,26,27*56
$GNGGA,040051.200,2500.7873702,N,12132.4458458,E,4,49,0.56,16.773,M,15.25,M,1,3335*45
$GNRMC,040051.200,A,2500.7873702,N,12132.4458458,E,0.04,170.32,090324,,,R,V*1A
$GPHDT,,T*1B
$GNACCURACY,4.6*14
$GNGGA,040051.300,2500.7873715,N,12132.4458480,E,4,49,0.56,16.773,M,15.25,M,1,3335*47
$GNRMC,040051.300,A,2500.7873715,N,12132.4458480,E,0.03,170.32,090324,,,R,V*1F
$GPHDT,,T*1B
$GNACCURACY,4.6*14
$GNGGA,040051.400,2500.7873698,N,12132.4458487,E,4,49,0.56,16.770,M,15.25,M,1,3335*40
$GNRMC,040051.400,A,2500.7873698,N,12132.4458487,E,0.02,170.32,090324,,,R,V*1A
$GPHDT,,T*1B
$GNACCURACY,4.6*14
$GNGGA,040051.500,2500.7873716,N,12132.4458454,E,4,49,0.56,16.772,M,15.25,M,1,3335*4A
$GNRMC,040051.500,A,2500.7873716,N,12132.4458454,E,0.01,170.32,090324,,,R,V*11
$GPHDT,,T*1B
$GNACCURACY,4.6*14
$GNGGA,040051.600,2500.7873710,N,12132.4458475,E,4,49,0.56,16.766,M,15.25,M,0,3335*48
$GNRMC,040051.600,A,2500.7873710,N,12132.4458475,E,0.01,170.32,090324,,,R,V*17
$GPHDT,,T*1B
$GNACCURACY,4.6*14
$GNGGA,040051.700,2500.7873707,N,12132.4458429,E,4,48,0.57,16.776,M,15.25,M,0,3335*47
$GNRMC,040051.700,A,2500.7873707,N,12132.4458429,E,0.06,170.32,090324,,,R,V*1E
$GPHDT,,T*1B
$GNACCURACY,4.5*17
$GNGGA,040051.800,2500.7873720,N,12132.4458416,E,4,48,0.57,16.788,M,15.25,M,0,3335*40
$GNRMC,040051.800,A,2500.7873720,N,12132.4458416,E,0.05,170.32,090324,,,R,V*1B
$GPHDT,,T*1B
$GNACCURACY,4.5*17
$GNGGA,040051.900,2500.7873700,N,12132.4458483,E,4,48,0.57,16.780,M,15.25,M,0,3335*47
$GNRMC,040051.900,A,2500.7873700,N,12132.4458483,E,0.03,170.32,090324,,,R,V*12
$GPHDT,,T*1B
$GNACCURACY,4.5*17
$GNGGA,040052.000,2500.7873707,N,12132.4458492,E,4,48,0.57,16.759,M,15.25,M,1,3335*4F
$GNRMC,040052.000,A,2500.7873707,N,12132.4458492,E,0.01,170.32,090324,,,R,V*1D
$GPHDT,,T*1B
$GNACCURACY,4.5*17
$GNGGA,040052.100,2500.7873698,N,12132.4458476,E,4,48,0.57,16.763,M,15.25,M,1,3335*4A
$GNRMC,040052.100,A,2500.7873698,N,12132.4458476,E,0.02,170.32,090324,,,R,V*12
$GPHDT,,T*1B
$GNGSA,A,3,08,194,195,199,21,02,07,27,16,04,,,0.90,0.57,0.69,1*3D
$GNGSA,A,3,81,88,78,79,,,,,,,,,0.90,0.57,0.69,2*0E
$GNGSA,A,3,13,21,26,27,,,,,,,,,0.90,0.57,0.69,3*07
$GNGSA,A,3,09,06,23,16,43,40,07,39,28,10,25,37,0.90,0.57,0.69,4*0F
$GNGSA,A,3,34,,,,,,,,,,,,0.90,0.57,0.69,4*07
$GPGSV,4,1,13,08,65,348,44,194,64,051,41,195,63,116,42,50,60,167,38,1*68
$GPGSV,4,2,13,199,60,167,35,21,56,160,41,02,44,178,42,07,38,318,43,1*58
$GPGSV,4,3,13,27,36,034,38,16,29,071,28,04,20,205,40,196,20,170,18,1*5B
$GPGSV,4,4,13,26,10,096,15,1*58
$GPGSV,2,1,07,08,65,348,46,194,64,051,38,195,63,116,46,199,60,167,44,8*55
$GPGSV,2,2,07,27,36,034,43,04,20,205,44,196,20,170,34,8*66
$GLGSV,2,1,06,81,60,197,40,88,59,035,39,78,55,030,45,77,25,106,13,1*76
$GLGSV,2,2,06,79,23,331,35,87,06,026,12,1*78
$GAGSV,2,1,07,13,54,087,34,21,54,007,35,26,40,172,37,27,30,076,23,7*79
$GAGSV,2,2,07,19,29,244,,15,16,040,20,04,12,302,16,7*41
$GAGSV,2,1,05,13,54,087,33,21,54,007,42,26,40,172,36,27,30,076,28,1*70
$GAGSV,2,2,05,15,16,040,24,1*41
$GBGSV,4,1,13,09,74,272,39,06,73,215,36,23,71,021,46,16,70,197,43,1*79
$GBGSV,4,2,13,43,62,039,47,40,61,326,40,07,61,305,39,39,60,185,36,1*71
$GBGSV,4,3,13,28,52,217,45,10,51,287,31,25,39,114,32,37,27,320,39,1*73
$GBGSV,4,4,13,34,14,040,,1*42
$GBGSV,2,1,08,23,71,021,47,43,62,039,47,40,61,326,44,39,60,185,42,4*77
$GBGSV,2,2,08,28,52,217,44,25,39,114,31,37,27,320,41,34,14,040,25,4*7D
$GNACCURACY,4.5*17
$PAIRSAT,1,29,2,0,201,3,0,200,4,0,221,5,0,200,6,0,200,7,0,201,8,0,221,9,0,200,10,0,200,11,0,200,12,0,200,16,0,1,20,0,200,21,0,201,22,0,200,23,0,200,24,0,200,25,0,200,26,0,220,27,0,221,28,0,200,29,0,200,30,0,200,31,0,200,32,0,200,194,0,21,195,0,621,196,0,600,199,0,621*64
$PAIRSAT,2,23,65,0,200,66,0,200,67,0,200,68,0,200,69,0,200,70,0,200,71,0,200,72,0,200,73,0,200,74,0,200,75,0,200,76,0,200,77,0,1,78,0,201,79,0,201,80,0,200,81,0,201,83,0,200,84,0,200,85,0,200,86,0,200,87,0,201,88,0,201*5B
$PAIRSAT,3,22,2,0,1200,3,0,1200,4,0,1200,5,0,200,7,0,1200,8,0,1200,9,0,1200,10,0,200,11,0,200,12,0,200,13,0,221,15,0,200,19,0,200,21,0,221,25,0,1000,26,0,1021,27,0,1021,30,0,1000,31,0,1000,33,0,1200,34,0,1000,36,0,1200*43
$PAIRSAT,4,43,1,0,200,2,0,200,3,0,400,6,0,1,7,0,1,9,0,201,10,0,201,11,0,200,12,0,200,13,0,200,14,0,200,16,0,201,19,0,600,20,0,600,21,0,600,22,0,600,23,0,621,24,0,600,25,0,621,26,0,400,27,0,400,28,0,421,29,0,400,30,0,400,32,0,400,33,0,400,34,0,421,35,0,400,36,0,400,37,0,421,38,0,400,39,0,421,40,0,421,41,0,400,42,0,400,43,0,421,44,0,400,45,0,400,46,0,400,59,0,400,60,0,400,61,0,400,62,0,400*58
$PAIRDGP,7,2,7,8,16,21,26,27*56
$GNGGA,040052.200,2500.7873733,N,12132.4458522,E,4,48,0.57,16.770,M,15.25,M,1,3335*4B
$GNRMC,040052.200,A,2500.7873733,N,12132.4458522,E,0.01,170.32,090324,,,R,V*12
$GPHDT,,T*1B
$GNACCURACY,4.5*17
$GNGGA,040052.300,2500.7873714,N,12132.4458490,E,4,48,0.57,16.771,M,15.25,M,1,3335*46
$GNRMC,040052.300,A,2500.7873714,N,12132.4458490,E,0.01,170.32,090324,,,R,V*1E
$GPHDT,,T*1B
$GNACCURACY,4.5*17
$GNGGA,040052.400,2500.7873751,N,12132.4458500,E,4,48,0.57,16.776,M,15.25,M,1,3335*4F
$GNRMC,040052.400,A,2500.7873751,N,12132.4458500,E,0.01,170.32,090324,,,R,V*10
$GPHDT,,T*1B
$GNACCURACY,4.5*17
$GNGGA,040052.500,2500.7873725,N,12132.4458470,E,4,48,0.57,16.781,M,15.25,M,0,3335*42
$GNRMC,040052.500,A,2500.7873725,N,12132.4458470,E,0.01,170.32,090324,,,R,V*14
$GPHDT,,T*1B
$GNACCURACY,4.5*17
$GNGGA,040052.600,2500.7873732,N,12132.4458452,E,4,48,0.57,16.791,M,15.25,M,0,3335*46
$GNRMC,040052.600,A,2500.7873732,N,12132.4458452,E,0.01,170.32,090324,,,R,V*11
$GPHDT,,T*1B
$GNACCURACY,4.5*17
$GNGGA,040052.700,2500.7873728,N,12132.4458476,E,4,48,0.57,16.780,M,15.25,M,0,3335*4A
$GNRMC,040052.700,A,2500.7873728,N,12132.4458476,E,0.01,170.32,090324,,,R,V*1D
$GPHDT,,T*1B
$GNACCURACY,4.5*17
$GNGGA,040052.800,2500.7873730,N,12132.4458442,E,4,48,0.57,16.784,M,15.25,M,0,3335*4F
$GNRMC,040052.800,A,2500.7873730,N,12132.4458442,E,0.02,170.32,090324,,,R,V*1F
$GPHDT,,T*1B
$GNACCURACY,4.5*17
$GNGGA,040052.900,2500.7873741,N,12132.4458442,E,4,48,0.57,16.784,M,15.25,M,0,3335*48
$GNRMC,040052.900,A,2500.7873741,N,12132.4458442,E,0.03,170.32,090324,,,R,V*19
$GPHDT,,T*1B
$GNACCURACY,4.5*17
$GNGGA,040053.000,2500.7873718,N,12132.4458477,E,4,48,0.57,16.771,M,15.25,M,1,3335*41
$GNRMC,040053.000,A,2500.7873718,N,12132.4458477,E,0.02,170.32,090324,,,R,V*1A
$GPHDT,,T*1B
$GNACCURACY,4.5*17
$GNGGA,040053.100,2500.7873713,N,12132.4458465,E,4,48,0.57,16.770,M,15.25,M,1,3335*49
$GNRMC,040053.100,A,2500.7873713,N,12132.4458465,E,0.02,170.32,090324,,,R,V*13
$GPHDT,,T*1B
$GNGSA,A,3,08,194,195,199,21,02,07,27,16,04,,,0.90,0.57,0.69,1*3D
$GNGSA,A,3,81,88,78,79,,,,,,,,,0.90,0.57,0.69,2*0E
$GNGSA,A,3,21,13,26,27,,,,,,,,,0.90,0.57,0.69,3*07
$GNGSA,A,3,09,06,23,16,43,40,07,39,28,10,25,37,0.90,0.57,0.69,4*0F
$GNGSA,A,3,34,,,,,,,,,,,,0.90,0.57,0.69,4*07
$GPGSV,4,1,14,08,65,348,44,194,64,051,41,195,63,116,42,50,60,167,37,1*60
$GPGSV,4,2,14,199,60,167,34,21,56,160,42,02,44,178,42,07,38,318,43,1*5D
$GPGSV,4,3,14,27,36,034,38,16,29,071,28,04,20,205,43,196,20,170,18,1*5F
$GPGSV,4,4,14,26,10,096,17,31,03,143,,1*6A
$GPGSV,2,1,07,08,65,348,45,194,64,051,38,195,63,116,46,199,60,167,44,8*56
$GPGSV,2,2,07,27,36,034,43,04,20,205,44,196,20,170,29,8*6A
$GLGSV,2,1,07,81,60,197,40,88,59,035,40,78,55,030,45,77,25,106,14,1*7E
$GLGSV,2,2,07,79,23,331,34,87,06,026,12,68,04,239,,1*4A
$GAGSV,2,1,07,21,54,007,36,13,54,087,35,26,40,172,37,27,30,076,23,7*7B
$GAGSV,2,2,07,19,29,244,,15,16,040,22,04,12,302,16,7*43
$GAGSV,2,1,05,13,54,087,34,21,54,007,42,26,40,172,35,27,30,076,27,1*7B
$GAGSV,2,2,05,15,16,040,24,1*41
$GBGSV,4,1,13,09,74,272,39,06,73,215,36,23,71,021,46,16,70,197,43,1*79
$GBGSV,4,2,13,43,62,039,47,40,61,326,40,07,61,305,39,39,60,185,38,1*7F
$GBGSV,4,3,13,28,53,218,45,10,51,287,31,25,39,114,33,37,27,320,39,1*7C
$GBGSV,4,4,13,34,14,040,,1*42
$GBGSV,2,1,08,23,71,021,47,43,62,039,47,40,61,326,45,39,60,185,42,4*76
$GBGSV,2,2,08,28,53,218,44,25,39,114,32,37,27,320,38,34,14,040,25,4*7E
$GNACCURACY,4.5*17
$PAIRSAT,1,29,2,0,201,3,0,200,4,0,221,5,0,200,6,0,200,7,0,201,8,0,221,9,0,200,10,0,200,11,0,200,12,0,200,16,0,1,20,0,200,21,0,201,22,0,200,23,0,200,24,0,200,25,0,200,26,0,220,27,0,221,28,0,200,29,0,200,30,0,200,31,0,200,32,0,200,194,0,21,195,0,621,196,0,600,199,0,621*64
$PAIRSAT,2,23,65,0,200,66,0,200,67,0,200,68,0,200,69,0,200,70,0,200,71,0,200,72,0,200,73,0,200,74,0,200,75,0,200,76,0,200,77,0,1,78,0,201,79,0,201,80,0,200,81,0,201,83,0,200,84,0,200,85,0,200,86,0,200,87,0,201,88,0,201*5B
$PAIRSAT,3,22,2,0,1200,3,0,1200,4,0,1200,5,0,200,7,0,1200,8,0,1200,9,0,1200,10,0,200,11,0,200,12,0,200,13,0,221,15,0,200,19,0,200,21,0,221,25,0,1000,26,0,1021,27,0,1021,30,0,1000,31,0,1000,33,0,1200,34,0,1000,36,0,1200*43
$PAIRSAT,4,43,1,0,200,2,0,200,3,0,400,6,0,1,7,0,1,9,0,201,10,0,201,11,0,200,12,0,200,13,0,200,14,0,200,16,0,201,19,0,600,20,0,600,21,0,600,22,0,600,23,0,621,24,0,600,25,0,621,26,0,400,27,0,400,28,0,421,29,0,400,30,0,400,32,0,400,33,0,400,34,0,421,35,0,400,36,0,400,37,0,421,38,0,400,39,0,421,40,0,421,41,0,400,42,0,400,43,0,421,44,0,400,45,0,400,46,0,400,59,0,400,60,0,400,61,0,400,62,0,400*58
$PAIRDGP,7,2,7,8,16,21,26,27*56
$GNGGA,040053.200,2500.7873745,N,12132.4458490,E,4,48,0.57,16.768,M,15.25,M,1,3335*4A
$GNRMC,040053.200,A,2500.7873745,N,12132.4458490,E,0.01,170.32,090324,,,R,V*1A
$GPHDT,,T*1B
$GNACCURACY,4.5*17
$GNGGA,040053.300,2500.7873734,N,12132.4458458,E,4,48,0.57,16.778,M,15.25,M,1,3335*48
$GNRMC,040053.300,A,2500.7873734,N,12132.4458458,E,0.01,170.32,090324,,,R,V*19
$GPHDT,,T*1B
$GNACCURACY,4.5*17
$GNGGA,040053.400,2500.7873731,N,12132.4458499,E,4,48,0.57,16.770,M,15.25,M,1,3335*4F
$GNRMC,040053.400,A,2500.7873731,N,12132.4458499,E,0.01,170.32,090324,,,R,V*16
$GPHDT,,T*1B
$GNACCURACY,4.5*17
$GNGGA,040053.500,2500.7873725,N,12132.4458495,E,4,48,0.57,16.778,M,15.25,M,1,3335*4F
$GNRMC,040053.500,A,2500.7873725,N,12132.4458495,E,0.01,170.32,090324,,,R,V*1E
$GPHDT,,T*1B
$GNACCURACY,4.5*17
$GNGGA,040053.600,2500.7873723,N,12132.4458432,E,4,48,0.57,16.780,M,15.25,M,0,3335*41
$GNRMC,040053.600,A,2500.7873723,N,12132.4458432,E,0.01,170.32,090324,,,R,V*16
$GPHDT,,T*1B
$GNACCURACY,4.5*17
$GNGGA,040053.700,2500.7873727,N,12132.4458461,E,4,48,0.57,16.775,M,15.25,M,0,3335*48
$GNRMC,040053.700,A,2500.7873727,N,12132.4458461,E,0.12,170.32,090324,,,R,V*17
$GPHDT,,T*1B
$GNACCURACY,4.5*17
$GNGGA,040053.800,2500.7873743,N,12132.4458423,E,4,48,0.57,16.774,M,15.25,M,0,3335*42
$GNRMC,040053.800,A,2500.7873743,N,12132.4458423,E,0.05,170.32,090324,,,R,V*1A
$GPHDT,,T*1B
$GNACCURACY,4.5*17
$GNGGA,040053.900,2500.7873724,N,12132.4458471,E,4,48,0.57,16.775,M,15.25,M,0,3335*44
$GNRMC,040053.900,A,2500.7873724,N,12132.4458471,E,0.04,170.32,090324,,,R,V*1C
$GPHDT,,T*1B
$GNACCURACY,4.5*17
$GNGGA,040054.000,2500.7873715,N,12132.4458445,E,4,48,0.57,16.776,M,15.25,M,1,3335*4D
$GNRMC,040054.000,A,2500.7873715,N,12132.4458445,E,0.03,170.32,090324,,,R,V*10
$GPHDT,,T*1B
$GNACCURACY,4.5*17
$GNGGA,040054.100,2500.7873727,N,12132.4458473,E,4,48,0.57,16.774,M,15.25,M,1,3335*4A
$GNRMC,040054.100,A,2500.7873727,N,12132.4458473,E,0.02,170.32,090324,,,R,V*14
$GPHDT,,T*1B
$GNGSA,A,3,08,194,195,199,21,02,07,27,16,04,,,0.90,0.57,0.69,1*3D
$GNGSA,A,3,81,88,78,79,,,,,,,,,0.90,0.57,0.69,2*0E
$GNGSA,A,3,13,21,26,27,,,,,,,,,0.90,0.57,0.69,3*07
$GNGSA,A,3,09,06,23,16,43,07,40,39,28,10,25,37,0.90,0.57,0.69,4*0F
$GNGSA,A,3,34,,,,,,,,,,,,0.90,0.57,0.69,4*07
$GPGSV,4,1,13,08,65,348,44,194,64,051,41,195,63,116,42,50,60,167,37,1*67
$GPGSV,4,2,13,199,60,167,34,21,56,160,41,02,44,178,42,07,38,318,43,1*59
$GPGSV,4,3,13,27,36,034,37,16,29,071,30,04,20,205,42,196,20,170,18,1*5F
$GPGSV,4,4,13,26,10,096,17,1*5A
$GPGSV,2,1,07,08,65,348,45,194,64,051,37,195,63,116,45,199,60,167,44,8*5A
$GPGSV,2,2,07,27,36,034,43,04,20,205,44,196,20,170,31,8*63
$GLGSV,2,1,07,81,60,197,40,88,59,035,40,78,55,030,45,77,25,106,15,1*7F
$GLGSV,2,2,07,79,23,331,36,87,06,026,,68,04,239,,1*4B
$GAGSV,2,1,08,13,54,087,36,21,54,007,36,26,40,172,37,27,30,076,22,7*76
$GAGSV,2,2,08,19,29,244,,15,16,040,23,04,12,302,17,33,01,199,,7*7C
$GAGSV,2,1,05,13,54,087,34,21,54,007,42,26,40,172,37,27,30,076,25,1*7B
$GAGSV,2,2,05,15,16,040,25,1*40
$GBGSV,4,1,13,09,74,272,39,06,73,215,35,23,71,021,45,16,70,197,43,1*79
$GBGSV,4,2,13,43,62,039,47,07,61,305,40,40,61,326,40,39,60,185,37,1*7E
$GBGSV,4,3,13,28,53,218,45,10,51,287,31,25,39,114,34,37,27,320,39,1*7B
$GBGSV,4,4,13,34,14,040,,1*42
$GBGSV,2,1,08,23,71,021,47,43,62,039,47,40,61,326,45,39,60,185,42,4*76
$GBGSV,2,2,08,28,53,218,44,25,39,114,32,37,27,320,41,34,14,040,25,4*70
$GNACCURACY,4.5*17
$PAIRSAT,1,29,2,0,201,3,0,200,4,0,221,5,0,200,6,0,200,7,0,201,8,0,221,9,0,200,10,0,200,11,0,200,12,0,200,16,0,1,20,0,200,21,0,201,22,0,200,23,0,200,24,0,200,25,0,200,26,0,220,27,0,221,28,0,200,29,0,200,30,0,200,31,0,200,32,0,200,194,0,21,195,0,621,196,0,600,199,0,621*64
$PAIRSAT,2,23,65,0,200,66,0,200,67,0,200,68,0,200,69,0,200,70,0,200,71,0,200,72,0,200,73,0,200,74,0,200,75,0,200,76,0,200,77,0,1,78,0,201,79,0,201,80,0,200,81,0,201,83,0,200,84,0,200,85,0,200,86,0,200,87,0,201,88,0,201*5B
$PAIRSAT,3,22,2,0,1200,3,0,1200,4,0,1200,5,0,200,7,0,1200,8,0,1200,9,0,1200,10,0,200,11,0,200,12,0,200,13,0,221,15,0,200,19,0,200,21,0,221,25,0,1000,26,0,1021,27,0,1021,30,0,1000,31,0,1000,33,0,1200,34,0,1000,36,0,1200*43
$PAIRSAT,4,43,1,0,200,2,0,200,3,0,400,6,0,1,7,0,1,9,0,201,10,0,201,11,0,200,12,0,200,13,0,200,14,0,200,16,0,201,19,0,600,20,0,600,21,0,600,22,0,600,23,0,621,24,0,600,25,0,621,26,0,400,27,0,400,28,0,421,29,0,400,30,0,400,32,0,400,33,0,400,34,0,421,35,0,400,36,0,400,37,0,421,38,0,400,39,0,421,40,0,421,41,0,400,42,0,400,43,0,421,44,0,400,45,0,400,46,0,400,59,0,400,60,0,400,61,0,400,62,0,400*58
$PAIRDGP,7,2,7,8,16,21,26,27*56
$GNGGA,040054.200,2500.7873733,N,12132.4458470,E,4,48,0.57,16.778,M,15.25,M,1,3335*43
$GNRMC,040054.200,A,2500.7873733,N,12132.4458470,E,0.01,170.32,090324,,,R,V*12
$GPHDT,319.597,T*35
$GNACCURACY,4.5*17
$GNGGA,040054.300,2500.7873728,N,12132.4458433,E,4,48,0.57,16.783,M,15.25,M,1,3335*4B
$GNRMC,040054.300,A,2500.7873728,N,12132.4458433,E,0.02,170.32,090324,,,R,V*1D
$GPHDT,,T*1B
$GNACCURACY,4.5*17
$GNGGA,040054.400,2500.7873730,N,12132.4458457,E,4,48,0.57,16.755,M,15.25,M,1,3335*4C
$GNRMC,040054.400,A,2500.7873730,N,12132.4458457,E,0.02,170.32,090324,,,R,V*11
$GPHDT,319.416,T*3D
$GNACCURACY,4.5*17
$GNGGA,040054.500,2500.7873718,N,12132.4458454,E,4,48,0.57,16.757,M,15.25,M,1,3335*46
$GNRMC,040054.500,A,2500.7873718,N,12132.4458454,E,0.02,170.32,090324,,,R,V*19
$GPHDT,,T*1B
$GNACCURACY,4.5*17
$GNGGA,040054.600,2500.7873711,N,12132.4458458,E,4,48,0.57,16.764,M,15.25,M,0,3335*41
$GNRMC,040054.600,A,2500.7873711,N,12132.4458458,E,0.01,170.32,090324,,,R,V*1C
$GPHDT,319.045,T*3F
$GNACCURACY,4.5*17
$GNGGA,040054.700,2500.7873707,N,12132.4458514,E,4,48,0.57,16.753,M,15.25,M,0,3335*4A
$GNRMC,040054.700,A,2500.7873707,N,12132.4458514,E,0.09,170.32,090324,,,R,V*1B
$GPHDT,,T*1B
$GNACCURACY,4.5*17
$GNGGA,040054.800,2500.7873714,N,12132.4458440,E,4,48,0.57,16.763,M,15.25,M,0,3335*44
$GNRMC,040054.800,A,2500.7873714,N,12132.4458440,E,0.04,170.32,090324,,,R,V*1B
$GPHDT,319.467,T*3B
$GNACCURACY,4.5*17
$GNGGA,040054.900,2500.7873713,N,12132.4458466,E,4,48,0.57,16.752,M,15.25,M,0,3335*44
$GNRMC,040054.900,A,2500.7873713,N,12132.4458466,E,0.06,170.32,090324,,,R,V*1B
$GPHDT,,T*1B
$GNACCURACY,4.5*17
$GNGGA,040055.000,2500.7873721,N,12132.4458497,E,4,48,0.57,16.753,M,15.25,M,1,3335*43
$GNRMC,040055.000,A,2500.7873721,N,12132.4458497,E,0.07,170.32,090324,,,R,V*1D
$GPHDT,318.993,T*3C
$GNACCURACY,4.5*17
$GNGGA,040055.100,2500.7873711,N,12132.4458481,E,4,48,0.57,16.754,M,15.25,M,1,3335*41
$GNRMC,040055.100,A,2500.7873711,N,12132.4458481,E,0.05,170.32,090324,,,R,V*1A
$GPHDT,,T*1B
$GNGSA,A,3,08,194,195,199,21,02,07,27,16,04,,,0.90,0.57,0.69,1*3D
$GNGSA,A,3,81,88,78,79,,,,,,,,,0.90,0.57,0.69,2*0E
$GNGSA,A,3,13,21,26,27,,,,,,,,,0.90,0.57,0.69,3*07
$GNGSA,A,3,09,06,23,16,43,07,40,39,28,10,25,37,0.90,0.57,0.69,4*0F
$GNGSA,A,3,34,,,,,,,,,,,,0.90,0.57,0.69,4*07
$GPGSV,4,1,13,08,65,348,44,194,64,051,41,195,63,116,41,50,60,167,37,1*64
$GPGSV,4,2,13,199,60,167,34,21,56,160,41,02,44,178,42,07,38,318,43,1*59
$GPGSV,4,3,13,27,36,034,38,16,29,071,28,04,20,205,42,196,20,170,,1*50
$GPGSV,4,4,13,26,10,096,18,1*55
$GPGSV,2,1,07,08,65,348,45,194,64,051,37,195,63,116,45,199,60,167,45,8*5B
$GPGSV,2,2,07,27,36,034,43,04,20,205,45,196,20,170,30,8*63
$GLGSV,2,1,07,81,60,197,40,88,59,035,40,78,55,030,45,77,25,106,16,1*7C
$GLGSV,2,2,07,79,23,331,33,87,06,026,,68,04,239,,1*4E
$GAGSV,2,1,08,13,54,087,35,21,54,007,36,26,40,172,37,27,30,076,22,7*75
$GAGSV,2,2,08,19,29,244,,15,16,040,21,04,12,302,17,33,01,199,,7*7E
$GAGSV,2,1,05,13,54,087,35,21,54,007,43,26,40,172,35,27,30,076,24,1*78
$GAGSV,2,2,05,15,16,040,25,1*40
$GBGSV,4,1,13,09,74,272,38,06,73,215,34,23,71,021,45,16,70,197,43,1*79
$GBGSV,4,2,13,43,62,038,47,07,61,305,40,40,61,326,40,39,60,185,38,1*70
$GBGSV,4,3,13,28,53,218,45,10,51,287,31,25,39,114,35,37,27,320,38,1*7B
$GBGSV,4,4,13,34,14,040,,1*42
$GBGSV,2,1,08,23,71,021,47,43,62,038,47,40,61,326,45,39,60,185,42,4*77
$GBGSV,2,2,08,28,53,218,44,25,39,114,33,37,27,320,41,34,14,040,25,4*71
$GNACCURACY,4.5*17
$PAIRSAT,1,29,2,0,201,3,0,200,4,0,221,5,0,200,6,0,200,7,0,201,8,0,221,9,0,200,10,0,200,11,0,200,12,0,200,16,0,1,20,0,200,21,0,201,22,0,200,23,0,200,24,0,200,25,0,200,26,0,220,27,0,221,28,0,200,29,0,200,30,0,200,31,0,200,32,0,200,194,0,21,195,0,621,196,0,600,199,0,621*64
$PAIRSAT,2,23,65,0,200,66,0,200,67,0,200,68,0,200,69,0,200,70,0,200,71,0,200,72,0,200,73,0,200,74,0,200,75,0,200,76,0,200,77,0,1,78,0,201,79,0,201,80,0,200,81,0,201,83,0,200,84,0,200,85,0,200,86,0,200,87,0,201,88,0,201*5B
$PAIRSAT,3,22,2,0,1200,3,0,1200,4,0,1200,5,0,200,7,0,1200,8,0,1200,9,0,1200,10,0,200,11,0,200,12,0,200,13,0,221,15,0,200,19,0,200,21,0,221,25,0,1000,26,0,1021,27,0,1021,30,0,1000,31,0,1000,33,0,1200,34,0,1000,36,0,1200*43
$PAIRSAT,4,43,1,0,200,2,0,200,3,0,400,6,0,1,7,0,1,9,0,201,10,0,201,11,0,200,12,0,200,13,0,200,14,0,200,16,0,201,19,0,600,20,0,600,21,0,600,22,0,600,23,0,621,24,0,600,25,0,621,26,0,400,27,0,400,28,0,421,29,0,400,30,0,400,32,0,400,33,0,400,34,0,421,35,0,400,36,0,400,37,0,421,38,0,400,39,0,421,40,0,421,41,0,400,42,0,400,43,0,421,44,0,400,45,0,400,46,0,400,59,0,400,60,0,400,61,0,400,62,0,400*58
$PAIRDGP,7,2,7,8,16,21,26,27*56
$GNGGA,040055.200,2500.7873722,N,12132.4458463,E,4,48,0.57,16.758,M,15.25,M,1,3335*42
$GNRMC,040055.200,A,2500.7873722,N,12132.4458463,E,0.02,170.32,090324,,,R,V*12
$GPHDT,318.698,T*38
$GNACCURACY,4.5*17
$GNGGA,040055.300,2500.7873722,N,12132.4458522,E,4,48,0.57,16.743,M,15.25,M,1,3335*4D
$GNRMC,040055.300,A,2500.7873722,N,12132.4458522,E,0.01,170.32,090324,,,R,V*14
$GPHDT,,T*1B
$GNACCURACY,4.5*17
$GNGGA,040055.400,2500.7873701,N,12132.4458488,E,4,48,0.57,16.756,M,15.25,M,1,3335*4E
$GNRMC,040055.400,A,2500.7873701,N,12132.4458488,E,0.01,170.32,090324,,,R,V*13
$GPHDT,318.667,T*38
$GNACCURACY,4.5*17
$GNGGA,040055.500,2500.7873704,N,12132.4458500,E,4,48,0.57,16.750,M,15.25,M,1,3335*4D
$GNRMC,040055.500,A,2500.7873704,N,12132.4458500,E,0.01,170.32,090324,,,R,V*16
$GPHDT,,T*1B
$GNACCURACY,4.6*14
$GNGGA,040055.600,2500.7873697,N,12132.4458474,E,4,49,0.56,16.762,M,15.25,M,0,3335*47
$GNRMC,040055.600,A,2500.7873697,N,12132.4458474,E,0.01,170.32,090324,,,R,V*1C
$GPHDT,319.028,T*34
$GNACCURACY,4.6*14
$GNGGA,040055.700,2500.7873701,N,12132.4458424,E,4,49,0.56,16.772,M,15.25,M,0,3335*4C
$GNRMC,040055.700,A,2500.7873701,N,12132.4458424,E,0.00,170.32,090324,,,R,V*17
$GPHDT,,T*1B
$GNACCURACY,4.6*14
$GNGGA,040055.800,2500.7873700,N,12132.4458466,E,4,49,0.56,16.765,M,15.25,M,0,3335*42
$GNRMC,040055.800,A,2500.7873700,N,12132.4458466,E,0.06,170.32,090324,,,R,V*19
$GPHDT,319.374,T*3E
$GNACCURACY,4.6*14
$GNGGA,040055.900,2500.7873707,N,12132.4458474,E,4,49,0.56,16.766,M,15.25,M,0,3335*44
$GNRMC,040055.900,A,2500.7873707,N,12132.4458474,E,0.06,170.32,090324,,,R,V*1C
$GPHDT,,T*1B
$GNACCURACY,4.6*14
$GNGGA,040056.000,2500.7873692,N,12132.4458426,E,4,49,0.56,16.771,M,15.25,M,1,3335*43
$GNRMC,040056.000,A,2500.7873692,N,12132.4458426,E,0.04,170.32,090324,,,R,V*1E
$GPHDT,319.397,T*33
$GNACCURACY,4.6*14
$GNGGA,040056.100,2500.7873710,N,12132.4458453,E,4,49,0.56,16.767,M,15.25,M,1,3335*4C
$GNRMC,040056.100,A,2500.7873710,N,12132.4458453,E,0.03,170.32,090324,,,R,V*11
$GPHDT,,T*1B
$GNGSA,A,3,08,194,195,199,21,02,07,27,16,04,26,,0.86,0.56,0.65,1*33
$GNGSA,A,3,81,88,78,79,,,,,,,,,0.86,0.56,0.65,2*04
$GNGSA,A,3,13,21,26,27,,,,,,,,,0.86,0.56,0.65,3*0D
$GNGSA,A,3,09,06,23,16,43,07,40,39,28,10,25,37,0.86,0.56,0.65,4*05
$GNGSA,A,3,34,,,,,,,,,,,,0.86,0.56,0.65,4*0D
$GPGSV,4,1,13,08,65,348,44,194,64,051,41,195,63,116,41,50,60,167,37,1*64
$GPGSV,4,2,13,199,60,167,34,21,56,160,41,02,44,178,42,07,38,318,43,1*59
$GPGSV,4,3,13,27,36,034,38,16,29,071,27,04,20,205,43,196,20,170,,1*5E
$GPGSV,4,4,13,26,10,096,19,1*54
$GPGSV,2,1,08,08,65,348,45,194,64,051,36,195,63,116,45,199,60,167,45,8*55
$GPGSV,2,2,08,27,36,034,43,04,20,205,44,196,20,170,29,26,10,096,18,8*56
$GLGSV,2,1,07,81,60,197,40,88,59,035,40,78,55,030,45,77,25,106,16,1*7C
$GLGSV,2,2,07,79,23,331,28,87,06,026,,68,04,239,,1*44
$GAGSV,2,1,08,13,54,087,34,21,54,007,36,26,40,172,36,27,30,076,21,7*76
$GAGSV,2,2,08,19,29,244,,15,16,040,21,04,12,302,16,33,01,199,,7*7F
$GAGSV,2,1,05,13,54,087,35,21,54,007,43,26,40,172,36,27,30,076,25,1*7A
$GAGSV,2,2,05,15,16,040,26,1*43
$GBGSV,4,1,13,09,74,272,39,06,73,215,33,23,71,021,45,16,70,197,43,1*7F
$GBGSV,4,2,13,43,62,038,47,07,61,305,40,40,61,326,40,39,60,185,37,1*7F
$GBGSV,4,3,13,28,53,218,45,10,51,287,30,25,39,114,36,37,27,320,40,1*76
$GBGSV,4,4,13,34,14,040,,1*42
$GBGSV,2,1,08,23,71,021,47,43,62,038,47,40,61,326,45,39,60,185,41,4*74
$GBGSV,2,2,08,28,53,218,44,25,39,114,32,37,27,320,40,34,14,040,25,4*71
$GNACCURACY,4.6*14
$PAIRSAT,1,29,2,0,201,3,0,200,4,0,221,5,0,200,6,0,200,7,0,201,8,0,221,9,0,200,10,0,200,11,0,200,12,0,200,16,0,1,20,0,200,21,0,201,22,0,200,23,0,200,24,0,200,25,0,200,26,0,220,27,0,221,28,0,200,29,0,200,30,0,200,31,0,200,32,0,200,194,0,21,195,0,621,196,0,600,199,0,621*64
$PAIRSAT,2,23,65,0,200,66,0,200,67,0,200,68,0,200,69,0,200,70,0,200,71,0,200,72,0,200,73,0,200,74,0,200,75,0,200,76,0,200,77,0,1,78,0,201,79,0,201,80,0,200,81,0,201,83,0,200,84,0,200,85,0,200,86,0,200,87,0,201,88,0,201*5B
$PAIRSAT,3,22,2,0,1200,3,0,1200,4,0,1200,5,0,200,7,0,1200,8,0,1200,9,0,1200,10,0,200,11,0,200,12,0,200,13,0,221,15,0,200,19,0,200,21,0,221,25,0,1000,26,0,1021,27,0,1021,30,0,1000,31,0,1000,33,0,1200,34,0,1000,36,0,1200*43
$PAIRSAT,4,43,1,0,200,2,0,200,3,0,400,6,0,1,7,0,1,9,0,201,10,0,201,11,0,200,12,0,200,13,0,200,14,0,200,16,0,201,19,0,600,20,0,600,21,0,600,22,0,600,23,0,621,24,0,600,25,0,621,26,0,400,27,0,400,28,0,421,29,0,400,30,0,400,32,0,400,33,0,400,34,0,421,35,0,400,36,0,400,37,0,421,38,0,400,39,0,421,40,0,421,41,0,400,42,0,400,43,0,421,44,0,400,45,0,400,46,0,400,59,0,400,60,0,400,61,0,400,62,0,400*58
$PAIRDGP,7,2,7,8,16,21,26,27*56
$GNGGA,040056.200,2500.7873711,N,12132.4458469,E,4,49,0.56,16.758,M,15.25,M,1,3335*4B
$GNRMC,040056.200,A,2500.7873711,N,12132.4458469,E,0.05,170.32,090324,,,R,V*1C
$GPHDT,319.551,T*3F
$GNACCURACY,4.6*14
$GNGGA,040056.300,2500.7873707,N,12132.4458462,E,4,49,0.56,16.760,M,15.25,M,1,3335*4D
$GNRMC,040056.300,A,2500.7873707,N,12132.4458462,E,0.04,170.32,090324,,,R,V*10
$GPHDT,,T*1B
$GNACCURACY,4.6*14
$GNGGA,040056.400,2500.7873710,N,12132.4458481,E,4,49,0.56,16.754,M,15.25,M,1,3335*46
$GNRMC,040056.400,A,2500.7873710,N,12132.4458481,E,0.05,170.32,090324,,,R,V*1D
$GPHDT,318.981,T*3F
$GNACCURACY,4.6*14
$GNGGA,040056.500,2500.7873726,N,12132.4458515,E,4,49,0.56,16.747,M,15.25,M,1,3335*4C
$GNRMC,040056.500,A,2500.7873726,N,12132.4458515,E,0.05,170.32,090324,,,R,V*15
$GPHDT,,T*1B
$GNACCURACY,4.6*14
$GNGGA,040056.600,2500.7873725,N,12132.4458501,E,4,49,0.56,16.757,M,15.25,M,0,3335*49
$GNRMC,040056.600,A,2500.7873725,N,12132.4458501,E,0.05,170.32,090324,,,R,V*10
$GPHDT,319.197,T*31
$GNACCURACY,4.6*14
$GNGGA,040056.700,2500.7873712,N,12132.4458485,E,4,49,0.56,16.751,M,15.25,M,0,3335*47
$GNRMC,040056.700,A,2500.7873712,N,12132.4458485,E,0.03,170.32,090324,,,R,V*1E
$GPHDT,,T*1B
$GNACCURACY,4.5*17
$GNGGA,040056.800,2500.7873710,N,12132.4458472,E,4,50,0.54,16.760,M,15.25,M,0,3335*4A
$GNRMC,040056.800,A,2500.7873710,N,12132.4458472,E,0.08,170.32,090324,,,R,V*10
$GPHDT,319.661,T*3F
$GNACCURACY,4.5*17
$GNGGA,040056.900,2500.7873736,N,12132.4458487,E,4,50,0.54,16.758,M,15.25,M,0,3335*4E
$GNRMC,040056.900,A,2500.7873736,N,12132.4458487,E,0.11,170.32,090324,,,R,V*17
$GPHDT,,T*1B
$GNACCURACY,4.5*17
$GNGGA,040057.000,2500.7873724,N,12132.4458484,E,4,50,0.54,16.758,M,15.25,M,1,3335*47
$GNRMC,040057.000,A,2500.7873724,N,12132.4458484,E,0.05,170.32,090324,,,R,V*1A
$GPHDT,319.365,T*3E
$GNACCURACY,4.5*17
$GNGGA,040057.100,2500.7873726,N,12132.4458476,E,4,50,0.54,16.763,M,15.25,M,1,3335*41
$GNRMC,040057.100,A,2500.7873726,N,12132.4458476,E,0.04,170.32,090324,,,R,V*15
$GPHDT,,T*1B
$GNGSA,A,3,08,194,195,199,21,02,07,27,04,26,,,0.86,0.56,0.65,1*34
$GNGSA,A,3,81,88,78,77,79,,,,,,,,0.86,0.56,0.65,2*04
$GNGSA,A,3,13,21,26,27,,,,,,,,,0.86,0.56,0.65,3*0D
$GNGSA,A,3,09,06,23,16,43,07,40,39,28,10,25,37,0.86,0.56,0.65,4*05
$GNGSA,A,3,34,,,,,,,,,,,,0.86,0.56,0.65,4*0D
$GPGSV,4,1,13,08,65,348,44,194,64,051,41,195,63,116,42,50,60,167,37,1*67
$GPGSV,4,2,13,199,60,167,34,21,56,160,41,02,44,178,42,07,38,318,43,1*59
$GPGSV,4,3,13,27,36,034,38,16,29,071,30,04,20,205,41,196,20,170,,1*5A
$GPGSV,4,4,13,26,10,096,17,1*5A
$GPGSV,2,1,08,08,65,348,45,194,64,051,35,195,63,116,44,199,60,167,45,8*57
$GPGSV,2,2,08,27,36,034,43,04,20,205,45,196,20,170,26,26,10,096,17,8*57
$GLGSV,2,1,06,81,60,197,41,88,59,035,40,78,55,030,45,77,25,106,16,1*7C
$GLGSV,2,2,06,79,23,331,36,87,06,026,,1*78
$GAGSV,2,1,08,13,54,087,31,21,54,007,37,26,40,172,38,27,30,076,21,7*7C
$GAGSV,2,2,08,19,29,244,,15,16,040,22,04,12,302,15,33,01,199,,7*7F
$GAGSV,2,1,05,13,54,087,33,21,54,007,43,26,40,172,36,27,30,076,25,1*7C
$GAGSV,2,2,05,15,16,040,25,1*40
$GBGSV,4,1,14,09,74,272,39,06,73,215,35,23,71,021,45,16,70,197,43,1*7E
$GBGSV,4,2,14,43,62,038,47,07,61,305,40,40,61,326,40,39,60,185,38,1*77
$GBGSV,4,3,14,28,53,218,45,10,51,287,30,25,39,114,36,37,27,320,38,1*7E
$GBGSV,4,4,14,34,14,040,,38,09,169,,1*79
$GBGSV,2,1,08,23,71,021,46,43,62,038,47,40,61,326,45,39,60,185,42,4*76
$GBGSV,2,2,08,28,53,218,44,25,39,114,30,37,27,320,40,34,14,040,25,4*73
$GNACCURACY,4.5*17
$PAIRSAT,1,29,2,0,201,3,0,200,4,0,221,5,0,200,6,0,200,7,0,201,8,0,221,9,0,200,10,0,200,11,0,200,12,0,200,16,0,1,20,0,200,21,0,201,22,0,200,23,0,200,24,0,200,25,0,200,26,0,220,27,0,221,28,0,200,29,0,200,30,0,200,31,0,200,32,0,200,194,0,21,195,0,621,196,0,600,199,0,621*64
$PAIRSAT,2,23,65,0,200,66,0,200,67,0,200,68,0,200,69,0,200,70,0,200,71,0,200,72,0,200,73,0,200,74,0,200,75,0,200,76,0,200,77,0,1,78,0,201,79,0,201,80,0,200,81,0,201,83,0,200,84,0,200,85,0,200,86,0,200,87,0,201,88,0,201*5B
$PAIRSAT,3,22,2,0,1200,3,0,1200,4,0,1200,5,0,200,7,0,1200,8,0,1200,9,0,1200,10,0,200,11,0,200,12,0,200,13,0,221,15,0,200,19,0,200,21,0,221,25,0,1000,26,0,1021,27,0,1021,30,0,1000,31,0,1000,33,0,1200,34,0,1000,36,0,1200*43
$PAIRSAT,4,43,1,0,200,2,0,200,3,0,400,6,0,1,7,0,1,9,0,201,10,0,201,11,0,200,12,0,200,13,0,200,14,0,200,16,0,201,19,0,600,20,0,600,21,0,600,22,0,600,23,0,621,24,0,600,25,0,621,26,0,600,27,0,400,28,0,421,29,0,400,30,0,400,32,0,400,33,0,400,34,0,421,35,0,400,36,0,400,37,0,421,38,0,400,39,0,421,40,0,421,41,0,400,42,0,400,43,0,421,44,0,400,45,0,400,46,0,400,59,0,400,60,0,400,61,0,400,62,0,400*5A
$PAIRDGP,7,2,7,8,16,21,26,27*56
$GNGGA,040057.200,2500.7873718,N,12132.4458470,E,4,49,0.56,16.763,M,15.25,M,1,3335*43
$GNRMC,040057.200,A,2500.7873718,N,12132.4458470,E,0.02,170.32,090324,,,R,V*1B
$GPHDT,319.609,T*31
$GNACCURACY,4.6*14
$GNGGA,040057.300,2500.7873726,N,12132.4458495,E,4,49,0.56,16.763,M,15.25,M,1,3335*44
$GNRMC,040057.300,A,2500.7873726,N,12132.4458495,E,0.02,170.32,090324,,,R,V*1C
$GPHDT,,T*1B
$GNACCURACY,4.5*17
$GNGGA,040057.400,2500.7873722,N,12132.4458510,E,4,49,0.56,16.749,M,15.25,M,1,3335*43
$GNRMC,040057.400,A,2500.7873722,N,12132.4458510,E,0.01,170.32,090324,,,R,V*10
$GPHDT,319.035,T*38
$GNACCURACY,4.5*17
$GNGGA,040057.500,2500.7873702,N,12132.4458505,E,4,49,0.56,16.759,M,15.25,M,1,3335*45
$GNRMC,040057.500,A,2500.7873702,N,12132.4458505,E,0.10,170.32,090324,,,R,V*17
$GPHDT,,T*1B
$GNACCURACY,4.6*14
$GNGGA,040057.600,2500.7873719,N,12132.4458497,E,4,50,0.54,16.767,M,15.25,M,0,3335*40
$GNRMC,040057.600,A,2500.7873719,N,12132.4458497,E,0.05,170.32,090324,,,R,V*10
$GPHDT,319.152,T*38
$GNACCURACY,4.6*14
$GNGGA,040057.700,2500.7873698,N,12132.4458503,E,4,50,0.54,16.763,M,15.25,M,0,3335*41
$GNRMC,040057.700,A,2500.7873698,N,12132.4458503,E,0.03,170.32,090324,,,R,V*13
$GPHDT,,T*1B
$GNACCURACY,4.6*14
$GNGGA,040057.800,2500.7873686,N,12132.4458492,E,4,50,0.54,16.765,M,15.25,M,0,3335*4E
$GNRMC,040057.800,A,2500.7873686,N,12132.4458492,E,0.03,170.32,090324,,,R,V*1A
$GPHDT,319.100,T*3F
$GNACCURACY,4.6*14
$GNGGA,040057.900,2500.7873703,N,12132.4458485,E,4,50,0.54,16.769,M,15.25,M,0,3335*49
$GNRMC,040057.900,A,2500.7873703,N,12132.4458485,E,0.01,170.32,090324,,,R,V*13
$GPHDT,,T*1B
$GNACCURACY,4.6*14
$GNGGA,040058.000,2500.7873710,N,12132.4458480,E,4,50,0.54,16.768,M,15.25,M,1,3335*48
$GNRMC,040058.000,A,2500.7873710,N,12132.4458480,E,0.04,170.32,090324,,,R,V*17
$GPHDT,318.963,T*33
$GNACCURACY,4.6*14
$GNGGA,040058.100,2500.7873720,N,12132.4458516,E,4,50,0.54,16.753,M,15.25,M,1,3335*4C
$GNRMC,040058.100,A,2500.7873720,N,12132.4458516,E,0.03,170.32,090324,,,R,V*1C
$GPHDT,,T*1B
$GNGSA,A,3,08,194,195,199,21,02,07,27,16,04,26,,0.85,0.54,0.65,1*32
$GNGSA,A,3,81,88,78,77,79,,,,,,,,0.85,0.54,0.65,2*05
$GNGSA,A,3,13,21,26,27,,,,,,,,,0.85,0.54,0.65,3*0C
$GNGSA,A,3,09,06,23,16,43,07,40,39,28,10,25,37,0.85,0.54,0.65,4*04
$GNGSA,A,3,34,,,,,,,,,,,,0.85,0.54,0.65,4*0C
$GPGSV,4,1,13,08,65,348,44,194,64,051,41,195,63,116,41,50,60,167,38,1*6B
$GPGSV,4,2,13,199,60,167,35,21,56,160,41,02,44,178,42,07,38,318,43,1*58
$GPGSV,4,3,13,27,36,034,38,16,29,071,27,04,20,205,43,196,20,170,14,1*5B
$GPGSV,4,4,13,26,10,096,16,1*5B
$GPGSV,2,1,08,08,65,348,45,194,64,051,38,195,63,116,44,199,60,167,45,8*5A
$GPGSV,2,2,08,27,36,034,42,04,20,205,45,196,20,170,26,26,10,096,17,8*56
$GLGSV,2,1,06,81,60,197,38,88,59,035,42,78,55,030,45,77,25,106,15,1*73
$GLGSV,2,2,06,79,23,331,36,87,06,026,,1*78
$GAGSV,2,1,08,13,54,087,34,21,54,007,36,26,40,172,37,27,30,076,21,7*77
$GAGSV,2,2,08,19,29,244,,15,16,040,23,04,12,302,16,33,01,199,,7*7D
$GAGSV,2,1,05,13,54,087,34,21,54,007,43,26,40,172,36,27,30,076,23,1*7D
$GAGSV,2,2,05,15,16,040,25,1*40
$GBGSV,4,1,14,09,74,272,40,06,73,215,34,23,71,021,45,16,70,197,43,1*71
$GBGSV,4,2,14,43,62,038,46,07,61,305,39,40,61,326,40,39,60,185,38,1*78
$GBGSV,4,3,14,28,53,218,45,10,51,287,31,25,39,114,36,37,27,320,38,1*7F
$GBGSV,4,4,14,34,14,040,,38,09,169,,1*79
$GBGSV,2,1,08,23,71,021,46,43,62,038,47,40,61,326,44,39,60,185,42,4*77
$GBGSV,2,2,08,28,53,218,44,25,39,114,31,37,27,320,41,34,14,040,26,4*70
$GNACCURACY,4.6*14
$PAIRSAT,1,29,2,0,201,3,0,200,4,0,221,5,0,200,6,0,200,7,0,201,8,0,221,9,0,200,10,0,200,11,0,200,12,0,200,16,0,1,20,0,200,21,0,201,22,0,200,23,0,200,24,0,200,25,0,200,26,0,220,27,0,221,28,0,200,29,0,200,30,0,200,31,0,200,32,0,200,194,0,21,195,0,621,196,0,600,199,0,621*64
$PAIRSAT,2,23,65,0,200,66,0,200,67,0,200,68,0,200,69,0,200,70,0,200,71,0,200,72,0,200,73,0,200,74,0,200,75,0,200,76,0,200,77,0,1,78,0,201,79,0,201,80,0,200,81,0,201,83,0,200,84,0,200,85,0,200,86,0,200,87,0,201,88,0,201*5B
$PAIRSAT,3,22,2,0,1200,3,0,1200,4,0,1200,5,0,200,7,0,1200,8,0,1200,9,0,1200,10,0,200,11,0,200,12,0,200,13,0,221,15,0,200,19,0,200,21,0,221,25,0,1000,26,0,1021,27,0,1021,30,0,1000,31,0,1000,33,0,1200,34,0,1000,36,0,1200*43
$PAIRSAT,4,43,1,0,200,2,0,200,3,0,400,6,0,1,7,0,1,9,0,201,10,0,201,11,0,200,12,0,200,13,0,200,14,0,200,16,0,201,19,0,600,20,0,600,21,0,600,22,0,600,23,0,621,24,0,600,25,0,621,26,0,600,27,0,400,28,0,421,29,0,400,30,0,400,32,0,400,33,0,400,34,0,421,35,0,400,36,0,400,37,0,421,38,0,400,39,0,421,40,0,421,41,0,400,42,0,400,43,0,421,44,0,400,45,0,400,46,0,400,59,0,400,60,0,400,61,0,400,62,0,400*5A
$PAIRDGP,7,2,7,8,16,21,26,27*56
$GNGGA,040058.200,2500.7873717,N,12132.4458502,E,4,50,0.54,16.764,M,15.25,M,1,3335*4A
$GNRMC,040058.200,A,2500.7873717,N,12132.4458502,E,0.02,170.32,090324,,,R,V*1F
$GPHDT,318.813,T*35
$GNACCURACY,4.6*14
$GNGGA,040058.300,2500.7873712,N,12132.4458519,E,4,50,0.54,16.755,M,15.25,M,1,3335*46
$GNRMC,040058.300,A,2500.7873712,N,12132.4458519,E,0.03,170.32,090324,,,R,V*10
$GPHDT,,T*1B
$GNACCURACY,4.6*14
$GNGGA,040058.400,2500.7873693,N,12132.4458482,E,4,50,0.54,16.772,M,15.25,M,1,3335*4F
$GNRMC,040058.400,A,2500.7873693,N,12132.4458482,E,0.02,170.32,090324,,,R,V*1D
$GPHDT,319.494,T*37
$GNACCURACY,4.6*14
$GNGGA,040058.500,2500.7873696,N,12132.4458517,E,4,50,0.54,16.747,M,15.25,M,0,3335*41
$GNRMC,040058.500,A,2500.7873696,N,12132.4458517,E,0.02,170.32,090324,,,R,V*14
$GPHDT,,T*1B
$GNACCURACY,4.6*14
$GNGGA,040058.600,2500.7873703,N,12132.4458503,E,4,50,0.54,16.752,M,15.25,M,0,3335*4E
$GNRMC,040058.600,A,2500.7873703,N,12132.4458503,E,0.03,170.32,090324,,,R,V*1E
$GPHDT,318.998,T*37
$GNACCURACY,4.6*14
$GNGGA,040058.700,2500.7873733,N,12132.4458512,E,4,50,0.54,16.759,M,15.25,M,0,3335*47
$GNRMC,040058.700,A,2500.7873733,N,12132.4458512,E,0.04,170.32,090324,,,R,V*1B
$GPHDT,,T*1B
$GNACCURACY,4.6*14
$GNGGA,040058.800,2500.7873739,N,12132.4458486,E,4,50,0.54,16.765,M,15.25,M,0,3335*41
$GNRMC,040058.800,A,2500.7873739,N,12132.4458486,E,0.01,170.32,090324,,,R,V*17
$GPHDT,319.338,T*36
$GNACCURACY,4.6*14
$GNGGA,040058.900,2500.7873743,N,12132.4458484,E,4,50,0.54,16.763,M,15.25,M,0,3335*49
$GNRMC,040058.900,A,2500.7873743,N,12132.4458484,E,0.05,170.32,090324,,,R,V*1D
$GPHDT,,T*1B
$GNACCURACY,4.6*14
$GNGGA,040059.000,2500.7873734,N,12132.4458513,E,4,50,0.54,16.752,M,15.25,M,1,3335*4D
$GNRMC,040059.000,A,2500.7873734,N,12132.4458513,E,0.04,170.32,090324,,,R,V*1B
$GPHDT,319.572,T*3E
$GNACCURACY,4.6*14
$GNGGA,040059.100,2500.7873746,N,12132.4458504,E,4,50,0.54,16.758,M,15.25,M,1,3335*45
$GNRMC,040059.100,A,2500.7873746,N,12132.4458504,E,0.03,170.32,090324,,,R,V*1E
$GPHDT,,T*1B
$GNGSA,A,3,08,194,195,199,21,02,07,27,16,04,26,,0.85,0.54,0.65,1*32
$GNGSA,A,3,81,88,78,77,79,,,,,,,,0.85,0.54,0.65,2*05
$GNGSA,A,3,13,21,26,27,,,,,,,,,0.85,0.54,0.65,3*0C
$GNGSA,A,3,09,06,23,16,43,40,07,39,28,10,25,37,0.85,0.54,0.65,4*04
$GNGSA,A,3,34,,,,,,,,,,,,0.85,0.54,0.65,4*0C
$GPGSV,4,1,13,08,65,348,44,194,64,051,41,195,63,116,41,50,60,167,38,1*6B
$GPGSV,4,2,13,199,60,167,34,21,56,159,42,02,44,178,42,07,38,318,43,1*50
$GPGSV,4,3,13,27,36,034,38,16,29,071,30,04,20,205,41,196,20,170,15,1*5E
$GPGSV,4,4,13,26,10,096,15,1*58
$GPGSV,2,1,08,08,65,348,45,194,64,051,35,195,63,116,44,199,60,167,45,8*57
$GPGSV,2,2,08,27,36,034,42,04,20,205,45,196,20,170,26,26,10,096,17,8*56
$GLGSV,2,1,06,81,60,197,39,88,59,035,42,78,55,030,46,77,25,106,17,1*73
$GLGSV,2,2,06,79,23,331,32,87,06,026,,1*7C
$GAGSV,2,1,07,13,54,087,35,21,54,007,36,26,40,172,37,27,30,076,22,7*7A
$GAGSV,2,2,07,15,16,040,23,04,12,302,15,33,01,199,,7*40
$GAGSV,2,1,05,13,54,087,34,21,54,007,42,26,40,172,37,27,30,076,24,1*7A
$GAGSV,2,2,05,15,16,040,24,1*41
$GBGSV,4,1,13,09,74,272,40,06,73,215,34,23,71,021,45,16,70,197,43,1*76
$GBGSV,4,2,13,43,62,038,46,40,61,326,40,07,61,305,39,39,60,185,38,1*7F
$GBGSV,4,3,13,28,53,218,45,10,51,287,31,25,39,114,36,37,27,320,38,1*78
$GBGSV,4,4,13,34,14,040,,1*42
$GBGSV,2,1,08,23,71,021,46,43,62,038,47,40,61,326,44,39,60,185,42,4*77
$GBGSV,2,2,08,28,53,218,44,25,39,114,31,37,27,320,41,34,14,040,26,4*70
$GNACCURACY,4.6*14
$PAIRSAT,1,29,2,0,201,3,0,200,4,0,221,5,0,200,6,0,200,7,0,201,8,0,221,9,0,200,10,0,200,11,0,200,12,0,200,16,0,1,20,0,200,21,0,201,22,0,200,23,0,200,24,0,200,25,0,200,26,0,220,27,0,221,28,0,200,29,0,200,30,0,200,31,0,200,32,0,200,194,0,21,195,0,621,196,0,600,199,0,621*64
$PAIRSAT,2,23,65,0,200,66,0,200,67,0,200,68,0,200,69,0,200,70,0,200,71,0,200,72,0,200,73,0,200,74,0,200,75,0,200,76,0,200,77,0,1,78,0,201,79,0,201,80,0,200,81,0,201,83,0,200,84,0,200,85,0,200,86,0,200,87,0,201,88,0,201*5B
$PAIRSAT,3,22,2,0,1200,3,0,1200,4,0,1200,5,0,200,7,0,1200,8,0,1200,9,0,1200,10,0,200,11,0,200,12,0,200,13,0,221,15,0,200,19,0,200,21,0,221,25,0,1000,26,0,1021,27,0,1021,30,0,1000,31,0,1000,33,0,1200,34,0,1000,36,0,1200*43
$PAIRSAT,4,43,1,0,200,2,0,200,3,0,400,6,0,1,7,0,1,9,0,201,10,0,201,11,0,200,12,0,200,13,0,200,14,0,200,16,0,201,19,0,600,20,0,600,21,0,600,22,0,600,23,0,621,24,0,600,25,0,621,26,0,600,27,0,400,28,0,421,29,0,400,30,0,400,32,0,400,33,0,400,34,0,421,35,0,400,36,0,400,37,0,421,38,0,400,39,0,421,40,0,421,41,0,400,42,0,400,43,0,421,44,0,400,45,0,400,46,0,400,59,0,400,60,0,400,61,0,400,62,0,400*5A
$PAIRDGP,7,2,7,8,16,21,26,27*56
$GNGGA,040059.200,2500.7873754,N,12132.4458497,E,4,50,0.54,16.756,M,15.25,M,1,3335*40
$GNRMC,040059.200,A,2500.7873754,N,12132.4458497,E,0.04,170.32,090324,,,R,V*12
$GPHDT,319.551,T*3F
$GNACCURACY,4.6*14
$GNGGA,040059.300,2500.7873733,N,12132.4458504,E,4,50,0.54,16.763,M,15.25,M,1,3335*4D
$GNRMC,040059.300,A,2500.7873733,N,12132.4458504,E,0.01,170.32,090324,,,R,V*1C
$GPHDT,,T*1B
$GNACCURACY,4.6*14
$GNGGA,040059.400,2500.7873732,N,12132.4458507,E,4,50,0.54,16.759,M,15.25,M,1,3335*41
$GNRMC,040059.400,A,2500.7873732,N,12132.4458507,E,0.01,170.32,090324,,,R,V*19
$GPHDT,319.705,T*3C
$GNACCURACY,4.6*14
$GNGGA,040059.500,2500.7873730,N,12132.4458492,E,4,50,0.54,16.762,M,15.25,M,1,3335*47
$GNRMC,040059.500,A,2500.7873730,N,12132.4458492,E,0.01,170.32,090324,,,R,V*17
$GPHDT,,T*1B
$GNACCURACY,4.6*14
$GNGGA,040059.600,2500.7873727,N,12132.4458471,E,4,50,0.54,16.770,M,15.25,M,0,3335*4D
$GNRMC,040059.600,A,2500.7873727,N,12132.4458471,E,0.00,170.32,090324,,,R,V*1E
$GPHDT,320.266,T*36
$GNACCURACY,4.6*14
$GNGGA,040059.700,2500.7873721,N,12132.4458503,E,4,50,0.54,16.754,M,15.25,M,0,3335*48
$GNRMC,040059.700,A,2500.7873721,N,12132.4458503,E,0.01,170.32,090324,,,R,V*1C
$GPHDT,,T*1B
$GNACCURACY,4.6*14
$GNGGA,040059.800,2500.7873706,N,12132.4458477,E,4,50,0.54,16.754,M,15.25,M,0,3335*40
$GNRMC,040059.800,A,2500.7873706,N,12132.4458477,E,0.03,170.32,090324,,,R,V*16
$GPHDT,319.975,T*35
$GNACCURACY,4.6*14
$GNGGA,040059.900,2500.7873694,N,12132.4458492,E,4,50,0.54,16.767,M,15.25,M,0,3335*40
$GNRMC,040059.900,A,2500.7873694,N,12132.4458492,E,0.02,170.32,090324,,,R,V*17
$GPHDT,,T*1B
$GNACCURACY,4.6*14
$GNGGA,040100.000,2500.7873687,N,12132.4458474,E,4,50,0.54,16.763,M,15.25,M,1,3335*4B
$GNRMC,040100.000,A,2500.7873687,N,12132.4458474,E,0.01,170.32,090324,,,R,V*1A
$GPHDT,320.097,T*3A
$GNACCURACY,4.6*14
$GNGGA,040100.100,2500.7873692,N,12132.4458472,E,4,50,0.54,16.757,M,15.25,M,1,3335*4F
$GNRMC,040100.100,A,2500.7873692,N,12132.4458472,E,0.01,170.32,090324,,,R,V*19
$GPHDT,,T*1B
$GNGSA,A,3,08,194,195,199,21,02,07,27,16,04,26,,0.85,0.54,0.65,1*32
$GNGSA,A,3,81,88,78,77,79,,,,,,,,0.85,0.54,0.65,2*05
$GNGSA,A,3,13,21,26,27,,,,,,,,,0.85,0.54,0.65,3*0C
$GNGSA,A,3,09,06,23,16,43,40,07,39,28,10,25,37,0.85,0.54,0.65,4*04
$GNGSA,A,3,34,,,,,,,,,,,,0.85,0.54,0.65,4*0C
$GPGSV,4,1,13,08,65,348,44,194,64,051,41,195,63,116,40,50,60,167,37,1*65
$GPGSV,4,2,13,199,60,167,34,21,56,159,42,02,44,178,42,07,38,318,43,1*50
$GPGSV,4,3,13,27,36,034,38,16,29,071,29,04,20,205,43,196,20,170,16,1*57
$GPGSV,4,4,13,26,10,096,15,1*58
$GPGSV,2,1,08,08,65,348,45,194,64,051,37,195,63,116,46,199,60,167,45,8*57
$GPGSV,2,2,08,27,36,034,43,04,20,205,44,196,20,170,28,26,10,096,17,8*58
$GLGSV,2,1,06,81,60,197,38,88,59,035,42,78,55,030,46,77,25,106,17,1*72
$GLGSV,2,2,06,79,23,331,33,87,06,026,,1*7D
$GAGSV,2,1,07,13,54,087,35,21,54,007,36,26,40,172,37,27,30,076,21,7*79
$GAGSV,2,2,07,15,16,040,21,04,12,302,14,33,01,199,,7*43
$GAGSV,2,1,05,13,54,087,36,21,54,007,43,26,40,172,37,27,30,076,24,1*79
$GAGSV,2,2,05,15,16,040,24,1*41
$GBGSV,4,1,13,09,74,272,39,06,73,215,33,23,71,021,45,16,70,197,43,1*7F
$GBGSV,4,2,13,43,62,038,46,40,61,326,40,07,61,305,39,39,60,185,39,1*7E
$GBGSV,4,3,13,28,53,218,45,10,51,287,32,25,39,114,38,37,27,320,38,1*75
$GBGSV,4,4,13,34,14,040,,1*42
$GBGSV,2,1,08,23,71,021,47,43,62,038,47,40,61,326,44,39,60,185,41,4*75
$GBGSV,2,2,08,28,53,218,44,25,39,114,33,37,27,320,41,34,14,040,26,4*72
$GNACCURACY,4.6*14
$PAIRSAT,1,29,2,0,201,3,0,200,4,0,221,5,0,200,6,0,200,7,0,201,8,0,221,9,0,200,10,0,200,11,0,200,12,0,200,16,0,1,20,0,200,21,0,201,22,0,200,23,0,200,24,0,200,25,0,200,26,0,220,27,0,221,28,0,200,29,0,200,30,0,200,31,0,200,32,0,200,194,0,21,195,0,621,196,0,600,199,0,621*64
$PAIRSAT,2,23,65,0,200,66,0,200,67,0,200,68,0,200,69,0,200,70,0,200,71,0,200,72,0,200,73,0,200,74,0,200,75,0,200,76,0,200,77,0,1,78,0,201,79,0,201,80,0,200,81,0,201,83,0,200,84,0,200,85,0,200,86,0,200,87,0,201,88,0,201*5B
$PAIRSAT,3,22,2,0,1200,3,0,1200,4,0,1200,5,0,200,7,0,1200,8,0,1200,9,0,1200,10,0,200,11,0,200,12,0,200,13,0,221,15,0,200,19,0,200,21,0,221,25,0,1000,26,0,1021,27,0,1021,30,0,1000,31,0,1000,33,0,1200,34,0,1000,36,0,1200*43
$PAIRSAT,4,43,1,0,200,2,0,200,3,0,400,6,0,1,7,0,1,9,0,201,10,0,201,11,0,200,12,0,200,13,0,200,14,0,200,16,0,201,19,0,600,20,0,600,21,0,600,22,0,600,23,0,621,24,0,600,25,0,621,26,0,600,27,0,400,28,0,421,29,0,400,30,0,400,32,0,400,33,0,400,34,0,421,35,0,400,36,0,400,37,0,421,38,0,400,39,0,421,40,0,421,41,0,400,42,0,400,43,0,421,44,0,400,45,0,400,46,0,400,59,0,400,60,0,400,61,0,400,62,0,400*5A
$PAIRDGP,7,2,7,8,16,21,26,27*56
$GNGGA,040100.200,2500.7873693,N,12132.4458483,E,4,50,0.54,16.761,M,15.25,M,1,3335*46
$GNRMC,040100.200,A,2500.7873693,N,12132.4458483,E,0.02,170.32,090324,,,R,V*16
$GPHDT,320.298,T*37
$GNACCURACY,4.6*14
$GNGGA,040100.300,2500.7873700,N,12132.4458462,E,4,50,0.54,16.757,M,15.25,M,1,3335*46
$GNRMC,040100.300,A,2500.7873700,N,12132.4458462,E,0.02,170.32,090324,,,R,V*13
$GPHDT,,T*1B
$GNACCURACY,4.6*14
$GNGGA,040100.400,2500.7873691,N,12132.4458482,E,4,50,0.54,16.763,M,15.25,M,1,3335*41
$GNRMC,040100.400,A,2500.7873691,N,12132.4458482,E,0.01,170.32,090324,,,R,V*10
$GPHDT,319.486,T*34
$GNACCURACY,4.6*14
$GNGGA,040100.500,2500.7873707,N,12132.4458470,E,4,50,0.54,16.769,M,15.25,M,0,3335*48
$GNRMC,040100.500,A,2500.7873707,N,12132.4458470,E,0.01,170.32,090324,,,R,V*12
$GPHDT,,T*1B
$GNACCURACY,4.6*14
$GNGGA,040100.600,2500.7873713,N,12132.4458490,E,4,50,0.54,16.766,M,15.25,M,0,3335*4F
$GNRMC,040100.600,A,2500.7873713,N,12132.4458490,E,0.02,170.32,090324,,,R,V*19
$GPHDT,319.068,T*30
$GNACCURACY,4.6*14
$GNGGA,040100.700,2500.7873701,N,12132.4458451,E,4,50,0.54,16.768,M,15.25,M,0,3335*4E
$GNRMC,040100.700,A,2500.7873701,N,12132.4458451,E,0.02,170.32,090324,,,R,V*16
$GPHDT,,T*1B
$GNACCURACY,4.6*14
$GNGGA,040100.800,2500.7873708,N,12132.4458507,E,4,50,0.54,16.767,M,15.25,M,0,3335*45
$GNRMC,040100.800,A,2500.7873708,N,12132.4458507,E,0.10,170.32,090324,,,R,V*11
$GPHDT,319.004,T*3A
$GNACCURACY,4.6*14
$GNGGA,040100.900,2500.7873719,N,12132.4458503,E,4,50,0.54,16.781,M,15.25,M,0,3335*48
$GNRMC,040100.900,A,2500.7873719,N,12132.4458503,E,0.03,170.32,090324,,,R,V*16
$GPHDT,,T*1B
$GNACCURACY,4.6*14
$GNGGA,040101.000,2500.7873713,N,12132.4458520,E,4,50,0.54,16.771,M,15.25,M,1,3335*45
$GNRMC,040101.000,A,2500.7873713,N,12132.4458520,E,0.02,170.32,090324,,,R,V*14
$GPHDT,319.078,T*31
$GNACCURACY,4.6*14
$GNGGA,040101.100,2500.7873732,N,12132.4458497,E,4,50,0.54,16.762,M,15.25,M,1,3335*48
$GNRMC,040101.100,A,2500.7873732,N,12132.4458497,E,0.01,170.32,090324,,,R,V*18
$GPHDT,,T*1B
$GNGSA,A,3,08,194,195,199,21,02,07,27,16,04,26,,0.85,0.54,0.65,1*32
$GNGSA,A,3,81,88,78,77,79,,,,,,,,0.85,0.54,0.65,2*05
$GNGSA,A,3,13,21,26,27,,,,,,,,,0.85,0.54,0.65,3*0C
$GNGSA,A,3,09,06,23,16,43,40,07,39,28,10,25,37,0.85,0.54,0.65,4*04
$GNGSA,A,3,34,,,,,,,,,,,,0.85,0.54,0.65,4*0C
$GPGSV,4,1,13,08,65,348,44,194,64,051,41,195,63,116,40,50,60,167,37,1*65
$GPGSV,4,2,13,199,60,167,34,21,56,159,42,02,44,178,41,07,38,318,43,1*53
$GPGSV,4,3,13,27,36,034,38,16,29,071,30,04,20,205,43,196,20,170,15,1*5C
$GPGSV,4,4,13,26,10,096,14,1*59
$GPGSV,2,1,08,08,65,348,45,194,64,051,36,195,63,116,46,199,60,167,45,8*56
$GPGSV,2,2,08,27,36,034,43,04,20,205,44,196,20,170,26,26,10,096,17,8*56
$GLGSV,2,1,06,81,60,197,40,88,59,035,42,78,55,030,46,77,25,106,17,1*7D
$GLGSV,2,2,06,79,23,331,34,87,06,026,,1*7A
$GAGSV,2,1,07,13,54,087,34,21,54,007,37,26,40,172,37,27,30,076,21,7*79
$GAGSV,2,2,07,15,16,040,23,04,12,302,15,33,01,199,,7*40
$GAGSV,2,1,05,13,54,087,34,21,54,007,42,26,40,172,37,27,30,076,24,1*7A
$GAGSV,2,2,05,15,16,040,24,1*41
$GBGSV,4,1,13,09,74,272,39,06,73,215,35,23,71,021,45,16,70,197,43,1*79
$GBGSV,4,2,13,43,62,038,46,40,61,326,40,07,61,305,39,39,60,185,38,1*7F
$GBGSV,4,3,13,28,53,218,45,10,51,287,32,25,39,114,38,37,27,320,38,1*75
$GBGSV,4,4,13,34,14,040,,1*42
$GBGSV,2,1,08,23,71,021,47,43,62,038,47,40,61,326,44,39,60,185,41,4*75
$GBGSV,2,2,08,28,53,218,44,25,39,114,32,37,27,320,41,34,14,040,26,4*73
$GNACCURACY,4.6*14
$PAIRSAT,1,29,2,0,201,3,0,200,4,0,221,5,0,200,6,0,200,7,0,201,8,0,221,9,0,200,10,0,200,11,0,200,12,0,200,16,0,1,20,0,200,21,0,201,22,0,200,23,0,200,24,0,200,25,0,200,26,0,220,27,0,221,28,0,200,29,0,200,30,0,200,31,0,200,32,0,200,194,0,21,195,0,621,196,0,600,199,0,621*64
$PAIRSAT,2,23,65,0,200,66,0,200,67,0,200,68,0,200,69,0,200,70,0,200,71,0,200,72,0,200,73,0,200,74,0,200,75,0,200,76,0,200,77,0,1,78,0,201,79,0,201,80,0,200,81,0,201,83,0,200,84,0,200,85,0,200,86,0,200,87,0,201,88,0,201*5B
$PAIRSAT,3,22,2,0,1200,3,0,1200,4,0,1200,5,0,200,7,0,1200,8,0,1200,9,0,1200,10,0,200,11,0,200,12,0,200,13,0,221,15,0,200,19,0,200,21,0,221,25,0,1000,26,0,1021,27,0,1021,30,0,1000,31,0,1000,33,0,1200,34,0,1000,36,0,1200*43
$PAIRSAT,4,43,1,0,200,2,0,200,3,0,400,6,0,1,7,0,1,9,0,201,10,0,201,11,0,200,12,0,200,13,0,200,14,0,200,16,0,201,19,0,600,20,0,600,21,0,600,22,0,600,23,0,621,24,0,600,25,0,621,26,0,600,27,0,400,28,0,421,29,0,400,30,0,400,32,0,400,33,0,400,34,0,421,35,0,400,36,0,400,37,0,421,38,0,400,39,0,421,40,0,421,41,0,400,42,0,400,43,0,421,44,0,400,45,0,400,46,0,400,59,0,400,60,0,400,61,0,400,62,0,400*5A
$PAIRDGP,7,2,7,8,16,21,26,27*56
$GNGGA,040101.200,2500.7873731,N,12132.4458528,E,4,50,0.54,16.766,M,15.25,M,1,3335*49
$GNRMC,040101.200,A,2500.7873731,N,12132.4458528,E,0.01,170.32,090324,,,R,V*1D
$GPHDT,318.773,T*3C
$GNACCURACY,4.6*14
$GNGGA,040101.300,2500.7873740,N,12132.4458490,E,4,50,0.54,16.765,M,15.25,M,1,3335*4F
$GNRMC,040101.300,A,2500.7873740,N,12132.4458490,E,0.01,170.32,090324,,,R,V*18
$GPHDT,,T*1B
$GNACCURACY,4.6*14
$GNGGA,040101.400,2500.7873718,N,12132.4458501,E,4,50,0.54,16.764,M,15.25,M,1,3335*4D
$GNRMC,040101.400,A,2500.7873718,N,12132.4458501,E,0.01,170.32,090324,,,R,V*1B
$GPHDT,319.883,T*3D
$GNACCURACY,4.6*14
$GNGGA,040101.500,2500.7873709,N,12132.4458459,E,4,49,0.56,16.761,M,15.25,M,0,3335*4E
$GNRMC,040101.500,A,2500.7873709,N,12132.4458459,E,0.02,170.32,090324,,,R,V*15
$GPHDT,,T*1B
$GNACCURACY,4.6*14
$GNGGA,040101.600,2500.7873714,N,12132.4458455,E,4,49,0.56,16.756,M,15.25,M,0,3335*49
$GNRMC,040101.600,A,2500.7873714,N,12132.4458455,E,0.01,170.32,090324,,,R,V*15
$GPHDT,320.042,T*32
$GNACCURACY,4.6*14
$GNGGA,040101.700,2500.7873713,N,12132.4458496,E,4,49,0.56,16.756,M,15.25,M,0,3335*40
$GNRMC,040101.700,A,2500.7873713,N,12132.4458496,E,0.01,170.32,090324,,,R,V*1C
$GPHDT,,T*1B
$GNACCURACY,4.6*14
$GNGGA,040101.800,2500.7873723,N,12132.4458485,E,4,49,0.56,16.761,M,15.25,M,0,3335*4A
$GNRMC,040101.800,A,2500.7873723,N,12132.4458485,E,0.05,170.32,090324,,,R,V*16
$GPHDT,319.969,T*38
$GNACCURACY,4.6*14
$GNGGA,040101.900,2500.7873722,N,12132.4458482,E,4,50,0.54,16.753,M,15.25,M,0,3335*46
$GNRMC,040101.900,A,2500.7873722,N,12132.4458482,E,0.06,170.32,090324,,,R,V*12
$GPHDT,,T*1B
$GNACCURACY,4.6*14
$GNGGA,040102.000,2500.7873723,N,12132.4458478,E,4,50,0.54,16.757,M,15.25,M,1,3335*4D
$GNRMC,040102.000,A,2500.7873723,N,12132.4458478,E,0.04,170.32,090324,,,R,V*1E
$GPHDT,320.164,T*37
$GNACCURACY,4.6*14
$GNGGA,040102.100,2500.7873718,N,12132.4458491,E,4,50,0.54,16.757,M,15.25,M,1,3335*43
$GNRMC,040102.100,A,2500.7873718,N,12132.4458491,E,0.03,170.32,090324,,,R,V*17
$GPHDT,,T*1B
$GNGSA,A,3,08,194,195,199,21,02,07,27,16,04,26,,0.83,0.54,0.63,1*32
$GNGSA,A,3,81,88,78,77,79,,,,,,,,0.83,0.54,0.63,2*05
$GNGSA,A,3,13,21,26,27,15,,,,,,,,0.83,0.54,0.63,3*08
$GNGSA,A,3,09,06,23,16,43,40,07,39,28,10,25,37,0.83,0.54,0.63,4*04
$GNGSA,A,3,34,,,,,,,,,,,,0.83,0.54,0.63,4*0C
$GPGSV,4,1,13,08,65,348,45,194,64,051,41,195,63,116,40,50,60,167,37,1*64
$GPGSV,4,2,13,199,60,167,34,21,56,159,42,02,44,178,40,07,38,318,43,1*52
$GPGSV,4,3,13,27,36,034,38,16,29,071,30,04,20,205,43,196,20,170,18,1*51
$GPGSV,4,4,13,26,10,096,16,1*5B
$GPGSV,2,1,08,08,65,348,45,194,64,051,37,195,63,116,46,199,60,167,45,8*57
$GPGSV,2,2,08,27,36,034,43,04,20,205,44,196,20,170,27,26,10,096,15,8*55
$GLGSV,2,1,06,81,60,197,40,88,59,035,42,78,55,030,46,77,25,106,17,1*7D
$GLGSV,2,2,06,79,23,331,36,87,06,026,,1*78
$GAGSV,2,1,07,13,54,086,32,21,54,007,37,26,40,172,37,27,30,076,21,7*7E
$GAGSV,2,2,07,15,16,040,24,04,12,302,15,33,01,199,,7*47
$GAGSV,2,1,05,13,54,086,34,21,54,007,42,26,40,172,37,27,30,076,27,1*78
$GAGSV,2,2,05,15,16,040,24,1*41
$GBGSV,4,1,13,09,74,272,38,06,73,215,35,23,71,021,46,16,70,197,43,1*7B
$GBGSV,4,2,13,43,62,038,46,40,61,326,40,07,61,305,39,39,60,185,37,1*70
$GBGSV,4,3,13,28,53,218,45,10,51,287,33,25,39,114,39,37,27,320,38,1*75
$GBGSV,4,4,13,34,14,040,,1*42
$GBGSV,2,1,08,23,71,021,47,43,62,038,47,40,61,326,44,39,60,185,42,4*76
$GBGSV,2,2,08,28,53,218,44,25,39,114,32,37,27,320,41,34,14,040,26,4*73
$GNACCURACY,4.6*14
$PAIRSAT,1,29,2,0,201,3,0,200,4,0,221,5,0,200,6,0,200,7,0,201,8,0,221,9,0,200,10,0,200,11,0,200,12,0,200,16,0,1,20,0,200,21,0,201,22,0,200,23,0,200,24,0,200,25,0,200,26,0,220,27,0,221,28,0,200,29,0,200,30,0,200,31,0,200,32,0,200,194,0,21,195,0,621,196,0,600,199,0,621*64
$PAIRSAT,2,23,65,0,200,66,0,200,67,0,200,68,0,200,69,0,200,70,0,200,71,0,200,72,0,200,73,0,200,74,0,200,75,0,200,76,0,200,77,0,1,78,0,201,79,0,201,80,0,200,81,0,201,83,0,200,84,0,200,85,0,200,86,0,200,87,0,201,88,0,201*5B
$PAIRSAT,3,22,2,0,1200,3,0,1200,4,0,1200,5,0,200,7,0,1200,8,0,1200,9,0,1200,10,0,200,11,0,200,12,0,200,13,0,221,15,0,220,19,0,200,21,0,221,25,0,1000,26,0,1021,27,0,1021,30,0,1000,31,0,1000,33,0,1200,34,0,1000,36,0,1200*41
$PAIRSAT,4,43,1,0,200,2,0,200,3,0,400,6,0,1,7,0,1,9,0,201,10,0,201,11,0,200,12,0,200,13,0,200,14,0,200,16,0,201,19,0,600,20,0,600,21,0,600,22,0,600,23,0,621,24,0,600,25,0,621,26,0,600,27,0,400,28,0,421,29,0,400,30,0,400,32,0,400,33,0,400,34,0,421,35,0,400,36,0,400,37,0,421,38,0,400,39,0,421,40,0,421,41,0,400,42,0,400,43,0,421,44,0,400,45,0,400,46,0,400,59,0,400,60,0,400,61,0,400,62,0,400*5A
$PAIRDGP,7,2,7,8,16,21,26,27*56
$GNGGA,040102.200,2500.7873702,N,12132.4458485,E,4,51,0.54,16.758,M,15.25,M,1,3335*40
$GNRMC,040102.200,A,2500.7873702,N,12132.4458485,E,0.02,170.32,090324,,,R,V*1B
$GPHDT,320.456,T*33
$GNACCURACY,4.6*14
$GNGGA,040102.300,2500.7873717,N,12132.4458507,E,4,52,0.54,16.754,M,15.25,M,1,3335*41
$GNRMC,040102.300,A,2500.7873717,N,12132.4458507,E,0.01,170.32,090324,,,R,V*16
$GPHDT,,T*1B
$GNACCURACY,4.6*14
$GNGGA,040102.400,2500.7873706,N,12132.4458470,E,4,52,0.54,16.766,M,15.25,M,1,3335*46
$GNRMC,040102.400,A,2500.7873706,N,12132.4458470,E,0.00,170.32,090324,,,R,V*11
$GPHDT,320.876,T*3D
$GNACCURACY,4.6*14
$GNGGA,040102.500,2500.7873725,N,12132.4458495,E,4,52,0.54,16.755,M,15.25,M,1,3335*4D
$GNRMC,040102.500,A,2500.7873725,N,12132.4458495,E,0.01,170.32,090324,,,R,V*1B
$GPHDT,,T*1B
$GNACCURACY,4.6*14
$GNGGA,040102.600,2500.7873715,N,12132.4458510,E,4,52,0.54,16.771,M,15.25,M,